     2.11           OBSERVATION DATA    M                   RINEX VERSION / TYPE
LEICA GEO OFFICE 8.4                    27-9-20 23:27       PGM / RUN BY / DATE
                                                            OBSERVER / AGENCY
BAYN                                                        MARKER NAME
BAYN                                                        MARKER NUMBER
468588              LEICA GX1220GG      5.60                REC # / TYPE / VERS
                    LEIAX1202GG                             ANT # / TYPE
 -1128237.2622  3851487.7577  4941231.0178                  APPROX POSITION XYZ
        1.3130        0.0000        0.0000                  ANTENNA: DELTA H/E/N
L1PhaOff:   0.0644  L2PhaOff:   0.0640                      COMMENT
     1     1                                                WAVELENGTH FACT L1/2
     6    C1    L1    D1    P2    L2    D2                  # / TYPES OF OBSERV
  2020     9    27     7    34   35.0000000     GPS         TIME OF FIRST OBS
  2020     9    27     9    19    0.0000000     GPS         TIME OF LAST OBS
    18                                                      LEAP SECONDS
    23                                                      # OF SATELLITES
          C1    L1    D1    P2    L2    D2                  COMMENT
   G 1     0     0     0     0     0     0                  PRN / # OF OBS
   G 2     0     0     0     0     0     0                  PRN / # OF OBS
   G 3     0     0     0     0     0     0                  PRN / # OF OBS
   G 4     0     0     0     0     0     0                  PRN / # OF OBS
   G 5     0     0     0     0     0     0                  PRN / # OF OBS
   G 6     0     0     0     0     0     0                  PRN / # OF OBS
   G 7     0     0     0     0     0     0                  PRN / # OF OBS
   G 8   551   551   551   549   549   549                  PRN / # OF OBS
   G 9     0     0     0     0     0     0                  PRN / # OF OBS
   G10  1254  1254  1254  1254  1254  1254                  PRN / # OF OBS
   G11   447   447   447   446   446   446                  PRN / # OF OBS
   G12   296   296   296   294   294   294                  PRN / # OF OBS
   G13   316   316   316   316   316   316                  PRN / # OF OBS
   G14     0     0     0     0     0     0                  PRN / # OF OBS
   G15  1253  1253  1253  1252  1252  1252                  PRN / # OF OBS
   G16     0     0     0     0     0     0                  PRN / # OF OBS
   G17     0     0     0     0     0     0                  PRN / # OF OBS
   G18  1038  1038  1038  1038  1038  1038                  PRN / # OF OBS
   G19     0     0     0     0     0     0                  PRN / # OF OBS
   G20  1254  1254  1254  1254  1254  1254                  PRN / # OF OBS
   G21  1234  1234  1234  1232  1232  1232                  PRN / # OF OBS
   G22     0     0     0     0     0     0                  PRN / # OF OBS
   G23     0     0     0     0     0     0                  PRN / # OF OBS
   G24  1254  1254  1254  1254  1254  1254                  PRN / # OF OBS
   G25     0     0     0     0     0     0                  PRN / # OF OBS
   G26     0     0     0     0     0     0                  PRN / # OF OBS
   G27   482   482   482   481   481   481                  PRN / # OF OBS
   G28     0     0     0     0     0     0                  PRN / # OF OBS
   G29     0     0     0     0     0     0                  PRN / # OF OBS
   G30     0     0     0     0     0     0                  PRN / # OF OBS
   G31     0     0     0     0     0     0                  PRN / # OF OBS
   G32  1084  1084  1084  1084  1084  1084                  PRN / # OF OBS
   R 1  1163  1163  1163  1163  1163  1163                  PRN / # OF OBS
   R 2  1254  1254  1254  1254  1254  1254                  PRN / # OF OBS
   R 3  1101  1101  1101  1100  1100  1100                  PRN / # OF OBS
   R 4     0     0     0     0     0     0                  PRN / # OF OBS
   R 5     0     0     0     0     0     0                  PRN / # OF OBS
   R 6     0     0     0     0     0     0                  PRN / # OF OBS
   R 7     0     0     0     0     0     0                  PRN / # OF OBS
   R 8     0     0     0     0     0     0                  PRN / # OF OBS
   R 9     0     0     0     0     0     0                  PRN / # OF OBS
   R10   632   632   632     0     0     0                  PRN / # OF OBS
   R11  1254  1254  1254  1254  1254  1254                  PRN / # OF OBS
   R12  1173  1173  1173  1172  1172  1172                  PRN / # OF OBS
   R13   118   118   118   118   118   118                  PRN / # OF OBS
   R14     0     0     0     0     0     0                  PRN / # OF OBS
   R15     0     0     0     0     0     0                  PRN / # OF OBS
   R16     0     0     0     0     0     0                  PRN / # OF OBS
   R17  1044  1044  1044  1044  1044  1044                  PRN / # OF OBS
   R18  1244  1244  1244  1246  1246  1246                  PRN / # OF OBS
   R19   511   511   511   511   511   511                  PRN / # OF OBS
   R20     0     0     0     0     0     0                  PRN / # OF OBS
   R21     0     0     0     0     0     0                  PRN / # OF OBS
   R22     0     0     0     0     0     0                  PRN / # OF OBS
   R23     0     0     0     0     0     0                  PRN / # OF OBS
   R24   258   258   258   260   260   260                  PRN / # OF OBS
                                                            END OF HEADER
 20 09 27 07 34 35.0000000  0 16G 8G27G15G13G21G18G24G20G10R10R 2R17
                                R11R24R 1R18
  24626884.521   129415151.70048       545.421    24626886.874   100842984.56344
       425.004  
  24051093.252   126389346.91146     -1298.191    24051095.780    98485219.47346
     -1011.582  
  21094210.306   110850824.12048     -2369.660    21094210.384    86377266.47747
     -1846.491  
  23598068.379   124008687.94648     -3444.894    23598067.978    96630130.94843
     -2684.332  
  24850257.376   130588987.57047      2788.668    24850257.195   101757641.62544
      2172.991  
  21264617.059   111746330.52649     -2421.645    21264617.494    87075059.23247
     -1886.996  
  21159478.239   111193805.55048      1974.843    21159480.317    86644534.34847
      1538.840  
  20079720.273   105519676.51749       860.683    20079719.163    82223139.26948
       670.664  
  22225907.804   116797967.29948      2647.637    22225909.721    91011385.20747
      2063.089  
  22045726.803   117516146.59506     -1524.940           0.000           0.0000 
         0.000  
  20035855.593   106915185.13708      1863.668    20035860.837    83156306.72007
      1449.515  
  20342227.543   108855382.75109     -1442.085    20342231.368    84665326.15208
     -1121.625  
  21584151.731   115339159.04908      2651.688    21584156.664    89708259.11507
      2062.422  
  22501935.887   120327962.95707     -4346.999    22501940.871    93588435.31806
     -3380.999  
  20342380.684   108741683.10007     -2221.461    20342387.099    84576890.84906
     -1727.808  
  21826895.245   116513446.57206      2454.577    21826900.843    90621596.04706
      1909.116  
 20 09 27 07 34 40.0000000  0 16G 8G27G15G13G21G18G24G20G10R10R 2R17
                                R11R24R 1R18
  24626367.718   129412436.00948       541.960    24626369.907   100840868.45043
       422.309  
  24052330.643   126395849.35046     -1301.448    24052333.549    98490286.27346
     -1014.120  
  21096466.462   110862680.20948     -2372.016    21096466.508    86386504.99347
     -1848.323  
  23601346.782   124025916.07048     -3445.895    23601346.318    96643555.45344
     -2685.113  
  24847605.396   130575051.01047      2786.937    24847605.206   101746781.98344
      2171.644  
  21266922.932   111758447.87749     -2424.487    21266923.326    87084501.32247
     -1889.215  
  21157601.202   111183941.84148      1971.413    21157603.333    86636848.35247
      1536.168  
  20078902.983   105515381.66049       857.979    20078901.863    82219792.62448
       668.550  
  22223389.558   116784734.07548      2646.270    22223391.534    91001073.62147
      2062.027  
  22047159.302   117523782.80706     -1529.370           0.000           0.0000 
         0.000  
  20034110.761   106905874.41108      1861.395    20034116.015    83149065.06107
      1447.749  
  20343577.390   108862606.11809     -1446.742    20343581.221    84670944.30308
     -1125.246  
  21581672.664   115325911.85508      2647.870    21581677.620    89697955.75207
      2059.457  
  22506000.898   120349700.27508     -4347.874    22506005.899    93605342.07006
     -3381.688  
  20344459.882   108752797.35607     -2223.285    20344466.266    84585535.27206
     -1729.227  
  21824598.019   116501184.50906      2450.336    21824603.864    90612058.91006
      1905.820  
 20 09 27 07 34 45.0000000  0 16G 8G27G15G13G21G18G24G20G10R10R 2R17
                                R11R24R 1R18
  24625853.304   129409732.86748       539.409    24625855.241   100838762.07244
       420.313  
  24053570.249   126402363.33446     -1303.948    24053572.832    98495362.11746
     -1016.065  
  21098723.797   110874542.64348     -2373.242    21098723.861    86395748.44247
     -1849.284  
  23604625.198   124043144.51248     -3445.766    23604624.841    96656980.17844
     -2685.019  
  24844953.970   130561117.23547      2786.309    24844954.203   101735924.47844
      2171.145  
  21269230.678   111770575.13449     -2426.644    21269231.070    87093951.11747
     -1890.894  
  21155726.518   111174090.55848      1968.625    21155728.719    86629172.02647
      1533.987  
  20078087.440   105511095.91949       856.121    20078086.304    82216453.07648
       667.101  
  22220871.816   116771503.34748      2645.922    22220873.798    90990763.94447
      2061.754  
  22048595.263   117531437.19206     -1533.101           0.000           0.0000 
         0.000  
  20032367.177   106896570.49808      1860.113    20032372.460    83141828.66107
      1446.750  
  20344930.879   108869848.94109     -1450.608    20344934.717    84676577.61508
     -1128.253  
  21579196.187   115312678.40908      2645.190    21579201.160    89687663.06807
      2057.366  
  22510066.530   120371441.25407     -4348.590    22510071.564    93622251.72006
     -3382.242  
  20346539.999   108763916.93007     -2224.586    20346546.421    84594183.83506
     -1730.234  
  21822303.762   116488938.33006      2447.019    21822309.708    90602534.08906
      1903.234  
 20 09 27 07 34 50.0000000  0 16G 8G27G15G13G21G18G24G20G10R10R 2R17
                                R11R24R 1R18
  24625341.500   129407043.41448       535.852    24625343.564   100836666.40244
       417.542  
  24054812.181   126408889.98446     -1306.996    24054814.910    98500447.81545
     -1018.445  
  21100982.558   110886412.54448     -2375.093    21100982.621    86404997.71947
     -1850.722  
  23607903.944   124060374.43848     -3446.895    23607903.529    96670406.10744
     -2685.894  
  24842303.250   130547187.41747      2785.137    24842303.157   101725070.07544
      2170.234  
  21271540.511   111782713.35649     -2429.382    21271540.914    87103409.47847
     -1893.026  
  21153854.388   111164252.57748      1965.909    21153856.607    86621506.07247
      1531.878  
  20077273.838   105506820.41249       853.492    20077272.687    82213121.51548
       665.101  
  22218354.747   116758276.25048      2644.676    22218356.828    90980457.12147
      2060.784  
  22050034.851   117539110.75806     -1537.187           0.000           0.0000 
         0.000  
  20030624.973   106887273.85508      1857.956    20030630.275    83134597.94607
      1445.078  
  20346288.231   108877112.37509     -1455.215    20346292.063    84682226.95008
     -1131.836  
  21576722.522   115299459.82808      2641.667    21576727.472    89677381.96807
      2054.628  
  22514132.994   120393186.71307     -4349.640    22514138.082    93639164.85306
     -3383.059  
  20348621.326   108775042.84307     -2226.297    20348627.783    84602837.32206
     -1731.563  
  21820012.579   116476709.15306      2443.715    21820018.795    90593022.51406
      1900.668  
 20 09 27 07 34 55.0000000  0 16G 8G27G15G13G21G18G24G20G10R10R 2R17
                                R11R24R 1R18
  24624832.961   129404371.12048       533.145    24624834.828   100834584.09244
       415.433  
  24056057.277   126415432.81846     -1309.909    24056059.657    98505546.12546
     -1020.715  
  21103243.422   110898293.40548     -2376.922    21103243.475    86414255.53747
     -1852.148  
  23611183.614   124077609.28348     -3447.108    23611183.197    96683835.83044
     -2686.062  
  24839653.986   130533265.03747      2784.211    24839653.839   101714221.46543
      2169.511  
  21273853.095   111794866.06949     -2431.577    21273853.498    87112879.12447
     -1894.738  
  21151985.486   111154431.55148      1962.977    21151987.705    86613853.32447
      1529.594  
  20076462.840   105502558.61949       851.363    20076461.687    82209800.63648
       663.395  
  22215839.042   116745056.31648      2643.563    22215841.128    90970155.87647
      2059.918  
  22051478.725   117546807.26006     -1541.413           0.000           0.0000 
         0.000  
  20028885.007   106877988.94108      1856.198    20028890.294    83127376.35007
      1443.711  
  20347650.081   108884399.88009     -1459.469    20347653.921    84687895.00608
     -1135.145  
  21574252.318   115286259.74408      2638.550    21574257.296    89667115.24607
      2052.206  
  22518200.983   120414940.29807     -4351.023    22518206.160    93656084.28706
     -3384.137  
  20350704.555   108786178.77507     -2227.808    20350710.989    84611498.60206
     -1732.741  
  21817725.463   116464500.49706      2440.051    21817731.689    90583526.89906
      1897.816  
 20 09 27 07 35  0.0000000  0 16G 8G27G15G13G21G18G24G20G10R10R 2R17
                                R11R24R 1R18
  24624327.240   129401713.62948       530.081    24624329.188   100832513.32844
       413.050  
  24057304.969   126421989.42346     -1313.120    24057307.477    98510655.18046
     -1023.210  
  21105505.910   110910182.79448     -2379.063    21105505.912    86423519.99447
     -1853.820  
  23614463.774   124094846.63948     -3447.883    23614463.398    96697267.54644
     -2686.663  
  24837005.508   130519347.69046      2782.847    24837005.343   101703376.81744
      2168.499  
  21276167.974   111807030.84049     -2434.293    21276168.384    87122358.16447
     -1896.854  
  21150119.326   111144625.03548      1959.871    21150121.550    86606211.88747
      1527.171  
  20075653.991   105498308.15049       848.780    20075652.850    82206488.58448
       661.382  
  22213324.246   116731841.10148      2642.483    22213326.358    90959858.31147
      2059.077  
  22052926.473   117554524.07406     -1545.405           0.000           0.0000 
         0.000  
  20027146.616   106868712.42808      1854.305    20027151.889    83120161.29107
      1442.237  
  20349015.957   108891708.95709     -1464.055    20349019.805    84693579.84408
     -1138.715  
  21571785.131   115273075.72408      2635.051    21571790.088    89656861.01407
      2049.483  
  22522270.044   120436699.46107     -4352.500    22522275.289    93673008.06506
     -3385.281  
  20352789.198   108797322.32407     -2229.452    20352795.628    84620165.80806
     -1734.042  
  21815441.592   116452309.97406      2435.602    21815447.987    90574045.38606
      1894.354  
 20 09 27 07 35  5.0000000  0 16G 8G27G15G13G21G18G24G20G10R10R 2R17
                                R11R24R 1R18
  24623824.260   129399070.63748       527.003    24623826.380   100830453.88444
       410.656  
  24058555.238   126428559.59746     -1315.601    24058557.648    98515774.79545
     -1025.145  
  21107769.979   110922080.52748     -2380.398    21107769.967    86432790.95447
     -1854.859  
  23617744.359   124112086.32348     -3447.972    23617743.983    96710701.05744
     -2686.734  
  24834357.988   130505435.25346      2781.750    24834357.875   101692535.94445
      2167.593  
  21278485.129   111819207.54048     -2436.914    21278485.530    87131846.52247
     -1898.894  
  21148255.909   111134832.89948      1956.770    21148258.153    86598581.65047
      1524.750  
  20074847.282   105494068.86649       846.496    20074846.152    82203185.25848
       659.605  
  22210810.320   116718630.48748      2641.379    22210812.480    90949564.33847
      2058.218  
  22054377.952   117562261.14605     -1549.968           0.000           0.0000 
         0.000  
  20025409.831   106859444.63908      1852.398    20025415.112    83112953.02107
      1440.753  
  20350385.839   108899039.53509     -1468.308    20350389.715    84699281.41108
     -1142.020  
  21569320.887   115259907.60908      2631.831    21569325.876    89646619.14307
      2046.976  
  22526340.193   120458464.06206     -4353.492    22526345.425    93689936.06004
     -3386.059  
  20354875.178   108808473.20707     -2230.577    20354881.660    84628838.71206
     -1734.898  
  21813161.128   116440137.42306      2432.522    21813167.656    90564577.84006
      1891.957  
 20 09 27 07 35 10.0000000  0 16G 8G27G15G13G21G18G24G20G10R10R 2R17
                                R11R24R 1R18
  24623324.202   129396442.94448       523.867    24623326.329   100828406.32144
       408.202  
  24059808.263   126435144.22446     -1318.151    24059810.419    98520905.65245
     -1027.140  
  21110035.790   110933987.47748     -2382.277    21110035.778    86442069.10447
     -1856.319  
  23621025.561   124129329.22248     -3449.026    23621025.149    96724137.10244
     -2687.555  
  24831711.607   130491528.58347      2780.862    24831711.373   101681699.55244
      2166.902  
  21280804.680   111831396.92349     -2439.285    21280805.106    87141344.70447
     -1900.746  
  21146395.429   111125056.13748      1953.680    21146397.657    86590963.38947
      1522.343  
  20074042.843   105489841.57749       844.176    20074041.731    82199891.25948
       657.797  
  22208297.409   116705425.29848      2640.440    22208299.547    90939274.58147
      2057.488  
  22055833.308   117570019.11006     -1553.804           0.000           0.0000 
         0.000  
  20023674.781   106850186.17608      1850.612    20023680.087    83105751.99307
      1439.367  
  20351759.873   108906392.42309     -1472.976    20351763.797    84705000.34308
     -1145.647  
  21566859.784   115246756.25608      2628.315    21566864.765    89636390.31407
      2044.245  
  22530411.532   120480235.12306     -4354.921    22530416.735    93706869.12504
     -3387.163  
  20356962.709   108819632.28907     -2232.644    20356969.215    84637518.00806
     -1736.499  
  21810884.455   116427983.76206      2428.940    21810890.912    90555124.99406
      1889.175  
 20 09 27 07 35 15.0000000  0 13G15G13G18G24G20G10R10R 2R17R11R24R 1
                                R18
  21112303.582   110945904.77248     -2383.862    21112303.573    86451355.31247
     -1857.554  
  23624307.593   124146576.41348     -3449.367    23624307.201    96737576.46344
     -2687.820  
  21283126.882   111843600.18049     -2441.305    21283127.312    87150853.74947
     -1902.319  
  21144538.070   111115295.77448      1951.109    21144540.349    86583357.92847
      1520.347  
  20073240.910   105485627.42049       842.188    20073239.811    82196607.49948
       656.245  
  22205785.794   116692226.79648      2639.805    22205787.971    90928990.03547
      2056.988  
  22057292.835   117577799.14606     -1557.445           0.000           0.0000 
         0.000  
  20021941.682   106840938.21508      1849.082    20021947.044    83098559.12707
      1438.171  
  20353138.345   108913768.81208     -1476.878    20353142.249    84710737.52207
     -1148.687  
  21564401.989   115233622.82508      2625.604    21564407.027    89626175.44106
      2042.137  
  22534484.213   120502013.54907     -4355.878    22534489.401    93723807.89206
     -3387.905  
  20359051.997   108830800.85307     -2234.073    20359058.531    84646204.66106
     -1737.617  
  21808611.510   116415850.47105      2424.973    21808617.971    90545687.97205
      1886.082  
 20 09 27 07 35 20.0000000  0 13G27G15G13G18G24G20G10R10R 2R17R11R24
                                R 1
  24062323.572   126448363.04857     -1325.179    24062325.095    98531197.26754
     -1032.613  
  21114573.727   110957834.46548     -2387.059    21114573.715    86460651.19747
     -1860.046  
  23627590.831   124163829.85548     -3451.414    23627590.384    96751020.67344
     -2689.422  
  21285452.088   111855819.28349     -2445.421    21285452.522    87160375.12547
     -1905.523  
  21142684.206   111105553.78048      1946.585    21142686.503    86575766.77047
      1516.819  
  20072441.883   105481428.50648       838.229    20072440.791    82193335.64447
       653.167  
  22203275.834   116679036.64946      2636.882    22203278.012    90918712.14045
      2054.733  
  22058756.899   117585603.46204     -1563.137           0.000           0.0000 
         0.000  
  20020210.926   106831702.69307      1846.104    20020216.378    83091376.06305
      1435.875  
  20354521.571   108921170.70308     -1483.004    20354525.480    84716494.56307
     -1153.448  
  21561948.030   115220509.32908      2620.683    21561953.013    89615976.04707
      2038.304  
  22538558.627   120523801.52307     -4358.382    22538563.874    93740754.11207
     -3389.855  
  20361143.395   108841980.73207     -2237.316    20361149.963    84654900.10706
     -1740.140  
 20 09 27 07 35 25.0000000  0 14G27G15G13G18G24G20G10R10R 2R17R11R24
                                R 1R18
  24063585.309   126454993.48947     -1327.133    24063587.119    98536363.79645
     -1034.137  
  21116845.265   110969771.47948     -2387.848    21116845.229    86469952.76147
     -1860.659  
  23630874.312   124181084.63448     -3450.813    23630873.835    96764465.97944
     -2688.949  
  21287779.397   111868049.37449     -2446.913    21287779.836    87169905.05746
     -1906.688  
  21140832.908   111095825.26848      1944.625    21140835.198    86568186.10847
      1515.292  
  20071644.809   105477239.91548       837.152    20071643.718    82190071.79647
       652.323  
  22200766.595   116665850.35746      2637.155    22200768.821    90908437.14145
      2054.929  
  22060224.569   117593427.00205     -1566.352           0.000           0.0000 
         0.000  
  20018481.692   106822475.42206      1844.895    20018487.176    83084199.26506
      1434.913  
  20355908.619   108928593.17208     -1486.296    20355912.574    84722267.61807
     -1156.007  
  21559496.853   115207411.01608      2618.621    21559501.836    89605788.47507
      2036.703  
  22542633.892   120545593.88907     -4358.722    22542639.131    93757703.68607
     -3390.124  
  20363236.042   108853167.09907     -2237.979    20363242.606    84663600.65505
     -1740.651  
  21804078.782   116391665.46415      2417.523    21804084.327    90526863.08215
      1880.297  
 20 09 27 07 35 30.0000000  0 14G27G15G13G18G24G20G10R10R 2R17R11R24
                                R 1R18
  24064849.270   126461635.80447     -1330.167    24064851.113    98541539.66946
     -1036.499  
  21119118.054   110981715.03148     -2389.781    21119118.015    86479259.40647
     -1862.171  
  23634157.886   124198339.93248     -3451.793    23634157.426    96777911.64344
     -2689.710  
  21290108.630   111880289.54149     -2449.543    21290109.082    87179442.86647
     -1908.733  
  21138983.985   111086109.45548      1941.370    21138986.320    86560615.35547
      1512.757  
  20070849.530   105473060.66449       834.301    20070848.440    82186815.23248
       650.104  
  22198257.867   116652667.02348      2635.952    22198260.105    90898164.21247
      2053.969  
  22061695.750   117601268.97306     -1571.206           0.000           0.0000 
         0.000  
  20016753.725   106813254.69008      1843.000    20016759.176    83077027.48607
      1433.430  
  20357299.348   108936035.21209     -1490.823    20357303.286    84728055.82408
     -1159.538  
  21557048.310   115194326.77707      2615.102    21557053.298    89595611.87107
      2033.968  
  22546709.880   120567389.83907     -4360.145    22546715.069    93774656.09706
     -3391.227  
  20365329.791   108864358.98207     -2239.309    20365336.285    84672305.41606
     -1741.688  
  21801813.214   116379586.80104      2414.301    21801820.468    90517468.61005
      1877.800  
 20 09 27 07 35 35.0000000  0 15G 8G27G15G13G21G18G24G20G10R10R 2R17
                                R11R24R 1
  24620869.252   129383541.27816       509.257           0.000           0.0000 
         0.000  
  24066115.694   126468290.71746     -1331.777    24066117.555    98546725.31846
     -1037.750  
  21121392.292   110993666.07948     -2390.840    21121392.214    86488571.90447
     -1862.996  
  23637441.749   124215596.71748     -3451.414    23637441.166    96791358.51245
     -2689.417  
  24818497.015   130422084.77956      2776.901    24818491.566   101627561.77651
      2163.819  
  21292439.943   111892540.73848     -2451.276    21292440.406    87188989.24847
     -1910.085  
  21137137.656   111076407.27548      1939.167    21137140.041    86553055.21747
      1511.035  
  20070056.260   105468891.87649       832.809    20070055.150    82183566.81248
       648.938  
  22195749.844   116639487.40148      2635.714    22195752.061    90887894.40847
      2053.800  
  22063170.552   117609130.12205     -1573.800           0.000           0.0000 
         0.000  
  20015027.195   106804041.68908      1841.977    20015032.680    83069861.82407
      1432.641  
  20358693.935   108943497.83508     -1494.457    20358697.860    84733860.10808
     -1162.355  
  21554602.628   115181257.79307      2612.206    21554607.579    89585447.11206
      2031.711  
  22550786.653   120589190.30107     -4360.319    22550791.889    93791611.98206
     -3391.367  
  20367424.635   108875557.40507     -2240.249    20367431.203    84681015.29205
     -1742.425  
 20 09 27 07 35 40.0000000  0 13G27G15G13G18G24G20G10R 2R17R11R24R 1
                                R18
  24067385.412   126474962.94545     -1336.293    24067387.452    98551924.52144
     -1041.253  
  21123668.821   111005629.22348     -2394.016    21123668.733    86497893.86747
     -1865.465  
  23640726.767   124232859.50947     -3453.769    23640726.123    96804809.98443
     -2691.253  
  21294774.232   111904807.48048     -2455.128    21294774.687    87198547.74047
     -1913.089  
  21135294.827   111066723.32748      1934.796    21135297.254    86545509.31047
      1507.632  
  20069265.804   105464738.03448       829.030    20069264.712    82180330.07048
       645.999  
  22193243.422   116626316.28548      2633.238    22193245.717    90877631.19247
      2051.871  
  20013303.042   106794841.21408      1838.573    20013308.520    83062705.92207
      1430.003  
  20360093.233   108950985.69908     -1500.472    20360097.160    84739683.99307
     -1167.039  
  21552160.645   115168208.69908      2607.535    21552165.600    89575297.79607
      2028.077  
  22554865.075   120610999.95807     -4363.230    22554870.408    93808575.06306
     -3393.625  
  20369521.624   108886766.94607     -2243.129    20369528.195    84689733.82805
     -1744.659  
         0.000           0.0000          0.000    21797306.802    90498723.13416
      1870.559  
 20 09 27 07 35 45.0000000  0 15G 8G27G15G13G21G18G24G20G10R 2R17R11
                                R24R 1R18
  24619908.148   129378486.42556       502.383    24619908.770   100814423.23751
       391.469  
  24068658.117   126481650.77245     -1338.394    24068659.949    98557135.87444
     -1042.895  
  21125947.298   111017602.67348     -2395.183    21125947.195    86507223.81947
     -1866.378  
  23644012.588   124250126.64647     -3453.616    23644011.989    96818264.90343
     -2691.133  
  24813219.236   130394351.76715      2772.238           0.000           0.0000 
         0.000  
  21297111.169   111917088.13548     -2457.039    21297111.589    87208117.08847
     -1914.578  
  21133455.141   111057055.87248      1932.266    21133457.596    86537976.21847
      1505.655  
  20068477.886   105460597.43348       827.227    20068476.774    82177103.62747
       644.589  
  22190738.285   116613151.79148      2632.655    22190740.569    90867373.15546
      2051.422  
  20011580.847   106785651.31708      1837.211    20011586.315    83055558.22207
      1428.940  
  20361496.926   108958497.08008     -1504.152    20361500.825    84745526.17507
     -1169.898  
  21549722.004   115155177.65208      2604.737    21549727.008    89565162.53207
      2025.901  
  22558945.010   120632817.01707     -4363.808    22558950.363    93825543.89806
     -3394.074  
  20371620.422   108897985.91307     -2244.218    20371626.939    84698459.67905
     -1745.508  
  21795048.942   116343455.84216      2402.227    21795054.744    90489375.06506
      1868.394  
 20 09 27 07 35 50.0000000  0 15G 8G27G15G13G21G18G24G20G10R 2R17R11
                                R24R 1R18
  24619431.634   129375983.73246       498.852    24619430.459   100812473.01041
       388.715  
  24069933.346   126488351.98945     -1341.422    24069935.129    98562357.55445
     -1045.272  
  21128227.356   111029584.36148     -2397.426    21128227.267    86516560.20747
     -1868.125  
  23647298.860   124267395.96547     -3453.883    23647298.177    96831721.47943
     -2691.343  
  24810582.347   130380492.97945      2771.245    24810583.893   101595195.95953
      2159.413  
  21299450.335   111929380.53648     -2459.781    21299450.777    87217695.57947
     -1916.714  
  21131618.237   111047402.97048      1928.652    21131620.696    86530454.48247
      1502.847  
  20067692.067   105456468.02048       824.551    20067690.981    82173885.90448
       642.507  
  22188234.056   116599991.88548      2631.530    22188236.309    90857118.69347
      2050.543  
  20009860.274   106776470.00808      1835.445    20009865.736    83048417.21407
      1427.570  
  20362904.571   108966029.73508     -1508.851    20362908.490    84751384.90907
     -1173.550  
  21547286.380   115142162.57708      2601.258    21547291.412    89555039.71907
      2023.198  
  22563025.852   120654639.35907     -4365.199    22563031.311    93842516.80006
     -3395.164  
  20373720.516   108909212.15207     -2245.965    20373727.032    84707191.19805
     -1746.866  
  21792800.485   116331454.99206      2398.293    21792806.596    90480041.07106
      1865.340  
 20 09 27 07 35 55.0000000  0 15G 8G27G15G13G21G18G24G20G10R 2R17R11
                                R24R 1R18
  24618958.565   129373498.11346       495.897    24618958.128   100810536.11042
       386.401  
  24071211.579   126495069.21245     -1345.265    24071213.217    98567591.79644
     -1048.253  
  21130509.432   111041576.78348     -2399.305    21130509.332    86525904.94447
     -1869.593  
  23650586.022   124284670.02447     -3455.140    23650585.288    96845181.80444
     -2692.320  
  24807946.217   130366641.64745      2769.645    24807946.233   101584402.74543
      2158.199  
  21301792.235   111941687.20648     -2462.566    21301792.651    87227285.19047
     -1918.886  
  21129784.521   111037766.88448      1925.694    21129787.018    86522945.84847
      1500.542  
  20066908.863   105452352.28848       821.875    20066907.791    82170678.84148
       640.422  
  22185731.141   116586839.10748      2630.047    22185733.456    90846869.77147
      2049.383  
  20008141.743   106767299.65908      1832.996    20008147.209    83041284.72107
      1425.663  
  20364316.696   108973586.33008     -1513.772    20364320.635    84757262.26007
     -1177.383  
  21544854.286   115129166.14008      2597.484    21544859.280    89544931.39607
      2020.266  
  22567108.164   120676469.41407     -4366.772    22567113.679    93859495.69906
     -3396.386  
  20375822.438   108920448.16107     -2248.234    20375828.961    84715930.32005
     -1748.727  
  21790556.157   116319474.80006      2393.859    21790562.311    90470723.15006
      1861.891  
 20 09 27 07 36  0.0000000  0 16G 8G27G15G13G21G18G24G20G10R10R 2R17
                                R11R24R 1R18
  24618488.083   129371023.46545       494.546    24618490.275   100808607.92343
       385.370  
  24072491.733   126501796.34545     -1345.511    24072493.337    98572833.58045
     -1048.472  
  21132792.412   111053573.89648     -2399.488    21132792.281    86535253.33348
     -1869.734  
  23653872.910   124301942.73648     -3454.144    23653872.155    96858641.07044
     -2691.543  
  24805310.614   130352791.80344      2770.148    24805312.729   101573610.67443
      2158.566  
  21304135.672   111954002.11548     -2463.527    21304136.096    87236881.20647
     -1919.636  
  21127952.878   111028141.72348      1924.285    21127955.408    86515445.70947
      1499.437  
  20066127.128   105448244.21449       821.144    20066126.061    82167477.72748
       639.848  
  22183228.417   116573687.35748      2630.491    22183230.759    90836621.67747
      2049.737  
  22070606.514   117648748.51716     -1594.917           0.000           0.0000 
         0.000  
  20006424.155   106758134.27808      1832.930    20006429.616    83034156.10107
      1425.612  
  20365732.136   108981160.57309     -1516.305    20365736.065    84763153.31508
     -1179.352  
  21542424.455   115116182.11008      2595.995    21542429.496    89534832.73807
      2019.112  
  22571190.719   120698301.10707     -4366.233    22571196.280    93876475.88306
     -3395.969  
  20377925.150   108931687.98607     -2247.977    20377931.593    84724672.42806
     -1748.421  
  21788313.734   116307508.94204      2392.211    21788320.597    90461416.37006
      1860.605  
 20 09 27 07 36  5.0000000  0 16G 8G27G15G13G21G18G24G20G10R10R 2R17
                                R11R24R 1R18
  24618021.060   129368567.36846       488.628    24618024.698   100806694.02845
       380.746  
  24073775.170   126508540.78646     -1351.195    24073776.861    98578088.99045
     -1052.882  
  21135077.672   111065583.04948     -2403.598    21135077.540    86544611.11948
     -1872.934  
  23657160.955   124319221.46548     -3456.784    23657160.147    96872105.00444
     -2693.605  
  24802676.640   130338950.64544      2767.222    24802677.762   101562825.30144
      2156.270  
  21306482.063   111966332.57748     -2468.156    21306482.519    87246489.35447
     -1923.241  
  21126124.711   111018534.79448      1918.729    21126127.287    86507959.79747
      1495.113  
  20065348.246   105444151.19249       816.559    20065347.177    82164288.35748
       636.276  
  22180727.308   116560544.12648      2627.167    22180729.658    90826380.21047
      2047.144  
  22072105.820   117656738.84506     -1601.023           0.000           0.0000 
         0.000  
  20004708.914   106748981.42508      1828.883    20004714.383    83027037.21507
      1422.461  
  20367152.278   108988760.04209     -1522.991    20367156.214    84769064.00808
     -1184.554  
  21539998.386   115103218.08608      2590.358    21540003.465    89524749.61707
      2014.722  
  22575275.018   120720141.81407     -4369.684    22575280.599    93893463.08606
     -3398.648  
  20380029.878   108942938.90007     -2251.827    20380036.308    84733423.13406
     -1751.425  
  21786075.881   116295565.31905      2386.094    21786083.135    90452126.87206
      1855.847  
 20 09 27 07 36 10.0000000  0 16G 8G27G15G13G21G18G24G20G10R10R 2R17
                                R11R24R 1R18
  24617557.414   129366130.70545       485.684    24617561.099   100804795.38643
       378.457  
  24075062.073   126515303.57245     -1353.285    24075063.874    98583358.71845
     -1054.507  
  21137365.439   111077605.31348     -2405.195    21137365.301    86553979.11647
     -1874.183  
  23660450.336   124336507.24948     -3457.449    23660449.644    96885574.44444
     -2694.120  
  24800044.901   130325119.45044      2766.351    24800045.738   101552047.60243
      2155.328  
  21308831.616   111978679.68448     -2470.496    21308832.096    87256110.47847
     -1925.066  
  21124300.235   111008947.29648      1916.214    21124302.875    86500489.01247
      1493.152  
  20064572.449   105440074.28949       814.315    20064571.378    82161111.55748
       634.526  
  22178228.023   116547410.45348      2626.301    22178230.380    90816146.17947
      2046.469  
  22073609.722   117664754.18006     -1604.969           0.000           0.0000 
         0.000  
  20002996.191   106739842.07308      1827.094    20003001.649    83019928.82907
      1421.073  
  20368577.346   108996385.83409     -1527.292    20368581.268    84774995.18108
     -1187.898  
  21537576.263   115090275.15408      2587.063    21537581.363    89514682.88507
      2012.159  
  22579361.156   120741992.69907     -4370.823    22579366.815    93910458.20806
     -3399.535  
  20382136.886   108954202.12907     -2253.460    20382143.360    84742183.43106
     -1752.690  
  21783843.209   116283644.72505      2382.766    21783849.917    90442855.30406
      1853.258  
 20 09 27 07 36 15.0000000  0 13G27G15G13G18G24G20G10R10R 2R17R11R24
                                R 1
  24076352.129   126522082.89046     -1357.538    24076354.030    98588641.28746
     -1057.827  
  21139655.346   111089638.88748     -2407.988    21139655.237    86563355.92847
     -1876.354  
  23663740.748   124353798.35448     -3458.729    23663739.953    96899048.02244
     -2695.113  
  21311184.012   111991041.64348     -2474.136    21311184.498    87265743.17147
     -1927.902  
  21122479.111   110999377.44348      1911.906    21122481.812    86493031.99947
      1489.796  
  20063799.365   105436011.70349       810.761    20063798.310    82157945.91248
       631.762  
  22175730.236   116534284.58648      2623.855    22175732.610    90805918.20047
      2044.559  
  22075118.090   117672792.63006     -1610.277           0.000           0.0000 
         0.000  
  20001285.704   106730714.52108      1823.875    20001291.169    83012829.64007
      1418.570  
  20370006.982   109004036.13809     -1532.613    20370010.905    84780945.42608
     -1192.031  
  21535157.749   115077351.56808      2582.352    21535162.866    89504631.20207
      2008.491  
  22583448.885   120763851.87207     -4372.734    22583454.605    93927459.78406
     -3401.019  
  20384245.898   108965475.69307     -2256.059    20384252.310    84750951.74706
     -1754.714  
 20 09 27 07 36 20.0000000  0 15G27G15G13G21G18G24G20G10R10R 2R17R11
                                R24R 1R18
  24077644.562   126528874.51644     -1359.296    24077646.737    98593933.45341
     -1059.187  
  21141946.583   111101679.35448     -2408.058    21141946.460    86572738.10447
     -1876.410  
  23667031.282   124371090.26148     -3457.824    23667030.575    96912522.22544
     -2694.413  
  24794785.387   130297474.20815      2764.757           0.000           0.0000 
         0.000  
  21313538.379   112003413.98848     -2474.977    21313538.880    87275383.97347
     -1928.554  
  21120660.526   110989820.81148      1910.870    21120663.263    86485585.25148
      1488.988  
  20063028.165   105431959.08548       810.159    20063027.132    82154788.03748
       631.293  
  22173233.092   116521162.13546      2624.284    22173235.487    90795692.95946
      2044.897  
  22076629.449   117680849.86804     -1612.520           0.000           0.0000 
         0.000  
  19999576.541   106721594.31807      1823.913    19999582.047    83005736.14906
      1418.601  
  20371440.340   109011706.35908     -1535.508    20371444.257    84786911.13507
     -1194.289  
  21532742.028   115064442.71808      2580.882    21532747.130    89494590.99107
      2007.348  
  22587537.437   120785714.97907     -4372.312    22587543.111    93944464.40306
     -3400.691  
  20386355.993   108976755.23608     -2256.008    20386362.379    84759724.71306
     -1754.676  
  21779388.011   116259869.13616      2375.504    21779394.831    90424357.51015
      1847.613  
 20 09 27 07 36 25.0000000  0 14G 8G27G15G13G18G24G20G10R10R 2R17R11
                                R24R 1
  24616183.541   129358913.60757       477.226    24616185.557   100799163.83353
       371.863  
  24078939.216   126535677.43646     -1362.066    24078941.326    98599234.48546
     -1061.367  
  21144239.011   111113726.14548     -2410.227    21144238.898    86582125.22348
     -1878.101  
  23670321.891   124388382.46548     -3458.801    23670321.162    96925996.69045
     -2695.168  
  21315894.625   112015796.20348     -2477.605    21315895.117    87285032.43247
     -1930.604  
  21118844.319   110980276.82748      1907.156    21118847.123    86478148.40047
      1486.098  
  20062258.746   105427915.75849       807.449    20062257.718    82151637.38348
       629.176  
  22170736.424   116508042.27348      2623.315    22170738.835    90785469.65147
      2044.140  
  22078144.614   117688925.36006     -1617.055           0.000           0.0000 
         0.000  
  19997868.629   106712480.57308      1821.808    19997874.126    82998647.67607
      1416.961  
  20372877.328   109019396.00109     -1540.121    20372881.246    84792891.98108
     -1197.875  
  21530328.926   115051548.04807      2577.190    21530334.046    89484561.80407
      2004.480  
  22591626.487   120807581.34007     -4373.863    22591632.249    93961471.55306
     -3401.902  
  20388467.071   108988040.15807     -2257.886    20388473.444    84768501.88306
     -1756.133  
 20 09 27 07 36 30.0000000  0 14G 8G27G15G13G18G24G20G10R10R 2R17R11
                                R24R 1
  24615731.698   129356536.62644       473.980    24615732.840   100797311.81544
       369.324  
  24080236.596   126542495.30746     -1365.022    24080238.769    98604547.07846
     -1063.660  
  21146533.279   111125782.57448     -2412.270    21146533.136    86591519.84048
     -1879.690  
  23673613.175   124405678.37148     -3459.629    23673612.460    96939474.00745
     -2695.820  
  21318253.369   112028191.58448     -2480.472    21318253.896    87294691.17447
     -1932.839  
  21117031.175   110970748.87848      1904.163    21117033.993    86470724.03147
      1483.765  
  20061491.759   105423885.21649       804.887    20061490.732    82148496.70548
       627.184  
  22168240.966   116494928.74248      2622.203    22168243.409    90775251.29848
      2043.269  
  22079663.505   117697022.09106     -1621.386           0.000           0.0000 
         0.000  
  19996162.668   106703377.21008      1819.605    19996168.148    82991567.29607
      1415.249  
  20374318.580   109027108.40109     -1544.694    20374322.484    84798890.50808
     -1201.434  
  21527919.139   115038671.09507      2573.690    21527924.286    89474546.40207
      2001.762  
  22595716.825   120829454.28107     -4375.320    22595722.614    93978483.84206
     -3403.031  
  20390579.791   108999333.76507     -2259.563    20390586.119    84777285.80806
     -1757.265  
 20 09 27 07 36 35.0000000  0 14G 8G27G15G13G18G24G20G10R10R 2R17R11
                                R24R 1
  24615282.462   129354176.12444       470.737    24615288.601   100795472.48044
       366.797  
  24081536.980   126549328.53146     -1367.629    24081538.931    98609871.68246
     -1065.684  
  21148829.446   111137849.10848     -2414.015    21148829.345    86600922.33648
     -1881.051  
  23676905.258   124422978.32348     -3459.988    23676904.590    96952954.47944
     -2696.098  
  21320614.728   112040600.60648     -2483.073    21320615.238    87304360.54047
     -1934.867  
  21115221.189   110961237.33648      1900.866    21115223.972    86463312.45247
      1481.194  
  20060727.288   105419867.83149       802.473    20060726.259    82145366.28048
       625.305  
  22165746.773   116481821.76148      2620.969    22165749.211    90765038.06748
      2042.312  
  22081186.459   117705140.82706     -1625.831           0.000           0.0000 
         0.000  
  19994458.617   106694284.22308      1817.906    19994464.117    82984494.96407
      1413.921  
  20375764.168   109034844.03709     -1549.214    20375768.063    84804907.10508
     -1204.949  
  21525512.730   115025812.29207      2570.086    21525517.921    89464545.11007
      1998.956  
  22599808.536   120851334.27607     -4376.593    22599814.288    93995501.60006
     -3404.019  
  20392694.215   109010636.66407     -2261.163    20392700.565    84786076.94306
     -1758.687  
 20 09 27 07 36 40.0000000  0 14G27G15G13G18G24G20G10R10R 2R17R11R24
                                R 1R18
  24082840.169   126556176.58545     -1370.949    24082842.129    98615207.77844
     -1068.288  
  21151127.466   111149925.19148     -2416.336    21151127.354    86610332.27048
     -1882.863  
  23680197.981   124440281.76248     -3461.569    23680197.343    96966437.68844
     -2697.331  
  21322978.556   112053022.67248     -2485.879    21322979.075    87314040.05747
     -1937.050  
  21113414.219   110951741.80148      1897.339    21113417.089    86455913.31847
      1478.441  
  20059965.202   105415863.07049       799.526    20059964.178    82142245.68948
       623.007  
  22163253.732   116468720.80548      2619.367    22163256.194    90754829.58047
      2041.074  
  22082713.362   117713280.95305     -1630.440           0.000           0.0000 
         0.000  
  19992756.474   106685201.22908      1815.343    19992761.961    82977430.41707
      1411.934  
  20377213.966   109042602.22709     -1554.147    20377217.861    84810941.26308
     -1208.780  
  21523109.603   115012970.99107      2566.227    21523114.831    89454557.46107
      1995.952  
  22603901.416   120873220.62107     -4377.930    22603907.146    94012524.29006
     -3405.063  
  20394810.275   109021948.18507     -2263.339    20394816.617    84794874.78506
     -1760.402  
         0.000           0.0000          0.000    21770525.506    90387533.04415
      1834.719  
 20 09 27 07 36 45.0000000  0 15G27G15G13G21G18G24G20G10R10R 2R17R11
                                R24R 1R18
  24084146.293   126563040.12604     -1373.870           0.000           0.0000 
         0.000  
  21153427.394   111162011.48848     -2418.348    21153427.329    86619750.18647
     -1884.422  
  23683491.510   124457589.43848     -3461.969    23683490.903    96979924.17344
     -2697.637  
  24781652.983   130228462.23855      2756.589    24781651.621   101476714.29954
      2147.992  
  21325345.027   112065458.55748     -2488.594    21325345.527    87323730.37547
     -1939.163  
  21111610.410   110942262.84748      1894.156    21111613.304    86448527.12147
      1475.964  
  20059205.658   105411871.70348       796.836    20059204.672    82139135.54348
       620.909  
  22160761.991   116455626.83847      2618.116    22160764.503    90744626.48946
      2039.979  
  22084244.362   117721443.17204     -1634.449           0.000           0.0000 
         0.000  
  19991056.391   106676129.10307      1813.327    19991061.825    82970374.34606
      1410.366  
  20378668.109   109050383.89308     -1558.687    20378672.043    84816993.66707
     -1212.312  
  21520709.940   115000148.22908      2562.719    21520715.181    89444584.10907
      1993.210  
  22607995.606   120895114.25107     -4379.410    22608001.418    94029552.70106
     -3406.203  
  20396928.064   109033269.10907     -2265.102    20396934.414    84803679.94305
     -1761.750  
  21768312.275   116200728.20016      2354.645    21768317.624    90378366.04005
      1831.390  
 20 09 27 07 36 50.0000000  0 14G 8G27G15G13G18G24G20G10R10R 2R17R11
                                R24R 1
  24613953.821   129347201.63255       459.979    24613958.377   100790044.81153
       358.425  
  24085456.055   126569923.00146     -1378.104    24085459.504    98625930.30255
     -1073.848  
  21155730.037   111174111.95948     -2420.871    21155729.968    86629179.11047
     -1886.397  
  23686786.572   124474905.25948     -3463.309    23686786.056    96993416.99245
     -2698.688  
  21327714.846   112077912.10748     -2491.702    21327715.349    87333434.40047
     -1941.593  
  21109810.507   110932804.38648      1890.137    21109813.409    86441156.88247
      1472.827  
  20058449.394   105407897.50949       793.773    20058448.410    82136038.74748
       618.519  
  22158272.272   116442543.36748      2616.320    22158274.820    90734431.53048
      2038.684  
  22085780.553   117729631.49406     -1639.526           0.000           0.0000 
         0.000  
  19989359.034   106667071.61908      1810.848    19989364.442    82963329.57508
      1408.426  
  20380127.423   109058192.91209     -1563.809    20380131.338    84823067.35108
     -1216.296  
  21518314.419   114987347.63407      2558.590    21518319.728    89434628.16907
      1990.019  
  22612091.929   120917018.94707     -4381.085    22612097.731    94046589.63006
     -3407.520  
  20399048.331   109044603.30807     -2267.371    20399054.706    84812495.44706
     -1763.512  
 20 09 27 07 36 55.0000000  0 13G27G15G13G18G24G20G10R10R 2R17R11R24
                                R 1
  24086767.849   126576816.86945     -1379.664    24086771.164    98631302.11644
     -1075.073  
  21158033.759   111186218.06649     -2421.391    21158033.707    86638612.40948
     -1886.805  
  23690081.570   124492220.71548     -3462.612    23690081.105    97006909.60544
     -2698.132  
  21330086.381   112090374.79048     -2493.172    21330086.963    87343145.63947
     -1942.722  
  21108012.919   110923358.06147      1888.698    21108015.852    86433796.18548
      1471.726  
  20057694.818   105403932.09548       792.397    20057693.821    82132948.82948
       617.453  
  22155782.989   116429462.22448      2616.171    22155785.545    90724238.45947
      2038.573  
  22087319.880   117737836.97106     -1642.616           0.000           0.0000 
         0.000  
  19987662.763   106658020.02308      1810.128    19987668.170    82956289.44907
      1407.875  
  20381590.201   109066020.59509     -1567.050    20381594.119    84829155.54608
     -1218.819  
  21515921.535   114974560.76007      2556.324    21515926.844    89424682.84307
      1988.254  
  22616188.664   120938926.09107     -4380.992    22616194.495    94063628.53107
     -3407.441  
  20401169.468   109055942.18407     -2267.917    20401175.854    84821314.53806
     -1763.945  
 20 09 27 07 37  0.0000000  0 14G27G15G13G18G24G20G10R10R 2R17R11R24
                                R 1R18
  24088081.898   126583721.74544     -1382.530    24088085.188    98636682.69944
     -1077.276  
  21160338.622   111198330.20348     -2423.155    21160338.584    86648050.46447
     -1888.167  
  23693376.578   124509536.13447     -3463.358    23693375.997    97020402.10443
     -2698.730  
  21332459.768   112102847.05748     -2495.581    21332460.327    87352864.23047
     -1944.617  
  21106217.718   110913924.30748      1885.359    21106220.636    86426445.17247
      1469.105  
  20056941.987   105399975.87748       790.125    20056940.978    82129866.06648
       615.683  
  22153294.216   116416383.66248      2615.008    22153296.802    90714047.37747
      2037.667  
  22088862.700   117746060.47604     -1646.797           0.000           0.0000 
         0.000  
  19985967.809   106648975.23608      1808.227    19985973.179    82949254.67106
      1406.401  
  20383056.578   109073867.34908     -1571.386    20383060.491    84835258.58908
     -1222.195  
  21513531.303   114961788.05408      2552.902    21513536.589    89414748.50806
      1985.590  
  22620285.954   120960836.20407     -4382.526    22620291.773    94080669.69206
     -3408.641  
  20403291.623   109067286.26107     -2269.612    20403297.995    84830137.72505
     -1765.253  
  21761711.840   116165487.34714      2343.813    21761716.486    90350959.82814
      1822.961  
 20 09 27 07 37  5.0000000  0 15G 8G27G15G13G18G24G20G10R10R 2R17R11
                                R24R 1R18
  24612650.554   129340355.26055       452.215    24612648.183   100784724.69053
       352.374  
  24089398.553   126590640.68745     -1385.129    24089401.606    98642073.95944
     -1079.327  
  21162645.121   111210451.06648     -2425.031    21162645.140    86657495.30047
     -1889.632  
  23696672.077   124526854.16047     -3463.925    23696671.444    97033896.65844
     -2699.167  
  21334835.441   112115331.45848     -2498.000    21334836.051    87362592.32746
     -1946.495  
  21104425.422   110904505.60748      1882.163    21104428.305    86419105.93847
      1466.620  
  20056191.376   105396031.41948       787.663    20056190.370    82126792.45248
       613.762  
  22150806.467   116403310.42548      2614.116    22150809.059    90703860.45747
      2036.969  
  22090409.146   117754304.12304     -1651.097           0.000           0.0000 
         0.000  
  19984274.511   106639939.34908      1806.312    19984279.850    82942226.75607
      1404.905  
  20384526.994   109081735.84608     -1575.816    20384530.911    84841378.51408
     -1225.640  
  21511144.109   114949032.17207      2549.375    21511149.498    89404827.26107
      1982.843  
  22624384.257   120982751.79808     -4383.859    22624390.141    94097715.14106
     -3409.671  
  20405415.175   109078637.92407     -2271.203    20405421.565    84838966.79405
     -1766.496  
  21759517.099   116153775.92006      2339.972    21759522.414    90341850.94506
      1819.984  
 20 09 27 07 37 10.0000000  0 15G 8G27G15G13G18G24G20G10R10R 2R17R11
                                R24R 1R18
  24612222.343   129338103.71645       448.559    24612224.166   100782970.19244
       349.516  
  24090718.039   126597574.35245     -1388.164    24090720.813    98647476.92345
     -1081.679  
  21164953.461   111222581.47448     -2427.112    21164953.510    86666947.56548
     -1891.261  
  23699968.265   124544175.68148     -3464.577    23699967.730    97047393.93045
     -2699.680  
  21337213.611   112127828.91948     -2501.008    21337214.216    87372330.61147
     -1948.840  
  21102636.127   110895102.86048      1878.831    21102639.008    86411779.12747
      1464.023  
  20055443.185   105392099.65148       785.023    20055442.202    82123728.73548
       611.703  
  22148319.860   116390243.27748      2612.804    22148322.456    90693678.26347
      2035.953  
  22091959.806   117762569.38905     -1655.469           0.000           0.0000 
         0.000  
  19982583.117   106630913.65108      1804.059    19982588.442    82935206.75407
      1403.152  
  20386001.660   109089626.98408     -1580.620    20386005.551    84847516.06408
     -1229.370  
  21508760.269   114936294.00107      2545.859    21508765.710    89394919.79907
      1980.112  
  22628483.786   121004673.72708     -4385.237    22628489.663    94114765.51306
     -3410.749  
  20407540.392   109089998.23807     -2273.112    20407546.760    84847802.58406
     -1767.979  
  21757326.137   116142084.38606      2336.163    21757332.021    90332757.55206
      1817.016  
 20 09 27 07 37 15.0000000  0 15G 8G27G15G13G18G24G20G10R10R 2R17R11
                                R24R 1R18
  24611796.812   129335869.12745       445.492    24611800.087   100781204.94154
       347.136  
  24092040.533   126604523.66845     -1391.137    24092043.246    98652891.87644
     -1084.012  
  21167263.793   111234722.31948     -2429.203    21167263.845    86676407.97147
     -1892.886  
  23703265.286   124561501.64448     -3465.562    23703264.803    97060894.67545
     -2700.440  
  21339594.456   112140340.34448     -2503.675    21339595.038    87382079.77147
     -1950.922  
  21100850.061   110885717.08348      1875.605    21100852.969    86404465.53447
      1461.507  
  20054697.591   105388181.55648       782.358    20054696.625    82120675.68848
       609.629  
  22145834.603   116377183.22848      2611.633    22145837.171    90683501.59347
      2035.035  
  22093514.510   117770856.89805     -1659.617           0.000           0.0000 
         0.000  
  19980893.814   106621898.86308      1801.805    19980899.071    82928195.26707
      1401.398  
  20387480.727   109097541.70908     -1585.292    20387484.608    84853671.96708
     -1233.004  
  21506380.005   114923574.59207      2542.046    21506385.430    89385026.95407
      1977.148  
  22632584.709   121026602.98808     -4386.273    22632590.566    94131821.59807
     -3411.554  
  20409667.383   109101368.19507     -2274.754    20409673.741    84856645.89706
     -1769.254  
  21755139.935   116130415.76016      2331.878    21755145.724    90323679.38816
      1813.683  
 20 09 27 07 37 20.0000000  0 16G 8G27G15G13G21G18G24G20G10R10R 2R17
                                R11R24R 1R18
  24611374.648   129333650.01845       443.004    24611376.736   100779475.85941
       345.215  
  24093365.665   126611487.18844     -1393.289    24093368.277    98658318.09445
     -1085.676  
  21169575.813   111246872.09348     -2430.538    21169575.840    86685875.35847
     -1893.922  
  23706562.853   124578830.50747     -3465.922    23706562.375    97074397.71243
     -2700.718  
  24763316.267   130132105.20755      2749.112    24763312.826   101401626.15453
      2142.164  
  21341977.645   112152864.24548     -2505.734    21341978.220    87391838.63147
     -1952.523  
  21099066.893   110876346.68847      1872.616    21099069.860    86397163.97247
      1459.187  
  20053954.306   105384275.59948       780.315    20053953.334    82117632.09948
       608.039  
  22143350.439   116364128.85748      2610.511    22143352.968    90673329.38546
      2034.167  
  22095072.996   117779164.97905     -1663.671           0.000           0.0000 
         0.000  
  19979206.232   106612893.60308      1800.320    19979211.479    82921191.16606
      1400.245  
  20388963.869   109105478.48908     -1589.176    20388967.785    84859845.02007
     -1236.026  
  21504002.932   114910872.29706      2538.820    21504008.348    89375147.49206
      1974.651  
  22636686.681   121048537.98008     -4387.422    22636692.570    94148882.13606
     -3412.440  
  20411795.913   109112746.22007     -2276.304    20411802.248    84865495.52505
     -1770.605  
  21752956.538   116118764.29607      2328.452    21752963.035    90314617.16807
      1811.022  
 20 09 27 07 37 25.0000000  0 16G 8G27G15G13G21G18G24G20G10R10R 2R17
                                R11R24R 1R18
  24610955.114   129331445.78845       438.738    24610958.562   100777758.19644
       341.870  
  24094693.428   126618464.37944     -1397.147    24094695.580    98663754.86845
     -1088.688  
  21171889.437   111259030.24148     -2432.640    21171889.474    86695349.20947
     -1895.570  
  23709860.886   124596161.75448     -3467.000    23709860.380    97087902.55645
     -2701.562  
  24760701.891   130118363.82245      2746.895    24760698.449   101390918.50143
      2140.429  
  21344363.093   112165400.07648     -2508.816    21344363.728    87401606.82347
     -1954.925  
  21097286.557   110866991.33447      1869.258    21097289.569    86389874.07247
      1456.562  
  20053213.254   105380381.28348       777.273    20053212.261    82114597.56248
       605.663  
  22140867.251   116351079.51948      2608.977    22140869.753    90663161.06447
      2032.964  
  22096635.361   117787493.29106     -1668.188           0.000           0.0000 
         0.000  
  19977520.359   106603897.39908      1797.871    19977525.589    82914194.13007
      1398.343  
  20390451.059   109113436.77408     -1594.188    20390454.975    84866034.80508
     -1239.921  
  21501629.088   114898186.78807      2535.077    21501634.368    89365280.92607
      1971.719  
  22640789.589   121070478.19808     -4388.883    22640795.547    94165946.74806
     -3413.577  
  20413925.784   109124131.66307     -2278.461    20413932.108    84874350.83606
     -1772.145  
  21750777.114   116107131.44707      2324.285    21750783.750    90305569.36807
      1807.772  
 20 09 27 07 37 30.0000000  0 16G 8G27G15G13G21G18G24G20G10R10R 2R17
                                R11R24R 1R18
  24610538.874   129329258.93445       436.120    24610543.048   100776054.17343
       339.836  
  24096024.141   126625457.63844     -1399.530    24096026.018    98669204.10144
     -1090.550  
  21174205.097   111271199.17748     -2434.265    21174205.124    86704831.50547
     -1896.836  
  23713159.833   124613497.77848     -3467.297    23713159.405    97101411.13545
     -2701.792  
  24758088.516   130104630.25445      2746.332    24758084.591   101380217.06243
      2139.855  
  21346751.289   112177950.19548     -2511.003    21346751.924    87411386.11646
     -1956.629  
  21095509.582   110857653.36147      1866.355    21095512.581    86382597.69547
      1454.300  
  20052474.825   105376501.00048       775.176    20052473.857    82111573.95248
       604.026  
  22138385.471   116338037.65048      2608.065    22138387.997    90652998.56447
      2032.253  
  22098201.977   117795844.26705     -1671.621           0.000           0.0000 
         0.000  
  19975836.613   106594912.51208      1796.577    19975841.809    82907205.88007
      1397.340  
  20391942.706   109121418.87808     -1598.375    20391946.634    84872243.09708
     -1243.184  
  21499258.774   114885520.42307      2532.020    21499264.021    89355429.30006
      1969.344  
  22644893.969   121092426.09808     -4389.698    22644899.959    94183017.30506
     -3414.219  
  20416057.603   109135527.23807     -2279.688    20416063.886    84883214.06006
     -1773.094  
  21748601.838   116095519.83207      2320.727    21748608.534    90296538.11407
      1805.003  
 20 09 27 07 37 35.0000000  0 15G 8G15G13G21G18G24G20G10R10R 2R17R11
                                R24R 1R18
  24610125.423   129327085.89045       432.836    24610128.615   100774360.91744
       337.269  
  21176522.193   111283375.47748     -2436.324    21176522.182    86714319.53147
     -1898.438  
  23716459.011   124630835.07548     -3467.858    23716458.607    97114920.72245
     -2702.230  
  24755475.699   130090901.30845      2743.988    24755474.444   101369519.16843
      2137.897  
  21349141.545   112190511.23248     -2513.500    21349142.203    87421173.94046
     -1958.574  
  21093735.255   110848329.33548      1862.969    21093738.260    86375332.23947
      1451.664  
  20051738.411   105372631.30948       772.534    20051737.481    82108558.61348
       601.973  
  22135904.456   116324999.79648      2606.808    22135906.979    90642839.21047
      2031.281  
  22099772.210   117804214.42905     -1676.327           0.000           0.0000 
         0.000  
  19974154.277   106585935.34208      1793.991    19974159.471    82900223.64507
      1395.327  
  20393438.172   109129421.44808     -1603.073    20393442.121    84878467.31608
     -1246.840  
  21496891.249   114872869.71007      2528.137    21496896.601    89345589.86907
      1966.327  
  22648999.120   121114378.12308     -4390.891    22649005.113    94200091.09906
     -3415.140  
  20418190.560   109146929.18007     -2281.305    20418196.833    84892082.23806
     -1774.351  
  21746430.040   116083925.97006      2316.707    21746436.661    90287520.67606
      1801.882  
 20 09 27 07 37 40.0000000  0 15G 8G27G15G13G18G24G20G10R10R 2R17R11
                                R24R 1R18
  24609715.249   129324930.25545       429.668    24609718.224   100772681.24844
       334.797  
  24098693.390   126639488.19756     -1405.288    24098695.327    98680128.53955
     -1095.046  
  21178841.373   111295562.62748     -2438.445    21178841.280    86723816.00648
     -1900.089  
  23719759.120   124648177.26448     -3468.590    23719758.746    97128434.11645
     -2702.796  
  21351534.530   112203086.61048     -2516.406    21351535.228    87430972.94947
     -1960.836  
  21091964.260   110839022.69648      1859.648    21091967.221    86368080.29047
      1449.073  
  20051004.738   105368775.73649       769.796    20051003.783    82105554.27348
       599.839  
  22133424.875   116311969.63448      2605.374    22133427.392    90632685.81148
      2030.160  
  22101346.778   117812607.32706     -1680.940           0.000           0.0000 
         0.000  
  19972474.162   106576969.89708      1792.125    19972479.338    82893250.53207
      1393.875  
  20394938.152   109137448.02109     -1607.573    20394942.082    84884710.19408
     -1250.339  
  21494527.389   114860238.24007      2524.569    21494532.756    89335765.36307
      1963.551  
  22653105.694   121136337.79107     -4392.699    22653111.683    94217170.84707
     -3416.547  
  20420325.405   109158341.17807     -2283.449    20420331.672    84900958.22206
     -1776.074  
  21744262.358   116072353.35904      2311.676    21744268.677    90278519.76205
      1797.973  
 20 09 27 07 37 45.0000000  0 15G 8G27G15G13G18G24G20G10R10R 2R17R11
                                R24R 1R18
  24609308.444   129322788.29155       425.245    24609311.579   100771016.44753
       331.358  
  24100032.686   126646526.33846     -1409.882    24100034.641    98685612.86545
     -1098.608  
  21181162.611   111307760.72448     -2441.288    21181162.498    86733321.00748
     -1902.309  
  23723060.180   124665524.41748     -3470.354    23723059.820    97141951.36843
     -2704.175  
  21353930.293   112215676.51948     -2520.038    21353931.027    87440783.25147
     -1963.672  
  21090196.613   110829733.64648      1855.476    21090199.545    86360842.07547
      1445.819  
  20050273.760   105364934.42149       766.300    20050272.824    82102561.05848
       597.121  
  22130946.777   116298947.17349      2603.168    22130949.307    90622538.43248
      2028.437  
  22102925.541   117821022.99306     -1685.836           0.000           0.0000 
         0.000  
  19970796.176   106568015.90408      1789.027    19970801.346    82886286.30607
      1391.461  
  20396442.604   109145498.68009     -1612.874    20396446.523    84890971.80708
     -1254.461  
  21492167.144   114847626.11907      2520.222    21492172.536    89325955.91907
      1960.163  
  22657213.756   121158305.31607     -4394.918    22657219.725    94234256.68707
     -3418.272  
  20422462.191   109169763.36707     -2285.890    20422468.427    84909842.13905
     -1777.917  
  21742098.425   116060802.07505      2307.492    21742104.767    90269535.41606
      1794.714  
 20 09 27 07 37 50.0000000  0 14G 8G27G15G13G18G24G20G10R10R 2R17R11
                                R 1R18
  24608904.278   129320663.82448       422.426    24608906.820   100769360.81044
       329.159  
  24101374.154   126653574.64857     -1412.281    24101376.158    98691104.59055
     -1100.479  
  21183485.167   111319965.84048     -2443.007    21183485.071    86742831.49147
     -1903.641  
  23726361.370   124682872.38648     -3470.679    23726361.103    97155469.25745
     -2704.426  
  21356328.074   112228277.00748     -2522.285    21356328.857    87450601.80846
     -1965.417  
  21088431.581   110820458.27648      1852.245    21088434.485    86353614.51347
      1443.309  
  20049544.750   105361103.41549       764.019    20049543.805    82099575.84648
       595.335  
  22128469.377   116285928.47148      2602.132    22128471.927    90612394.00947
      2027.636  
  22104507.810   117829457.43606     -1690.090           0.000           0.0000 
         0.000  
  19969119.655   106559069.72808      1787.242    19969124.816    82879328.17807
      1390.078  
  20397950.803   109153569.39008     -1617.468    20397954.728    84897249.02808
     -1258.035  
  21489809.787   114835029.55607      2516.473    21489815.257    89316158.60807
      1957.257  
  20424600.098   109181191.61507     -2287.578    20424606.319    84918730.78506
     -1779.227  
  21739937.772   116049268.11407      2303.870    21739944.046    90260564.56207
      1791.898  
 20 09 27 07 37 55.0000000  0 15G 8G27G15G13G18G24G20G10R10R 2R17R11
                                R24R 1R18
  24608504.925   129318564.99347       418.808    24608507.466   100767725.36643
       326.344  
  24102720.431   126660649.34746     -1415.930    24102722.531    98696617.35745
     -1103.319  
  21185811.363   111332190.01948     -2445.222    21185811.246    86752356.82248
     -1905.366  
  23729665.088   124700233.47848     -3472.223    23729664.784    97168997.37044
     -2705.637  
  21358730.131   112240899.99448     -2525.309    21358730.980    87460437.91146
     -1967.773  
  21086671.441   110811208.68348      1848.648    21086674.318    86346407.04647
      1440.504  
  20048819.976   105357294.76349       760.809    20048819.052    82096608.07448
       592.836  
  22125995.005   116272925.62048      2600.495    22125997.578    90602261.93248
      2026.359  
  22106095.892   117837922.90006     -1694.680           0.000           0.0000 
         0.000  
  19967446.865   106550143.49408      1784.655    19967452.041    82872385.57007
      1388.069  
  20399465.063   109161672.43509     -1622.331    20399468.976    84903551.39508
     -1261.816  
  21487457.541   114822460.55207      2512.581    21487463.131    89306382.74607
      1954.234  
         0.000           0.0000          0.000    22665440.270    94268450.60413
     -3420.647  
  20426741.420   109192638.26707     -2289.781    20426747.652    84927633.73806
     -1780.941  
  21737782.649   116037763.98407      2299.160    21737788.922    90251616.91607
      1788.233  
 20 09 27 07 38  0.0000000  0 15G 8G27G15G13G21G18G24G20G10R10R 2R17
                                R11R 1R18
  24608107.390   129316475.58747       417.199    24608109.930   100766097.24044
       325.081  
  24104068.196   126667732.05446     -1417.507    24104070.294    98702136.31646
     -1104.558  
  21188138.075   111344417.03648     -2445.828    21188137.978    86761884.36948
     -1905.840  
  23732968.182   124717591.38148     -3471.308    23732967.854    97182523.01644
     -2704.918  
  24742434.509   130022373.92155      2738.218    24742432.423   101316119.49154
      2133.796  
  21361133.404   112253529.34247     -2526.414    21361134.228    87470278.93746
     -1968.637  
  21084913.094   110801968.56748      1847.108    21084915.959    86339206.95547
      1439.300  
  20048096.374   105353492.24049       759.953    20048095.447    82093645.06448
       592.167  
  22123520.558   116259922.34948      2600.757    22123523.107    90592129.51247
      2026.565  
  22107686.738   117846402.91206     -1697.633           0.000           0.0000 
         0.000  
  19965774.674   106541220.39108      1784.402    19965779.829    82865445.36507
      1387.863  
  20400982.233   109169791.27809     -1625.242    20400986.165    84909866.03708
     -1264.081  
  21485107.433   114809902.75807      2510.573    21485113.091    89296615.55107
      1952.663  
  20428883.046   109204086.77007     -2289.956    20428889.336    84936538.11906
     -1781.081  
  21735629.944   116026272.97907      2297.101    21735636.237    90242679.45907
      1786.629  
 20 09 27 07 38  5.0000000  0 16G 8G27G15G13G21G18G24G20G10R10R 2R17
                                R11R24R 1R18
  24607710.110   129314387.74047       416.640    24607712.661   100764470.36544
       324.655  
  24105416.058   126674814.86846     -1417.535    24105418.117    98707655.39345
     -1104.573  
  21190463.855   111356638.96348     -2444.574    21190463.716    86771407.94048
     -1904.866  
  23736269.180   124734938.24448     -3469.055    23736268.819    97196040.04044
     -2703.163  
  24739827.849   130008673.45945      2739.273    24739826.853   101305443.86543
      2134.508  
  21363536.361   112266157.15548     -2526.312    21363537.239    87480118.80347
     -1968.559  
  21083155.072   110792729.97248      1846.851    21083157.914    86332008.05447
      1439.101  
  20047372.435   105349687.98049       760.145    20047371.537    82090680.70848
       592.319  
  22121044.552   116246910.84548      2602.344    22121047.123    90581990.67848
      2027.797  
  22109278.754   117854889.41106     -1698.733           0.000           0.0000 
         0.000  
  19964101.662   106532292.81608      1785.125    19964106.807    82858501.70007
      1388.425  
  20402500.892   109177917.89509     -1627.011    20402504.813    84916186.75208
     -1265.457  
  21482757.978   114797348.17207      2509.668    21482763.681    89286850.88207
      1951.965  
  22673655.987   121246226.69217     -4395.847    22673662.026    94302645.43116
     -3419.019  
  20431023.632   109215529.27307     -2288.699    20431029.900    84945437.84006
     -1780.102  
  21733478.316   116014787.25707      2295.710    21733484.577    90233746.13107
      1785.554  
 20 09 27 07 38 10.0000000  0 16G 8G27G15G13G21G18G24G20G10R10R 2R17
                                R11R24R 1R18
  24607316.694   129312320.20148       410.418    24607319.077   100762859.29744
       319.801  
  24106767.473   126681916.69546     -1423.129    24106769.653    98713189.33245
     -1108.926  
  21192792.225   111368874.63148     -2449.477    21192792.081    86780942.23648
     -1908.683  
  23739571.648   124752292.83048     -3472.710    23739571.249    97209563.09645
     -2706.011  
  24737222.546   129994983.96845      2735.453    24737220.576   101294776.62845
      2131.367  
  21365942.614   112278802.19348     -2531.804    21365943.530    87489972.06547
     -1972.839  
  21081400.925   110783511.83848      1840.655    21081403.756    86324825.10047
      1434.276  
  20046651.757   105345900.79249       754.733    20046650.866    82087729.65348
       588.105  
  22118570.561   116233909.87348      2598.063    22118573.121    90571860.05248
      2024.464  
  22110875.528   117863401.45806     -1706.203           0.000           0.0000 
         0.000  
  19962431.342   106523379.54308      1780.152    19962436.449    82851569.15807
      1384.559  
  20404024.568   109186071.42709     -1634.409    20404028.496    84922528.39008
     -1271.210  
  21480412.716   114784815.95707      2503.387    21480418.458    89277103.61207
      1947.077  
  22677767.944   121268215.39207     -4399.617    22677774.050    94319747.77007
     -3421.934  
  20433166.639   109226984.59007     -2293.383    20433172.854    84954347.53406
     -1783.746  
  21731331.172   116003325.80807      2289.136    21731337.456    90224831.67807
      1780.440  
 20 09 27 07 38 15.0000000  0 16G 8G27G15G13G21G18G24G20G10R10R 2R17
                                R11R24R 1R18
  24606928.032   129310277.58147       406.941    24606930.267   100761267.65643
       317.097  
  24108123.435   126689042.10546     -1426.487    24108125.677    98718741.58646
     -1111.551  
  21195124.109   111381128.67448     -2451.491    21195123.940    86790490.84048
     -1910.253  
  23742876.498   124769659.77948     -3473.742    23742876.042    97223095.76644
     -2706.816  
  24734620.362   129981310.08345      2734.304    24734617.566   101284121.70443
      2130.629  
  21368353.033   112291469.12648     -2534.684    21368353.997    87499842.40347
     -1975.082  
  21079651.555   110774318.86548      1836.964    21079654.368    86317661.74547
      1431.397  
  20045935.221   105342135.33549       751.858    20045934.324    82084795.53348
       585.862  
  22116099.457   116220924.10348      2596.683    22116101.990    90561741.27648
      2023.391  
  22112477.978   117871943.82306     -1710.270           0.000           0.0000 
         0.000  
  19960764.641   106514485.71108      1777.851    19960769.734    82844651.73607
      1382.772  
  20405554.162   109194256.56109     -1639.210    20405558.068    84928894.60108
     -1274.944  
  21478072.467   114772310.75307      2499.245    21478078.280    89267377.34707
      1943.858  
  22681882.769   121290219.27207     -4401.413    22681888.895    94336861.90506
     -3423.324  
  20435312.893   109238457.64407     -2295.371    20435319.127    84963271.02206
     -1785.288  
  21729189.366   115991893.36107      2284.598    21729195.772    90215939.77107
      1776.905  
 20 09 27 07 38 20.0000000  0 16G 8G27G15G13G21G18G24G20G10R10R 2R17
                                R11R24R 1R18
  24606541.558   129308246.55147       404.938    24606543.909   100759685.02044
       315.531  
  24109481.284   126696177.68546     -1428.551    24109483.555    98724301.77746
     -1113.160  
  21197456.925   111393387.67048     -2452.371    21197456.758    86800043.30948
     -1910.937  
  23746181.136   124787025.61448     -3473.366    23746180.666    97236627.58344
     -2706.523  
  24732018.931   129967638.38145      2734.151    24732016.774   101273468.42944
      2130.253  
  21370765.059   112304144.47048     -2536.097    21370766.056    87509719.28847
     -1976.184  
  21077904.413   110765137.60848      1834.938    21077907.219    86310507.52647
      1429.820  
  20045220.260   105338378.16149       750.577    20045219.366    82081867.86548
       584.863  
  22113628.682   116207940.12548      2596.386    22113631.229    90551623.89548
      2023.155  
  22114083.692   117880502.87306     -1713.387           0.000           0.0000 
         0.000  
  19959098.937   106505597.13008      1776.952    19959103.997    82837738.40307
      1382.074  
  20407087.115   109202459.57609     -1642.586    20407090.982    84935274.72508
     -1277.569  
  21475734.727   114759818.98607      2496.824    21475740.617    89257661.53207
      1941.972  
  22685997.900   121312224.69907     -4401.526    22686004.069    94353977.21907
     -3423.414  
  20437459.887   109249934.74207     -2296.116    20437466.147    84972197.64806
     -1785.870  
  21727050.626   115980476.37207      2281.769    21727056.994    90207059.89507
      1774.711  
 20 09 27 07 38 25.0000000  0 16G 8G27G15G13G21G18G24G20G10R10R 2R17
                                R11R24R 1R18
  24606157.947   129306230.75947       401.519    24606160.241   100758114.27844
       312.871  
  24110841.800   126703327.21346     -1431.624    24110843.993    98729872.82446
     -1115.554  
  21199791.423   111405655.38648     -2454.573    21199791.202    86809602.56148
     -1912.660  
  23749486.291   124804394.19748     -3474.488    23749485.817    97250161.53344
     -2707.398  
  24729418.536   129953972.70945      2732.487    24729416.189   101262819.87543
      2129.210  
  21373179.420   112316832.08248     -2538.972    21373180.411    87519605.73047
     -1978.426  
  21076160.231   110755971.80548      1831.280    21076162.995    86303365.34447
      1426.972  
  20044507.610   105334633.09749       747.601    20044506.712    82078949.63848
       582.542  
  22111158.991   116194961.74948      2594.878    22111161.520    90541510.87848
      2021.984  
  22115693.135   117889082.42306     -1718.336           0.000           0.0000 
         0.000  
  19957435.001   106496718.11108      1774.613    19957440.066    82830832.50207
      1380.254  
  20408624.126   109210684.43409     -1647.258    20408627.985    84941671.83408
     -1281.202  
  21473400.246   114747344.53907      2492.996    21473406.203    89247959.18807
      1938.996  
  22690114.016   121334235.60507     -4403.015    22690120.246    94371096.79707
     -3424.569  
  20439608.381   109261419.73507     -2298.078    20439614.659    84981130.41806
     -1787.397  
  21724915.540   115969078.66907      2277.405    21724921.829    90198195.01807
      1771.312  
 20 09 27 07 38 30.0000000  0 16G 8G27G15G13G21G18G24G20G10R10R 2R17
                                R11R24R 1R18
  24605777.620   129304232.18947       398.425    24605780.011   100756556.95444
       310.457  
  24112205.279   126710492.37346     -1434.155    24112207.489    98735456.08145
     -1117.523  
  21202127.877   111417933.50348     -2456.297    21202127.645    86819169.93348
     -1913.995  
  23752792.289   124821767.20448     -3474.808    23752791.796    97263698.93345
     -2707.648  
  24726819.556   129940314.79345      2730.887    24726816.893   101252177.34843
      2127.925  
  21375596.438   112329533.63048     -2541.440    21375597.435    87529503.03747
     -1980.348  
  21074419.346   110746823.29648      1828.331    21074422.093    86296236.64247
      1424.676  
  20043797.582   105330901.87549       745.288    20043796.684    82076042.18948
       580.742  
  22108690.676   116181990.69748      2593.819    22108693.180    90531403.56448
      2021.156  
  22117306.801   117897684.26106     -1722.206           0.000           0.0000 
         0.000  
  19955773.176   106487850.38808      1772.870    19955778.251    82823935.38407
      1378.898  
  20410165.513   109218932.77209     -1651.738    20410169.377    84948087.20708
     -1284.687  
  21471069.331   114734889.18107      2489.515    21471075.362    89238271.69307
      1936.288  
  22694231.506   121356253.67907     -4403.987    22694237.720    94388221.95807
     -3425.328  
  20441758.670   109272914.35807     -2299.452    20441764.929    84990070.68406
     -1788.465  
  21722784.279   115957702.13407      2273.651    21722790.651    90189346.60707
      1768.394  
 20 09 27 07 38 35.0000000  0 16G 8G27G15G13G21G18G24G20G10R10R 2R17
                                R11R24R 1R18
  24605400.206   129302248.95647       395.125    24605402.463   100755011.58544
       307.890  
  24113571.434   126717671.50246     -1437.206    24113573.689    98741050.19045
     -1119.906  
  21204466.009   111430220.34648     -2458.336    21204465.783    86828744.09248
     -1915.590  
  23756098.802   124839142.86448     -3475.391    23756098.336    97277238.40945
     -2708.102  
  24724221.689   129926662.87645      2729.793    24724220.387   101241539.52644
      2127.112  
  21378015.780   112342247.39148     -2544.000    21378016.782    87539409.86047
     -1982.339  
  21072681.372   110737690.12448      1825.039    21072684.079    86289119.88847
      1422.109  
  20043089.869   105327182.78449       742.605    20043088.957    82073144.19848
       578.648  
  22106223.423   116169025.22748      2592.452    22106225.934    90521300.60648
      2020.093  
  22118924.273   117906306.48306     -1726.410           0.000           0.0000 
         0.000  
  19954113.085   106478992.01108      1770.753    19954118.213    82817045.54707
      1377.253  
  20411710.977   109227202.85708     -1656.151    20411714.831    84954519.49208
     -1288.121  
  21468741.733   114722451.13607      2485.960    21468747.782    89228597.66307
      1933.523  
  22698349.991   121378277.09607     -4405.145    22698356.202    94405351.28007
     -3426.227  
  20443910.407   109284416.84207     -2301.215    20443916.728    84999017.05706
     -1789.878  
  21720656.693   115946344.90407      2269.612    21720663.060    90180513.20807
      1765.253  
 20 09 27 07 38 40.0000000  0 16G 8G27G15G13G21G18G24G20G10R10R 2R17
                                R11R24R 1R18
  24605026.080   129300282.88247       391.499    24605028.357   100753479.55644
       305.063  
  24114940.558   126724866.36446     -1440.797    24114942.819    98746656.58245
     -1122.702  
  21206806.127   111442517.68348     -2460.507    21206805.903    86838326.43148
     -1917.277  
  23759406.140   124856522.97948     -3476.448    23759405.632    97290781.36144
     -2708.921  
  24721625.407   129913018.79345      2728.101    24721624.437   101230907.67144
      2125.633  
  21380437.801   112354975.16848     -2546.921    21380438.758    87549327.60147
     -1984.617  
  21070946.687   110728574.25848      1821.324    21070949.403    86282016.61947
      1419.215  
  20042384.801   105323477.65949       739.684    20042383.888    82070257.08948
       576.375  
  22103757.581   116156067.20248      2591.074    22103760.096    90511203.44348
      2019.019  
  22120546.008   117914951.08706     -1731.098           0.000           0.0000 
         0.000  
  19952455.096   106470144.91508      1768.362    19952460.265    82810164.47607
      1375.394  
  20413260.887   109235496.61508     -1661.066    20413264.710    84960970.19008
     -1291.944  
  21466417.734   114710032.33107      2481.723    21466423.773    89218938.59507
      1930.230  
  22702469.845   121400307.74807     -4407.016    22702476.055    94422486.21207
     -3427.684  
  20446064.003   109295929.14307     -2303.570    20446070.356    85007971.06406
     -1791.668  
  21718533.096   115935008.78007      2265.020    21718539.445    90171696.22207
      1761.679  
 20 09 27 07 38 45.0000000  0 16G 8G27G15G13G21G18G24G20G10R10R 2R17
                                R11R24R 1R18
  24604654.876   129298332.34747       388.844    24604657.250   100751959.68644
       302.996  
  24116312.383   126732075.28546     -1442.909    24116314.677    98752273.92446
     -1124.347  
  21209147.935   111454823.84449     -2462.008    21209147.695    86847915.64848
     -1918.448  
  23762713.989   124873905.90548     -3476.601    23762713.552    97304326.48944
     -2709.043  
  24719030.132   129899380.87245      2726.953    24719029.852   101220280.78144
      2124.901  
  21382862.166   112367715.25748     -2549.102    21382863.108    87559254.94346
     -1986.316  
  21069215.009   110719474.01048      1818.831    21069217.663    86274925.52647
      1417.272  
  20041682.073   105319784.79949       737.507    20041681.160    82067379.53648
       574.675  
  22101292.826   116143114.92348      2590.183    22101295.368    90501110.76148
      2018.323  
  22122171.542   117923616.22706     -1734.840           0.000           0.0000 
         0.000  
  19950798.896   106461307.27308      1766.753    19950804.087    82803290.75507
      1374.141  
  20414814.886   109243812.25208     -1665.136    20414818.686    84967437.90808
     -1295.108  
  21464096.995   114697630.97407      2478.715    21464103.006    89209293.09607
      1927.886  
  22706590.791   121422343.82607     -4407.539    22706596.941    94439625.37607
     -3428.090  
  20448219.062   109307449.35407     -2304.535    20448225.472    85016931.22706
     -1792.421  
  21716413.147   115923692.22407      2261.526    21716419.480    90162894.45707
      1758.960  
 20 09 27 07 38 50.0000000  0 16G 8G27G15G13G21G18G24G20G10R10R 2R17
                                R11R24R 1R18
  24604286.477   129296396.45847       385.272    24604288.969   100750451.20044
       300.214  
  24117686.713   126739297.34846     -1446.558    24117688.972    98757901.49245
     -1127.191  
  21211491.259   111467137.97248     -2464.117    21211490.996    86857511.07348
     -1920.089  
  23766022.224   124891290.79448     -3477.902    23766021.708    97317873.14845
     -2710.058  
  24716435.924   129885748.28145      2725.207    24716435.760   101209658.03144
      2123.480  
  21385288.719   112380466.81748     -2551.848    21385289.656    87569191.21847
     -1988.456  
  21067486.133   110710388.67648      1814.938    21067488.789    86267846.04547
      1414.237  
  20040981.528   105316103.34849       734.516    20040980.603    82064510.87048
       572.348  
  22098829.034   116130167.54648      2588.304    22098831.564    90491021.89648
      2016.855  
  22123800.814   117932301.13106     -1739.730           0.000           0.0000 
         0.000  
  19949144.374   106452478.54808      1764.410    19949149.596    82796423.97107
      1372.316  
  20416372.814   109252148.88209     -1669.948    20416376.592    84973921.95508
     -1298.848  
  21461779.388   114685246.35207      2474.844    21461785.401    89199660.61707
      1924.878  
  22710712.514   121444384.44007     -4409.151    22710718.659    94456768.06307
     -3429.297  
  20450375.530   109318976.72707     -2306.688    20450381.913    85025896.96006
     -1794.093  
  21714296.723   115912394.42007      2257.362    21714303.021    90154107.27807
      1755.727  
 20 09 27 07 38 55.0000000  0 16G 8G27G15G13G21G18G24G20G10R10R 2R17
                                R11R24R 1R18
  24603921.453   129294477.99347       382.167    24603923.933   100748956.28144
       297.784  
  24119064.068   126746535.36646     -1449.265    24119066.309    98763541.52246
     -1129.300  
  21213836.636   111479462.82048     -2465.875    21213836.344    86867114.85048
     -1921.464  
  23769331.378   124908680.39248     -3478.223    23769330.868    97331423.48145
     -2710.308  
  24713843.261   129872123.80946      2724.073    24713843.026   101199041.56343
      2122.655  
  21387717.951   112393232.61248     -2554.327    21387718.910    87579138.57847
     -1990.391  
  21065760.643   110701320.97848      1811.780    21065763.258    86260780.31447
      1411.777  
  20040283.667   105312436.06549       732.262    20040282.728    82061653.25348
       570.593  
  22096366.690   116117227.84048      2587.374    22096369.235    90480939.00748
      2016.136  
  22125434.377   117941008.53406     -1743.511           0.000           0.0000 
         0.000  
  19947491.992   106443661.21708      1762.491    19947497.231    82789566.04607
      1370.827  
  20417935.168   109260509.26109     -1674.343    20417938.921    84980424.47008
     -1302.269  
  21459465.451   114672881.18707      2471.094    21459471.414    89190043.26507
      1921.961  
  22714835.648   121466432.50207     -4410.133    22714841.763    94473916.54607
     -3430.104  
  20452533.804   109330514.00107     -2308.269    20452540.198    85034870.39406
     -1795.324  
  21712184.296   115901118.01607      2253.188    21712190.577    90145336.73807
      1752.479  
 20 09 27 07 39  0.0000000  0 16G 8G27G15G13G21G18G24G20G10R10R 2R17
                                R11R24R 1R18
  24603559.317   129292574.98747       378.909    24603561.750   100747473.42444
       295.249  
  24120444.105   126753787.38546     -1451.897    24120446.305    98769192.43846
     -1131.355  
  21216183.656   111491796.43248     -2467.694    21216183.353    86876725.45748
     -1922.882  
  23772641.050   124926072.74248     -3478.780    23772640.605    97344975.95645
     -2710.741  
  24711251.851   129858505.48346      2723.281    24711251.740   101188429.83642
      2122.125  
  21390149.526   112406010.68948     -2556.891    21390150.475    87589095.52447
     -1992.387  
  21064038.100   110692268.76648      1808.792    21064040.695    86253726.64347
      1409.444  
  20039588.150   105308781.06949       729.754    20039587.205    82058805.20348
       568.640  
  22093905.446   116104293.91648      2586.054    22093908.000    90470860.63148
      2015.108  
  22127071.665   117949736.57506     -1747.655           0.000           0.0000 
         0.000  
  19945841.439   106434853.55108      1760.520    19945846.688    82782715.64807
      1369.293  
  20419501.595   109268891.53009     -1678.695    20419505.340    84986944.01108
     -1305.655  
  21457154.758   114660533.63907      2467.551    21457160.731    89180439.61807
      1919.207  
  22718959.760   121488485.94907     -4411.328    22718965.875    94491069.22307
     -3431.034  
  20454693.601   109342059.28907     -2309.909    20454699.990    85043850.05806
     -1796.602  
  21710075.510   115889861.14607      2249.472    21710081.781    90136581.40607
      1749.589  
 20 09 27 07 39  5.0000000  0 16G 8G27G15G13G21G18G24G20G10R10R 2R17
                                R11R24R 1R18
  24603200.119   129290687.42147       375.762    24603202.618   100746002.61742
       292.805  
  24121826.716   126761053.33446     -1454.312    24121829.009    98774854.22146
     -1133.230  
  21218532.334   111504138.75748     -2469.374    21218532.026    86886342.85048
     -1924.191  
  23775951.191   124943467.74448     -3479.327    23775950.790    97358530.48545
     -2711.168  
  24708661.537   129844893.28946      2722.198    24708661.216   101177822.94643
      2121.195  
  21392583.440   112418800.95948     -2559.297    21392584.375    87599061.96647
     -1994.261  
  21062318.522   110683232.19448      1805.660    21062321.109    86246685.16447
      1407.008  
  20038894.945   105305138.25249       727.226    20038894.008    82055966.64748
       566.671  
  22091445.289   116091365.67148      2584.929    22091447.853    90460786.67548
      2014.230  
  22128712.929   117958485.12206     -1751.573           0.000           0.0000 
         0.000  
  19944192.630   106426055.28208      1758.624    19944197.904    82775872.54907
      1367.819  
  20421072.069   109277295.51709     -1683.035    20421075.811    84993480.44508
     -1309.031  
  21454847.323   114648203.49707      2464.105    21454853.308    89170849.51607
      1916.527  
  22723084.861   121510544.75207     -4412.284    22723091.024    94508226.05607
     -3431.780  
  20456854.829   109353612.51207     -2311.710    20456861.236    85052835.89606
     -1798.000  
  21707970.320   115878623.71507      2245.491    21707976.618    90127841.18707
      1746.491  
 20 09 27 07 39 10.0000000  0 16G 8G27G15G13G21G18G24G20G10R10R 2R17
                                R11R24R 1R18
  24602843.862   129288815.21947       372.753    24602846.234   100744543.72543
       290.452  
  24123212.007   126768333.08546     -1457.499    24123214.354    98780526.76046
     -1135.714  
  21220882.641   111516489.70049     -2470.844    21220882.355    86895966.96248
     -1925.336  
  23779261.818   124960865.33448     -3479.698    23779261.502    97372087.04944
     -2711.457  
  24706072.417   129831287.18746      2721.171    24706072.061   101167220.82142
      2120.397  
  21395019.652   112431603.33848     -2561.659    21395020.578    87609037.84147
     -1996.101  
  21060601.905   110674211.15748      1802.769    21060604.434    86239655.79547
      1404.753  
  20038204.043   105301507.53349       725.003    20038203.106    82053137.51948
       564.937  
  22088986.206   116078443.04148      2584.077    22088988.759    90450717.09648
      2013.562  
  22130357.952   117967253.93006     -1755.703           0.000           0.0000 
         0.000  
  19942545.589   106417266.51308      1756.808    19942550.894    82769036.84507
      1366.406  
  20422646.628   109285721.27009     -1687.238    20422650.364    85000033.80708
     -1312.301  
  21452543.199   114635890.89507      2460.672    21452549.172    89161273.04607
      1913.854  
  22727210.942   121532608.60607     -4413.132    22727217.104    94525386.81907
     -3432.441  
  20459017.569   109365173.43907     -2312.690    20459023.940    85061827.73106
     -1798.766  
  21705868.789   115867405.69507      2241.750    21705875.113    90119116.06407
      1743.581  
 20 09 27 07 39 15.0000000  0 16G 8G27G15G13G21G18G24G20G10R10R 2R17
                                R11R24R 1R18
  24602490.597   129286958.86047       369.905    24602492.935   100743097.21244
       288.233  
  24124600.029   126775627.16346     -1459.781    24124602.335    98786210.43445
     -1137.496  
  21223234.686   111528849.68849     -2472.715    21223234.366    86905598.11548
     -1926.792  
  23782573.056   124978265.97748     -3480.202    23782572.737    97385646.00144
     -2711.848  
  24703484.557   129817687.67046      2719.425    24703484.194   101156623.81343
      2119.031  
  21397458.246   112444418.30148     -2564.254    21397459.198    87619023.52346
     -1998.124  
  21058888.338   110665206.11148      1799.667    21058890.836    86232638.86647
      1402.335  
  20037515.560   105297889.44049       722.516    20037514.599    82050318.22648
       563.000  
  22086528.288   116065526.53248      2582.917    22086530.806    90440652.28647
      2012.660  
  22132006.913   117976043.60206     -1759.886           0.000           0.0000 
         0.000  
  19940900.438   106408487.70408      1754.960    19940905.734    82762208.88407
      1364.968  
  20424225.314   109294169.10308     -1691.687    20424229.036    85006604.34408
     -1315.762  
  21450242.395   114623596.12807      2456.992    21450248.344    89151710.45007
      1910.987  
  22731338.034   121554678.17507     -4414.140    22731344.238    94542552.03207
     -3433.223  
  20461181.774   109376742.69707     -2314.492    20461188.208    85070826.04106
     -1800.163  
  21703771.015   115856207.63307      2238.063    21703777.348    90110406.46807
      1740.714  
 20 09 27 07 39 20.0000000  0 16G 8G27G15G13G21G18G24G20G10R10R 2R17
                                R11R24R 1R18
  24602140.156   129285117.21547       366.734    24602142.424   100741662.17543
       285.761  
  24125990.597   126782934.39446     -1462.788    24125992.864    98791904.38945
     -1139.840  
  21225588.233   111541217.63149     -2474.320    21225587.908    86915235.47848
     -1928.046  
  23785884.647   124995668.56448     -3480.766    23785884.321    97399206.44845
     -2712.289  
  24700897.729   129804093.51746      2717.956    24700896.975   101146030.96044
      2117.897  
  21399899.032   112457244.72048     -2566.585    21399899.999    87629018.13247
     -1999.941  
  21057177.606   110656215.96748      1796.496    21057180.056    86225633.56747
      1399.867  
  20036829.250   105294282.82249       720.147    20036828.290    82047507.87548
       561.155  
  22084071.310   116052615.02548      2581.742    22084073.814    90430591.37547
      2011.745  
  22133659.535   117984852.88006     -1764.151           0.000           0.0000 
         0.000  
  19939256.899   106399717.58708      1753.039    19939262.219    82755387.68507
      1363.477  
  20425807.917   109302637.87208     -1695.886    20425811.627    85013191.16108
     -1319.026  
  21447944.826   114611318.24207      2453.808    21447950.683    89142160.98707
      1908.515  
  22735466.015   121576752.40607     -4415.468    22735472.226    94559720.86107
     -3434.257  
  20463347.391   109388319.10207     -2315.992    20463353.820    85079829.90606
     -1801.331  
  21701676.704   115845028.31107      2233.905    21701683.099    90101711.43807
      1737.483  
 20 09 27 07 39 25.0000000  0 16G 8G27G15G13G21G18G24G20G10R10R 2R17
                                R11R24R 1R18
  24601792.634   129283291.00747       363.741    24601794.846   100740239.15143
       283.429  
  24127383.789   126790255.60646     -1465.418    24127386.128    98797609.22745
     -1141.887  
  21227943.443   111553594.34049     -2476.109    21227943.111    86924879.66948
     -1929.441  
  23789196.753   125013073.89248     -3481.386    23789196.374    97412769.02944
     -2712.773  
  24698312.043   129790505.64246      2716.933    24698311.203   101135442.99944
      2117.089  
  21402342.156   112470083.39148     -2569.191    21402343.140    87639022.29246
     -2001.972  
  21055469.873   110647241.61448      1793.230    21055472.309    86218640.56946
      1397.323  
  20036145.268   105290688.50849       717.624    20036144.293    82044707.11448
       559.184  
  22081615.455   116039709.32648      2580.500    22081617.933    90420534.98647
      2010.793  
  22135315.958   117993682.70206     -1767.831           0.000           0.0000 
         0.000  
  19937615.086   106390956.87108      1751.184    19937620.442    82748573.79907
      1362.030  
  20427394.577   109311128.44008     -1700.276    20427398.279    85019794.94108
     -1322.441  
  21445650.505   114599058.02407      2450.090    21445656.359    89132625.26507
      1905.624  
  22739594.993   121598831.84507     -4416.339    22739601.247    94576893.73707
     -3434.933  
  20465514.487   109399903.47007     -2317.707    20465520.922    85088839.96406
     -1802.664  
  21699586.155   115833868.53707      2229.897    21699592.506    90093031.61807
      1734.366  
 20 09 27 07 39 30.0000000  0 16G 8G27G15G13G21G18G24G20G10R10R 2R17
                                R11R24R 1R18
  24601448.471   129281482.54447       360.172    24601450.700   100738829.96444
       280.652  
  24128780.078   126797593.00046     -1468.617    24128782.469    98803326.66545
     -1144.382  
  21230300.737   111565981.97349     -2478.535    21230300.405    86934532.36348
     -1931.328  
  23792509.801   125030484.13948     -3482.390    23792509.490    97426335.43644
     -2713.558  
  24695727.964   129776926.18446      2715.109    24695727.266   101124861.61644
      2115.578  
  21404788.009   112482936.49648     -2571.917    21404789.027    87649037.69747
     -2004.097  
  21053765.562   110638285.21448      1789.694    21053767.965    86211661.56447
      1394.565  
  20035464.040   105287108.68949       714.668    20035463.083    82041917.64248
       556.878  
  22079161.124   116026811.63548      2578.891    22079163.593    90410484.84348
      2009.523  
  22136976.682   118002535.23206     -1772.652           0.000           0.0000 
         0.000  
  19935975.583   106382208.32508      1748.847    19935980.963    82741769.38007
      1360.214  
  20428985.737   109319643.02408     -1705.151    20428989.424    85026417.39208
     -1326.234  
  21443359.841   114586817.65907      2446.230    21443365.744    89123104.99207
      1902.624  
  22743725.399   121620918.79807     -4417.879    22743731.654    94594072.46707
     -3436.132  
  20467683.493   109411498.08207     -2319.940    20467689.948    85097857.99106
     -1804.402  
  21697499.713   115822730.81007      2225.538    21697506.050    90084368.94407
      1730.973  
 20 09 27 07 39 35.0000000  0 16G 8G27G15G13G21G18G24G20G10R10R 2R17
                                R11R24R 1R18
  24601107.200   129279689.21448       356.862    24601109.458   100737432.57343
       278.073  
  24130178.899   126804944.00646     -1471.847    24130181.318    98809054.71745
     -1146.898  
  21232659.646   111578378.03249     -2480.250    21232659.296    86944191.63048
     -1932.668  
  23795823.327   125047896.74448     -3482.859    23795823.040    97439903.71444
     -2713.917  
  24693145.053   129763352.67846      2713.636    24693144.101   101114284.86243
      2114.601  
  21407236.153   112495801.51648     -2574.452    21407237.150    87659062.38146
     -2006.070  
  21052064.153   110629344.09248      1786.573    21052066.513    86204694.46446
      1392.136  
  20034785.103   105283540.85249       712.112    20034784.132    82039137.51448
       554.894  
  22076707.844   116013919.43648      2577.602    22076710.274    90400438.97448
      2008.519  
  22138641.297   118011407.97406     -1776.425           0.000           0.0000 
         0.000  
  19934337.719   106373468.52708      1746.668    19934343.106    82734971.76007
      1358.520  
  20430580.885   109328179.01908     -1709.640    20430584.578    85033056.49508
     -1329.722  
  21441072.436   114574594.58507      2442.511    21441078.355    89113598.15707
      1899.726  
  22747856.714   121643010.66907     -4418.940    22747862.943    94611255.02307
     -3436.956  
  20469853.886   109423100.20307     -2321.515    20469860.350    85106881.86306
     -1805.629  
  21695416.861   115811612.31207      2221.871    21695423.189    90075721.22707
      1728.121  
 20 09 27 07 39 40.0000000  0 16G 8G27G15G13G21G18G24G20G10R10R 2R17
                                R11R24R 1R18
  24600768.702   129277910.33547       354.257    24600771.040   100736046.43343
       276.043  
  24131580.210   126812307.98146     -1473.733    24131582.573    98814792.87245
     -1148.366  
  21235020.020   111590781.84949     -2481.574    21235019.687    86953856.94148
     -1933.698  
  23799137.199   125065311.13448     -3482.902    23799136.942    97453473.37144
     -2713.948  
  24690563.056   129749784.44546      2713.605    24690562.239   101103712.19444
      2114.352  
  21409686.412   112508677.78048     -2576.336    21409687.382    87669095.83046
     -2007.538  
  21050365.560   110620417.79848      1783.815    21050367.887    86197738.90846
      1389.988  
  20034108.313   105279984.36149       710.195    20034107.360    82036366.21748
       553.394  
  22074255.470   116001032.12549      2577.090    22074257.879    90390396.92048
      2008.121  
  22140309.549   118020300.22806     -1780.188           0.000           0.0000 
         0.000  
  19932701.632   106364738.05208      1745.421    19932707.005    82728181.39607
      1357.551  
  20432179.901   109336735.80108     -1713.276    20432183.626    85039711.77308
     -1332.550  
  21438788.205   114562388.28707      2439.319    21438794.129    89104104.37607
      1897.250  
  22751988.793   121665106.78107     -4419.594    22751995.012    94628440.88707
     -3437.465  
  20472025.597   109434709.27007     -2322.473    20472032.065    85115911.13506
     -1806.371  
  21693337.502   115800512.45807      2217.835    21693343.799    90067088.01207
      1724.983  
 20 09 27 07 39 45.0000000  0 16G 8G27G15G13G21G18G24G20G10R10R 2R17
                                R11R24R 1R18
  24600433.284   129276147.69847       351.089    24600435.684   100734672.95443
       273.573  
  24132984.303   126819686.50746     -1477.324    24132986.615    98820542.37745
     -1151.163  
  21237382.141   111603194.93949     -2483.352    21237381.804    86963529.48048
     -1935.082  
  23802451.682   125082728.79748     -3483.516    23802451.348    97467045.56044
     -2714.433  
  24687982.478   129736223.16146      2711.637    24687981.754   101093144.97544
      2112.964  
  21412139.112   112521566.86648     -2579.043    21412140.101    87679139.27346
     -2009.647  
  21048670.069   110611507.84048      1780.578    21048672.395    86190796.08847
      1387.465  
  20033434.004   105276440.81249       707.679    20033433.032    82033605.01748
       551.438  
  22071804.339   115988151.24949      2575.727    22071806.708    90380359.87648
      2007.054  
  22141981.647   118029213.67106     -1784.437           0.000           0.0000 
         0.000  
  19931067.350   106356017.30408      1743.152    19931072.740    82721398.59107
      1355.785  
  20433783.107   109345314.91108     -1717.895    20433786.829    85046384.41108
     -1336.145  
  21436507.347   114550200.41307      2435.624    21436513.351    89094624.92207
      1894.374  
  22756122.004   121687208.82507     -4421.003    22756128.223    94645631.34507
     -3438.563  
  20474198.906   109446326.94907     -2324.086    20474205.392    85124947.10706
     -1807.624  
  21691261.910   115789432.90007      2213.897    21691268.218    90058470.58507
      1721.921  
 20 09 27 07 39 50.0000000  0 16G 8G27G15G13G21G18G24G20G10R10R 2R17
                                R11R24R 1R18
  24600100.710   129274400.10747       347.757    24600103.262   100733311.18144
       270.977  
  24134390.970   126827078.49846     -1480.109    24134393.203    98826302.37146
     -1153.335  
  21239745.838   111615616.28349     -2485.093    21239745.507    86973208.44848
     -1936.441  
  23805766.602   125100148.72348     -3484.473    23805766.265    97480619.52844
     -2715.171  
  24685402.986   129722667.87346      2710.066    24685402.270   101082582.42144
      2111.679  
  21414594.068   112534467.71948     -2581.530    21414595.065    87689191.87646
     -2011.585  
  21046977.508   110602613.27748      1777.293    21046979.801    86183865.26147
      1384.897  
  20032761.966   105272909.19349       705.000    20032760.987    82030853.10648
       549.351  
  22069354.238   115975275.78749      2574.374    22069356.580    90370327.04648
      2006.003  
  22143657.623   118038147.00006     -1788.815           0.000           0.0000 
         0.000  
  19929434.840   106347306.04208      1740.999    19929440.240    82714623.17107
      1354.108  
  20435390.289   109353915.38908     -1722.397    20435394.033    85053073.67008
     -1339.647  
  21434229.752   114538029.76507      2432.148    21434235.789    89085158.86707
      1891.671  
  22760256.045   121709315.55707     -4421.769    22760262.320    94662825.45707
     -3439.156  
  20476373.645   109457952.11107     -2325.867    20476380.125    85133988.89506
     -1809.012  
  21689189.961   115778372.56907      2209.854    21689196.238    90049868.10707
      1718.776  
 20 09 27 07 39 55.0000000  0 16G 8G27G15G13G21G18G24G20G10R10R 2R17
                                R11R24R 1R18
  24599771.314   129272669.27347       344.362    24599773.839   100731962.46844
       268.331  
  24135800.556   126834485.73246     -1482.969    24135802.721    98832074.23745
     -1155.563  
  21242111.455   111628047.68649     -2487.492    21242111.124    86982895.25248
     -1938.309  
  23809082.281   125117572.67348     -3485.706    23809081.977    97494196.62744
     -2716.140  
  24682825.002   129709120.16446      2708.452    24682824.276   101072025.78144
      2110.453  
  21417051.569   112547382.09548     -2584.594    21417052.572    87699255.02046
     -2013.973  
  21045288.202   110593735.79248      1773.612    21045290.467    86176947.75446
      1382.035  
  20032092.530   105269391.25549       702.019    20032091.553    82028111.85348
       547.023  
  22066905.493   115962407.51548      2572.621    22066907.817    90360299.83147
      2004.640  
  22145337.536   118047102.04206     -1793.531           0.000           0.0000 
         0.000  
  19927804.370   106338605.76408      1738.695    19927809.813    82707856.29507
      1352.320  
  20437001.780   109362538.93008     -1727.313    20437005.547    85059780.86408
     -1343.469  
  21431955.758   114525878.22907      2428.065    21431961.781    89075707.68107
      1888.495  
  22764391.343   121731428.91707     -4423.597    22764397.647    94680024.71407
     -3440.581  
  20478550.132   109469586.58807     -2328.289    20478556.616    85143037.92506
     -1810.895  
  21687121.895   115767333.25107      2205.715    21687128.212    90041281.98007
      1715.554  
 20 09 27 07 40  0.0000000  0 16G 8G27G15G13G21G18G24G20G10R10R 2R17
                                R11R24R 1R18
  24599445.041   129270954.69847       341.284    24599447.532   100730626.45044
       265.938  
  24137212.916   126841907.52046     -1485.683    24137215.020    98837857.42746
     -1157.679  
  21244478.864   111640488.41149     -2488.983    21244478.500    86992589.32648
     -1939.469  
  23812398.584   125134999.90348     -3485.609    23812398.327    97507776.27644
     -2716.063  
  24680248.290   129695579.38546      2707.644    24680247.617   101061474.50844
      2109.847  
  21419511.534   112560309.27048     -2586.668    21419512.547    87709328.14446
     -2015.590  
  21043601.999   110584874.67048      1770.644    21043604.237    86170042.98546
      1379.722  
  20031425.561   105265886.30749       699.719    20031424.585    82025380.73048
       545.234  
  22064458.002   115949545.74148      2571.819    22064460.296    90350277.67548
      2004.016  
  22147021.489   118056078.17506     -1797.352           0.000           0.0000 
         0.000  
  19926175.801   106329915.43808      1737.141    19926181.235    82701097.15407
      1351.104  
  20438617.455   109371184.85608     -1731.301    20438621.246    85066505.47508
     -1346.570  
  21429685.230   114513745.15207      2424.522    21429691.235    89066270.84807
      1885.741  
  22768527.706   121753548.03607     -4424.137    22768534.054    94697228.46406
     -3441.000  
  20480728.177   109481229.61007     -2329.281    20480734.676    85152093.60706
     -1811.667  
  21685057.696   115756314.38407      2201.901    21685064.007    90032711.75107
      1712.586  
 20 09 27 07 40  5.0000000  0 16G 8G27G15G13G21G18G24G20G10R10R 2R17
                                R11R24R 1R18
  24599121.663   129269255.48947       338.113    24599124.103   100729302.40544
       263.464  
  24138627.844   126849343.07546     -1488.203    24138629.995    98843651.39045
     -1159.640  
  21246847.882   111652937.71449     -2490.867    21246847.515    87002290.07548
     -1940.938  
  23815715.374   125152429.68848     -3486.452    23815715.093    97521357.90844
     -2716.718  
  24677672.805   129682044.84147      2705.726    24677672.176   101050928.13344
      2108.363  
  21421973.794   112573248.53048     -2589.152    21421974.783    87719410.68046
     -2017.522  
  21041918.801   110576029.31648      1767.343    21041921.000    86163150.50547
      1377.151  
  20030760.908   105262393.56349       697.414    20030759.953    82022659.11348
       543.441  
  22062011.594   115936689.71349      2570.530    22062013.882    90340259.98548
      2003.011  
  22148709.213   118065074.66506     -1801.406           0.000           0.0000 
         0.000  
  19924549.063   106321235.00908      1735.059    19924554.519    82694345.70807
      1349.488  
  20440237.188   109379852.31608     -1735.745    20440240.959    85073246.82708
     -1350.027  
  21427418.026   114501629.68607      2421.203    21427423.998    89056847.70607
      1883.155  
  22772665.076   121775672.31507     -4425.516    22772671.411    94714436.22606
     -3442.069  
  20482907.687   109492880.52907     -2331.175    20482914.221    85161155.43306
     -1813.136  
  21682997.199   115745315.22107      2197.832    21683003.471    90024156.85007
      1709.421  
 20 09 27 07 40 10.0000000  0 16G 8G27G15G13G21G18G24G20G10R10R 2R17
                                R11R24R 1R18
  24598801.379   129267572.35847       335.175    24598803.844   100727990.84544
       261.167  
  24140045.556   126856793.14346     -1491.012    24140047.761    98849456.62345
     -1161.832  
  21249218.647   111665396.26349     -2492.448    21249218.297    87011998.03348
     -1942.172  
  23819032.792   125169862.71248     -3486.684    23819032.482    97534942.09144
     -2716.897  
  24675098.571   129668517.14747      2704.973    24675097.943   101040387.08344
      2107.766  
  21424438.457   112586200.51648     -2591.324    21424439.457    87729503.13947
     -2019.218  
  21040238.708   110567200.27048      1764.426    21040240.859    86156270.73146
      1374.878  
  20030098.727   105258913.77849       694.867    20030097.764    82019947.59048
       541.449  
  22059566.416   115923840.15449      2569.601    22059568.671    90330247.35048
      2002.284  
  22150400.852   118074092.17806     -1805.594           0.000           0.0000 
         0.000  
  19922924.204   106312564.35208      1733.276    19922929.650    82687601.86707
      1348.104  
  20441861.054   109388542.04408     -1740.074    20441864.851    85080005.50908
     -1353.394  
  21425154.267   114489532.71807      2417.808    21425160.209    89047438.95707
      1880.519  
  22776803.542   121797802.21207     -4426.308    22776809.798    94731648.36706
     -3442.687  
  20485088.792   109504539.85107     -2332.651    20485095.337    85170223.79106
     -1814.288  
  21680940.475   115734336.28507      2193.847    21680946.746    90015617.67607
      1706.320  
 20 09 27 07 40 15.0000000  0 16G 8G27G15G13G21G18G24G20G10R10R 2R17
                                R11R24R 1R18
  24598483.872   129265903.84647       332.125    24598486.346   100726690.71044
       258.793  
  24141465.748   126864256.17346     -1494.062    24141467.978    98855271.98845
     -1164.203  
  21251590.918   111677862.60049     -2494.297    21251590.563    87021712.06648
     -1943.609  
  23822350.516   125187297.53148     -3487.347    23822350.262    97548527.66145
     -2717.417  
  24672525.422   129654994.94047      2703.558    24672524.647   101029850.30044
      2106.663  
  21426905.294   112599163.80148     -2593.894    21426906.310    87739604.39646
     -2021.219  
  21038561.444   110558386.15748      1761.140    21038563.598    86149402.60047
      1372.316  
  20029438.729   105255445.50049       692.237    20029437.773    82017245.03848
       539.406  
  22057122.202   115910995.63149      2568.121    22057124.432    90320238.63048
      2001.133  
  22152096.232   118083129.28706     -1809.750           0.000           0.0000 
         0.000  
  19921301.044   106303902.80008      1731.237    19921306.464    82680865.10807
      1346.519  
  20443488.827   109397252.65008     -1744.449    20443492.620    85086780.42108
     -1356.797  
  21422893.596   114477452.59407      2413.855    21422899.571    89038043.30907
      1877.441  
  22780942.848   121819936.43807     -4427.488    22780949.053    94748863.86706
     -3443.604  
  20487271.216   109516206.21807     -2334.059    20487277.757    85179297.62906
     -1815.382  
  21678887.312   115723376.32807      2190.113    21678893.565    90007093.27607
      1703.421  
 20 09 27 07 40 20.0000000  0 16G 8G27G15G13G21G18G24G20G10R10R 2R17
                                R11R24R 1R18
  24598169.445   129264251.73947       328.625    24598171.983   100725403.38344
       256.069  
  24142888.721   126871733.97846     -1496.988    24142890.911    98861098.81746
     -1166.487  
  21253965.000   111690338.42149     -2496.180    21253964.618    87031433.48448
     -1945.077  
  23825668.910   125204735.77948     -3488.269    23825668.749    97562115.90145
     -2718.137  
  24669953.612   129641479.95847      2702.640    24669952.758   101019319.12843
      2105.949  
  21429374.598   112612140.11548     -2596.742    21429375.612    87749715.80646
     -2023.438  
  21036887.362   110549588.76948      1757.684    21036889.497    86142547.49646
      1369.624  
  20028781.242   105251990.44449       689.680    20028780.283    82014552.78948
       537.414  
  22054679.267   115898157.86149      2566.726    22054681.470    90310235.17448
      2000.047  
  22153795.521   118092187.67106     -1813.761           0.000           0.0000 
         0.000  
  19919679.835   106295251.65608      1729.304    19919685.245    82674136.44707
      1345.015  
  20445120.799   109405985.75308     -1748.909    20445124.609    85093572.83508
     -1360.266  
  21420636.533   114465391.15807      2410.641    21420642.424    89028662.19407
      1874.938  
  22785083.207   121842076.55007     -4428.570    22785089.375    94766083.93406
     -3444.448  
  20489455.334   109527881.39507     -2335.851    20489461.856    85188378.32505
     -1816.772  
  21676838.002   115712437.06607      2185.723    21676844.265    89998584.96407
      1700.007  
 20 09 27 07 40 25.0000000  0 16G 8G27G15G13G21G18G24G20G10R10R 2R17
                                R11R24R 1R18
  24597858.067   129262615.43447       326.070    24597860.511   100724128.30344
       254.074  
  24144314.392   126879225.83746     -1499.667    24144316.681    98866936.63845
     -1168.573  
  21256340.751   111702823.11149     -2497.566    21256340.365    87041161.80548
     -1946.159  
  23828987.848   125222176.81948     -3488.327    23828987.657    97575706.30645
     -2718.183  
  24667383.082   129627971.57447      2701.043    24667382.377   101008793.12744
      2104.707  
  21431846.249   112625128.76048     -2598.952    21431847.268    87759836.82746
     -2025.163  
  21035216.353   110540807.46048      1754.925    21035218.478    86135704.92446
      1367.477  
  20028126.148   105248547.93549       687.406    20028125.218    82011870.31348
       535.641  
  22052237.501   115885326.20049      2565.809    22052239.681    90300236.48648
      1999.331  
  22155498.609   118101266.55806     -1817.593           0.000           0.0000 
         0.000  
  19918060.424   106286610.26108      1727.375    19918065.845    82667415.36407
      1343.515  
  20446756.891   109414740.78108     -1752.984    20446760.694    85100382.29708
     -1363.438  
  21418382.812   114453347.86407      2407.331    21418388.671    89019295.19307
      1872.371  
  22789224.560   121864222.00507     -4429.765    22789230.651    94783308.15306
     -3445.379  
  20491640.917   109539564.68107     -2337.398    20491647.470    85197465.32006
     -1817.979  
  21674792.495   115701517.73007      2182.300    21674798.685    89990092.15507
      1697.344  
 20 09 27 07 40 30.0000000  0 16G 8G27G15G13G21G18G24G20G10R10R 2R17
                                R11R24R 1R18
  24597549.491   129260993.82947       322.980    24597551.871   100722864.75443
       251.671  
  24145742.570   126886730.77746     -1502.273    24145744.844    98872784.63145
     -1170.604  
  21258717.996   111715315.64949     -2499.155    21258717.641    87050896.25748
     -1947.395  
  23832307.151   125239619.81448     -3488.894    23832306.887    97589298.25045
     -2718.621  
  24664813.652   129614468.78347      2700.184    24664812.943   100998271.47344
      2103.972  
  21434320.060   112638128.78548     -2601.066    21434321.090    87769966.71346
     -2026.808  
  21033548.203   110532041.18048      1751.812    21033550.297    86128874.06346
      1365.047  
  20027473.269   105245117.06449       685.168    20027472.353    82009196.90848
       533.894  
  22049796.729   115872499.69849      2564.827    22049798.887    90290241.81048
      1998.566  
  22157205.480   118110365.07806     -1821.605           0.000           0.0000 
         0.000  
  19916442.710   106277977.95608      1725.757    19916448.123    82660701.34507
      1342.254  
  20448396.858   109423516.60408     -1757.050    20448400.666    85107207.93508
     -1366.598  
  21416132.259   114441321.62207      2403.304    21416138.118    89009941.45607
      1869.238  
  22793366.730   121886371.79907     -4430.453    22793372.813    94800535.77506
     -3445.909  
  20493827.833   109551255.06408     -2338.550    20493834.383    85206557.84106
     -1818.875  
  21672750.577   115690617.52507      2178.496    21672756.702    89981614.21907
      1694.387  
 20 09 27 07 40 35.0000000  0 16G 8G27G15G13G21G18G24G20G10R10R 2R17
                                R11R24R 1R18
  24597244.032   129259388.75347       319.323    24597246.379   100721614.03544
       248.823  
  24147173.555   126894250.50046     -1506.187    24147175.737    98878644.14945
     -1173.655  
  21261097.066   111727817.74849     -2501.620    21261096.710    87060638.14648
     -1949.319  
  23835627.132   125257066.37047     -3490.448    23835626.847    97602892.96445
     -2719.836  
  24662245.560   129600973.37346      2698.405    24662244.823   100987755.57743
      2102.647  
  21436796.361   112651141.86548     -2604.664    21436797.418    87780106.77047
     -2029.612  
  21031883.211   110523291.62248      1748.105    21031885.305    86122056.22946
      1362.159  
  20026822.927   105241699.52549       681.902    20026822.016    82006533.88848
       531.348  
  22047357.256   115859680.05549      2562.905    22047359.382    90280252.47848
      1997.065  
  22158916.312   118119484.81006     -1826.465           0.000           0.0000 
         0.000  
  19914826.960   106269356.09708      1723.086    19914832.386    82653995.46707
      1340.180  
  20450041.042   109432315.09409     -1762.152    20450044.881    85114051.20308
     -1370.565  
  21413885.233   114429314.19707      2399.324    21413891.078    89000602.34807
      1866.140  
  22797509.980   121908527.55906     -4431.910    22797516.098    94817768.00405
     -3447.327  
  20496016.442   109562954.37007     -2340.863    20496022.994    85215657.29706
     -1820.675  
  21670712.532   115679738.05207      2173.698    21670718.611    89973152.41107
      1690.656  
 20 09 27 07 40 40.0000000  0 16G 8G27G15G13G21G18G24G20G10R10R 2R17
                                R11R24R 1R18
  24596942.032   129257801.70547       316.022    24596944.367   100720377.34743
       246.249  
  24148607.669   126901786.59746     -1508.667    24148609.865    98884516.44645
     -1175.585  
  21263478.254   111740331.00649     -2503.441    21263477.911    87070388.73548
     -1950.737  
  23838948.067   125274518.03047     -3490.332    23838947.845    97616491.67444
     -2719.738  
  24659679.205   129587486.80147      2697.156    24659678.481   100977246.58745
      2101.680  
  21439275.419   112664169.52647     -2606.301    21439276.519    87790258.21046
     -2030.882  
  21030221.736   110514560.47849      1744.788    21030223.802    86115252.74447
      1359.574  
  20026175.431   105238296.87949       679.543    20026174.518    82003882.49348
       529.516  
  22044919.393   115846868.84249      2561.828    22044921.493    90270269.72848
      1996.230  
  22160631.427   118128627.52206     -1830.578           0.000           0.0000 
         0.000  
  19913213.487   106260746.41808      1721.218    19913218.941    82647299.07207
      1338.730  
  20451689.772   109441137.74608     -1766.515    20451693.605    85120913.26708
     -1373.957  
  21411642.063   114417327.28307      2395.671    21411647.845    88991279.19307
      1863.297  
  22801654.630   121930690.96006     -4432.773    22801660.731    94835006.21605
     -3447.714  
  20498207.004   109574664.08508     -2342.741    20498213.544    85224764.84406
     -1822.136  
  21668678.598   115668880.92807      2169.644    21668684.700    89964707.98807
      1687.500  
 20 09 27 07 40 45.0000000  0 16G 8G27G15G13G21G18G24G20G10R10R 2R17
                                R11R24R 1R18
  24596642.473   129256227.44647       313.827    24596644.699   100719150.69343
       244.543  
  24150043.824   126909333.83447     -1510.558    24150046.101    98890397.40545
     -1177.062  
  21265860.586   111752850.24049     -2504.440    21265860.243    87080143.98648
     -1951.512  
  23842268.992   125291969.70647     -3490.249    23842268.809    97630090.37244
     -2719.676  
  24657113.556   129574004.07047      2696.183    24657112.899   100966740.55044
      2100.917  
  21441756.280   112677206.66447     -2608.539    21441757.395    87800417.01646
     -2032.628  
  21028562.790   110505842.62949      1742.241    21028564.813    86108459.61846
      1357.585  
  20025529.796   105234904.04349       677.675    20025528.860    82001238.72148
       528.054  
  22042482.131   115834060.94549      2561.352    22042484.222    90260289.54448
      1995.858  
  22162349.789   118137787.86106     -1833.703           0.000           0.0000 
         0.000  
  19911601.366   106252143.89508      1719.784    19911606.832    82640608.22107
      1337.609  
  20453342.029   109449979.36908     -1770.108    20453345.873    85127790.08508
     -1376.754  
  21409401.763   114405355.61207      2392.796    21409407.489    88981967.89807
      1861.063  
  22805799.846   121952856.57506     -4433.520    22805805.829    94852246.14605
     -3448.293  
  20500398.575   109586379.03708     -2343.331    20500405.076    85233876.47405
     -1822.593  
  21666647.975   115658041.04207      2166.292    21666654.024    89956276.96307
      1684.891  
 20 09 27 07 40 50.0000000  0 16G 8G27G15G13G21G18G24G20G10R10R 2R17
                                R11R24R 1R18
  24596345.891   129254668.90147       311.249    24596348.155   100717936.20844
       242.526  
  24151482.673   126916895.16046     -1512.609    24151484.895    98896289.33745
     -1178.663  
  21268244.585   111765378.30349     -2505.601    21268244.261    87089906.11248
     -1952.418  
  23845590.456   125309424.17948     -3490.229    23845590.360    97643691.25845
     -2719.663  
  24654549.156   129560527.90146      2695.812    24654548.477   100956239.70445
      2100.495  
  21444239.549   112690256.30347     -2610.226    21444240.678    87810585.54946
     -2033.949  
  21026906.855   110497140.72348      1739.925    21026908.901    86101678.93844
      1355.788  
  20024886.529   105231523.74348       675.992    20024885.601    81998604.71847
       526.746  
  22040046.041   115821259.11249      2560.894    22040048.118    90250314.10448
      1995.508  
  22164072.126   118146968.85405     -1837.581           0.000           0.0000 
         0.000  
  19909991.089   106243551.02708      1718.710    19909996.516    82633924.87507
      1336.770  
  20454998.335   109458842.69508     -1773.632    20455002.197    85134683.77808
     -1379.496  
  21407164.817   114393401.98807      2389.976    21407170.531    88972670.63407
      1858.867  
  22809945.977   121975027.39204     -4434.141    22809951.923    94869490.08903
     -3448.785  
  20502591.603   109598102.02807     -2344.227    20502598.111    85242994.35406
     -1823.288  
  21664621.074   115647221.21206      2163.289    21664627.122    89947861.58108
      1682.563  
 20 09 27 07 40 55.0000000  0 15G 8G27G15G13G21G18G24G20G10R10R 2R17
                                R11R 1R18
  24596052.086   129253125.03547       307.648    24596054.349   100716733.09043
       239.707  
  24152923.999   126924469.31447     -1515.702    24152926.094    98902191.21245
     -1181.074  
  21270630.092   111777914.10149     -2507.430    21270629.746    87099674.21248
     -1953.848  
  23848912.247   125326880.34048     -3490.855    23848912.122    97657293.44345
     -2720.152  
  24651985.797   129547057.36047      2694.147    24651985.176   100945743.10145
      2099.323  
  21446724.990   112703317.03747     -2612.723    21446726.060    87820762.74144
     -2035.886  
  21025253.793   110488453.82647      1736.359    21025255.789    86094909.81242
      1352.992  
  20024245.456   105228155.07348       673.055    20024244.572    81995979.78047
       524.453  
  22037610.934   115808462.44549      2559.395    22037612.994    90240342.68048
      1994.328  
  22165798.037   118156169.18107     -1841.188           0.000           0.0000 
         0.000  
  19908382.477   106234967.16508      1716.394    19908387.885    82627248.51906
      1334.964  
  20456658.534   109467726.72008     -1778.344    20456662.382    85141593.57807
     -1383.156  
  21404931.105   114381465.48908      2386.171    21404936.797    88963386.70907
      1855.909  
  20504785.961   109609832.03408     -2346.191    20504792.443    85252117.62606
     -1824.742  
  21662597.645   115636420.38807      2158.769    21662603.719    89939460.87707
      1679.034  
 20 09 27 07 41  0.0000000  0 14G 8G27G15G13G21G24G20G10R10R 2R17R11
                                R 1R18
  24595761.253   129251596.44948       303.147    24595763.418   100715542.05944
       236.226  
  24154367.918   126932057.10147     -1520.151    24154369.979    98908103.80645
     -1184.534  
  21273017.183   111790458.32049     -2510.859    21273016.858    87109448.97348
     -1956.515  
  23852234.445   125344338.76248     -3493.046    23852234.443    97670897.38745
     -2721.862  
  24649423.663   129533593.03347      2691.117    24649422.944   100935251.47144
      2096.801  
  21023603.715   110479782.57449      1731.546    21023605.652    86088153.09146
      1349.257  
  20023606.706   105224798.51348       668.917    20023605.836    81993364.29347
       521.233  
  22035176.916   115795671.50148      2556.362    22035178.943    90230375.70747
      1991.972  
  22167527.696   118165389.54807     -1847.382           0.000           0.0000 
         0.000  
  19906775.655   106226392.63508      1712.910    19906781.000    82620579.47506
      1332.265  
  20458322.775   109476632.37907     -1784.593    20458326.620    85148520.18006
     -1388.019  
  21402700.753   114369546.85108      2380.823    21402706.391    88954116.67608
      1851.754  
  20506981.767   109621569.75508     -2349.522    20506988.240    85261247.02306
     -1827.401  
  21660577.934   115625639.22207      2153.051    21660584.056    89931075.57907
      1674.598  
 20 09 27 07 41  5.0000000  0 16G 8G27G15G13G21G18G24G20G10R10R 2R17
                                R11R24R 1R18
  24595474.691   129250090.61547       299.402    24595476.861   100714368.74944
       233.308  
  24155815.828   126939665.85547     -1523.308    24155817.831    98914032.73645
     -1186.991  
  21275407.268   111803018.20849     -2512.934    21275406.943    87119235.91148
     -1958.128  
  23855558.516   125361806.90547     -3493.905    23855558.530    97684508.93645
     -2722.526  
  24646864.109   129520142.33447      2689.320    24646863.346   100924770.40644
      2095.414  
  21451703.814   112729464.03158     -2619.605    21451705.798    87841149.28156
     -2041.250  
  21021958.073   110471134.60749      1727.895    21021960.028    86081414.44146
      1346.414  
  20022971.703   105221461.55049       666.058    20022970.808    81990764.05348
       519.008  
  22032745.406   115782893.73349      2554.714    22032747.405    90220418.99948
      1990.683  
  22169262.606   118174637.44006     -1851.590           0.000           0.0000 
         0.000  
  19905171.956   106217835.02008      1710.309    19905177.297    82613923.54407
      1330.233  
  20459992.372   109485566.54608     -1789.105    20459996.202    85155468.99608
     -1391.527  
  21400475.047   114357653.41707      2376.922    21400480.672    88944866.21907
      1848.715  
         0.000           0.0000          0.000    22822396.426    94921249.36416
     -3452.304  
  20509180.394   109633322.52008     -2351.453    20509186.827    85270388.08005
     -1828.901  
  21658563.358   115614885.30907      2148.832    21658569.460    89922711.41307
      1671.312  
 20 09 27 07 41 10.0000000  0 16G 8G27G15G13G21G18G24G20G10R10R 2R17
                                R11R24R 1R18
  24595191.075   129248600.45747       296.734    24595193.217   100713207.55344
       231.222  
  24157266.365   126947288.47746     -1525.937    24157268.370    98919972.44846
     -1189.042  
  21277798.981   111815586.80949     -2514.320    21277798.683    87129029.62148
     -1959.214  
  23858883.148   125379277.77747     -3494.547    23858883.142    97698122.60345
     -2723.022  
  24644305.799   129506698.22947      2688.069    24644305.113   100914294.46644
      2094.664  
  21454197.406   112742567.94348     -2621.898    21454199.279    87851360.10646
     -2043.042  
  21020315.456   110462502.59449      1724.969    21020317.383    86074688.21046
      1344.132  
  20022339.095   105218137.17349       663.726    20022338.200    81988173.63048
       517.190  
  22030315.027   115770122.00849      2553.977    22030317.029    90210467.01448
      1990.112  
  22171001.342   118183905.75706     -1855.527           0.000           0.0000 
         0.000  
  19903570.122   106209287.35908      1708.625    19903575.477    82607275.36507
      1328.930  
  20461666.030   109494522.56408     -1793.136    20461669.847    85162434.78308
     -1394.663  
  21398252.755   114345778.09708      2373.535    21398258.368    88935629.85907
      1846.077  
  22826541.371   122063772.64317     -4439.809    22826547.615    94938513.56406
     -3453.188  
  20511380.511   109645083.34208     -2352.883    20511386.945    85279535.37805
     -1830.019  
  21656552.505   115604151.45807      2144.796    21656558.649    89914362.86507
      1668.176  
 20 09 27 07 41 15.0000000  0 16G 8G27G15G13G21G18G24G20G10R10R 2R17
                                R11R24R 1R18
  24594909.438   129247120.41447       294.538    24594911.502   100712054.29344
       229.512  
  24158718.510   126954919.48746     -1527.738    24158720.560    98925918.67645
     -1190.448  
  21280191.304   111828158.54949     -2515.319    21280191.004    87138825.77948
     -1959.992  
  23862207.212   125396745.82047     -3493.835    23862207.220    97711734.05244
     -2722.473  
  24641747.640   129493255.17047      2687.762    24641747.059   100903819.37844
      2094.359  
  21456692.283   112755678.48648     -2623.285    21456694.026    87861576.11646
     -2044.121  
  21018674.843   110453881.08449      1722.687    21018676.748    86067970.14746
      1342.355  
  20021707.826   105214819.86149       662.262    20021706.945    81985588.71348
       516.047  
  22027884.747   115757350.86249      2553.675    22027886.753    90200515.47447
      1989.808  
  22172742.844   118193188.93807     -1858.593           0.000           0.0000 
         0.000  
  19901969.021   106200743.64208      1707.660    19901974.388    82600630.25307
      1328.179  
  20463342.657   109503494.56308     -1796.479    20463346.494    85169413.00408
     -1397.265  
  21396032.752   114333915.29708      2370.835    21396038.408    88926403.24207
      1843.984  
  22830692.626   122085968.98607     -4439.663    22830697.966    94955777.37006
     -3453.074  
  20513581.057   109656846.36508     -2353.684    20513587.467    85288684.38806
     -1830.647  
  21654544.396   115593431.97307      2141.906    21654550.522    89906025.49307
      1665.925  
 20 09 27 07 41 20.0000000  0 17G 8G27G15G13G21G18G24G20G10R10R 2R12
                                R17R11R24R 1R18
  24594631.742   129245661.08147       290.214    24594633.918   100710917.13244
       226.132  
  24160174.187   126962569.43746     -1531.608    24160176.331    98931879.68845
     -1193.464  
  21282586.232   111840744.01449     -2517.874    21282585.923    87148632.63248
     -1961.984  
  23865532.765   125414221.59247     -3495.448    23865532.687    97725351.53345
     -2723.729  
  24639191.730   129479823.73847      2686.023    24639191.113   100893353.33245
      2093.078  
  21459190.435   112768806.23948     -2626.702    21459192.055    87871805.53146
     -2046.784  
  21017038.223   110445280.62149      1718.745    21017040.128    86061268.49246
      1339.281  
  20021079.902   105211520.16149       658.886    20021079.033    81983017.51848
       513.414  
  22025456.598   115744590.88549      2551.539    22025458.612    90190572.64048
      1988.210  
  22174489.169   118202497.64606     -1863.409           0.000           0.0000 
         0.000  
  19900370.763   106192215.09008      1704.999    19900376.156    82593996.93507
      1326.108  
  23545152.232   125773978.97317      4400.949           0.000           0.0000 
         0.000  
  20465024.296   109512493.38708     -1801.773    20465028.147    85176412.09008
     -1401.382  
  21393817.189   114322075.80908      2366.476    21393822.788    88917194.75707
      1840.594  
  22834845.183   122108175.48207     -4441.706    22834850.504    94973049.08606
     -3454.663  
  20515784.061   109668622.65308     -2355.809    20515790.465    85297843.72205
     -1832.301  
  21652540.987   115582737.76607      2137.101    21652547.129    89897707.77707
      1662.191  
 20 09 27 07 41 25.0000000  0 17G 8G27G15G13G21G18G24G20G10R10R 2R12
                                R17R11R24R 1R18
  24594356.178   129244213.10647       288.272    24594358.452   100709788.86244
       224.629  
  24161631.737   126970229.03846     -1533.280    24161633.882    98937848.18045
     -1194.770  
  21284982.026   111853333.99449     -2518.565    21284981.724    87158443.00548
     -1962.523  
  23868858.014   125431695.83147     -3495.156    23868858.011    97738967.80345
     -2723.504  
  24636636.299   129466394.79647      2685.483    24636635.776   100882889.21944
      2092.582  
  21461690.103   112781941.95748     -2628.281    21461691.622    87882041.15546
     -2048.015  
  21015403.865   110436691.88349      1716.362    21015405.725    86054575.98146
      1337.426  
  20020453.582   105208228.82649       657.155    20020452.721    81980452.84548
       512.070  
  22023028.836   115731832.84749      2551.206    22023030.830    90180631.31048
      1987.952  
  22176238.555   118211822.39207     -1867.102           0.000           0.0000 
         0.000  
  19898773.539   106183691.87108      1703.527    19898778.895    82587367.77107
      1324.965  
  23541032.262   125751971.45807      4401.656    23541040.381    97807116.27417
      3423.511  
  20466709.211   109521509.61208     -1805.226    20466713.051    85183424.70508
     -1404.069  
  21391604.232   114310250.28508      2363.660    21391609.804    88907997.13107
      1838.402  
  22838997.662   122130382.71207     -4441.691    22839003.484    94990321.35706
     -3454.651  
  20517987.697   109680402.66108     -2356.875    20517994.151    85307005.94705
     -1833.128  
  21650540.541   115572059.34007      2133.976    21650546.687    89889402.34207
      1659.757  
 20 09 27 07 41 30.0000000  0 17G 8G27G15G13G21G18G24G20G10R10R 2R12
                                R17R11R24R 1R18
  24594083.750   129242781.33047       284.347    24594086.023   100708673.18544
       221.570  
  24163092.006   126977902.92646     -1536.097    24163094.229    98943827.83745
     -1196.961  
  21287379.520   111865933.03649     -2520.801    21287379.250    87168260.44148
     -1964.265  
  23872183.850   125449173.21747     -3496.046    23872183.900    97752586.54645
     -2724.194  
  24634082.175   129452972.84847      2683.465    24634081.547   100872430.57545
      2091.012  
  21464192.143   112795090.23248     -2631.253    21464193.565    87892286.56646
     -2050.332  
  21013772.618   110428119.71949      1712.573    21013774.497    86047896.37146
      1334.472  
  20019829.726   105204950.47349       654.214    20019828.865    81977898.28948
       509.777  
  22020602.306   115719081.34749      2549.434    22020604.310    90170695.08548
      1986.569  
  22177991.768   118221168.03606     -1871.426           0.000           0.0000 
         0.000  
  19897178.243   106175179.13108      1701.238    19897183.619    82580746.75007
      1323.184  
  23536912.936   125729966.29007      4401.102    23536920.322    97790001.15107
      3423.077  
  20468398.254   109530547.96308     -1810.003    20468402.075    85190454.53308
     -1407.784  
  21389394.777   114298443.37608      2359.375    21389400.318    88898813.98407
      1835.070  
  22843151.399   122152595.26707     -4443.323    22843157.415    95007597.77406
     -3455.921  
  20520192.996   109692191.03208     -2358.648    20520199.394    85316174.67706
     -1834.507  
  21648543.959   115561401.57707      2129.366    21648550.130    89881112.97607
      1656.176  
 20 09 27 07 41 35.0000000  0 17G 8G27G15G13G21G18G24G20G10R10R 2R12
                                R17R11R24R 1R18
  24593814.357   129241365.65947       281.667    24593816.561   100707570.06744
       219.477  
  24164555.064   126985591.16046     -1538.620    24164557.188    98949818.66045
     -1198.929  
  21289778.774   111878541.23249     -2522.222    21289778.501    87178085.00748
     -1965.370  
  23875510.275   125466653.73147     -3496.015    23875510.302    97766207.73144
     -2724.168  
  24631529.432   129439558.02847      2682.441    24631528.717   100861977.47744
      2090.214  
  21466696.601   112808251.12748     -2633.273    21466697.893    87902541.80846
     -2051.906  
  21012144.576   110419564.27049      1709.828    21012146.443    86041229.79546
      1332.331  
  20019208.353   105201685.16749       652.097    20019207.474    81975353.89248
       508.129  
  22018177.054   115706336.49949      2548.590    22018179.038    90160764.03647
      1985.914  
  22179748.890   118230534.60906     -1875.145           0.000           0.0000 
         0.000  
  19895584.843   106166676.50608      1699.871    19895590.231    82574133.59807
      1322.121  
  23532793.782   125707963.69307      4400.604    23532801.773    97772888.01907
      3422.690  
  20470091.410   109539608.38008     -1814.038    20470095.238    85197501.52208
     -1410.922  
  21387188.807   114286655.15308      2356.054    21387194.328    88889645.36807
      1832.484  
  22847306.234   122174813.32207     -4443.789    22847312.176    95024878.48306
     -3456.284  
  20522399.862   109703987.87008     -2359.844    20522406.251    85325349.99305
     -1835.437  
  21646551.231   115550764.35307      2125.566    21646557.398    89872839.58207
      1653.215  
 20 09 27 07 41 40.0000000  0 17G 8G27G15G13G21G18G24G20G10R10R 2R12
                                R17R11R24R 1R18
  24593547.761   129239964.69047       278.464    24593549.927   100706478.40044
       216.983  
  24166020.482   126993292.17546     -1541.480    24166022.584    98955819.46145
     -1201.152  
  21292179.457   111891157.00249     -2523.914    21292179.217    87187915.47648
     -1966.691  
  23878837.050   125484135.83347     -3496.499    23878837.093    97779830.13344
     -2724.550  
  24628977.730   129426148.77347      2681.262    24628976.901   100851528.71744
      2089.348  
  21469203.133   112821423.07148     -2635.535    21469204.377    87912805.66146
     -2053.668  
  21010519.352   110411023.72149      1706.487    21010521.262    86034574.82446
      1329.730  
  20018589.180   105198431.35849       649.593    20018588.281    81972818.46448
       506.176  
  22015752.762   115693596.69249      2547.387    22015754.734    90150836.91448
      1984.973  
  22181509.607   118239920.34706     -1878.780           0.000           0.0000 
         0.000  
  19893993.119   106158182.82108      1697.800    19893998.511    82567527.40107
      1320.511  
  23528675.256   125685961.98807      4400.535    23528683.140    97755775.60007
      3422.637  
  20471788.379   109548689.32908     -1818.319    20471792.222    85204564.48108
     -1414.254  
  21384986.012   114274884.08508      2352.530    21384991.549    88880490.09607
      1829.746  
  22851461.575   122197035.13907     -4444.823    22851467.756    95042162.10306
     -3457.145  
  20524607.982   109715791.53408     -2361.703    20524614.370    85334530.61806
     -1836.882  
  21644562.042   115540146.11307      2121.496    21644568.244    89864580.95407
      1650.051  
 20 09 27 07 41 45.0000000  0 17G 8G27G15G13G21G18G24G20G10R10R 2R12
                                R17R11R24R 1R18
  24593284.188   129238579.54147       275.281    24593286.326   100705399.06144
       214.500  
  24167488.615   127001007.23546     -1544.476    24167490.682    98961831.20145
     -1203.488  
  21294581.815   111903781.60349     -2525.972    21294581.607    87197752.82648
     -1968.293  
  23882164.334   125501620.79747     -3497.492    23882164.370    97793454.77745
     -2725.323  
  24626427.338   129412746.37547      2679.726    24626426.420   100841085.30044
      2088.098  
  21471712.017   112834607.31248     -2638.152    21471713.225    87923079.10046
     -2055.707  
  21008897.235   110402499.43749      1702.948    21008899.139    86027932.53446
      1326.972  
  20017972.438   105195190.38849       646.788    20017971.552    81970293.03148
       503.992  
  22013329.676   115680863.25949      2545.672    22013331.635    90140914.75947
      1983.640  
  22183274.176   118249326.52306     -1883.397           0.000           0.0000 
         0.000  
  19892403.228   106149698.83008      1695.620    19892408.616    82560928.74507
      1318.815  
  23524556.862   125663962.54707      4399.445    23524564.849    97738664.94407
      3421.789  
  20473489.428   109557792.11108     -1822.999    20473493.302    85211644.42408
     -1417.895  
  21382786.664   114263131.53108      2348.293    21382792.235    88871349.22807
      1826.449  
  22855618.317   122219262.04407     -4446.269    22855624.273    95059449.67906
     -3458.167  
  20526817.640   109727603.36207     -2363.304    20526824.009    85343717.59405
     -1838.128  
  21642576.712   115529548.38107      2117.367    21642582.918    89856338.27907
      1646.839  
 20 09 27 07 41 50.0000000  0 17G 8G27G15G13G21G18G24G20G10R10R 2R12
                                R17R11R24R 1R18
  24593023.699   129237210.62947       272.659    24593025.958   100704332.36643
       212.457  
  24168959.468   127008736.80746     -1546.870    24168961.597    98967854.23045
     -1205.359  
  21296985.978   111916415.56149     -2527.339    21296985.790    87207597.46348
     -1969.359  
  23885492.218   125519108.97547     -3497.812    23885492.346    97807081.90644
     -2725.570  
  24623878.345   129399351.32747      2678.620    24623877.446   100830647.58445
      2087.233  
  21474223.359   112847804.35148     -2640.195    21474224.514    87933362.50246
     -2057.300  
  21007278.326   110393991.98449      1700.125    21007280.234    86021303.36046
      1324.772  
  20017358.217   105191962.69949       644.593    20017357.328    81967777.94848
       502.280  
  22010907.875   115668136.67149      2544.968    22010909.854    90130997.94248
      1983.094  
  22185042.739   118258753.70806     -1887.140           0.000           0.0000 
         0.000  
  19890815.371   106141225.59708      1693.949    19890820.714    82554338.45707
      1317.515  
  23520438.952   125641965.90907      4399.434    23520446.957    97721556.45107
      3421.776  
  20475194.664   109566917.14108     -1826.934    20475198.525    85218741.66908
     -1420.952  
  21380590.932   114251397.92408      2345.222    21380596.437    88862223.09407
      1824.063  
  22859775.909   122241494.65007     -4447.128    22859781.886    95076741.69006
     -3458.882  
  20529028.931   109739423.88708     -2364.625    20529035.288    85352911.32906
     -1839.156  
  21640595.324   115518971.50507      2113.847    21640601.514    89848111.82307
      1644.104  
 20 09 27 07 41 55.0000000  0 17G 8G27G15G13G21G18G24G20G10R10R 2R12
                                R17R11R24R 1R18
  24592766.202   129235857.41247       269.004    24592768.564   100703277.91344
       209.609  
  24170432.965   127016480.20946     -1550.003    24170435.106    98973888.03245
     -1207.800  
  21299391.780   111929058.17149     -2529.398    21299391.598    87217448.84548
     -1970.964  
  23888820.647   125536599.80147     -3498.547    23888820.620    97820711.13445
     -2726.144  
  24621330.672   129385962.99547      2676.859    24621329.700   100820215.14744
      2085.863  
  21476736.974   112861013.51548     -2643.042    21476738.125    87943655.35046
     -2059.520  
  21005662.493   110385500.69149      1696.617    21005664.413    86014686.77946
      1322.038  
  20016746.417   105188747.69749       641.687    20016745.534    81965272.75248
       500.012  
  22008487.266   115655416.28749      2543.374    22008489.217    90121085.96147
      1981.852  
  22186815.103   118268201.28306     -1891.680           0.000           0.0000 
         0.000  
  19889229.356   106132762.19008      1691.625    19889234.668    82547755.80907
      1315.706  
  23516321.473   125619971.35507      4398.647    23516329.545    97704449.57007
      3421.172  
  20476903.920   109576063.74508     -1831.508    20476907.793    85225855.69208
     -1424.511  
  21378398.620   114239682.59108      2341.194    21378404.043    88853111.17107
      1820.929  
  22863934.517   122263732.06507     -4448.042    22863940.385    95094037.44606
     -3459.594  
  20531241.676   109751252.34007     -2366.628    20531248.029    85362111.23405
     -1840.715  
  21638617.710   115508414.83507      2109.109    21638623.879    89839901.08307
      1640.417  
 20 09 27 07 42  0.0000000  0 17G 8G27G15G13G21G18G24G20G10R10R 2R12
                                R17R11R24R 1R18
  24592511.838   129234520.59747       265.444    24592514.241   100702236.25344
       206.839  
  24171909.240   127024238.12046     -1553.249    24171911.369    98979933.17745
     -1210.324  
  21301799.330   111941710.02249     -2531.266    21301799.173    87227307.42848
     -1972.417  
  23892149.668   125554093.95747     -3498.938    23892149.663    97834342.94545
     -2726.445  
  24618784.382   129372582.02547      2675.421    24618783.376   100809788.40744
      2084.741  
  21479253.041   112874235.44448     -2645.796    21479254.166    87953958.14747
     -2061.664  
  21004049.852   110377026.23649      1693.133    21004051.786    86008083.30946
      1319.323  
  20016137.151   105185545.98549       638.964    20016136.262    81962777.91648
       497.890  
  22006067.961   115642702.75249      2541.859    22006069.889    90111179.31247
      1980.667  
  22188591.355   118277669.92406     -1895.969           0.000           0.0000 
         0.000  
  19887645.284   106124309.21708      1689.387    19887650.593    82541181.27707
      1313.968  
  23512204.426   125597979.64307      4397.977    23512212.677    97687344.92307
      3420.648  
  20478617.337   109585232.68108     -1836.026    20478621.213    85232987.08608
     -1428.019  
  21376209.855   114227986.21108      2337.331    21376215.226    88844013.99107
      1817.925  
  22868094.097   122285975.11807     -4449.515    22868099.920    95111337.60606
     -3460.723  
  20533456.020   109763089.40207     -2368.198    20533462.388    85371317.83205
     -1841.938  
  21636643.984   115497879.04307      2104.863    21636650.156    89831706.58107
      1637.116  
 20 09 27 07 42  5.0000000  0 17G 8G27G15G13G21G18G24G20G10R10R 2R12
                                R17R11R24R 1R18
  24592260.292   129233198.89947       263.202    24592262.666   100701206.37343
       205.093  
  24173388.028   127032009.17146     -1555.016    24173390.125    98985988.53145
     -1211.702  
  21304208.400   111954369.86649     -2532.410    21304208.268    87237172.23848
     -1973.308  
  23895479.083   125571590.02647     -3499.077    23895479.051    97847976.23445
     -2726.558  
  24616239.222   129359207.11847      2674.401    24616238.229   100799366.42545
      2083.949  
  21481771.267   112887468.77848     -2647.223    21481772.310    87964269.83947
     -2062.772  
  21002440.158   110368567.33249      1690.616    21002442.082    86001491.96646
      1317.362  
  20015530.155   105182356.19849       637.234    20015529.257    81960292.36448
       496.542  
  22003649.705   115629994.76249      2541.300    22003651.632    90101276.98648
      1980.233  
  22190371.276   118287158.09306     -1899.019           0.000           0.0000 
         0.000  
  19886062.974   106115865.57908      1688.081    19886068.259    82534614.00507
      1312.953  
  23508087.815   125575989.38207      4398.257    23508096.036    97670241.40407
      3420.866  
  20480334.676   109594422.54208     -1839.754    20480338.574    85240134.75708
     -1430.922  
  21374024.412   114216307.65208      2334.285    21374029.737    88834930.67407
      1815.554  
  22872254.379   122308222.20107     -4449.729    22872260.350    95128640.86706
     -3460.905  
  20535671.743   109774933.77108     -2369.132    20535678.122    85380530.12205
     -1842.663  
  21634673.917   115487362.78807      2102.046    21634680.101    89823527.27607
      1634.926  
 20 09 27 07 42 10.0000000  0 17G 8G27G15G13G21G18G24G20G10R10R 2R12
                                R17R11R24R 1R18
  24592011.690   129231892.61147       259.316    24592013.973   100700188.45844
       202.059  
  24174869.418   127039793.83147     -1559.015    24174871.428    98992054.49945
     -1214.815  
  21306619.089   111967038.09249     -2534.902    21306618.966    87247043.58148
     -1975.253  
  23898808.953   125589088.45247     -3500.230    23898808.963    97861611.35444
     -2727.457  
  24613695.310   129345838.70946      2672.843    24613694.335   100788949.50944
      2082.733  
  21484291.742   112900713.99448     -2650.707    21484292.825    87974590.77147
     -2065.487  
  21000833.474   110360124.24349      1686.464    21000835.410    85994912.94346
      1314.129  
  20014925.517   105179178.83449       633.832    20014924.625    81957816.49748
       493.891  
  22001232.583   115617292.76549      2539.397    22001234.500    90091379.32648
      1978.749  
  22192154.944   118296666.26406     -1903.890           0.000           0.0000 
         0.000  
  19884482.427   106107431.48008      1685.483    19884487.721    82528054.15607
      1310.934  
  23503971.521   125554001.06907      4397.073    23503979.773    97653139.39707
      3419.944  
  20482055.993   109603633.65808     -1844.894    20482059.897    85247298.95408
     -1434.922  
  21371842.291   114204647.12008      2329.910    21371847.605    88825861.37307
      1812.152  
  22876415.699   122330473.99307     -4451.366    22876421.513    95145947.79806
     -3462.183  
  20537888.899   109786785.96007     -2371.734    20537895.303    85389748.48305
     -1844.688  
  21632707.628   115476866.50807      2096.973    21632713.780    89815363.50807
      1630.980  
 20 09 27 07 42 15.0000000  0 17G 8G27G15G13G21G18G24G20G10R10R 2R12
                                R17R11R24R 1R18
  24591766.322   129230603.22747       256.262    24591768.545   100699183.78344
       199.684  
  24176353.644   127047593.46247     -1561.188    24176355.619    98998132.13845
     -1216.512  
  21309031.643   111979716.18149     -2536.617    21309031.518    87256922.61248
     -1976.586  
  23902139.500   125606590.75647     -3500.433    23902139.549    97875249.51744
     -2727.608  
  24611152.918   129332478.22346      2671.585    24611151.874   100778538.74244
      2081.757  
  21486814.765   112913972.47848     -2652.871    21486815.810    87984922.06646
     -2067.172  
  20999230.102   110351698.46549      1683.612    20999232.016    85988347.40846
      1311.906  
  20014323.519   105176015.28349       631.602    20014322.622    81955351.39448
       492.155  
  21998816.886   115604598.19349      2538.320    21998818.774    90081487.45848
      1977.909  
  22193942.749   118306196.11507     -1907.891           0.000           0.0000 
         0.000  
  19882904.006   106099008.65908      1683.430    19882909.304    82521503.07407
      1309.336  
  23499855.941   125532016.12807      4396.574    23499864.013    97636040.00907
      3419.558  
  20483781.588   109612867.60208     -1848.918    20483785.495    85254480.90908
     -1438.050  
  21369663.874   114193006.19208      2326.219    21369669.158    88816807.32507
      1809.281  
  22880577.980   122352731.79807     -4452.270    22880583.824    95163259.44106
     -3462.875  
  20540107.825   109798647.27008     -2373.378    20540114.206    85398973.94705
     -1845.960  
  21630745.395   115466391.85207      2092.828    21630751.516    89807216.55307
      1627.753  
 20 09 27 07 42 20.0000000  0 17G 8G27G15G13G21G18G24G20G10R10R 2R12
                                R17R11R24R 1R18
  24591523.935   129229329.41147       253.187    24591526.220   100698191.15744
       197.281  
  24177840.500   127055406.81747     -1563.984    24177842.377    99004220.44246
     -1218.694  
  21311445.813   111992402.75849     -2538.059    21311445.700    87266808.25248
     -1977.710  
  23905470.566   125624095.56147     -3501.046    23905470.586    97888889.61745
     -2728.093  
  24608611.741   129319124.34546      2669.988    24608610.752   100768133.11845
      2080.512  
  21489340.056   112927242.93948     -2655.172    21489341.101    87995262.67946
     -2068.969  
  20997629.802   110343288.83249      1680.461    20997631.695    85981794.45246
      1309.449  
  20013723.898   105172864.28449       629.097    20013723.022    81952896.07348
       490.206  
  21996402.347   115591909.73549      2537.141    21996404.235    90071600.35548
      1976.992  
  22195734.280   118315746.10907     -1912.062           0.000           0.0000 
         0.000  
  19881327.382   106090595.55208      1681.769    19881332.670    82514959.55407
      1308.042  
  23495740.828   125510033.33807      4396.719    23495748.779    97618942.27507
      3419.667  
  20485511.158   109622122.94208     -1853.187    20485515.093    85261679.51208
     -1441.366  
  21367488.838   114181383.52308      2322.934    21367494.135    88807767.47607
      1806.726  
  22884741.281   122374994.21407     -4452.714    22884747.033    95180574.63106
     -3463.292  
  20542328.194   109810516.35008     -2374.559    20542334.555    85408205.45105
     -1846.883  
  21628786.916   115455937.26307      2089.207    21628793.020    89799085.20907
      1624.934  
 20 09 27 07 42 25.0000000  0 17G 8G27G15G13G21G18G24G20G10R10R 2R12
                                R17R11R24R 1R18
  24591284.468   129228071.03447       250.207    24591286.758   100697210.63243
       194.969  
  24179329.914   127063233.71347     -1566.777    24179331.741    99010319.33045
     -1220.866  
  21313861.589   112005097.74649     -2539.652    21313861.475    87276700.44848
     -1978.953  
  23908802.099   125641602.79447     -3501.616    23908802.029    97902531.59845
     -2728.538  
  24606071.841   129305777.05047      2668.949    24606070.894   100757732.63644
      2079.695  
  21491867.597   112940525.22748     -2657.593    21491868.630    88005612.51846
     -2070.852  
  20996032.533   110334895.22349      1677.328    20996034.407    85975253.98246
      1307.008  
  20013126.642   105169725.71449       626.551    20013125.772    81950450.43348
       488.222  
  21993988.981   115579227.31449      2535.855    21993990.843    90061717.94847
      1975.991  
  22197529.686   118325316.16107     -1915.992           0.000           0.0000 
         0.000  
  19879752.552   106082191.96208      1679.776    19879757.841    82508423.42707
      1306.492  
  23491626.027   125488052.65707      4396.046    23491633.874    97601846.19007
      3419.145  
  20487244.745   109631399.65108     -1857.280    20487248.658    85268894.72208
     -1444.555  
  21365317.245   114169779.06308      2319.246    21365322.505    88798741.78807
      1803.858  
  22888905.468   122397261.24306     -4453.906    22888911.098    95197893.41605
     -3464.151  
  20544550.045   109822393.29008     -2376.081    20544556.389    85417443.06805
     -1848.066  
  21626832.194   115445502.79607      2085.007    21626838.280    89790969.52107
      1621.671  
 20 09 27 07 42 30.0000000  0 17G 8G27G15G13G21G18G24G20G10R10R 2R12
                                R17R11R24R 1R18
  24591048.252   129226829.77447       246.968    24591050.516   100696243.41744
       192.441  
  24180822.189   127071075.76047     -1569.063    24180823.977    99016430.03445
     -1222.644  
  21316279.237   112017802.63849     -2541.300    21316279.128    87286600.36448
     -1980.238  
  23912134.346   125659113.99547     -3502.285    23912134.293    97916176.69445
     -2729.059  
  24603533.463   129292437.90846      2667.527    24603532.560   100747338.51843
      2078.647  
  21494397.705   112953820.94248     -2660.093    21494398.644    88015972.81646
     -2072.804  
  20994438.622   110326519.19449      1674.051    20994440.497    85968727.21746
      1304.457  
  20012532.058   105166601.18549       624.102    20012531.202    81948015.73548
       486.313  
  21991577.031   115566552.49349      2534.816    21991578.890    90051841.46948
      1975.179  
  22199329.036   118334907.83607     -1919.848           0.000           0.0000 
         0.000  
  19878179.865   106073799.80008      1677.773    19878185.161    82501896.19107
      1304.933  
  23487511.819   125466075.54407      4395.742    23487519.709    97584752.89507
      3418.909  
  20488982.611   109640699.29408     -1861.535    20488986.521    85276127.78608
     -1447.862  
  21363149.374   114158194.42908      2315.484    21363154.601    88789731.52707
      1800.934  
  22893070.725   122419534.46406     -4454.421    22893076.258    95215217.03106
     -3464.637  
  20546773.536   109834279.37408     -2377.448    20546779.926    85426687.79905
     -1849.133  
  21624881.545   115435090.03307      2081.094    21624887.618    89782870.70507
      1618.625  
 20 09 27 07 42 35.0000000  0 17G 8G27G15G13G21G18G24G20G10R10R 2R12
                                R17R11R24R 1R18
  24590814.849   129225603.32647       243.679    24590817.055   100695287.74444
       189.875  
  24182316.958   127078930.73247     -1572.444    24182318.709    99022550.77445
     -1225.288  
  21318698.352   112030515.26649     -2543.398    21318698.254    87296506.30848
     -1981.871  
  23915466.961   125676626.91047     -3502.745    23915466.988    97929823.11945
     -2729.418  
  24600996.169   129279104.71246      2665.648    24600995.284   100736949.04745
      2077.133  
  21496929.942   112967127.84248     -2662.637    21496930.891    88026341.82146
     -2074.784  
  20992847.625   110318158.50949      1670.414    20992849.452    85962212.40446
      1301.621  
  20011939.724   105163488.45149       621.262    20011938.876    81945590.23148
       484.102  
  21989166.126   115553883.10249      2533.207    21989167.995    90041969.22548
      1973.925  
  22201132.037   118344518.87807     -1924.262           0.000           0.0000 
         0.000  
  19876608.861   106065416.75008      1675.484    19876614.176    82495376.05007
      1303.156  
  23483397.913   125444099.79907      4395.098    23483405.806    97567660.66107
      3418.409  
  20490724.324   109650019.55208     -1866.183    20490728.233    85283376.87107
     -1451.480  
  21360984.728   114146627.22008      2311.523    21360989.956    88780734.81407
      1797.852  
  22897236.674   122441811.56906     -4455.855    22897242.143    95232543.66506
     -3465.613  
  20548998.366   109846172.55408     -2379.655    20549004.775    85435938.04305
     -1850.848  
  21622934.521   115424696.68707      2076.796    21622940.589    89774786.99907
      1615.285  
 20 09 27 07 42 40.0000000  0 17G 8G27G15G13G21G18G24G20G10R10R 2R12
                                R17R11R24R 1R18
  24590584.319   129224392.01047       240.495    24590586.560   100694343.84643
       187.398  
  24183814.213   127086798.89447     -1574.895    24183816.039    99028681.81245
     -1227.195  
  21321118.994   112043235.91649     -2544.875    21321118.927    87306418.50048
     -1983.022  
  23918799.936   125694141.87147     -3502.948    23918800.065    97943471.13645
     -2729.574  
  24598460.120   129265777.77946      2665.085    24598459.190   100726564.38744
      2076.683  
  21499464.383   112980446.23248     -2664.866    21499465.270    88036719.77346
     -2076.523  
  20991259.639   110309813.65149      1667.335    20991261.478    85955709.91846
      1299.223  
  20011349.699   105160387.87849       618.679    20011348.849    81943174.19848
       482.089  
  21986756.293   115541219.44049      2532.098    21986758.187    90032101.43347
      1973.062  
  22202938.724   118354149.56807     -1928.058           0.000           0.0000 
         0.000  
  19875039.598   106057042.79908      1673.867    19875044.908    82488862.97307
      1301.898  
  23479284.363   125422125.95007      4394.675    23479292.220    97550569.89807
      3418.082  
  20492469.965   109659360.76908     -1870.363    20492473.861    85290642.25708
     -1454.729  
  21358823.489   114135078.05708      2308.031    21358828.666    88771752.13307
      1795.137  
  22901403.294   122464092.80106     -4456.852    22901408.869    95249873.48505
     -3466.449  
  20551224.583   109858073.15008     -2381.172    20551231.020    85445194.06405
     -1852.026  
  21620991.228   115414323.32207      2072.847    21620997.294    89766718.83107
      1612.214  
 20 09 27 07 42 45.0000000  0 17G 8G27G15G13G21G18G24G20G10R10R 2R12
                                R17R11R24R 1R18
  24590356.925   129223197.01447       237.246    24590359.119   100693412.69943
       184.866  
  24185314.238   127094681.48247     -1578.011    24185316.044    99034824.07945
     -1229.625  
  21323541.385   112055965.76249     -2546.996    21323541.335    87316337.85448
     -1984.676  
  23922133.551   125711660.04347     -3503.948    23922133.561    97957121.65144
     -2730.355  
  24595925.453   129252458.29546      2663.644    24595924.410   100716185.60545
      2075.565  
  21502001.207   112993777.26948     -2667.473    21502002.054    88047107.60346
     -2078.551  
  20989674.836   110301485.48549      1663.909    20989676.646    85949220.45146
      1296.555  
  20010762.242   105157300.74049       615.964    20010761.379    81940768.63948
       479.969  
  21984347.786   115528562.68249      2530.507    21984349.680    90022239.03147
      1971.827  
  22204749.260   118363801.08707     -1932.339           0.000           0.0000 
         0.000  
  19873472.298   106048679.53808      1671.449    19873477.645    82482358.22107
      1300.015  
  23475171.294   125400154.95607      4393.852    23475179.201    97533481.36607
      3417.440  
  20494219.758   109668724.13808     -1874.738    20494223.624    85297924.88008
     -1458.128  
  21356665.834   114123548.01508      2303.984    21356670.947    88762784.33007
      1791.987  
  22905570.797   122486379.40606     -4457.628    22905576.599    95267207.50905
     -3467.047  
  20553452.478   109869982.39908     -2382.672    20553458.898    85454456.80905
     -1853.191  
  21619051.870   115403970.77107      2068.163    21619057.906    89758666.85107
      1608.569  
 20 09 27 07 42 50.0000000  0 17G 8G27G15G13G21G18G24G20G10R10R 2R12
                                R17R11R24R 1R18
  24590132.562   129222018.07147       234.116    24590134.933   100692494.04144
       182.426  
  24186816.905   127102578.11247     -1580.940    24186818.723    99040977.29945
     -1231.902  
  21325965.480   112068704.49849     -2548.804    21325965.466    87326264.14148
     -1986.085  
  23925467.667   125729181.13247     -3504.797    23925467.741    97970774.43645
     -2731.015  
  24593392.157   129239146.01446      2661.151    24593391.202   100705812.41845
      2074.008  
  21504540.394   113007120.66248     -2670.046    21504541.156    88057505.05146
     -2080.559  
  20988093.192   110293173.92249      1660.516    20988095.008    85942743.90846
      1293.910  
  20010177.248   105154226.57649       613.351    20010176.393    81938373.18548
       477.933  
  21981940.546   115515912.51849      2529.285    21981942.419    90012381.76447
      1970.871  
  22206563.713   118373473.29807     -1936.409           0.000           0.0000 
         0.000  
  19871906.967   106040326.54108      1669.504    19871912.290    82475861.44807
      1298.504  
  23471058.759   125378186.68907      4393.085    23471066.665    97516394.93607
      3416.844  
  20495973.624   109678109.30708     -1879.320    20495977.459    85305224.45307
     -1461.698  
  21354511.721   114112036.77508      2300.315    21354516.777    88753831.15007
      1789.136  
  22909739.373   122508671.02906     -4458.938    22909745.248    95284545.42106
     -3468.065  
  20555681.835   109881899.80907     -2384.445    20555688.272    85463725.90005
     -1854.573  
  21617116.372   115393638.98207      2064.253    21617122.399    89750631.01707
      1605.531  
 20 09 27 07 42 55.0000000  0 17G 8G27G15G13G21G18G24G20G10R10R 2R12
                                R17R11R24R 1R18
  24589911.030   129220853.88447       231.391    24589913.431   100691586.90143
       180.308  
  24188322.028   127110487.52447     -1583.273    24188323.800    99047140.49545
     -1233.718  
  21328390.999   112081450.84349     -2549.922    21328391.007    87336196.35748
     -1986.956  
  23928802.121   125746703.77147     -3504.461    23928802.240    97984428.43245
     -2730.753  
  24590859.956   129225839.49146      2660.898    24590858.956   100695443.69944
      2073.425  
  21507081.676   113020475.09748     -2671.875    21507082.456    88067911.09346
     -2081.983  
  20986514.430   110284877.53749      1657.714    20986516.254    85936279.20446
      1291.727  
  20009594.476   105151164.12049       611.359    20009593.642    81935986.85948
       476.378  
  21979534.320   115503267.71449      2528.464    21979536.172    90002528.67647
      1970.229  
  22208381.827   118383164.74207     -1940.191           0.000           0.0000 
         0.000  
  19870343.269   106031982.31708      1667.945    19870348.580    82469371.50007
      1297.289  
  23466946.551   125356219.76007      4393.215    23466954.441    97499309.54907
      3416.944  
  20497731.302   109687514.96008     -1882.999    20497735.122    85312539.96207
     -1464.558  
  21352360.866   114100543.16408      2296.983    21352365.905    88744891.67807
      1786.543  
  22913908.695   122530966.26606     -4459.313    22913914.634    95301886.14706
     -3468.363  
  20557912.514   109893824.19307     -2385.359    20557918.983    85473000.42305
     -1855.284  
  21615184.478   115383326.55707      2060.585    21615190.528    89742610.24607
      1602.679  
 20 09 27 07 43  0.0000000  0 17G 8G27G15G13G21G18G24G20G10R10R 2R12
                                R17R11R24R 1R18
  24589692.525   129219705.75747       228.425    24589694.980   100690692.22644
       177.992  
  24189829.799   127118411.04447     -1585.906    24189831.505    99053314.64044
     -1235.772  
  21330818.218   112094206.09149     -2551.710    21330818.233    87346135.50548
     -1988.351  
  23932137.096   125764229.34347     -3505.038    23932137.125    97998084.73044
     -2731.199  
  24588329.198   129212540.23346      2659.184    24588328.172   100685080.65744
      2072.085  
  21509625.307   113033841.90248     -2674.151    21509626.035    88078326.78346
     -2083.757  
  20984938.839   110276597.81149      1654.589    20984940.622    85929827.47746
      1289.288  
  20009014.201   105148114.75349       608.847    20009013.367    81933610.72848
       474.421  
  21977129.363   115490629.58349      2527.266    21977131.209    89992680.78547
      1969.297  
  22210203.755   118392876.61207     -1944.261           0.000           0.0000 
         0.000  
  19868781.465   106023648.41808      1666.081    19868786.804    82462889.58107
      1295.839  
  23462834.805   125334255.61707      4392.737    23462842.738    97482226.33107
      3416.573  
  20499493.041   109696942.44808     -1887.457    20499496.874    85319872.45407
     -1468.026  
  21350213.547   114089068.38508      2293.433    21350218.551    88735966.85507
      1783.780  
  22918078.856   122553266.67706     -4459.952    22918084.941    95319230.89105
     -3468.859  
  20560144.746   109905756.90508     -2387.120    20560151.235    85482281.41605
     -1856.652  
  21613256.492   115373035.02507      2056.437    21613262.571    89734605.72707
      1599.452  
 20 09 27 07 43  5.0000000  0 17G 8G27G15G13G21G18G24G20G10R10R 2R12
                                R17R11R24R 1R18
  24589476.870   129218572.51247       224.815    24589479.318   100689809.18944
       175.176  
  24191340.081   127126347.34547     -1588.617    24191341.739    99059498.79445
     -1237.882  
  21333246.917   112106969.05549     -2553.492    21333246.951    87356080.66948
     -1989.733  
  23935472.435   125781756.53847     -3505.737    23935472.456    98011742.29245
     -2731.741  
  24585799.533   129199246.94246      2657.835    24585798.447   100674722.26144
      2071.038  
  21512171.040   113047219.79248     -2676.969    21512171.741    88088751.11546
     -2085.953  
  20983366.178   110268333.48649      1651.164    20983367.935    85923387.74246
      1286.616  
  20008436.150   105145077.13849       606.340    20008435.328    81931243.75548
       472.472  
  21974725.441   115477996.85749      2525.972    21974727.289    89982837.10547
      1968.289  
  22212029.338   118402607.87607     -1948.477           0.000           0.0000 
         0.000  
  19867221.438   106015323.84508      1664.078    19867226.798    82456414.91507
      1294.281  
  23458723.264   125312292.90407      4392.508    23458731.287    97465144.25107
      3416.398  
  20501258.634   109706390.46208     -1891.776    20501262.461    85327220.90607
     -1471.387  
  21348069.536   114077611.28808      2289.547    21348074.514    88727055.79107
      1780.758  
  22922249.793   122575570.64907     -4460.956    22922255.893    95336578.41206
     -3469.729  
  20562378.306   109917696.56307     -2388.741    20562384.786    85491567.81205
     -1857.914  
  21611332.205   115362762.92407      2052.340    21611338.239    89726616.31907
      1596.265  
 20 09 27 07 43 10.0000000  0 17G 8G27G15G13G21G18G24G20G10R10R 2R12
                                R17R11R24R 1R18
  24589264.660   129217457.55947       221.574    24589267.177   100688940.37943
       172.647  
  24192853.434   127134300.06847     -1591.753    24192855.109    99065695.69745
     -1240.332  
  21335677.761   112119743.25549     -2555.832    21335677.801    87366034.59148
     -1991.562  
  23938808.736   125799288.94947     -3506.938    23938808.726    98025403.88445
     -2732.683  
  24583271.661   129185963.17046      2655.866    24583270.756   100664371.28844
      2069.382  
  21514719.565   113060612.34648     -2679.852    21514720.282    88099186.86946
     -2088.198  
  20981797.139   110260088.15849      1647.358    20981798.905    85916962.82546
      1283.655  
  20007861.042   105142054.92849       603.140    20007860.213    81928888.78648
       469.977  
  21972323.228   115465373.14249      2524.101    21972325.069    89973000.44547
      1966.831  
  22213859.140   118412361.93707     -1952.987           0.000           0.0000 
         0.000  
  19865663.671   106007011.45808      1661.391    19865669.061    82449949.72807
      1292.190  
  23454612.748   125290335.36107      4391.460    23454620.787    97448066.18407
      3415.582  
  20503028.774   109715862.65008     -1896.706    20503032.573    85334588.16307
     -1475.218  
  21345929.510   114066175.38908      2285.273    21345934.427    88718161.20607
      1777.433  
  22926422.209   122597882.05806     -4462.754    22926428.262    95353931.73205
     -3471.035  
  20564613.866   109929646.88307     -2390.785    20564620.318    85500862.50605
     -1859.504  
  21609412.250   115352514.01407      2047.706    21609418.265    89718644.94607
      1592.659  
 20 09 27 07 43 15.0000000  0 17G 8G27G15G13G21G18G24G20G10R10R 2R12
                                R17R11R24R 1R18
  24589055.323   129216357.39347       218.366    24589057.759   100688083.10044
       170.148  
  24194369.198   127142265.55747     -1594.222    24194370.946    99071902.57645
     -1242.250  
  21338110.033   112132524.96249     -2557.000    21338110.109    87375994.36048
     -1992.473  
  23942145.348   125816822.96647     -3506.917    23942145.355    98039066.75745
     -2732.667  
  24580744.989   129172685.35646      2655.023    24580744.101   100654024.93445
      2068.848  
  21517270.182   113074015.93148     -2681.909    21517270.853    88109631.21946
     -2089.805  
  20980231.024   110251858.13949      1644.515    20980232.756    85910549.83146
      1281.440  
  20007288.191   105139044.54049       600.940    20007287.362    81926543.02848
       468.261  
  21969922.044   115452754.80349      2523.265    21969923.873    89963167.98147
      1966.180  
  22215692.593   118422135.11807     -1956.456           0.000           0.0000 
         0.000  
  19864107.710   105998708.55208      1659.840    19864113.108    82443491.91507
      1290.988  
  23450502.489   125268379.31507      4391.227    23450510.543    97430989.27507
      3415.401  
  20504802.721   109725355.33408     -1900.222    20504806.515    85341971.36008
     -1477.952  
  21343792.742   114054757.23808      2281.944    21343797.668    88709280.42207
      1774.848  
  22930595.197   122620197.14706     -4463.425    22930601.300    95371287.89706
     -3471.738  
  20566850.781   109941604.25708     -2392.093    20566857.199    85510162.68205
     -1860.519  
  21607496.001   115342284.63107      2043.941    21607501.974    89710688.76707
      1589.730  
 20 09 27 07 43 20.0000000  0 17G 8G27G15G13G21G18G24G20G10R10R 2R12
                                R17R11R24R 1R18
  24588848.691   129215271.50547       215.698    24588851.205   100687236.98244
       168.081  
  24195887.299   127150243.29347     -1596.906    24195889.057    99078118.99044
     -1244.348  
  21340543.645   112145313.74049     -2558.417    21340543.724    87385959.64048
     -1993.578  
  23945482.166   125834358.09347     -3506.957    23945482.168    98052730.48345
     -2732.699  
  24578219.298   129159413.00846      2653.664    24578218.486   100643682.86945
      2067.789  
  21519822.827   113087430.04548     -2683.929    21519823.487    88120083.76947
     -2091.378  
  20978667.694   110243642.87649      1641.617    20978669.460    85904148.33446
      1279.184  
  20006717.479   105136045.43249       598.772    20006716.660    81924206.06448
       466.578  
  21967521.779   115440141.38749      2522.211    21967523.598    89953339.34847
      1965.359  
  22217529.596   118431927.12607     -1960.215           0.000           0.0000 
         0.000  
  19862553.243   105990413.68208      1658.105    19862558.646    82437040.35307
      1289.637  
  23446392.484   125246424.28307      4391.074    23446400.494    97413913.14807
      3415.280  
  20506580.414   109734868.00408     -1904.520    20506584.185    85349370.10408
     -1481.293  
  21341659.195   114043356.21408      2278.421    21341664.109    88700412.96807
      1772.105  
  22934768.784   122642515.22706     -4463.464    22934774.914    95388646.36505
     -3471.590  
  20569088.838   109953568.08007     -2393.382    20569095.256    85519467.87505
     -1861.522  
  21605583.290   115332074.20207      2040.344    21605589.217    89702747.32607
      1586.933  
 20 09 27 07 43 25.0000000  0 17G 8G27G15G13G21G18G24G20G10R10R 2R12
                                R17R11R24R 1R18
  24588645.145   129214201.80147       212.285    24588647.534   100686403.45344
       165.414  
  24197408.114   127158235.10747     -1599.972    24197409.814    99084346.36045
     -1246.730  
  21342978.957   112158111.45349     -2560.456    21342979.062    87395931.88048
     -1995.163  
  23948819.542   125851896.21747     -3508.167    23948819.532    98066396.55444
     -2733.637  
  24575695.027   129146147.96746      2652.183    24575694.236   100633346.48744
      2066.636  
  21522377.825   113100856.55948     -2686.550    21522378.449    88130545.97046
     -2093.422  
  20977107.551   110235444.30149      1638.023    20977109.301    85897759.83946
      1276.382  
  20006149.282   105133059.50349       595.980    20006148.472    81921879.36848
       464.395  
  21965122.804   115427534.75249      2520.663    21965124.658    89943515.99747
      1964.152  
  22219370.413   118441739.74407     -1964.395           0.000           0.0000 
         0.000  
  19861000.759   105982129.26808      1655.852    19861006.144    82430596.92507
      1287.882  
  23442282.987   125224472.20807      4390.261    23442291.028    97396839.34606
      3414.652  
  20508362.171   109744402.42108     -1909.074    20508365.913    85356785.77108
     -1484.836  
  21339529.204   114031974.18308      2274.355    21339534.114    88691560.29607
      1768.940  
  22938943.347   122664838.42506     -4465.477    22938949.529    95406008.87006
     -3473.151  
  20571328.425   109965540.14507     -2395.316    20571334.855    85528779.47505
     -1863.011  
  21603674.495   115321884.73707      2035.699    21603680.380    89694822.18907
      1583.319  
 20 09 27 07 43 30.0000000  0 17G 8G27G15G13G21G18G24G20G10R10R 2R12
                                R17R11R24R 1R18
  24588444.916   129213149.71247       209.406    24588447.298   100685583.64244
       163.172  
  24198931.880   127166242.61347     -1602.488    24198933.628    99090585.99645
     -1248.691  
  21345416.281   112170919.64949     -2562.315    21345416.365    87405912.29048
     -1996.612  
  23952157.786   125869438.77547     -3508.465    23952157.790    98080066.06945
     -2733.867  
  24573172.437   129132891.85846      2650.813    24573171.621   100623017.05044
      2065.496  
  21524935.476   113114296.97748     -2689.042    21524936.093    88141019.03646
     -2095.359  
  20975550.890   110227264.11849      1634.430    20975552.690    85891385.68246
      1273.581  
  20005583.889   105130088.28249       593.062    20005583.067    81919564.12848
       462.120  
  21962725.409   115414936.44649      2519.160    21962727.304    89933699.14147
      1962.980  
  22221215.415   118451574.48907     -1968.781           0.000           0.0000 
         0.000  
  19859450.463   105973856.71908      1653.538    19859455.880    82424162.72007
      1286.082  
  23438174.417   125202524.68607      4389.207    23438182.367    97379769.04606
      3413.824  
  20510148.277   109753960.33108     -1913.722    20510152.020    85364219.69108
     -1488.452  
  21337403.066   114020612.84108      2270.414    21337408.007    88682723.68807
      1765.874  
  22943119.011   122687168.20406     -4466.397    22943125.343    95423376.45306
     -3473.875  
  20573569.860   109977522.08308     -2397.172    20573576.316    85538098.76005
     -1864.472  
  21601769.812   115311717.75507      2031.250    21601775.756    89686914.54107
      1579.859  
 20 09 27 07 43 35.0000000  0 17G 8G27G15G13G21G18G24G20G10R10R 2R12
                                R17R11R24R 1R18
  24588247.738   129212113.47147       206.077    24588250.035   100684776.16744
       160.577  
  24200458.273   127174263.89147     -1605.476    24200459.988    99096836.31344
     -1251.022  
  21347855.213   112183736.38549     -2564.050    21347855.347    87415899.35848
     -1997.960  
  23955496.506   125886983.93047     -3508.862    23955496.592    98093737.62344
     -2734.179  
  24570651.209   129119642.74646      2649.527    24570650.396   100612693.08444
      2064.569  
  21527495.389   113127749.44348     -2691.293    21527496.005    88151501.47746
     -2097.117  
  20973997.393   110219100.43549      1631.386    20973999.207    85885024.36646
      1271.210  
  20005020.926   105127129.89249       590.629    20005020.089    81917258.89148
       460.230  
  21960329.244   115402344.60949      2518.030    21960331.158    89923887.32347
      1962.102  
  22223064.196   118461429.40507     -1972.621           0.000           0.0000 
         0.000  
  19857902.105   105965594.31708      1651.750    19857907.524    82417736.40607
      1284.690  
  23434066.292   125180579.81707      4388.772    23434074.182    97362700.81706
      3413.487  
  20511938.412   109763539.70208     -1917.761    20511942.155    85371670.31508
     -1491.594  
  21335280.474   114009270.20008      2267.011    21335285.396    88673901.64107
      1763.229  
  22947295.640   122709502.67206     -4467.305    22947302.020    95440747.69406
     -3474.573  
  20575812.833   109989512.06308     -2398.573    20575819.259    85547424.29705
     -1865.563  
  21599869.067   115301571.38607      2027.394    21599875.000    89679022.92707
      1576.862  
 20 09 27 07 43 40.0000000  0 17G 8G27G15G13G21G18G24G20G10R10R 2R12
                                R17R11R24R 1R18
  24588053.275   129211091.49947       202.624    24588055.637   100683979.82743
       157.886  
  24201986.947   127182297.31647     -1607.854    24201988.787    99103096.14545
     -1252.875  
  21350295.487   112196560.14249     -2565.520    21350295.626    87425891.89148
     -1999.109  
  23958835.445   125904530.14047     -3509.495    23958835.597    98107409.97945
     -2734.680  
  24568131.007   129106399.09046      2648.327    24568130.255   100602373.34244
      2063.629  
  21530057.321   113141212.36348     -2693.938    21530057.935    88161992.06046
     -2099.175  
  20972446.704   110210951.63749      1628.117    20972448.546    85878674.66746
      1268.663  
  20004460.115   105124182.77949       588.218    20004459.264    81914962.43948
       458.352  
  21957934.027   115389757.65849      2516.772    21957935.942    89914079.31347
      1961.121  
  22224916.471   118471302.98007     -1976.702           0.000           0.0000 
         0.000  
  19856355.303   105957340.31908      1649.862    19856360.730    82411316.63607
      1283.227  
  23429958.351   125158635.93907      4388.516    23429966.224    97345633.37706
      3413.288  
  20513732.262   109773138.92608     -1922.164    20513735.999    85379136.38008
     -1495.020  
  21333161.066   113997944.72408      2263.323    21333165.997    88665092.94707
      1760.362  
  22951472.745   122731840.09206     -4467.906    22951479.233    95458121.22106
     -3475.051  
  20578056.996   110001508.46207     -2400.183    20578063.426    85556754.82705
     -1866.812  
  21597971.862   115291444.07007      2023.195    21597977.822    89671146.13107
      1573.597  
 20 09 27 07 43 45.0000000  0 17G 8G27G15G13G21G18G24G20G10R10R 2R12
                                R17R11R24R 1R18
  24587861.847   129210085.50947       199.195    24587864.286   100683195.96544
       155.219  
  24203518.315   127190344.71147     -1610.862    24203520.168    99109366.83045
     -1255.223  
  21352737.441   112209392.69749     -2567.305    21352737.549    87435891.28348
     -2000.500  
  23962174.858   125922079.06247     -3510.273    23962174.997    98121084.45044
     -2735.281  
  24565612.182   129093162.69646      2646.417    24565611.449   100592059.28345
      2062.145  
  21532621.553   113154687.49348     -2696.308    21532622.168    88172492.16447
     -2101.022  
  20970899.214   110202819.51949      1624.598    20970901.040    85872337.95546
      1265.922  
  20003901.805   105121248.74749       585.516    20003900.937    81912676.18348
       456.241  
  21955540.066   115377177.40549      2515.383    21955541.992    89904276.52047
      1960.035  
  22226772.582   118481196.94107     -1980.844           0.000           0.0000 
         0.000  
  19854810.446   105949096.60108      1647.690    19854815.854    82404904.85807
      1281.534  
  23425851.001   125136694.96007      4388.065    23425858.777    97328568.18205
      3412.941  
  20515530.141   109782759.83108     -1926.491    20515533.896    85386619.30607
     -1498.387  
  21331045.208   113986638.28308      2259.523    21331050.145    88656299.05707
      1757.406  
  22955650.814   122754182.29206     -4469.085    22955657.326    95475498.47406
     -3476.003  
  20580302.686   110013512.99308     -2401.909    20580309.120    85566091.68005
     -1868.156  
  21596078.549   115281337.56307      2019.004    21596084.531    89663285.51007
      1570.335  
 20 09 27 07 43 50.0000000  0 17G 8G27G15G13G21G18G24G20G10R10R 2R12
                                R17R11R24R 1R18
  24587673.432   129209095.44547       196.582    24587675.826   100682424.47143
       153.175  
  24205052.297   127198405.90147     -1613.702    24205054.229    99115648.27244
     -1257.433  
  21355181.026   112222233.88449     -2568.968    21355181.138    87445897.40148
     -2001.797  
  23965514.800   125939630.67047     -3510.354    23965514.936    98134761.03544
     -2735.344  
  24563094.714   129079933.40846      2645.082    24563093.822   100581750.77145
      2061.101  
  21535188.098   113168174.71248     -2698.703    21535188.685    88183001.68546
     -2102.890  
  20969354.838   110194703.83249      1621.479    20969356.679    85866014.05346
      1263.492  
  20003345.938   105118327.64249       582.960    20003345.062    81910399.99748
       454.253  
  21953147.365   115364603.70449      2514.008    21953149.298    89894478.83847
      1958.969  
  22228632.507   118491111.13907     -1985.073           0.000           0.0000 
         0.000  
  19853267.478   105940863.09408      1645.714    19853272.907    82398501.02307
      1280.000  
  23421744.177   125114756.73007      4387.612    23421751.759    97311505.11505
      3412.589  
  20517332.074   109792402.24808     -1930.613    20517335.796    85394118.96007
     -1501.593  
  21328932.910   113975350.67808      2255.629    21328937.818    88647519.81507
      1754.379  
  22959829.776   122776529.11107     -4469.835    22959836.278    95492879.33006
     -3476.543  
  20582549.922   110025525.56908     -2403.257    20582556.313    85575434.79105
     -1869.203  
  21594189.151   115271251.85607      2015.261    21594195.140    89655441.07807
      1567.425  
 20 09 27 07 43 55.0000000  0 17G 8G27G15G13G21G18G24G20G10R10R 2R12
                                R17R11R24R 1R18
  24587487.879   129208120.54447       193.688    24587490.449   100681664.78845
       150.917  
  24206588.775   127206480.17947     -1615.719    24206590.796    99121939.91644
     -1259.003  
  21357626.133   112235083.01149     -2570.527    21357626.260    87455909.70548
     -2003.011  
  23968855.095   125957184.19547     -3510.749    23968855.331    98148439.11245
     -2735.648  
  24560578.479   129066710.53646      2643.948    24560577.656   100571447.24344
      2060.219  
  21537756.811   113181673.29948     -2700.754    21537757.385    88193520.05246
     -2104.488  
  20967813.472   110186603.96249      1618.570    20967815.325    85859702.46746
      1261.222  
  20002792.421   105115418.86149       580.750    20002791.548    81908133.41948
       452.531  
  21950755.780   115352035.93449      2513.074    21950757.740    89884685.77547
      1958.238  
  22230496.047   118501044.97807     -1988.897           0.000           0.0000 
         0.000  
  19851726.241   105932638.91208      1644.063    19851731.708    82392104.44407
      1278.714  
  23417637.689   125092820.57707      4387.245    23417645.182    97294443.65905
      3412.296  
  20519137.881   109802065.42408     -1934.522    20519141.590    85401634.76108
     -1504.633  
  21326824.009   113964081.31808      2252.109    21326828.891    88638754.76707
      1751.641  
  22964009.460   122798879.91807     -4470.358    22964016.002    95510263.27206
     -3476.948  
  20584798.508   110037545.48808     -2404.484    20584804.880    85584783.61905
     -1870.159  
  21592303.465   115261186.18707      2011.269    21592309.503    89647612.23107
      1564.320  
 20 09 27 07 44  0.0000000  0 17G 8G27G15G13G21G18G24G20G10R10R 2R12
                                R17R11R24R 1R18
  24587305.280   129207160.85747       190.347    24587307.744   100680917.01545
       148.324  
  24208127.785   127214567.57447     -1619.016    24208129.809    99128241.75845
     -1261.578  
  21360072.749   112247940.03049     -2572.230    21360072.877    87465928.16148
     -2004.339  
  23972195.760   125974739.63447     -3511.352    23972196.051    98162118.65044
     -2736.125  
  24558063.470   129053494.07446      2642.483    24558062.580   100561148.71044
      2059.077  
  21540327.689   113195183.22848     -2703.214    21540328.232    88204047.27146
     -2106.406  
  20966275.127   110178519.96849      1615.105    20966276.995    85853403.26246
      1258.522  
  20002241.237   105112522.33949       577.987    20002240.343    81905876.38948
       450.375  
  21948365.289   115339473.97949      2511.772    21948367.264    89874897.24047
      1957.222  
  22232363.234   118510998.23307     -1992.327           0.000           0.0000 
         0.000  
  19850186.764   105924424.28208      1642.050    19850192.283    82385715.29007
      1277.151  
  23413531.704   125070886.61207      4386.684    23413539.005    97277383.90105
      3411.859  
  20520947.575   109811749.39608     -1938.968    20520951.272    85409166.73707
     -1508.089  
  21324718.518   113952830.08908      2248.348    21324723.355    88630003.81707
      1748.715  
  22968189.918   122821234.57907     -4471.573    22968196.456    95527650.21805
     -3477.895  
  20587048.510   110049572.72307     -2405.984    20587054.837    85594138.12905
     -1871.324  
  21590421.615   115251140.49507      2006.883    21590427.630    89639798.91907
      1560.909  
 20 09 27 07 44  5.0000000  0 17G 8G27G15G13G21G18G24G20G10R10R 2R12
                                R17R11R24R 1R18
  24587125.703   129206217.04647       187.339    24587128.017   100680181.56544
       145.977  
  24209669.385   127222668.67347     -1621.520    24209671.430    99134554.31645
     -1263.523  
  21362520.989   112260805.65348     -2574.046    21362521.123    87475953.31848
     -2005.754  
  23975536.922   125992297.71847     -3511.938    23975537.184    98175800.24945
     -2736.581  
  24555549.754   129040284.75146      2640.913    24555548.935   100550855.72244
      2057.854  
  21542900.850   113208705.18548     -2705.589    21542901.358    88214583.85546
     -2108.253  
  20964739.927   110170452.46949      1611.805    20964741.808    85847116.89746
      1255.949  
  20001692.504   105109638.72849       575.374    20001691.602    81903629.41948
       448.339  
  21945976.056   115326918.59749      2510.258    21945978.024    89865113.82547
      1956.046  
  22234234.187   118520971.65007     -1996.828           0.000           0.0000 
         0.000  
  19848649.192   105916219.53608      1639.917    19848654.733    82379333.82607
      1275.492  
  23409426.211   125048955.43208      4385.895    23409433.321    97260326.31105
      3411.246  
  20522761.297   109821454.89608     -1943.176    20522764.969    85416715.46008
     -1511.362  
  21322616.600   113941597.76508      2244.702    21322621.366    88621267.57207
      1745.879  
  22972371.136   122843593.77406     -4472.109    22972377.732    95545040.70906
     -3478.375  
  20589299.912   110061608.00708     -2408.069    20589306.269    85603498.90105
     -1872.949  
  21588543.627   115241115.57407      2002.808    21588549.624    89632001.75607
      1557.737  
 20 09 27 07 44 10.0000000  0 17G 8G27G15G13G21G18G24G20G10R10R 2R12
                                R17R11R24R 1R18
  24586949.252   129205289.85147       183.625    24586951.706   100679459.03944
       143.077  
  24211213.738   127230784.33647     -1624.714    24211215.725    99140878.22545
     -1266.012  
  21364971.011   112273680.63349     -2575.887    21364971.141    87485985.76648
     -2007.188  
  23978878.722   126009859.15247     -3512.933    23978878.975    98189484.51144
     -2737.351  
  24553037.612   129027083.38746      2639.074    24553036.743   100540568.96745
      2056.421  
  21545476.447   113222239.94848     -2708.300    21545476.946    88225130.42446
     -2110.362  
  20963207.996   110162402.17749      1608.289    20963209.899    85840843.95546
      1253.210  
  20001146.375   105106768.80249       572.645    20001145.465    81901393.11048
       446.211  
  21943588.240   115314370.53949      2508.866    21943590.211    89855336.12947
      1954.960  
  22236109.108   118530966.03607     -2001.176           0.000           0.0000 
         0.000  
  19847113.784   105908026.21108      1637.612    19847119.314    82372961.23607
      1273.695  
  23405321.395   125027027.83508      4385.043    23405328.368    97243271.51005
      3410.589  
  20524579.159   109831182.61508     -1947.894    20524582.816    85424281.45307
     -1515.030  
  21320518.289   113930385.14908      2240.387    21320523.071    88612546.65007
      1742.519  
  22976553.443   122865958.32406     -4473.413    22976560.077    95562435.33206
     -3479.327  
  20591553.034   110073652.14307     -2409.824    20591559.381    85612866.56005
     -1874.312  
  21586669.705   115231112.26107      1998.676    21586675.653    89624221.40907
      1554.527  
 20 09 27 07 44 15.0000000  0 17G 8G27G15G13G21G18G24G20G10R10R 2R12
                                R17R11R24R 1R18
  24586775.803   129204378.40546       181.108    24586778.233   100678748.85244
       141.124  
  24212760.705   127238913.61247     -1627.375    24212762.618    99147212.71344
     -1268.085  
  21367422.645   112286564.05849     -2577.226    21367422.790    87496024.79748
     -2008.227  
  23982220.977   126027423.03847     -3512.558    23982221.326    98203170.62844
     -2737.063  
  24550526.784   129013889.02246      2638.480    24550526.048   100530287.68344
      2055.965  
  21548054.290   113235786.57548     -2710.242    21548054.813    88235686.23246
     -2111.882  
  20961679.163   110154368.17149      1605.480    20961681.073    85834583.69846
      1251.022  
  20000602.697   105103911.69249       570.305    20000601.769    81899166.79848
       444.394  
  21941201.640   115301828.93749      2507.855    21941203.596    89845563.46647
      1954.171  
  22237987.828   118540980.51407     -2004.680           0.000           0.0000 
         0.000  
  19845580.147   105899842.42908      1635.913    19845585.700    82366596.07507
      1272.379  
  23401217.083   125005102.99008      4384.891    23401223.964    97226218.86805
      3410.469  
  20526401.026   109840931.57408     -1951.640    20526404.640    85431863.97007
     -1517.945  
  21318423.506   113919191.36208      2237.199    21318428.300    88603840.37807
      1740.043  
  22980736.561   122888327.24106     -4473.917    22980743.233    95579833.36206
     -3479.718  
  20593807.598   110085704.08208     -2410.937    20593813.983    85622240.29005
     -1875.175  
  21584799.652   115221129.48307      1994.956    21584805.542    89616457.02707
      1551.633  
 20 09 27 07 44 20.0000000  0 17G 8G27G15G13G21G18G24G20G10R10R 2R12
                                R17R11R24R 1R18
  24586605.167   129203481.76647       177.608    24586607.568   100678050.16244
       138.395  
  24214310.066   127247055.49447     -1629.785    24214311.988    99153557.06245
     -1269.960  
  21369875.716   112299455.00049     -2579.245    21369875.870    87506069.68548
     -2009.804  
  23985563.530   126044988.46147     -3513.233    23985563.918    98216857.98545
     -2737.590  
  24548017.138   129000700.77546      2636.542    24548016.300   100520011.08943
      2054.655  
  21550634.222   113249344.14448     -2712.894    21550634.767    88246250.55747
     -2113.948  
  20960153.320   110146349.78049      1601.948    20960155.248    85828335.60746
      1248.273  
  20000061.264   105101066.44049       567.570    20000060.344    81896949.71948
       442.262  
  21938816.067   115289292.85149      2506.394    21938818.065    89835795.08647
      1953.030  
  22239870.146   118551014.07907     -2008.680           0.000           0.0000 
         0.000  
  19844048.293   105891668.00308      1633.852    19844053.826    82360238.19807
      1270.773  
  23397113.118   124983179.90908      4384.211    23397119.875    97209167.59305
      3409.940  
  20528226.667   109850700.94408     -1956.238    20528230.290    85439462.37607
     -1521.520  
  21316332.107   113908015.43008      2233.000    21316336.877    88595147.98807
      1736.776  
  22984920.348   122910699.67606     -4475.296    22984927.020    95597234.14006
     -3480.788  
  20596063.475   110097762.97108     -2412.816    20596069.854    85631619.42005
     -1876.640  
  21582933.211   115211166.41707      1990.066    21582939.125    89608707.98007
      1547.827  
 20 09 27 07 44 25.0000000  0 17G 8G27G15G13G21G18G24G20G10R10R 2R12
                                R17R11R24R 1R18
  24586437.939   129202602.91847       174.245    24586440.335   100677365.37244
       135.777  
  24215862.405   127255213.03047     -1632.827    24215864.300    99159913.58245
     -1272.336  
  21372330.772   112312356.41149     -2581.156    21372330.934    87516122.73048
     -2011.292  
  23988906.922   126062558.38347     -3514.237    23988907.442    98230548.84245
     -2738.367  
  24545509.274   128987521.61046      2635.101    24545508.446   100509741.63043
      2053.324  
  21553216.802   113262915.63048     -2715.504    21553217.364    88256825.73546
     -2115.979  
  20958631.004   110138350.05149      1598.141    20958632.960    85822102.05846
      1245.304  
  19999522.685   105098236.12749       564.742    19999521.745    81894744.27848
       440.055  
  21936432.145   115276765.28949      2504.909    21936434.141    89826033.34747
      1951.878  
  22241756.594   118561069.71807     -2013.253           0.000           0.0000 
         0.000  
  19842518.668   105883505.38308      1631.309    19842524.153    82353889.48807
      1268.796  
  23393009.979   124961261.71008      4383.441    23393016.740    97192120.09706
      3409.340  
  20530056.664   109860493.56908     -1960.676    20530060.278    85447078.87007
     -1524.969  
  21314244.604   113896860.38708      2228.983    21314249.358    88586471.85507
      1733.655  
  22989105.227   122933078.53906     -4476.816    22989112.013    95614639.90306
     -3481.973  
  20598321.192   110109831.76508     -2414.565    20598327.579    85641006.26105
     -1877.995  
  21581071.061   115201226.13207      1986.277    21581076.983    89600976.65107
      1544.882  
 20 09 27 07 44 30.0000000  0 17G 8G27G15G13G21G18G24G20G10R10R 2R12
                                R17R11R24R 1R18
  24586273.662   129201739.47747       171.172    24586275.850   100676692.55344
       133.378  
  24217417.242   127263383.81447     -1635.397    24217419.131    99166280.41644
     -1274.335  
  21374787.370   112325265.88949     -2582.652    21374787.517    87526182.06048
     -2012.460  
  23992250.727   126080130.41447     -3514.397    23992251.280    98244241.30145
     -2738.496  
  24543002.629   128974349.16346      2633.733    24543001.873   100499477.38044
      2052.257  
  21555801.583   113276498.59248     -2717.664    21555802.145    88267409.85946
     -2117.664  
  20957111.751   110130366.38249      1595.148    20957113.726    85815881.02046
      1242.973  
  19998986.469   105095418.29349       562.371    19998985.531    81892548.57048
       438.211  
  21934049.377   115264243.85249      2503.815    21934051.365    89816276.40247
      1951.027  
  22243646.728   118571145.04107     -2017.437           0.000           0.0000 
         0.000  
  19840990.912   105875352.79608      1629.647    19840996.386    82347548.59107
      1267.504  
  23388907.343   124939345.91508      4382.934    23388914.056    97175074.50406
      3408.948  
  20531890.555   109870307.21308     -1964.788    20531894.182    85454711.69507
     -1528.172  
  21312160.584   113885723.98308      2225.504    21312165.326    88577810.21407
      1730.949  
  22993290.882   122955461.27707     -4477.160    22993297.739    95632048.68006
     -3482.237  
  20600580.328   110121908.14107     -2416.066    20600586.745    85650398.99605
     -1879.168  
  21579212.717   115191306.16607      1981.758    21579218.641    89593261.12707
      1541.362  
 20 09 27 07 44 35.0000000  0 17G 8G27G15G13G21G18G24G20G10R10R 2R12
                                R17R11R24R 1R18
  24586112.218   129200890.98747       168.577    24586114.566   100676031.40444
       131.358  
  24218974.552   127271567.34547     -1637.629    24218976.363    99172657.17845
     -1276.074  
  21377245.399   112338182.95049     -2584.128    21377245.574    87536247.29948
     -2013.609  
  23995594.797   126097704.06147     -3514.824    23995595.320    98257935.05645
     -2738.827  
  24540497.177   128961182.92746      2632.738    24540496.184   100489218.00543
      2051.375  
  21558388.451   113290092.57848     -2719.871    21558388.994    88278002.57247
     -2119.383  
  20955595.445   110122398.23549      1592.140    20955597.464    85809672.08546
      1240.628  
  19998452.526   105092612.43749       560.055    19998451.600    81890362.18448
       436.406  
  21931667.686   115251728.07549      2502.659    21931669.683    89806523.84347
      1950.121  
  22245540.419   118581239.51307     -2020.675           0.000           0.0000 
         0.000  
  19839464.767   105867209.02808      1627.858    19839470.256    82341214.55607
      1266.113  
  23384805.030   124917432.00208      4382.680    23384811.720    97158030.35806
      3408.749  
  20533728.275   109880141.25408     -1968.788    20533731.900    85462360.39207
     -1531.285  
  21310079.945   113874605.46208      2221.933    21310084.641    88569162.48607
      1728.172  
  22997477.252   122977847.58406     -4477.676    22997484.151    95649460.25206
     -3482.640  
  20602840.773   110133991.42008     -2417.171    20602847.187    85659797.10405
     -1880.026  
  21577358.089   115181406.09707      1978.015    21577364.040    89585561.07707
      1538.457  
 20 09 27 07 44 40.0000000  0 17G 8G27G15G13G21G18G24G20G10R10R 2R12
                                R17R11R24R 1R18
  24585953.754   129200058.29047       165.046    24585956.051   100675382.49944
       128.604  
  24220534.443   127279764.50547     -1641.054    24220536.202    99179044.58445
     -1278.746  
  21379705.060   112351108.52449     -2585.999    21379705.238    87546319.18048
     -2015.065  
  23998939.392   126115280.21547     -3515.769    23998939.951    98271630.76144
     -2739.565  
  24537993.081   128948023.87446      2631.523    24537992.171   100478964.17744
      2050.534  
  21560977.582   113303698.49448     -2722.391    21560978.127    88288604.57646
     -2121.347  
  20954082.322   110114446.75349      1588.491    20954084.333    85803476.12946
      1237.785  
  19997921.044   105089819.51049       557.371    19997920.132    81888185.87948
       434.315  
  21929287.265   115239218.87949      2501.203    21929289.264    89796776.42547
      1948.987  
  22247437.915   118591354.07407     -2025.202           0.000           0.0000 
         0.000  
  19837940.571   105859075.68808      1625.593    19837946.080    82334888.62707
      1264.347  
  23380703.232   124895521.08808      4382.051    23380709.925    97140988.55306
      3408.262  
  20535570.017   109889996.63008     -1973.254    20535573.621    85470025.69007
     -1534.754  
  21308002.812   113863505.95408      2218.145    21308007.513    88560529.53907
      1725.223  
  23001664.464   123000238.36407     -4478.702    23001671.375    95666875.26406
     -3483.430  
  20605102.662   110146082.70008     -2419.066    20605109.093    85669201.42105
     -1881.500  
  21575507.350   115171526.75807      1973.516    21575513.315    89577877.15007
      1534.956  
 20 09 27 07 44 45.0000000  0 17G 8G27G15G13G21G18G24G20G10R10R 2R12
                                R17R11R24R 1R18
  24585798.316   129199241.61147       162.238    24585800.687   100674746.15045
       126.413  
  24222096.920   127287975.50247     -1642.925    24222098.768    99185442.74845
     -1280.206  
  21382166.369   112364042.78849     -2587.250    21382166.570    87556397.82748
     -2016.043  
  24002284.520   126132859.04347     -3515.910    24002285.165    98285328.53844
     -2739.679  
  24535490.342   128934872.17246      2629.628    24535489.335   100468716.10844
      2049.055  
  21563569.009   113317316.50148     -2724.382    21563569.568    88299215.99947
     -2122.897  
  20952572.370   110106511.89849      1585.828    20952574.350    85797293.12846
      1235.710  
  19997392.079   105087039.71849       555.007    19997391.163    81886019.80748
       432.469  
  21926908.126   115226716.45249      2500.188    21926910.117    89787034.28047
      1948.198  
  22249339.204   118601488.95607     -2028.679           0.000           0.0000 
         0.000  
  19836418.268   105850952.38708      1623.999    19836423.776    82328570.50107
      1263.108  
  23376602.045   124873613.28108      4381.776    23376608.672    97123949.15705
      3408.050  
  20537415.726   109899873.45508     -1976.995    20537419.333    85477707.65807
     -1537.667  
  21305929.232   113852425.65308      2214.495    21305933.996    88551911.53707
      1722.387  
  23005852.507   123022633.61906     -4479.077    23005859.410    95684293.80006
     -3483.729  
  20607366.104   110158182.06808     -2420.226    20607372.544    85678612.03505
     -1882.401  
  21573660.606   115161668.49607      1970.129    21573666.524    89570209.61607
      1532.324  
 20 09 27 07 44 50.0000000  0 17G 8G27G15G13G21G18G24G20G10R10R 2R12
                                R17R11R24R 1R18
  24585645.921   129198440.77147       157.836    24585648.293   100674122.12443
       122.983  
  24223662.037   127296200.12147     -1646.847    24223663.899    99191851.51045
     -1283.262  
  21384629.291   112376985.53249     -2589.969    21384629.490    87566483.07648
     -2018.159  
  24005630.109   126150440.32547     -3517.108    24005630.679    98299028.23544
     -2740.605  
  24532988.978   128921727.63746      2627.395    24532988.195   100458473.60643
      2047.316  
  21566162.709   113330946.39548     -2727.777    21566163.250    88309836.69346
     -2125.542  
  20951065.548   110098593.56149      1581.452    20951067.558    85791123.00447
      1232.300  
  19996865.557   105084272.82549       551.655    19996864.649    81883863.79048
       429.863  
  21924530.240   115214220.60649      2498.043    21924532.229    89777297.25747
      1946.526  
  22251244.200   118611643.90507     -2033.688           0.000           0.0000 
         0.000  
  19834897.874   105842839.27208      1621.047    19834903.399    82322260.31107
      1260.813  
  23372501.425   124851708.44408      4380.054    23372508.035    97106912.07106
      3406.710  
  20539265.443   109909771.60408     -1982.277    20539269.032    85485406.22107
     -1541.773  
  21303859.254   113841364.25708      2209.788    21303863.985    88543308.23407
      1718.727  
  23010041.421   123045033.18607     -4480.863    23010048.255    95701715.67806
     -3485.120  
  20609631.033   110170289.44208     -2422.898    20609637.494    85688028.88205
     -1884.480  
  21571817.779   115151831.07907      1964.866    21571823.637    89562558.29207
      1528.230  
 20 09 27 07 44 55.0000000  0 17G 8G27G15G13G21G18G24G20G10R10R 2R12
                                R17R11R24R 1R18
  24585496.424   129197655.15847       155.483    24585498.766   100673509.96043
       121.155  
  24225229.619   127304437.81947     -1648.762    24225231.450    99198270.52844
     -1284.750  
  21387093.717   112389936.21049     -2590.703    21387093.922    87576574.51147
     -2018.733  
  24008976.087   126168023.59147     -3516.554    24008976.731    98312729.47644
     -2740.175  
  24530488.915   128908589.77846      2626.555    24530488.095   100448236.36444
      2046.890  
  21568758.557   113344587.63748     -2729.343    21568759.068    88320466.23046
     -2126.765  
  20949561.763   110090691.17949      1578.918    20949563.809    85784965.30746
      1230.323  
  19996341.403   105081518.37949       549.702    19996340.488    81881717.47048
       428.340  
  21922153.496   115201730.82649      2497.515    21922155.489    89767564.96647
      1946.116  
  22253152.870   118621818.25107     -2036.500           0.000           0.0000 
         0.000  
  19833379.273   105834735.66608      1619.976    19833384.795    82315957.50807
      1259.980  
  23368401.315   124829805.98808      4380.379    23368407.915    97089876.85005
      3406.960  
  20541119.037   109919690.53108     -1985.620    20541122.605    85493120.94407
     -1544.375  
  21301792.724   113830321.41108      2206.909    21301797.446    88534719.36207
      1716.483  
  23014231.033   123067436.64307     -4480.925    23014237.817    95719140.56906
     -3485.167  
  20611897.340   110182404.15108     -2423.507    20611903.809    85697451.43605
     -1884.953  
  21569978.727   115142013.93807      1961.676    21569984.564    89554922.74407
      1525.741  
 20 09 27 07 45  0.0000000  0 17G 8G27G15G13G21G18G24G20G10R10R 2R12
                                R17R11R24R 1R18
  24585349.895   129196885.11047       152.406    24585352.120   100672909.93943
       118.762  
  24226799.741   127312688.80547     -1651.386    24226801.466    99204699.85545
     -1286.796  
  21389559.712   112402895.03649     -2592.550    21389559.888    87586672.29248
     -2020.167  
  24012322.494   126185609.04347     -3517.085    24012323.099    98326432.42244
     -2740.589  
  24527990.113   128895458.73346      2625.573    24527989.252   100438004.39544
      2046.051  
  21571356.601   113358240.45048     -2731.503    21571357.111    88331104.78146
     -2128.449  
  20948061.096   110082805.11849      1575.680    20948063.180    85778820.32746
      1227.797  
  19995819.643   105078776.53949       547.081    19995818.718    81879580.97248
       426.296  
  21919777.957   115189247.34849      2496.116    21919779.940    89757837.58447
      1945.027  
  22255065.296   118632012.30807     -2040.543           0.000           0.0000 
         0.000  
  19831862.537   105826642.06908      1617.801    19831868.082    82309662.49007
      1258.288  
  23364301.643   124807906.05808      4379.844    23364308.221    97072843.58605
      3406.547  
  20542976.554   109929630.38208     -1989.991    20542980.095    85500851.93307
     -1547.777  
  21299729.713   113819297.24308      2203.121    21299734.425    88526145.01407
      1713.539  
  23018421.335   123089844.00607     -4482.012    23018428.149    95736568.50806
     -3486.012  
  20614165.093   110194526.49608     -2424.891    20614171.557    85706879.91705
     -1886.031  
  21568143.480   115132217.26807      1957.468    21568149.326    89547303.11307
      1522.476  
 20 09 27 07 45  5.0000000  0 17G 8G27G15G13G21G18G24G20G10R10R 2R12
                                R17R11R24R 1R18
  24585206.532   129196131.73346       149.147    24585208.796   100672322.89544
       116.218  
  24228372.584   127320954.18047     -1654.468    24228374.336    99211140.40245
     -1289.198  
  21392027.460   112415863.08049     -2594.773    21392027.625    87596777.26248
     -2021.905  
  24015669.525   126203197.74947     -3518.293    24015670.214    98340137.88944
     -2741.531  
  24525492.833   128882335.72446      2623.453    24525491.894   100427778.66344
      2044.249  
  21573957.061   113371905.92848     -2734.551    21573957.549    88341753.20247
     -2130.823  
  20946563.717   110074936.43449      1571.854    20946565.846    85772688.90046
      1224.824  
  19995300.508   105076048.43949       544.050    19995299.570    81877455.17848
       423.934  
  21917403.848   115176771.28649      2494.437    21917405.818    89748115.98147
      1943.718  
  22256981.612   118642227.16307     -2045.085           0.000           0.0000 
         0.000  
  19830347.819   105818559.09008      1615.288    19830353.335    82303375.73007
      1256.335  
  23360202.741   124786010.14308      4378.569    23360209.173    97055813.44505
      3405.554  
  20544838.150   109939592.34608     -1994.648    20544841.725    85508600.12307
     -1551.398  
  21297670.407   113808292.93208      2198.660    21297675.112    88517586.11207
      1710.070  
  23022612.549   123112256.56107     -4482.913    23022619.465    95754000.47406
     -3486.718  
  20616434.482   110206657.55608     -2427.007    20616440.939    85716315.18905
     -1887.676  
  21566312.344   115122442.34807      1952.852    21566318.148    89539700.40507
      1518.883  
 20 09 27 07 45 10.0000000  0 17G 8G27G15G13G21G18G24G20G10R10R 2R12
                                R17R11R24R 1R18
  24585066.391   129195395.19647       145.917    24585068.682   100671748.93343
       113.694  
  24229948.194   127329234.10147     -1657.253    24229949.914    99217592.28645
     -1291.366  
  21394496.995   112428840.57149     -2596.352    21394497.136    87606889.59248
     -2023.133  
  24019017.218   126220789.77447     -3518.488    24019017.868    98353845.94444
     -2741.683  
  24522997.140   128869220.89047      2622.207    24522996.233   100417559.31744
      2043.277  
  21576559.962   113385584.23548     -2736.824    21576560.497    88352411.61847
     -2132.593  
  20945069.727   110067085.49449      1568.590    20945071.863    85766571.28946
      1222.277  
  19994784.031   105073334.26849       541.641    19994783.074    81875340.24448
       422.059  
  21915031.175   115164302.80949      2493.207    21915033.131    89738400.28747
      1942.758  
  22258901.847   118652463.00107     -2048.988           0.000           0.0000 
         0.000  
  19828835.210   105810487.48808      1613.469    19828840.714    82297097.82107
      1254.922  
  23356104.472   124764118.11608      4378.371    23356110.794    97038786.30105
      3405.395  
  20546703.976   109949576.51008     -1998.750    20546707.504    85516365.58007
     -1554.585  
  21295614.851   113797308.69608      2195.031    21295619.565    88509042.82807
      1707.246  
  23026804.841   123134674.35307     -4483.542    23026811.745    95771436.51206
     -3487.207  
  20618705.499   110218797.53608     -2428.710    20618711.986    85725757.39005
     -1889.000  
  21564485.255   115112689.22607      1948.589    21564491.059    89532114.64207
      1515.570  
 20 09 27 07 45 15.0000000  0 17G 8G27G15G13G21G18G24G20G10R10R 2R12
                                R17R11R24R 1R18
  24584928.871   129194672.61647       143.104    24584931.248   100671185.91444
       111.511  
  24231526.064   127337525.83347     -1659.531    24231527.857    99224053.38644
     -1293.145  
  21396967.790   112441824.65849     -2597.320    21396967.925    87617007.06048
     -2023.890  
  24022365.010   126238382.51347     -3518.492    24022365.683    98367554.59345
     -2741.683  
  24520502.466   128856111.44546      2621.332    24520501.566   100407344.16744
      2042.594  
  21579164.770   113399272.59248     -2738.909    21579165.333    88363077.86447
     -2134.218  
  20943578.518   110059249.13749      1565.831    20943580.639    85760465.03947
      1220.128  
  19994269.680   105070631.27649       539.491    19994268.696    81873234.01648
       420.382  
  21912659.412   115151839.17149      2492.358    21912661.365    89728688.36647
      1942.098  
  22260825.441   118662717.09107     -2052.645           0.000           0.0000 
         0.000  
  19827324.088   105802423.87908      1612.012    19827329.604    82290826.12507
      1253.785  
  23352006.435   124742227.35408      4377.945    23352012.732    97021760.15905
      3405.070  
  20548573.408   109959580.18508     -2002.675    20548576.923    85524146.21907
     -1557.641  
  21293562.526   113786341.69408      2191.741    21293567.240    88500512.93907
      1704.687  
  23030997.547   123157094.60207     -4484.320    23031004.406    95788874.48106
     -3487.808  
  20620977.676   110230943.56208     -2429.723    20620984.204    85735204.29505
     -1889.788  
  21562661.775   115102955.27207      1944.901    21562667.563    89524543.79607
      1512.703  
 20 09 27 07 45 20.0000000  0 17G 8G27G15G13G21G18G24G20G10R10R 2R12
                                R17R11R24R 1R18
  24584794.426   129193965.88547       139.944    24584796.755   100670635.21643
       109.038  
  24233106.500   127345831.14047     -1662.273    24233108.310    99230525.04545
     -1295.281  
  21399440.218   112454817.28849     -2599.202    21399440.340    87627131.18748
     -2025.354  
  24025713.334   126255977.79047     -3519.183    24025713.941    98381265.18045
     -2742.227  
  24518009.226   128843009.29146      2620.117    24518008.462   100397134.73143
      2041.651  
  21581771.834   113412972.83548     -2741.144    21581772.424    88373753.37247
     -2135.960  
  20942090.486   110051429.50949      1562.296    20942092.607    85754371.83046
      1217.375  
  19993757.797   105067941.31249       536.875    19993756.807    81871137.94548
       418.344  
  21910288.945   115139382.22149      2490.894    21910290.896    89718981.65747
      1940.956  
  22262752.860   118672991.10307     -2056.616           0.000           0.0000 
         0.000  
  19825814.941   105794370.78208      1609.602    19825820.458    82284562.60807
      1251.909  
  23347909.046   124720339.68508      4377.655    23347915.238    97004736.41405
      3404.843  
  20550446.812   109969605.05508     -2006.952    20550450.294    85531943.33707
     -1560.968  
  21291513.826   113775393.81508      2187.784    21291518.503    88491997.92707
      1701.608  
  23035191.031   123179519.07607     -4485.265    23035197.887    95806315.73006
     -3488.440  
  20623251.357   110243097.59708     -2431.219    20623257.859    85744657.43006
     -1890.953  
  21560842.189   115093242.23107      1940.449    21560847.984    89516989.21007
      1509.238  
 20 09 27 07 45 25.0000000  0 17G 8G27G15G13G21G18G24G20G10R10R 2R12
                                R17R11R24R 1R18
  24584662.922   129193274.88647       136.511    24584665.328   100670096.76543
       106.363  
  24234689.491   127354149.78347     -1664.941    24234691.305    99237007.11344
     -1297.354  
  21401914.198   112467818.14349     -2600.917    21401914.312    87637261.71748
     -2026.691  
  24029062.039   126273575.29247     -3519.324    24029062.636    98394977.52745
     -2742.332  
  24515517.326   128829914.17247      2618.417    24515516.481   100386930.73244
      2040.320  
  21584381.102   113426684.66548     -2743.516    21584381.728    88384437.91147
     -2137.809  
  20940605.563   110043626.24949      1559.047    20940607.698    85748291.37747
      1214.840  
  19993248.343   105065264.08349       534.070    19993247.346    81869051.78948
       416.160  
  21907919.683   115126931.69349      2489.464    21907921.632    89709279.95147
      1939.843  
  22264683.875   118683284.81207     -2060.694           0.000           0.0000 
         0.000  
  19824307.651   105786327.43908      1607.703    19824313.133    82278306.68007
      1250.438  
  23343812.191   124698454.92507      4376.476    23343818.359    96987714.94005
      3403.973  
  20552324.114   109979650.94208     -2011.383    20552327.608    85539756.80607
     -1564.414  
  21289468.621   113764464.86108      2183.823    21289473.293    88483497.63907
      1698.531  
  23039385.340   123201947.55707     -4486.043    23039392.175    95823760.08906
     -3489.147  
  20625526.435   110255259.22208     -2433.137    20625532.942    85754116.47105
     -1892.444  
  21559026.445   115083549.88107      1936.590    21559032.274    89509450.72007
      1506.238  
 20 09 27 07 45 30.0000000  0 17G 8G27G15G13G21G18G24G20G10R10R 2R12
                                R17R11R24R 1R18
  24584534.278   129192598.73447       134.151    24584536.613   100669569.88543
       104.531  
  24236274.860   127362481.07647     -1667.715    24236276.667    99243498.99944
     -1299.526  
  21404389.608   112480826.45049     -2602.394    21404389.696    87647398.06647
     -2027.840  
  24032411.029   126291174.35347     -3520.007    24032411.543    98408691.05344
     -2742.871  
  24513026.597   128816825.42847      2617.270    24513025.873   100376731.73644
      2039.262  
  21586992.474   113440407.42448     -2745.706    21586993.091    88395130.97547
     -2139.511  
  20939123.629   110035838.72449      1555.925    20939125.745    85742223.18046
      1212.410  
  19992741.185   105062598.95049       531.738    19992740.181    81866975.06348
       414.339  
  21905551.531   115114486.91249      2488.496    21905553.455    89699582.72347
      1939.085  
  22266618.485   118693597.71207     -2064.246           0.000           0.0000 
         0.000  
  19822802.030   105778293.24908      1605.772    19822807.530    82272057.86707
      1248.934  
  23339715.693   124676572.29207      4376.503    23339721.964    96970695.16205
      3403.953  
  20554205.174   109989717.05908     -2015.237    20554208.688    85547586.00807
     -1567.410  
  21287426.826   113753554.03308      2180.352    21287431.481    88475011.44307
      1695.827  
  23043580.273   123224379.34507     -4486.695    23043587.036    95841207.02006
     -3489.656  
  20627802.898   110267427.94108     -2434.608    20627809.351    85763581.02505
     -1893.590  
  21557214.528   115073877.62407      1932.339    21557220.319    89501927.85507
      1502.930  
 20 09 27 07 45 35.0000000  0 17G 8G27G15G13G21G18G24G20G10R10R 2R12
                                R17R11R24R 1R18
  24584408.713   129191938.85447       130.956    24584411.116   100669055.74644
       102.050  
  24237862.921   127370826.36147     -1670.120    24237864.698    99250001.81344
     -1301.397  
  21406866.702   112493843.60449     -2603.933    21406866.777    87657541.29947
     -2029.043  
  24035760.571   126308776.25547     -3520.206    24035761.046    98422406.83244
     -2743.022  
  24510537.369   128803744.41347      2615.867    24510536.574   100366538.72144
      2038.335  
  21589606.190   113454142.43648     -2747.855    21589606.828    88405833.57147
     -2141.191  
  20937644.969   110028068.31449      1552.797    20937647.085    85736168.31547
      1209.972  
  19992236.565   105059947.24749       529.335    19992235.572    81864908.80548
       412.468  
  21903184.724   115102049.25449      2487.292    21903186.641    89689891.04847
      1938.147  
  22268556.904   118703930.95507     -2068.387           0.000           0.0000 
         0.000  
  19821298.434   105770269.83408      1603.999    19821303.938    82265817.43607
      1247.554  
  23335619.904   124654693.32007      4375.765    23335626.107    96953678.18605
      3403.374  
  20556090.291   109999804.85708     -2019.390    20556093.811    85555432.07307
     -1570.641  
  21285388.698   113742662.83208      2176.652    21285393.350    88466540.51507
      1692.952  
  23047775.886   123246815.79907     -4487.422    23047782.772    95858657.58806
     -3490.223  
  20630080.825   110279604.92508     -2435.733    20630087.330    85773052.01205
     -1894.465  
  21555406.564   115064226.71407      1928.355    21555412.372    89494421.59407
      1499.832  
 20 09 27 07 45 40.0000000  0 17G 8G27G15G13G21G18G24G20G10R10R 2R12
                                R17R11R24R 1R18
  24584286.127   129191294.75647       126.944    24584288.581   100668553.83144
        98.914  
  24239453.542   127379185.10047     -1673.718    24239455.323    99256515.12744
     -1304.199  
  21409345.403   112506869.10949     -2606.022    21409345.463    87667691.04148
     -2030.667  
  24039110.564   126326380.52147     -3521.117    24039111.026    98436124.44045
     -2743.726  
  24508049.494   128790670.67147      2613.526    24508048.696   100356351.40144
      2036.516  
  21592222.112   113467889.20248     -2750.706    21592222.749    88416545.32947
     -2143.409  
  20936169.475   110020314.48249      1548.789    20936171.567    85730126.38047
      1206.847  
  19991734.433   105057308.49149       526.246    19991733.434    81862852.63548
       410.062  
  21900819.183   115089618.22349      2485.304    21900821.079    89680204.52847
      1936.601  
  22270499.088   118714284.01407     -2072.862           0.000           0.0000 
         0.000  
  19819796.735   105762256.45208      1601.383    19819802.228    82259584.81107
      1245.519  
  23331524.664   124632817.37807      4374.688    23331530.858    96936663.57805
      3402.535  
  20557979.387   110009913.79108     -2024.155    20557982.900    85563294.57707
     -1574.343  
  21283354.135   113731790.77508      2172.198    21283358.793    88458084.47307
      1689.487  
  23051972.398   123269256.33607     -4488.862    23051979.262    95876111.32506
     -3491.246  
  20632360.295   110291789.68408     -2437.800    20632366.777    85782529.03805
     -1896.069  
  21553602.543   115054596.75707      1923.441    21553608.335    89486931.63207
      1496.012  
 20 09 27 07 45 45.0000000  0 17G 8G27G15G13G21G18G24G20G10R10R 2R12
                                R17R11R24R 1R18
  24584166.830   129190667.68746       124.121    24584169.053   100668065.16444
        96.710  
  24241046.959   127387558.62647     -1676.148    24241048.760    99263039.95344
     -1306.090  
  21411825.921   112519904.25649     -2607.809    21411825.955    87677848.30148
     -2032.063  
  24042461.285   126343988.52247     -3521.813    24042461.650    98449844.93744
     -2744.273  
  24505563.255   128777605.45947      2612.202    24505562.326   100346170.72644
      2035.488  
  21594840.522   113481649.00848     -2753.093    21594841.167    88427267.25247
     -2145.273  
  20934697.365   110012578.48949      1545.546    20934699.442    85724098.33747
      1204.320  
  19991234.988   105054683.98449       523.554    19991234.030    81860807.56448
       407.964  
  21898455.143   115077195.14249      2484.008    21898457.039    89670524.21347
      1935.589  
  22272445.230   118724658.38707     -2077.003           0.000           0.0000 
         0.000  
  19818297.164   105754254.54808      1599.351    19818302.660    82253361.11107
      1243.941  
  23327430.247   124610945.89307      4374.046    23327436.462    96919652.45305
      3402.039  
  20559872.602   110020045.11108     -2028.495    20559876.186    85571174.49007
     -1577.723  
  21281323.405   113720939.10708      2168.441    21281328.047    88449644.29707
      1686.566  
  23056169.979   123291702.31607     -4489.750    23056176.791    95893569.28806
     -3492.035  
  20634641.425   110303983.63308     -2439.391    20634647.938    85792013.22105
     -1897.308  
  21551802.660   115044989.01707      1919.605    21551808.467    89479458.94607
      1493.027  
 20 09 27 07 45 50.0000000  0 17G 8G27G15G13G21G18G24G20G10R10R 2R12
                                R17R11R24R 1R18
  24584050.329   129190055.56547       120.737    24584052.519   100667588.19644
        94.077  
  24242642.759   127395944.67847     -1678.382    24242644.516    99269574.52945
     -1307.836  
  21414307.837   112532946.77949     -2609.058    21414307.870    87688011.29748
     -2033.034  
  24045812.253   126361597.91647     -3521.836    24045812.569    98463566.54445
     -2744.293  
  24503078.245   128764546.55047      2611.160    24503077.370   100335994.96544
      2034.676  
  21597460.977   113495419.58948     -2754.952    21597461.612    88437997.56747
     -2146.719  
  20933228.233   110004858.11549      1542.675    20933230.295    85718082.45547
      1202.086  
  19990737.842   105052071.49749       521.363    19990736.890    81858771.86148
       406.253  
  21896092.191   115064777.74449      2482.976    21896094.080    89660848.32147
      1934.784  
  22274394.888   118735051.60007     -2080.469           0.000           0.0000 
         0.000  
  19816799.304   105746261.70908      1597.894    19816804.807    82247144.46307
      1242.808  
  23323336.286   124589076.65707      4373.745    23323342.475    96902643.05505
      3401.800  
  20561769.614   110030196.59208     -2032.155    20561773.225    85579070.08607
     -1580.570  
  21279296.065   113710105.67608      2165.070    21279300.718    88441218.29707
      1683.945  
  23060368.135   123314151.40007     -4489.863    23060374.919    95911029.68106
     -3492.120  
  20636923.858   110316184.48008     -2440.644    20636930.358    85801502.76706
     -1898.280  
  21550006.576   115035401.27307      1915.754    21550012.337    89472001.81507
      1490.030  
 20 09 27 07 45 55.0000000  0 17G 8G27G15G13G21G18G24G20G10R10R 2R12
                                R17R11R24R 1R18
  24583936.712   129189458.47047       118.277    24583938.987   100667122.92743
        92.159  
  24244240.992   127404343.53847     -1681.063    24244242.821    99276119.09945
     -1309.918  
  21416791.239   112545996.99049     -2610.644    21416791.272    87698180.29048
     -2034.272  
  24049163.564   126379209.05147     -3522.230    24049163.925    98477289.50644
     -2744.598  
  24500594.455   128751494.30047      2609.578    24500593.430   100325824.39644
      2033.438  
  21600083.571   113509201.28948     -2757.320    21600084.213    88448736.55547
     -2148.565  
  20931762.136   109997153.81849      1539.348    20931764.204    85712079.11947
      1199.492  
  19990243.045   105049471.35449       518.999    19990242.092    81856745.77548
       404.410  
  21893730.385   115052366.37049      2481.839    21893732.268    89651177.12847
      1933.902  
  22276348.218   118745464.01007     -2084.354           0.000           0.0000 
         0.000  
  19815303.192   105738278.29208      1595.809    19815308.725    82240935.13807
      1241.184  
  23319242.731   124567209.93307      4373.250    23319249.008    96885635.63405
      3401.422  
  20563670.514   110040368.57008     -2036.265    20563674.087    85586981.62207
     -1583.765  
  21277272.179   113699290.77108      2161.284    21277276.859    88432806.71607
      1680.999  
  23064566.891   123336603.96906     -4490.577    23064573.674    95928492.77406
     -3492.676  
  20639207.621   110328392.56408     -2441.949    20639214.140    85810997.94305
     -1899.297  
  21548214.256   115025833.80907      1911.453    21548220.007    89464560.45707
      1486.688  
 20 09 27 07 46  0.0000000  0 17G 8G27G15G13G21G18G24G20G10R10R 2R12
                                R17R11R24R 1R18
  24583826.203   129188877.83547       114.538    24583828.617   100666670.51043
        89.253  
  24245841.924   127412756.49547     -1683.938    24245843.672    99282674.63045
     -1312.159  
  21419276.337   112559056.17549     -2612.761    21419276.352    87708356.27747
     -2035.921  
  24052515.431   126396823.19747     -3523.351    24052515.744    98491014.80044
     -2745.473  
  24498112.199   128738449.95847      2608.113    24498111.151   100315659.94345
      2032.293  
  21602708.513   113522995.36148     -2760.077    21602709.158    88459485.17347
     -2150.714  
  20930299.331   109989466.76149      1535.648    20930301.404    85706089.20047
      1196.609  
  19989750.842   105046884.86949       516.093    19989749.915    81854730.33348
       402.147  
  21891369.967   115039962.32149      2479.937    21891371.841    89641511.63447
      1932.414  
  22278305.397   118755896.87807     -2088.581           0.000           0.0000 
         0.000  
  19813809.191   105730305.95708      1593.472    19813814.730    82234734.43907
      1239.367  
  23315149.931   124545347.08707      4372.202    23315156.226    96868631.21105
      3400.602  
  20565575.432   110050562.26408     -2040.813    20565579.014    85594910.04707
     -1587.301  
  21275251.977   113688495.67008      2157.211    21275256.696    88424410.53007
      1677.832  
  23068766.523   123359061.19606     -4492.078    23068773.305    95945959.48306
     -3493.848  
  20641493.007   110340609.13808     -2444.148    20641499.502    85820499.72105
     -1901.007  
  21546426.002   115016288.08307      1907.183    21546431.756    89457136.00507
      1483.362  
 20 09 27 07 46  5.0000000  0 17G 8G27G15G13G21G18G24G20G10R10R 2R12
                                R17R11R24R 1R18
  24583718.743   129188313.03747       111.629    24583721.172   100666230.38644
        86.976  
  24247445.414   127421182.92247     -1686.456    24247447.134    99289240.69645
     -1314.125  
  21421763.018   112572123.71149     -2614.152    21421763.006    87718538.77048
     -2037.003  
  24055867.732   126414439.59447     -3523.397    24055867.984    98504741.85344
     -2745.508  
  24495631.311   128725412.95947      2606.801    24495630.456   100305501.28644
      2031.214  
  21605335.688   113536801.16248     -2762.265    21605336.360    88470242.93647
     -2152.418  
  20928839.695   109981796.35149      1532.488    20928841.769    85700112.26847
      1194.147  
  19989261.112   105044311.41449       513.547    19989260.212    81852725.04748
       400.168  
  21889010.827   115027564.98849      2478.858    21889012.685    89631851.37947
      1931.578  
  22280266.262   118766349.57407     -2092.276           0.000           0.0000 
         0.000  
  19812317.007   105722343.47008      1591.586    19812322.571    82228541.39607
      1237.898  
  23311057.655   124523487.38607      4371.628    23311064.078    96851629.24005
      3400.160  
  20567484.295   110060777.13008     -2045.109    20567487.905    85602854.94107
     -1590.644  
  21273235.407   113677719.85708      2153.296    21273240.144    88416029.35107
      1674.785  
  23072966.842   123381522.47206     -4492.602    23072973.674    95963429.35106
     -3494.250  
  20643779.840   110352833.53808     -2445.660    20643786.335    85830007.58005
     -1902.184  
  21544641.697   115006763.30707      1903.093    21544647.431    89449727.85007
      1480.184  
 20 09 27 07 46 10.0000000  0 17G 8G27G15G13G21G18G24G20G10R10R 2R12
                                R17R11R24R 1R18
  24583614.022   129187762.63347       108.348    24583616.674   100665801.51343
        84.421  
  24249051.199   127429621.38247     -1689.223    24249052.995    99295816.11344
     -1316.276  
  21424251.035   112585198.13949     -2615.972    21424250.979    87728726.63647
     -2038.425  
  24059220.240   126432056.95847     -3523.812    24059220.502    98518469.66344
     -2745.832  
  24493151.579   128712381.81847      2605.352    24493150.755   100295347.13943
      2030.145  
  21607964.814   113550617.22248     -2764.405    21607965.490    88481008.69347
     -2154.086  
  20927382.979   109974141.25849      1529.180    20927385.030    85694147.26147
      1191.570  
  19988773.604   105041749.51449       510.866    19988772.706    81850728.76248
       398.078  
  21886652.683   115015172.88549      2477.605    21886654.532    89622195.19947
      1930.602  
  22282230.669   118776820.72207     -2096.479           0.000           0.0000 
         0.000  
  19810826.488   105714389.74208      1589.425    19810832.062    82222355.16707
      1236.219  
  23306965.765   124501629.52507      4370.898    23306972.264    96834628.71405
      3399.590  
  20569396.791   110071011.53408     -2049.132    20569400.440    85610815.03107
     -1593.772  
  21271222.158   113666961.79108      2149.347    21271226.906    88407661.97307
      1671.714  
  23077167.701   123403986.32306     -4493.363    23077174.524    95980901.22306
     -3494.844  
  20646067.855   110365064.25808     -2447.004    20646074.367    85839520.36606
     -1903.230  
  21542861.059   114997258.08007      1898.948    21542866.775    89442334.90107
      1476.961  
 20 09 27 07 46 15.0000000  0 17G 8G27G15G13G21G18G24G20G10R10R 2R12
                                R17R11R24R 1R18
  24583512.580   129187229.73947       104.852    24583515.283   100665386.27344
        81.703  
  24250659.856   127438074.93147     -1692.089    24250661.684    99302403.30445
     -1318.516  
  21426740.933   112598282.57849     -2617.652    21426740.865    87738922.30448
     -2039.733  
  24062573.518   126449678.36547     -3524.133    24062573.757    98532200.62344
     -2746.081  
  24490673.538   128699359.71747      2603.777    24490672.777   100285200.04444
      2028.914  
  21610596.472   113564446.70649     -2766.914    21610597.176    88491784.91247
     -2156.038  
  20925929.765   109966504.59749      1525.765    20925931.824    85688196.62547
      1188.909  
  19988288.875   105039202.34049       508.273    19988288.003    81848743.95148
       396.054  
  21884296.148   115002789.21549      2475.905    21884297.991    89612545.58947
      1929.276  
  22284199.079   118787313.30007     -2100.453           0.000           0.0000 
         0.000  
  19809338.205   105706447.97908      1587.320    19809343.757    82216178.24407
      1234.581  
  23302874.836   124479776.63907      4370.214    23302881.371    96817632.05105
      3399.059  
  20571313.566   110081268.80208     -2053.565    20571317.241    85618792.90407
     -1597.222  
  21269212.846   113656224.73108      2145.449    21269217.605    88399310.93107
      1668.684  
  23081369.639   123426455.90906     -4494.253    23081376.425    95998377.55506
     -3495.648  
  20648357.632   110377304.62108     -2449.042    20648364.194    85849040.64205
     -1904.815  
  21541084.645   114987775.71007      1894.453    21541090.402    89434959.73207
      1473.465  
 20 09 27 07 46 20.0000000  0 17G 8G27G15G13G21G18G24G20G10R10R 2R12
                                R17R11R24R 1R18
  24583414.071   129186712.19347       102.137    24583416.815   100664982.96944
        79.577  
  24252271.007   127446541.49447     -1694.555    24252272.959    99309000.61245
     -1320.438  
  21429232.328   112611374.88649     -2619.254    21429232.239    87749124.09647
     -2040.980  
  24065927.164   126467301.73647     -3524.957    24065927.334    98545933.11244
     -2746.727  
  24488196.836   128686344.59247      2602.160    24488195.811   100275058.40742
      2027.656  
  21613230.267   113578287.45849     -2769.327    21613230.990    88502569.91047
     -2157.922  
  20924479.623   109958884.01949      1522.660    20924481.668    85682258.51047
      1186.484  
  19987806.569   105036667.74049       505.698    19987805.677    81846768.93948
       394.046  
  21881940.802   114990411.81549      2474.852    21881942.635    89602900.86347
      1928.457  
  22286171.080   118797825.33107     -2104.101           0.000           0.0000 
         0.000  
  19807851.723   105698515.82608      1585.460    19807857.276    82210008.79407
      1233.133  
  23298784.382   124457926.63907      4369.788    23298791.073    96800637.63705
      3398.729  
  20573234.240   110091546.68808     -2057.672    20573237.886    85626786.81207
     -1600.413  
  21267207.096   113645506.42208      2141.804    21267211.821    88390974.47407
      1665.848  
  23085572.245   123448929.16306     -4495.207    23085579.047    96015856.73506
     -3496.276  
  20650648.807   110389552.38808     -2450.121    20650655.407    85858566.68105
     -1905.651  
  21539312.103   114978313.91807      1890.270    21539317.882    89427600.56007
      1470.210  
 20 09 27 07 46 25.0000000  0 17G 8G27G15G13G21G18G24G20G10R10R 2R12
                                R17R11R24R 1R18
  24583318.614   129186210.66047        98.586    24583321.467   100664592.19344
        76.820  
  24253884.723   127455021.62847     -1697.499    24253886.639    99315608.51545
     -1322.730  
  21431725.353   112624475.66449     -2621.023    21431725.219    87759332.49447
     -2042.355  
  24069281.271   126484927.56547     -3525.378    24069281.423    98559667.51844
     -2747.050  
  24485721.561   128673336.96247      2600.507    24485720.667   100264922.57744
      2026.366  
  21615866.346   113592140.05248     -2771.672    21615867.073    88513364.13447
     -2159.749  
  20923032.684   109951280.33349      1519.132    20923034.744    85676333.56447
      1183.737  
  19987326.763   105034146.31149       502.866    19987325.857    81844804.18948
       391.839  
  21879586.771   114978041.29949      2473.434    21879588.605    89593261.50447
      1927.347  
  22288146.891   118808357.32607     -2108.406           0.000           0.0000 
         0.000  
  19806367.211   105690594.03008      1583.374    19806372.742    82203847.39907
      1231.512  
  23294694.644   124436080.17707      4368.905    23294701.423    96783645.98005
      3398.043  
  20575158.867   110101845.72108     -2061.991    20575162.499    85634797.17307
     -1603.773  
  21265204.950   113634807.65708      2137.832    21265209.693    88382653.21507
      1662.757  
  23089775.660   123471406.46207     -4496.152    23089782.449    96033339.06006
     -3497.015  
  20652941.480   110401808.06908     -2451.824    20652948.085    85868098.87705
     -1907.026  
  21537543.516   114968873.29907      1885.871    21537549.329    89420257.86107
      1466.788  
 20 09 27 07 46 30.0000000  0 17G 8G27G15G13G21G18G24G20G10R10R 2R12
                                R17R11R24R 1R18
  24583226.214   129185724.81347        95.804    24583229.139   100664213.62443
        74.652  
  24255500.992   127463515.14447     -1699.637    24255502.888    99322226.81745
     -1324.394  
  21434219.942   112637584.75749     -2622.558    21434219.797    87769547.37447
     -2043.554  
  24072635.810   126502555.72247     -3526.031    24072636.044    98573403.75544
     -2747.563  
  24483247.696   128660336.68647      2599.093    24483246.732   100254792.50543
      2025.457  
  21618504.635   113606004.32148     -2773.984    21618505.354    88524167.45647
     -2161.551  
  20921588.940   109943693.37449      1515.800    20921590.981    85670421.66047
      1181.145  
  19986849.435   105031637.90449       500.292    19986848.516    81842849.58848
       389.836  
  21877234.032   114965677.51049      2472.257    21877235.833    89583627.38747
      1926.434  
  22290126.390   118818909.14007     -2112.059           0.000           0.0000 
         0.000  
  19804884.573   105682682.51608      1581.292    19804890.129    82197694.00107
      1229.894  
  23290605.442   124414236.99107      4368.272    23290612.387    96766656.87105
      3397.551  
  20577087.416   110112165.80708     -2066.046    20577091.047    85642823.90707
     -1606.929  
  21263206.392   113624128.06308      2134.102    21263211.125    88374346.87307
      1659.855  
  23093979.843   123493887.71407     -4496.499    23093986.570    96050824.47506
     -3497.281  
  20655235.699   110414071.54608     -2453.370    20655242.229    85877637.13405
     -1908.179  
  21535778.921   114959453.86407      1881.987    21535784.745    89412931.63707
      1463.769  
 20 09 27 07 46 35.0000000  0 17G 8G27G15G13G21G18G24G20G10R10R 2R12
                                R17R11R24R 1R18
  24583136.501   129185253.64947        92.784    24583139.515   100663846.50244
        72.301  
  24257119.536   127472020.84047     -1702.539    24257121.499    99328854.63444
     -1326.652  
  21436715.891   112650700.93149     -2624.144    21436715.699    87779767.76747
     -2044.792  
  24075990.546   126520184.94847     -3525.687    24075990.817    98587140.80044
     -2747.292  
  24480775.005   128647342.48247      2598.003    24480773.943   100244667.16143
      2024.418  
  21621144.902   113619879.01849     -2776.054    21621145.605    88534978.90347
     -2163.164  
  20920148.147   109936121.89349      1512.660    20920150.199    85664521.80547
      1178.694  
  19986374.351   105029141.29249       497.913    19986373.449    81840904.17548
       387.980  
  21874882.332   114953319.24349      2471.020    21874884.126    89573997.57547
      1925.469  
  22292109.319   118829479.39107     -2116.039           0.000           0.0000 
         0.000  
  19803403.625   105674779.98708      1579.534    19803409.206    82191547.59207
      1228.526  
  23286516.711   124392395.84607      4368.121    23286523.559    96749669.31705
      3397.426  
  20579019.693   110122505.65708     -2070.026    20579023.287    85650866.01307
     -1610.022  
  21261211.239   113613466.53708      2130.277    21261215.967    88366054.57907
      1656.883  
  23098184.432   123516371.66506     -4497.301    23098191.182    96068311.98906
     -3497.921  
  20657531.094   110426341.65508     -2454.695    20657537.621    85887180.55005
     -1909.206  
  21534018.014   114950054.08507      1877.769    21534023.843    89405620.70107
      1460.487  
 20 09 27 07 46 40.0000000  0 17G 8G27G15G13G21G18G24G20G10R10R 2R12
                                R17R11R24R 1R18
  24583049.994   129184798.95646        89.188    24583052.894   100663492.15044
        69.487  
  24258740.814   127480540.58547     -1705.699    24258742.785    99335493.40544
     -1329.116  
  21439213.535   112663826.01549     -2626.082    21439213.295    87789995.10147
     -2046.300  
  24079345.861   126537817.15147     -3527.065    24079346.103    98600880.16844
     -2748.363  
  24478303.823   128634356.29847      2596.179    24478302.705   100234548.07344
      2022.996  
  21623787.516   113633766.01948     -2778.808    21623788.236    88545799.94247
     -2165.308  
  20918710.647   109928567.72149      1508.797    20918712.727    85658635.44047
      1175.688  
  19985901.849   105026658.37249       495.206    19985900.965    81838969.43248
       385.871  
  21872532.044   114940968.36849      2469.089    21872533.856    89564373.51647
      1923.961  
  22294096.136   118840070.09007     -2120.366           0.000           0.0000 
         0.000  
  19801924.722   105666888.15308      1577.133    19801930.273    82185409.50007
      1226.659  
  23282428.743   124370558.74907      4366.585    23282435.661    96732684.93705
      3396.238  
  20580955.948   110132867.13508     -2074.691    20580959.584    85658924.93707
     -1613.651  
  21259219.831   113602825.08908      2126.043    21259224.575    88357777.90607
      1653.590  
  23102389.949   123538860.20606     -4498.104    23102396.664    96085803.06406
     -3498.483  
  20659828.030   110438620.22007     -2456.718    20659834.602    85896730.54105
     -1910.785  
  21532261.207   114940676.16107      1873.069    21532267.020    89398326.76607
      1456.832  
 20 09 27 07 46 45.0000000  0 17G 8G27G15G13G21G18G24G20G10R10R 2R12
                                R17R11R24R 1R18
  24582966.542   129184360.53946        86.558    24582969.325   100663150.54144
        67.449  
  24260364.677   127489074.17247     -1707.633    24260366.649    99342142.94844
     -1330.624  
  21441712.850   112676959.87949     -2627.285    21441712.579    87800229.28147
     -2047.238  
  24082701.704   126555452.16647     -3526.973    24082702.009    98614621.72844
     -2748.292  
  24475834.139   128621378.02147      2595.171    24475833.042   100224435.12144
      2022.206  
  21626432.439   113647665.18449     -2780.667    21626433.173    88556630.45447
     -2166.758  
  20917276.402   109921030.71149      1506.038    20917278.514    85652762.45247
      1173.534  
  19985431.956   105024189.03549       492.797    19985431.082    81837045.27648
       383.991  
  21870183.126   114928624.75249      2468.410    21870184.915    89554755.12347
      1923.438  
  22296086.773   118850681.24107     -2123.870           0.000           0.0000 
         0.000  
  19800447.753   105659006.82608      1575.397    19800453.309    82179279.58207
      1225.309  
  23278341.442   124348725.55707      4366.465    23278348.433    96715703.59205
      3396.145  
  20582896.215   110143250.11408     -2078.355    20582899.899    85667000.58607
     -1616.504  
  21257232.137   113592203.45408      2122.819    21257236.873    88349516.63507
      1651.082  
  23106596.240   123561353.16106     -4498.733    23106602.963    96103297.56706
     -3499.019  
  20662126.604   110450907.13407     -2457.797    20662133.131    85906287.02805
     -1911.625  
  21530508.497   114931319.95007      1869.347    21530514.265    89391049.71707
      1453.938  
 20 09 27 07 46 50.0000000  0 17G 8G27G15G13G21G18G24G20G10R10R 2R12
                                R17R11R24R 1R18
  24582885.874   129183936.71747        82.688    24582888.574   100662820.28544
        64.425  
  24261990.881   127497619.93347     -1711.296    24261992.838    99348801.98544
     -1333.479  
  21444213.497   112690100.74449     -2629.559    21444213.201    87810468.91247
     -2049.011  
  24086057.757   126573088.24647     -3528.175    24086057.984    98628364.10443
     -2749.233  
  24473365.638   128608405.93247      2593.027    24473364.388   100214327.02042
      2020.539  
  21629079.345   113661574.76649     -2783.715    21629080.100    88567469.08447
     -2169.132  
  20915845.116   109913509.25149      1502.141    20915847.235    85646901.57447
      1170.499  
  19984964.289   105021731.48849       489.507    19984963.427    81835130.30848
       381.472  
  21867835.278   114916286.69349      2466.437    21867837.061    89545141.05147
      1921.895  
  22298080.863   118861310.73907     -2128.660           0.000           0.0000 
         0.000  
  19798972.545   105651134.73808      1572.734    19798978.091    82173156.85107
      1223.237  
  23274254.647   124326894.60607      4365.285    23274261.668    96698723.98505
      3395.226  
  20584840.201   110153652.90408     -2083.151    20584843.930    85675091.63707
     -1620.234  
  21255247.828   113581599.87708      2118.262    21255252.560    88341269.41807
      1647.534  
  23110803.098   123583848.81406     -4499.835    23110809.813    96120794.16906
     -3499.874  
  20664426.363   110463200.59907     -2460.187    20664432.884    85915848.60605
     -1913.483  
  21528759.419   114921983.53607      1864.343    21528765.234    89383788.06707
      1450.046  
 20 09 27 07 46 55.0000000  0 17G 8G27G15G13G21G18G24G20G10R10R 2R12
                                R17R11R24R 1R18
  24582808.464   129183530.02347        79.617    24582811.183   100662503.41543
        62.042  
  24263619.870   127506180.26447     -1712.996    24263621.799    99355472.33844
     -1334.808  
  21446715.943   112703251.08949     -2630.551    21446715.636    87820715.93247
     -2049.784  
  24089414.492   126590727.85447     -3528.046    24089414.596    98642109.24744
     -2749.133  
  24470898.788   128595442.48347      2592.414    24470897.529   100204225.64644
      2020.066  
  21631728.710   113675497.21049     -2785.452    21631729.459    88578317.73447
     -2170.488  
  20914417.250   109906005.73249      1499.141    20914419.395    85641054.68347
      1168.160  
  19984499.361   105019288.24649       487.812    19984498.486    81833226.48348
       380.112  
  21865488.951   114903956.63349      2465.530    21865490.722    89535533.21747
      1921.190  
  22300078.838   118871961.25507     -2131.866           0.000           0.0000 
         0.000  
  19797499.385   105643273.80008      1571.453    19797504.963    82167042.78907
      1222.242  
  23270168.739   124305068.32107      4365.183    23270175.771    96681748.01205
      3395.147  
  20586788.334   110164077.85108     -2086.812    20586792.080    85683199.92807
     -1623.081  
  21253267.375   113571016.90408      2114.922    21253272.102    88333038.22007
      1644.938  
  23115010.911   123606349.53406     -4500.089    23115017.565    96138294.71606
     -3500.073  
  20666727.846   110475503.12907     -2460.913    20666734.318    85925417.23805
     -1914.047  
  21527014.534   114912669.53207      1860.645    21527020.392    89376543.84307
      1447.168  
 20 09 27 07 47  0.0000000  0 17G 8G27G15G13G21G18G24G20G10R10R 2R12
                                R17R11R24R 1R18
  24582733.872   129183138.06947        76.312    24582736.568   100662197.97342
        59.461  
  24265251.155   127514752.90947     -1715.844    24265253.134    99362152.35145
     -1337.016  
  21449219.744   112716408.62149     -2632.347    21449219.445    87830968.55047
     -2051.183  
  24092771.473   126608368.75047     -3528.468    24092771.582    98655855.41744
     -2749.457  
  24468433.151   128582485.47547      2590.758    24468431.841   100194129.25544
      2018.773  
  21634380.089   113689430.24149     -2787.969    21634380.825    88589174.63747
     -2172.444  
  20912992.397   109898518.01849      1495.820    20912994.561    85635220.10347
      1165.569  
  19984036.729   105016857.06849       484.843    19984035.849    81831332.06048
       377.797  
  21863143.717   114891632.34349      2464.031    21863145.488    89525929.87747
      1920.019  
  22302080.354   118882630.43307     -2135.827           0.000           0.0000 
         0.000  
  19796028.014   105635422.09708      1569.137    19796033.558    82160935.91307
      1220.441  
  23266083.240   124283244.47407      4364.371    23266090.305    96664773.92405
      3394.515  
  20588740.227   110174522.73208     -2091.125    20588743.956    85691323.72507
     -1626.433  
  21251290.343   113560452.37308      2110.887    21251295.080    88324821.36807
      1641.801  
  23119219.111   123628853.04406     -4501.223    23119225.817    96155797.43606
     -3500.952  
  20669030.521   110487812.34107     -2462.797    20669037.010    85934991.06505
     -1915.511  
  21525273.488   114903375.65007      1856.323    21525279.314    89369315.27307
      1443.808  
 20 09 27 07 47  5.0000000  0 17G 8G27G15G13G21G18G24G20G10R10R 2R12
                                R17R11R24R 1R18
  24582662.354   129182762.11147        73.855    24582665.010   100661904.98544
        57.543  
  24266885.068   127523339.15247     -1718.288    24266887.139    99368842.92444
     -1338.930  
  21451725.191   112729574.64549     -2633.707    21451724.856    87841227.79047
     -2052.238  
  24096128.889   126626012.15447     -3528.831    24096129.009    98669603.51844
     -2749.737  
  24465968.997   128569536.10347      2589.429    24465967.679   100184038.83044
      2017.737  
  21637033.723   113703375.12049     -2789.914    21637034.455    88600040.77547
     -2173.965  
  20911570.783   109891047.32349      1492.781    20911572.951    85629398.78547
      1163.207  
  19983576.619   105014439.17149       482.469    19983575.722    81829447.98148
       375.944  
  21860799.809   114879315.05349      2463.093    21860801.564    89516331.99447
      1919.292  
  22304085.561   118893319.46707     -2139.434           0.000           0.0000 
         0.000  
  19794558.557   105627580.88408      1567.343    19794564.118    82154837.19407
      1219.046  
  23261998.442   124261424.31407      4363.672    23262005.575    96647802.70906
      3393.972  
  20590696.085   110184988.82708     -2095.081    20590699.811    85699464.02107
     -1629.512  
  21249317.001   113549907.40008      2107.348    21249321.719    88316619.73007
      1639.046  
  23123428.178   123651360.66106     -4501.757    23123434.850    96173303.33906
     -3501.245  
  20671334.728   110500129.71007     -2464.063    20671341.213    85944571.23905
     -1916.496  
  21523536.463   114894103.22807      1852.680    21523542.263    89362103.39607
      1440.972  
 20 09 27 07 47 10.0000000  0 17G 8G27G15G13G21G18G24G20G10R10R 2R12
                                R17R11R24R 1R18
  24582593.727   129182401.50746        70.215    24582596.445   100661624.03443
        54.710  
  24268521.449   127531938.32747     -1721.347    24268523.566    99375543.56745
     -1341.313  
  21454232.115   112742748.55849     -2635.695    21454231.767    87851493.17247
     -2053.793  
  24099486.713   126643657.48047     -3529.918    24099486.712    98683353.12444
     -2750.589  
  24463506.168   128556593.81947      2587.676    24463504.771   100173953.94443
      2016.371  
  21639689.495   113717331.23249     -2792.402    21639690.236    88610915.65947
     -2175.901  
  20910152.269   109883592.91949      1489.183    20910154.411    85623590.16347
      1160.402  
  19983118.918   105012033.93849       479.667    19983118.023    81827573.77948
       373.765  
  21858457.137   114867004.22949      2461.398    21858458.871    89506739.14947
      1917.968  
  22306094.413   118904027.84407     -2143.723           0.000           0.0000 
         0.000  
  19793090.981   105619749.46008      1565.351    19793096.506    82148746.08907
      1217.496  
  23257914.184   124239607.24907      4362.831    23257921.414    96630833.91906
      3393.316  
  20592655.758   110195475.43508     -2099.663    20592659.506    85707620.27107
     -1633.073  
  21247347.226   113539381.58108      2103.214    21247351.956    88308432.98207
      1635.831  
  23127637.880   123673871.67306     -4502.820    23127644.548    96190811.88106
     -3502.202  
  20673640.338   110512454.32607     -2465.832    20673646.785    85954157.04305
     -1917.874  
  21521803.273   114884851.53207      1847.827    21521809.102    89354907.63407
      1437.199  
 20 09 27 07 47 15.0000000  0 17G 8G27G15G13G21G18G24G20G10R10R 2R12
                                R17R11R24R 1R18
  24582528.150   129182057.18046        66.979    24582530.817   100661355.73544
        52.190  
  24270160.429   127540551.25747     -1723.847    24270162.571    99382254.95745
     -1343.257  
  21456740.669   112755931.06949     -2637.339    21456740.331    87861765.25947
     -2055.074  
  24102845.038   126661305.44547     -3529.710    24102844.959    98697104.77543
     -2750.426  
  24461044.836   128543659.36547      2586.226    24461043.355   100163875.16843
      2015.242  
  21642347.557   113731299.34749     -2794.746    21642348.272    88621799.90347
     -2177.726  
  20908737.021   109876155.70949      1485.836    20908739.167    85617794.94247
      1157.793  
  19982663.784   105009642.19149       477.223    19982662.880    81825710.07848
       371.859  
  21856115.846   114854700.59949      2460.203    21856117.545    89497151.90747
      1917.042  
  22308107.069   118914756.40307     -2148.012           0.000           0.0000 
         0.000  
  19791625.378   105611928.78508      1563.105    19791630.908    82142663.34207
      1215.749  
  23253830.718   124217794.11107      4362.191    23253837.970    96613868.17106
      3392.820  
  20594619.428   110205983.36708     -2103.695    20594623.172    85715793.10607
     -1636.211  
  21245381.160   113528875.52208      2099.347    21245385.871    88300261.61507
      1632.823  
  23131848.351   123696386.89506     -4503.684    23131855.004    96208323.70706
     -3502.637  
  20675947.425   110524787.22007     -2467.250    20675953.908    85963749.29305
     -1918.976  
  21520074.142   114875621.47007      1843.909    21520079.986    89347728.70207
      1434.151  
 20 09 27 07 47 20.0000000  0 18G 8G27G15G13G21G18G24G20G10R10R 2R12
                                R17R11R24R 1R18R 3
  24582465.372   129181727.12046        64.656    24582467.937   100661098.53344
        50.378  
  24271801.592   127549175.78447     -1726.090    24271803.791    99388975.35444
     -1345.007  
  21459250.474   112769120.08849     -2638.233    21459250.102    87872042.41547
     -2055.770  
  24106203.480   126678953.95447     -3529.398    24106203.504    98710856.86044
     -2750.184  
  24458584.570   128530730.70947      2585.488    24458583.050   100153800.88343
      2014.621  
  21645007.480   113745277.34049     -2796.445    21645008.218    88632691.84547
     -2179.051  
  20907324.620   109868733.46149      1483.211    20907326.745    85612011.37547
      1155.749  
  19982210.813   105007261.84249       474.945    19982209.915    81823855.26148
       370.082  
  21853775.506   114842402.09449      2459.292    21853777.212    89487568.66247
      1916.331  
  22310123.053   118925502.72807     -2150.992           0.000           0.0000 
         0.000  
  19790161.305   105604116.24108      1561.858    19790166.841    82136586.92107
      1214.780  
  23249747.568   124195982.74607      4362.171    23249754.803    96596903.78906
      3392.800  
  20596586.636   110216510.38808     -2107.191    20596590.412    85723980.78807
     -1638.930  
  21243418.425   113518387.22708      2095.987    21243423.108    88292104.05807
      1630.215  
  23136059.216   123718904.28306     -4503.515    23136065.858    96225837.21506
     -3502.770  
  20678255.668   110537126.19407     -2468.132    20678262.153    85973346.27105
     -1919.664  
  21518348.708   114866410.89407      1840.473    21518354.528    89340564.92307
      1431.480  
  23640556.179   126549746.73216      3453.831           0.000           0.0000 
         0.000  
 20 09 27 07 47 25.0000000  0 18G 8G27G15G13G21G18G24G20G10R10R 2R12
                                R17R11R24R 1R18R 3
  24582405.448   129181412.06146        61.202    24582408.069   100660853.04144
        47.688  
  24273445.132   127557812.76747     -1729.270    24273447.377    99395705.46744
     -1347.488  
  21461761.674   112782316.50149     -2640.554    21461761.281    87882325.33447
     -2057.578  
  24109562.188   126696603.89947     -3530.538    24109562.125    98724610.04044
     -2751.073  
  24456125.554   128517808.68147      2583.523    24456124.119   100143731.78444
      2013.136  
  21647669.466   113759266.07249     -2799.398    21647670.182    88643592.14447
     -2181.351  
  20905915.281   109861327.27549      1479.151    20905917.411    85606240.32647
      1152.586  
  19981760.165   105004893.70249       472.151    19981759.258    81822009.95648
       367.910  
  21851436.317   114830109.57249      2457.539    21851438.030    89477990.07547
      1914.964  
  22312142.550   118936267.97207     -2155.504           0.000           0.0000 
         0.000  
  19788699.010   105596313.34708      1559.059    19788704.591    82130518.00907
      1212.601  
  23245664.962   124174174.16907      4360.987    23245672.199    96579941.59406
      3391.883  
  20598557.622   110227057.46708     -2111.973    20598561.400    85732184.06807
     -1642.648  
  21241459.145   113507917.52208      2091.730    21241463.846    88283960.95607
      1626.902  
  23140270.680   123741424.52606     -4504.964    23140277.244    96243352.93806
     -3503.867  
  20680565.198   110549472.01907     -2470.194    20680571.671    85982948.57605
     -1921.266  
  21516627.075   114857220.69907      1835.300    21516632.889    89333417.00107
      1427.456  
  23637330.245   126532479.27506      3452.734    23637335.211    98414169.60916
      2685.461  
 20 09 27 07 47 30.0000000  0 18G 8G27G15G13G21G18G24G20G10R10R 2R12
                                R17R11R24R 1R18R 3
  24582348.731   129181114.23346        57.710    24582351.409   100660620.96543
        44.968  
  24275091.533   127566464.56947     -1731.609    24275093.798    99402447.13144
     -1349.304  
  21464274.713   112795522.67549     -2642.222    21464274.332    87892615.85747
     -2058.878  
  24112921.585   126714257.67847     -3531.051    24112921.635    98738366.23444
     -2751.473  
  24453668.246   128504895.68847      2581.933    24453666.840   100133669.70144
      2011.891  
  21650333.928   113773267.91849     -2801.738    21650334.652    88654502.67247
     -2183.175  
  20904509.406   109853939.31949      1475.690    20904511.538    85600483.47847
      1149.887  
  19981312.320   105002540.22949       469.429    19981311.384    81820176.08448
       365.784  
  21849098.730   114817825.47049      2455.934    21849100.430    89468418.05447
      1913.715  
  22314166.071   118947054.41507     -2159.440           0.000           0.0000 
         0.000  
  19787238.958   105588522.25808      1557.069    19787244.529    82124458.27307
      1211.051  
  23241583.289   124152370.73007      4360.453    23241590.502    96562983.38806
      3391.469  
  20600532.826   110237627.09108     -2116.147    20600536.572    85740404.88507
     -1645.897  
  21239503.819   113497468.88608      2087.573    21239508.520    88275834.24407
      1623.668  
  23144483.105   123763950.10106     -4505.491    23144489.661    96260872.82106
     -3504.276  
  20682876.551   110561827.33407     -2472.082    20682883.018    85992558.26505
     -1922.734  
  21514909.667   114848053.18407      1831.055    21514915.490    89326286.71207
      1424.151  
  23634105.509   126515215.47606      3452.875    23634110.275    98400742.22906
      2685.569  
 20 09 27 07 47 35.0000000  0 18G 8G27G15G13G21G18G24G20G10R10R 2R12
                                R17R11R24R 1R18R 3
  24582295.042   129180832.22047        54.965    24582297.748   100660401.20244
        42.827  
  24276740.423   127575129.67247     -1734.190    24276742.692    99409199.13944
     -1351.323  
  21466789.328   112808737.00149     -2643.465    21466788.935    87902912.73647
     -2059.843  
  24116281.421   126731913.67647     -3531.383    24116281.425    98752124.13843
     -2751.734  
  24451212.414   128491990.20546      2580.676    24451211.028   100123613.46443
      2010.914  
  21653000.593   113787281.30349     -2803.843    21653001.339    88665422.18347
     -2184.816  
  20903106.744   109846568.21649      1472.729    20903108.849    85594739.76547
      1147.581  
  19980866.957   105000199.83149       466.867    19980866.014    81818352.39848
       363.792  
  21846762.439   114805548.17649      2454.973    21846764.154    89458851.33147
      1912.965  
  22316193.317   118957860.52907     -2163.102           0.000           0.0000 
         0.000  
  19785780.820   105580741.26008      1555.336    19785786.358    82118406.38607
      1209.706  
  23237502.381   124130570.90707      4359.871    23237509.530    96546028.00206
      3391.016  
  20602511.896   110248217.52508     -2120.258    20602515.655    85748641.88807
     -1649.093  
  21237552.159   113487039.77508      2083.855    21237556.847    88267722.71707
      1620.773  
  23148696.211   123786479.34806     -4505.945    23148702.764    96278395.56106
     -3504.613  
  20685189.256   110574190.25607     -2473.194    20685195.741    86002173.86105
     -1923.601  
  21513196.319   114838907.11807      1827.137    21513202.125    89319173.11107
      1421.105  
  23630880.813   126497953.74206      3452.073    23630885.461    98387316.44806
      2684.945  
 20 09 27 07 47 40.0000000  0 18G 8G27G15G13G21G18G24G20G10R10R 2R12
                                R17R11R24R 1R18R 3
  24582244.329   129180565.91146        52.141    24582247.194   100660193.69143
        40.624  
  24278391.874   127583807.94747     -1736.523    24278394.011    99415961.45144
     -1353.136  
  21469305.490   112821959.42949     -2644.831    21469305.071    87913215.92547
     -2060.910  
  24119641.654   126749571.85047     -3531.745    24119641.582    98765883.76044
     -2752.015  
  24448757.993   128479092.19946      2579.242    24448756.617   100113563.12743
      2009.852  
  21655669.449   113801306.14249     -2805.801    21655670.186    88676350.63347
     -2186.344  
  20901707.252   109839213.80549      1469.711    20901709.330    85589009.06247
      1145.229  
  19980424.057   104997872.46949       464.526    19980423.132    81816538.86948
       361.965  
  21844427.421   114793277.63849      2453.667    21844429.141    89449289.87747
      1911.949  
  22318224.207   118968686.16007     -2166.648           0.000           0.0000 
         0.000  
  19784324.562   105572970.26508      1553.609    19784330.078    82112362.28107
      1208.359  
  23233422.083   124108774.68808      4359.113    23233429.199    96529075.40806
      3390.425  
  20604494.857   110258828.71608     -2123.886    20604498.617    85756895.03907
     -1651.914  
  21235604.181   113476630.12108      2080.500    21235608.817    88259626.32707
      1618.168  
  23152910.018   123809012.21906     -4506.629    23152916.549    96295921.10206
     -3505.163  
  20687503.415   110586560.92007     -2474.297    20687509.952    86011795.48805
     -1924.457  
  21511486.884   114829782.04007      1823.222    21511492.678    89312075.83807
      1418.063  
  23627656.810   126480693.86806      3452.218    23627661.116    98373892.12006
      2685.059  
 20 09 27 07 47 45.0000000  0 18G 8G27G15G13G21G18G24G20G10R10R 2R12
                                R17R11R24R 1R18R 3
  24582196.425   129180314.29446        48.422    24582199.135   100659997.61544
        37.723  
  24280045.568   127592498.32847     -1739.718    24280047.693    99422733.19044
     -1355.621  
  21471822.982   112835188.87549     -2646.929    21471822.559    87923524.58447
     -2062.546  
  24123002.096   126767231.06247     -3532.116    24123002.044    98779644.16544
     -2752.308  
  24446304.788   128466200.52047      2577.277    24446303.448   100103517.65144
      2008.265  
  21658340.263   113815341.36549     -2808.405    21658340.991    88687287.16747
     -2188.370  
  20900310.738   109831875.07749      1465.844    20900312.825    85583290.57447
      1142.214  
  19979983.452   104995557.07649       461.460    19979982.535    81814734.66748
       359.574  
  21842093.508   114781012.81249      2452.113    21842095.187    89439732.88047
      1910.734  
  22320258.541   118979530.18007     -2171.144           0.000           0.0000 
         0.000  
  19782869.990   105565208.66808      1551.050    19782875.558    82106325.48507
      1206.366  
  23229342.245   124086980.86107      4358.168    23229349.323    96512124.67006
      3389.688  
  20606481.483   110269459.52308     -2128.417    20606485.237    85765163.44007
     -1655.440  
  21233659.562   113466238.82508      2075.961    21233664.221    88251544.21407
      1614.636  
  23157124.325   123831547.63706     -4507.773    23157130.803    96313448.62906
     -3505.844  
  20689818.842   110598938.20207     -2476.397    20689825.394    86021422.26305
     -1926.089  
  21509781.167   114820677.21307      1818.644    21509787.029    89304994.30507
      1414.500  
  23624432.254   126463434.91206      3451.324    23624436.934    98360468.50206
      2684.363  
 20 09 27 07 47 50.0000000  0 18G 8G27G15G13G21G18G24G20G10R10R 2R12
                                R17R11R24R 1R18R 3
  24582152.003   129180080.85747        45.390    24582154.752   100659815.71944
        35.367  
  24281702.247   127601204.29747     -1742.745    24281704.413    99429517.05745
     -1357.984  
  21474342.482   112848428.87749     -2648.879    21474342.038    87933841.46247
     -2064.066  
  24126363.399   126784894.82547     -3533.073    24126363.392    98793408.13844
     -2753.046  
  24443853.484   128453318.73646      2575.520    24443851.948   100093479.92043
      2006.898  
  21661013.730   113829390.46749     -2811.206    21661014.439    88698234.51947
     -2190.554  
  20898917.888   109824555.57049      1461.968    20898919.986    85577587.06747
      1139.194  
  19979545.775   104993257.16149       458.715    19979544.860    81812942.52648
       357.437  
  21839761.347   114768757.22449      2450.358    21839763.002    89430183.06847
      1909.366  
  22322296.971   118990396.24907     -2175.352           0.000           0.0000 
         0.000  
  19781417.739   105557459.36608      1548.667    19781423.343    82100298.25407
      1204.519  
  23225263.548   124065193.13408      4357.038    23225270.606    96495178.68606
      3388.813  
  20608472.454   110280113.58108     -2133.035    20608476.218    85773449.93207
     -1659.027  
  21231719.014   113455869.40708      2071.706    21231723.704    88243479.11307
      1611.328  
  23161339.682   123854089.10706     -4508.977    23161346.183    96330980.86806
     -3506.983  
  20692136.136   110611325.59407     -2478.515    20692142.718    86031056.89705
     -1927.737  
  21508079.896   114811596.05707      1814.116    21508085.824    89297931.19007
      1410.980  
  23621208.833   126446180.37606      3451.055    23621213.624    98347048.32806
      2684.151  
 20 09 27 07 47 55.0000000  0 18G 8G27G15G13G21G18G24G20G10R10R 2R12
                                R17R11R24R 1R18R 3
  24582110.554   129179863.07446        42.354    24582113.429   100659646.04143
        33.003  
  24283361.419   127609923.24047     -1744.710    24283363.525    99436311.03044
     -1359.519  
  21476863.497   112861676.83949     -2649.937    21476863.012    87944164.55447
     -2064.886  
  24129725.087   126802560.55347     -3532.659    24129725.116    98807173.64644
     -2752.722  
  24441403.538   128440444.21546      2574.776    24441401.915   100083447.82044
      2006.319  
  21663689.327   113843450.82649     -2812.757    21663690.041    88709190.63247
     -2191.762  
  20897528.198   109817252.67049      1459.214    20897530.290    85571896.49747
      1137.050  
  19979110.571   104990970.15249       456.397    19979109.650    81811160.44548
       355.637  
  21837430.447   114756508.26349      2449.702    21837432.104    89420638.42747
      1908.854  
  22324339.024   119001281.60707     -2178.237           0.000           0.0000 
         0.000  
  19779967.431   105549720.37208      1547.233    19779973.052    82094279.03707
      1203.405  
  23221185.423   124043408.80208      4357.063    23221192.548    96478235.34506
      3388.831  
  20610467.264   110290788.18008     -2136.522    20610471.021    85781752.39407
     -1661.746  
  21229782.129   113445519.37108      2068.538    21229786.830    88235429.09207
      1608.863  
  23165555.782   123876633.95506     -4508.902    23165562.171    96348515.73006
     -3506.930  
  20694454.817   110623720.39707     -2479.101    20694461.459    86040697.29705
     -1928.194  
  21506382.655   114802535.94407      1810.394    21506388.560    89290884.44007
      1408.086  
  23617985.879   126428927.71406      3450.945    23617990.702    98333629.61406
      2684.168  
 20 09 27 07 48  0.0000000  0 18G 8G27G15G13G21G18G24G20G10R10R 2R12
                                R17R11R24R 1R18R 3
  24582071.717   129179658.88747        39.102    24582074.674   100659486.93843
        30.469  
  24285022.703   127618653.34547     -1747.300    24285024.746    99443113.70344
     -1361.531  
  21479385.652   112874930.84949     -2651.480    21479385.158    87954492.35347
     -2066.093  
  24133086.801   126820226.41547     -3533.539    24133086.741    98820939.25443
     -2753.405  
  24438954.651   128427575.13247      2573.218    24438952.910   100073419.99043
      2005.108  
  21666366.723   113857520.60349     -2815.069    21666367.445    88720154.09047
     -2193.566  
  20896141.341   109809964.55949      1455.952    20896143.426    85566217.45647
      1134.507  
  19978677.468   104988694.14549       453.785    19978676.524    81809386.92748
       353.593  
  21835100.467   114744264.10049      2448.211    21835102.080    89411097.52547
      1907.695  
  22326384.332   119012184.30907     -2182.250           0.000           0.0000 
         0.000  
  19778518.581   105541989.15408      1545.366    19778524.234    82088265.87307
      1201.952  
  23217107.626   124021626.06707      4356.140    23217114.857    96461293.24906
      3388.113  
  20612465.588   110301481.49208     -2140.730    20612469.329    85790069.41307
     -1665.016  
  21227848.528   113435186.73208      2064.651    21227853.219    88227392.60107
      1605.840  
  23169772.164   123899180.28606     -4509.440    23169778.445    96366051.75106
     -3507.347  
  20696774.564   110636120.89907     -2480.699    20696781.259    86050342.12805
     -1929.437  
  21504688.966   114793495.00907      1806.046    21504694.874    89283852.60507
      1404.702  
  23614763.050   126411674.87306      3450.508    23614767.664    98320210.75906
      2683.727  
 20 09 27 07 48  5.0000000  0 18G 8G27G15G13G21G18G24G20G10R10R 2R12
                                R17R11R24R 1R18R 3
  24582035.948   129179471.33046        35.733    24582038.920   100659340.75244
        27.835  
  24286686.634   127627397.45847     -1750.418    24286688.747    99449927.29144
     -1363.961  
  21481909.510   112888193.78049     -2653.688    21481909.010    87964827.10347
     -2067.812  
  24136449.083   126837895.17147     -3534.253    24136449.027    98834707.09544
     -2753.969  
  24436507.320   128414714.41346      2570.777    24436505.505   100063398.62044
      2003.199  
  21669046.446   113871602.64349     -2817.750    21669047.174    88731127.10447
     -2195.652  
  20894757.794   109802693.90849      1452.522    20894759.883    85560552.01747
      1131.835  
  19978247.000   104986432.02449       450.973    19978246.050    81807624.24148
       351.405  
  21832771.936   114732027.62149      2445.906    21832773.548    89401562.61047
      1905.902  
  22328433.462   119023107.35807     -2186.750           0.000           0.0000 
         0.000  
  19777071.830   105534268.98608      1542.601    19777077.478    82082261.30107
      1199.801  
  23213030.734   123999847.95107      4354.987    23213037.910    96444354.74506
      3387.219  
  20614467.914   110312196.37508     -2145.491    20614471.668    85798403.20807
     -1668.719  
  21225918.722   113424874.43508      2060.094    21225923.391    88219371.92707
      1602.297  
  23173989.393   123921731.10806     -4510.925    23173995.555    96383591.28006
     -3508.500  
  20699095.912   110648529.89607     -2482.921    20699102.625    86059993.56505
     -1931.164  
  21502999.433   114784476.14007      1801.430    21503005.345    89276837.93507
      1401.112  
  23611540.665   126394424.91606      3449.769    23611545.187    98306794.14606
      2683.156  
 20 09 27 07 48 10.0000000  0 18G 8G27G15G13G21G18G24G20G10R10R 2R12
                                R17R11R24R 1R18R 3
  24582003.582   129179301.24447        32.519    24582006.548   100659208.25744
        25.335  
  24288353.353   127636156.31347     -1752.882    24288355.467    99456752.35543
     -1365.891  
  21484435.197   112901466.39049     -2655.198    21484434.688    87975169.39547
     -2068.991  
  24139812.063   126855567.72248     -3534.785    24139812.030    98848477.90644
     -2754.383  
  24434061.707   128401862.85246      2569.522    24434060.079   100053384.44544
      2002.226  
  21671728.664   113885697.73249     -2820.081    21671729.372    88742110.28447
     -2197.468  
  20893377.786   109795441.79349      1448.925    20893379.821    85554901.02247
      1129.031  
  19977819.342   104984184.66249       448.242    19977818.399    81805873.05048
       349.277  
  21830445.024   114719799.58149      2444.922    21830446.607    89392034.26947
      1905.133  
  22330486.532   119034051.59507     -2190.374           0.000           0.0000 
         0.000  
  19775627.316   105526560.81208      1540.855    19775632.963    82076266.05607
      1198.441  
  23208954.756   123978075.02607      4354.254    23208961.870    96427420.25706
      3386.640  
  20616474.411   110322933.60608     -2149.429    20616478.183    85806754.38407
     -1671.781  
  21223992.883   113414583.33308      2056.387    21223997.545    88211367.74307
      1599.409  
  23178207.485   123944287.04706     -4511.269    23178213.599    96401134.78406
     -3508.855  
  20701418.953   110660948.22507     -2484.280    20701425.744    86069652.26305
     -1932.218  
  21501314.200   114775480.34207      1796.914    21501320.123    89269841.20807
      1397.602  
  23608318.800   126377178.67506      3449.016    23608323.433    98293380.41906
      2682.566  
 20 09 27 07 48 15.0000000  0 18G 8G27G15G13G21G18G24G20G10R10R 2R12
                                R17R11R24R 1R18R 3
  24581974.036   129179146.19946        29.285    24581977.058   100659087.43444
        22.819  
  24290022.485   127644927.65847     -1755.367    24290024.457    99463587.18345
     -1367.820  
  21486962.311   112914746.43049     -2656.644    21486961.788    87985517.47747
     -2070.117  
  24143175.322   126873241.67247     -3534.570    24143175.184    98862249.83444
     -2754.211  
  24431617.423   128389018.14546      2568.406    24431615.974   100043375.59044
      2001.354  
  21674412.928   113899803.60149     -2822.331    21674413.621    88753101.86847
     -2199.222  
  20892000.813   109788205.84649      1445.597    20892002.852    85549262.62347
      1126.441  
  19977394.055   104981949.73449       445.746    19977393.091    81804131.54748
       347.331  
  21828119.297   114707577.77749      2443.590    21828120.868    89382510.78847
      1904.097  
  22332543.187   119045014.72207     -2194.456           0.000           0.0000 
         0.000  
  19774184.560   105518862.08508      1538.727    19774190.210    82070278.16007
      1196.789  
  23204879.362   123956305.24908      4353.723    23204886.506    96410488.23606
      3386.234  
  20618484.644   110333690.89208     -2153.483    20618488.447    85815121.16607
     -1674.933  
  21222070.558   113404311.10908      2052.563    21222075.218    88203378.24207
      1596.438  
  23182426.048   123966845.84806     -4511.594    23182432.189    96418680.50006
     -3509.019  
  20703743.330   110673373.63307     -2485.660    20703750.175    86079316.47205
     -1933.296  
  21499632.819   114766505.14207      1792.772    21499638.767    89262860.50407
      1394.379  
  23605097.051   126359933.77307      3448.858    23605101.953    98279967.74006
      2682.448  
 20 09 27 07 48 20.0000000  0 18G 8G27G15G13G21G18G24G20G10R10R 2R12
                                R17R11R24R 1R18R 3
  24581947.588   129179007.21147        25.902    24581950.486   100658979.12943
        20.180  
  24291694.203   127653712.47447     -1758.395    24291696.051    99470432.48644
     -1370.180  
  21489491.011   112928034.83849     -2658.582    21489490.472    87995872.07947
     -2071.625  
  24146539.023   126890918.10547     -3536.069    24146538.901    98876023.66144
     -2755.378  
  24429174.618   128376181.27346      2566.496    24429173.374   100033372.83043
      1999.867  
  21677099.430   113913921.17349     -2824.862    21677100.120    88764102.56947
     -2201.195  
  20890627.104   109780986.95649      1441.977    20890629.152    85543637.51947
      1123.617  
  19976971.316   104979728.19849       442.897    19976970.325    81802400.48448
       345.117  
  21825794.912   114695363.11249      2442.120    21825796.495    89372992.86947
      1902.949  
  22334603.505   119055997.50407     -2198.659           0.000           0.0000 
         0.000  
  19772743.820   105511174.08008      1536.437    19772749.489    82064298.60407
      1195.007  
  23200804.779   123934539.49608      4352.539    23200811.896    96393559.34706
      3385.312  
  20620498.839   110344469.16408     -2157.887    20620502.631    85823504.26307
     -1678.354  
  21220151.944   113394058.83308      2048.418    21220156.630    88195404.25507
      1593.215  
  23186645.353   123989408.55806     -4512.499    23186651.560    96436229.24406
     -3509.730  
  20706069.246   110685807.02107     -2487.491    20706076.103    86088986.87805
     -1934.719  
  21497955.523   114757551.52907      1788.535    21497961.440    89255896.58707
      1391.082  
  23601875.807   126342691.13806      3448.632    23601880.896    98266556.82006
      2682.269  
 20 09 27 07 48 25.0000000  0 18G 8G27G15G13G21G18G24G20G10R10R 2R12
                                R17R11R24R 1R18R 3
  24581924.388   129178885.10546        22.874    24581927.062   100658883.99244
        17.828  
  24293368.610   127662511.51147     -1760.647    24293370.524    99477288.89344
     -1371.937  
  21492021.451   112941332.42349     -2659.854    21492020.895    88006233.83247
     -2072.612  
  24149903.355   126908597.72447     -3536.042    24149903.174    98889799.98344
     -2755.366  
  24426733.461   128363353.09446      2565.094    24426732.328   100023376.87644
      1998.772  
  21679788.319   113928051.28549     -2826.780    21679788.989    88775113.03947
     -2202.691  
  20889256.816   109773786.01149      1439.093    20889258.835    85538026.39447
      1121.371  
  19976551.290   104977520.91049       440.453    19976550.292    81800680.51848
       343.210  
  21823472.070   114683156.46349      2441.000    21823473.648    89363481.19747
      1902.077  
  22336667.713   119067000.83107     -2202.136           0.000           0.0000 
         0.000  
  19771305.185   105503497.31408      1534.719    19771310.867    82058327.78607
      1193.667  
  23196731.110   123912778.62508      4352.198    23196738.206    96376634.24906
      3385.046  
  20622517.098   110355269.21608     -2161.722    20622520.886    85831904.29907
     -1681.344  
  21218237.240   113383827.33008      2044.687    21218241.922    88187446.42007
      1590.312  
  23190865.591   124011975.81906     -4513.184    23190871.800    96453781.54306
     -3510.257  
  20708396.853   110698249.19607     -2488.863    20708403.683    86098664.12205
     -1935.620  
  21496282.412   114748620.44107      1784.750    21496288.347    89248950.19007
      1388.141  
  23598655.303   126325451.74806      3448.456    23598660.428    98253148.41406
      2682.132  
 20 09 27 07 48 30.0000000  0 18G 8G27G15G13G21G18G24G20G10R10R 2R12
                                R17R11R24R 1R18R 3
  24581903.923   129178777.53447        20.160    24581906.616   100658800.17744
        15.711  
  24295045.283   127671322.48747     -1763.663    24295047.166    99484154.58644
     -1374.288  
  21494553.211   112954636.87849     -2661.632    21494552.633    88016600.94047
     -2074.004  
  24153267.867   126926278.35247     -3536.526    24153267.723    98903577.09443
     -2755.737  
  24424293.507   128350531.26646      2564.121    24424292.364   100013385.84944
      1998.015  
  21682479.132   113942191.60449     -2829.309    21682479.772    88786131.47147
     -2204.659  
  20887889.507   109766600.72449      1435.266    20887891.529    85532427.47547
      1118.390  
  19976133.523   104975325.53249       437.883    19976132.511    81798969.83648
       341.206  
  21821150.315   114670955.52649      2439.378    21821151.866    89353973.98147
      1900.816  
  22338735.296   119078022.46207     -2206.276           0.000           0.0000 
         0.000  
  19769868.266   105495829.44608      1532.421    19769873.913    82052363.89207
      1191.882  
  23192657.920   123891020.34308      4351.180    23192665.001    96359711.16407
      3384.254  
  20624538.974   110366088.74108     -2166.093    20624542.772    85840319.48307
     -1684.742  
  21216325.971   113373614.21308      2040.637    21216330.663    88179502.89107
      1587.160  
  23195086.203   124034545.38906     -4514.449    23195092.437    96471335.64606
     -3511.242  
  20710725.678   110710697.90907     -2490.319    20710732.480    86108346.45305
     -1936.917  
  21494613.065   114739709.38607      1780.073    21494618.998    89242019.36807
      1384.503  
  23595434.944   126308213.29006      3447.324    23595440.106    98239740.74306
      2681.254  
 20 09 27 07 48 35.0000000  0 19G 8G27G15G13G21G18G24G32G20G10R10R 2
                                R12R17R11R24R 1R18R 3
  24581886.204   129178684.42046        17.391    24581888.705   100658727.61344
        13.547  
  24296724.218   127680145.28347     -1765.729    24296726.076    99491029.47544
     -1375.895  
  21497086.251   112967948.06449     -2662.593    21497085.659    88026973.28747
     -2074.753  
  24156632.547   126943959.74547     -3536.207    24156632.413    98917354.78044
     -2755.488  
  24421854.736   128337715.69146      2562.934    24421853.691   100003399.67443
      1997.090  
  21685171.860   113956341.98849     -2830.797    21685172.506    88797157.73247
     -2205.819  
  20886525.156   109759430.94849      1432.516    20886527.174    85526840.63947
      1116.245  
  24681172.354   129700436.41057      3366.136    24681174.817   101065287.33255
      2622.965  
  19975717.999   104973141.93749       435.792    19975716.987    81797268.33548
       339.573  
  21818829.616   114658760.14149      2438.883    21818831.161    89344471.08347
      1900.426  
  22340806.350   119089062.31207     -2209.753           0.000           0.0000 
         0.000  
  19768433.014   105488170.60608      1531.140    19768438.657    82046407.01607
      1190.887  
  23188585.149   123869264.52408      4351.227    23188592.244    96342790.00406
      3384.292  
  20626564.440   110376927.54308     -2169.395    20626568.277    85848749.66407
     -1687.312  
  21214418.125   113363419.35908      2037.430    21214422.836    88171573.56507
      1584.667  
  23199307.199   124057117.01206     -4514.335    23199313.441    96488891.33906
     -3511.151  
  20713055.628   110723152.83107     -2491.308    20713062.437    86118033.60905
     -1937.687  
  21492947.459   114730818.33107      1776.468    21492953.390    89235104.10707
      1381.699  
  23592214.810   126290975.34806      3447.886    23592219.890    98226333.48206
      2681.695  
 20 09 27 07 48 40.0000000  0 19G 8G27G15G13G21G18G24G32G20G10R10R 2
                                R12R17R11R24R 1R18R 3
  24581870.994   129178604.73747        14.440    24581873.459   100658665.52744
        11.254  
  24298405.173   127688978.76447     -1767.844    24298406.970    99497912.70344
     -1377.539  
  21499620.364   112981264.94849     -2664.179    21499619.770    88037350.08147
     -2075.987  
  24159997.175   126961640.85547     -3536.477    24159997.084    98931132.26544
     -2755.699  
  24419416.963   128324905.35846      2561.457    24419415.863    99993417.61144
      1995.937  
  21687866.317   113970501.38849     -2833.020    21687866.950    88808191.03347
     -2207.550  
  20885163.568   109752275.66149      1429.440    20885165.561    85521265.09247
      1113.851  
  24677970.097   129683607.65247      3365.659    24677973.506   101052174.02944
      2622.598  
  19975304.515   104970969.09949       433.140    19975303.501    81795575.21348
       337.511  
  21816509.797   114646569.34749      2437.249    21816511.309    89334971.76947
      1899.156  
  22342880.591   119100119.12507     -2213.137           0.000           0.0000 
         0.000  
  19766999.180   105480519.42308      1529.348    19767004.815    82040456.10307
      1189.418  
  23184512.649   123847510.14308      4350.375    23184519.767    96325869.94807
      3383.628  
  20628593.382   110387784.60408     -2173.500    20628597.177    85857194.03907
     -1690.503  
  21212513.520   113353241.78908      2033.586    21212518.236    88163657.68207
      1581.679  
  23203528.472   124079689.71306     -4514.789    23203534.652    96506447.86406
     -3511.507  
  20715386.523   110735613.11207     -2492.886    20715393.398    86127724.94105
     -1938.913  
  21491285.408   114721946.37807      1772.194    21491291.369    89228203.70907
      1378.374  
  23588994.573   126273737.13606      3447.374    23588999.621    98212925.99906
      2681.297  
 20 09 27 07 48 45.0000000  0 19G 8G27G15G13G21G18G24G32G20G10R10R 2
                                R12R17R11R24R 1R18R 3
  24581858.949   129178541.50647        10.984    24581861.354   100658616.27343
         8.562  
  24300088.744   127697826.05047     -1770.733    24300090.453    99504806.72544
     -1379.792  
  21502156.143   112994590.52849     -2666.121    21502155.528    88047733.64847
     -2077.499  
  24163362.299   126979324.79847     -3537.468    24163362.141    98944911.95444
     -2756.472  
  24416980.781   128312103.29146      2559.386    24416979.762    99983441.99943
      1994.332  
  21690563.049   113984672.84149     -2835.539    21690563.662    88819233.71247
     -2209.516  
  20883805.332   109745138.08149      1425.472    20883807.341    85515703.34647
      1110.757  
  24674768.309   129666782.14547      3364.707    24674771.465   101039063.26945
      2621.854  
  19974893.675   104968810.08749       430.141    19974892.639    81793892.86348
       335.171  
  21814191.418   114634386.12049      2435.684    21814192.918    89325478.34847
      1897.934  
  22344958.645   119111196.00907     -2217.488           0.000           0.0000 
         0.000  
  19765567.441   105472879.26508      1526.805    19765573.052    82034513.75707
      1187.516  
  23180440.936   123825760.22208      4349.465    23180448.122    96308953.37706
      3382.921  
  20630626.269   110398662.96508     -2177.890    20630630.065    85865654.98407
     -1693.917  
  21210612.725   113343084.57808      2029.175    21210617.439    88155757.63507
      1578.246  
  23207750.443   124102266.52006     -4515.566    23207756.624    96524007.57906
     -3512.112  
  20717718.983   110748081.66807     -2494.785    20717725.883    86137422.70305
     -1940.391  
  21489627.543   114713096.48807      1767.714    21489633.480    89221320.46607
      1374.891  
  23585774.790   126256501.66906      3446.641    23585779.904    98199520.66006
      2680.577  
