     2.11           OBSERVATION DATA    M                   RINEX VERSION / TYPE
LEICA GEO OFFICE 8.4                    27-9-20 23:31       PGM / RUN BY / DATE
                                                            OBSERVER / AGENCY
BLHR                                                        MARKER NAME
BLHR                                                        MARKER NUMBER
196020              LEICA GX1230+ GNSS  7.50                REC # / TYPE / VERS
                    LEIAX1203+GNSS                          ANT # / TYPE
 -1119129.6312  3883942.4992  4918552.4209                  APPROX POSITION XYZ
        1.6060        0.0000        0.0000                  ANTENNA: DELTA H/E/N
L1PhaOff:   0.0585  L2PhaOff:   0.0555                      COMMENT
     1     1                                                WAVELENGTH FACT L1/2
     8    C1    L1    D1    S1    P2    L2    D2    S2      # / TYPES OF OBSERV
  2020     9    27     5    20    5.0000000     GPS         TIME OF FIRST OBS
  2020     9    27     7    31   25.0000000     GPS         TIME OF LAST OBS
    18                                                      LEAP SECONDS
    23                                                      # OF SATELLITES
          C1    L1    D1    S1    P2    L2    D2    S2      COMMENT
   G 1     0     0     0     0     0     0     0     0      PRN / # OF OBS
   G 2    74    74    74    74    74    74    74    74      PRN / # OF OBS
   G 3     0     0     0     0     0     0     0     0      PRN / # OF OBS
   G 4     0     0     0     0     0     0     0     0      PRN / # OF OBS
   G 5   994   994   994   994   994   994   994   994      PRN / # OF OBS
   G 6     0     0     0     0     0     0     0     0      PRN / # OF OBS
   G 7     0     0     0     0     0     0     0     0      PRN / # OF OBS
   G 8    86    86    86    86    84    84    84    84      PRN / # OF OBS
   G 9     0     0     0     0     0     0     0     0      PRN / # OF OBS
   G10   918   918   918   918   918   918   918   918      PRN / # OF OBS
   G11     0     0     0     0     0     0     0     0      PRN / # OF OBS
   G12     0     0     0     0     0     0     0     0      PRN / # OF OBS
   G13  1577  1577  1577  1577  1577  1577  1577  1577      PRN / # OF OBS
   G14     0     0     0     0     0     0     0     0      PRN / # OF OBS
   G15  1577  1577  1577  1577  1577  1577  1577  1577      PRN / # OF OBS
   G16     0     0     0     0     0     0     0     0      PRN / # OF OBS
   G17     0     0     0     0     0     0     0     0      PRN / # OF OBS
   G18  1577  1577  1577  1577  1577  1577  1577  1577      PRN / # OF OBS
   G19     0     0     0     0     0     0     0     0      PRN / # OF OBS
   G20  1577  1577  1577  1577  1577  1577  1577  1577      PRN / # OF OBS
   G21     0     0     0     0     0     0     0     0      PRN / # OF OBS
   G22     0     0     0     0     0     0     0     0      PRN / # OF OBS
   G23     0     0     0     0     0     0     0     0      PRN / # OF OBS
   G24  1085  1085  1085  1085  1084  1084  1084  1084      PRN / # OF OBS
   G25     0     0     0     0     0     0     0     0      PRN / # OF OBS
   G26     0     0     0     0     0     0     0     0      PRN / # OF OBS
   G27  1108  1108  1108  1108  1107  1107  1107  1107      PRN / # OF OBS
   G28     0     0     0     0     0     0     0     0      PRN / # OF OBS
   G29   774   774   774   774   774   774   774   774      PRN / # OF OBS
   G30   749   748   749   749   749   748   749   749      PRN / # OF OBS
   G31     0     0     0     0     0     0     0     0      PRN / # OF OBS
   G32     0     0     0     0     0     0     0     0      PRN / # OF OBS
   R 1  1577  1577  1577  1577  1577  1577  1577  1577      PRN / # OF OBS
   R 2  1248  1248  1248  1248  1247  1247  1247  1247      PRN / # OF OBS
   R 3     0     0     0     0     0     0     0     0      PRN / # OF OBS
   R 4     0     0     0     0     0     0     0     0      PRN / # OF OBS
   R 5     0     0     0     0     0     0     0     0      PRN / # OF OBS
   R 6     0     0     0     0     0     0     0     0      PRN / # OF OBS
   R 7   241   241   241   241   241   241   241   241      PRN / # OF OBS
   R 8  1576  1576  1576  1576  1576  1576  1576  1576      PRN / # OF OBS
   R 9     0     0     0     0     0     0     0     0      PRN / # OF OBS
   R10  1274  1274  1274  1274     0     0     0     0      PRN / # OF OBS
   R11   600   600   600   600   599   599   599   599      PRN / # OF OBS
   R12     0     0     0     0     0     0     0     0      PRN / # OF OBS
   R13     0     0     0     0     0     0     0     0      PRN / # OF OBS
   R14     0     0     0     0     0     0     0     0      PRN / # OF OBS
   R15     0     0     0     0     0     0     0     0      PRN / # OF OBS
   R16    64    64    64    64    64    64    64    64      PRN / # OF OBS
   R17  1577  1577  1577  1577  1577  1577  1577  1577      PRN / # OF OBS
   R18   514   514   514   514   514   514   514   514      PRN / # OF OBS
   R19     0     0     0     0     0     0     0     0      PRN / # OF OBS
   R20     0     0     0     0     0     0     0     0      PRN / # OF OBS
   R21     0     0     0     0     0     0     0     0      PRN / # OF OBS
   R22     0     0     0     0     0     0     0     0      PRN / # OF OBS
   R23  1188  1188  1188  1188  1188  1188  1188  1188      PRN / # OF OBS
   R24  1577  1577  1577  1577  1577  1577  1577  1577      PRN / # OF OBS
                                                            END OF HEADER
 20 09 27 05 20  5.0000000  0 15G30G18G20G 2G 5G13G29G15R16R 1R24R23
                                R17R 7R 8
  23899959.640   125595134.41307        24.486          43.050    23899959.520  
  97866337.83847        24.486          41.750  
  21264137.760   111743799.61409      -425.296          48.600    21264133.920  
  87073073.97948      -425.297          45.250  
  23580644.080   123917111.45106      -604.424          41.200    23580637.500  
  96558806.72644      -604.426          35.200  
  24532783.900   128920644.65508       625.599          44.600    24532780.520  
 100457626.13346       625.600          38.750  
  21871468.900   114935343.61609       500.747          48.650    21871464.640  
  89559990.36448       500.746          45.850  
  20529921.420   107885463.42109       -45.321          49.900    20529916.520  
  84066575.69248       -45.322          46.200  
  22242883.460   116887140.73609       532.910          48.600    22242879.400  
  91080873.03647       532.910          43.400  
  20754019.980   109063111.03909      -422.353          50.300    20754016.320  
  84984228.39948      -422.353          47.300  
  23528811.420   125686683.17205       236.799          36.350    23528815.320  
  97756327.45204       236.797          34.900  
  19779686.340   105733758.03408      -342.484          46.600    19779691.000  
  82237387.80307      -342.484          41.700  
  19766814.860   105702042.09809      -289.773          49.050    19766816.740  
  82212709.64308      -289.774          45.450  
  19454509.920   104068508.92009       342.446          49.550    19454514.600  
  80942192.27907       342.446          41.550  
  23305613.260   124713040.73706      -795.887          41.100    23305616.400  
  96999047.34806      -795.888          40.900  
  22730737.880   121679420.25506       708.154          41.350    22730739.060  
  94639553.68007       708.155          41.700  
  19519151.920   104524171.31508       269.396          48.350    19519151.860  
  81296579.16408       269.396          46.800  
 20 09 27 05 20 10.0000000  0 15G30G18G20G 2G 5G13G29G15R16R 1R24R23
                                R17R 7R 8
  23900083.540   125595786.05307        25.116          42.900    23900083.560  
  97866845.63046        25.116          41.300  
  21262012.360   111732630.70608      -424.882          48.500    21262008.640  
  87064370.94648      -424.883          46.050  
  23577622.540   123901232.93006      -604.220          41.150    23577616.100  
  96546433.87545      -604.221          36.250  
  24535912.420   128937084.49507       625.741          43.050    24535908.900  
 100470436.39846       625.741          40.250  
  21873973.520   114948505.54109       501.031          48.600    21873969.220  
  89570246.41148       501.031          45.900  
  20529696.760   107884283.03809       -44.598          49.900    20529691.880  
  84065655.92048       -44.598          45.950  
  22245549.340   116901149.94309       533.370          48.650    22245545.340  
  91091789.30547       533.371          43.850  
  20751909.840   109052022.12609      -421.760          50.300    20751906.200  
  84975587.69848      -421.761          47.250  
  23529997.720   125693020.13405       237.597          36.250    23530001.620  
  97761256.20604       237.596          35.050  
  19777975.520   105724613.04108      -341.881          46.700    19777980.220  
  82230275.04307      -341.881          41.600  
  19765368.060   105694305.45409      -288.994          49.000    19765369.860  
  82206692.25808      -288.994          45.450  
  19456224.320   104077679.69409       343.264          49.600    19456228.960  
  80949325.11207       343.263          41.600  
  23301634.480   124691749.47307      -795.704          41.650    23301637.620  
  96982487.49306      -795.704          40.850  
  22734279.040   121698375.83706       708.251          41.350    22734280.100  
  94654296.91807       708.251          41.600  
  19520500.400   104531392.39708       269.955          48.400    19520500.380  
  81302195.56708       269.955          46.750  
 20 09 27 05 20 15.0000000  0 15G30G18G20G 2G 5G13G29G15R16R 1R24R23
                                R17R 7R 8
  23900210.260   125596452.17607        25.619          43.350    23900210.260  
  97867364.67946        25.619          40.000  
  21259888.700   111721470.87608      -424.556          48.450    21259885.080  
  87055674.98548      -424.557          45.950  
  23574601.340   123885356.24606      -604.188          40.800    23574594.900  
  96534062.45344      -604.188          33.850  
  24539041.560   128953527.51706       625.846          41.100    24539037.840  
 100483249.15046       625.846          40.000  
  21876479.100   114961672.73309       501.240          48.650    21876474.820  
  89580506.57648       501.240          45.750  
  20529475.240   107883119.12409       -43.988          49.900    20529470.420  
  84064748.99148       -43.988          46.100  
  22248217.240   116915169.77108       533.784          48.400    22248213.280  
  91102713.85347       533.784          44.150  
  20749802.240   109040946.48209      -421.272          50.350    20749798.540  
  84966957.34048      -421.273          47.650  
  23531187.680   125699376.34705       238.405          36.250    23531191.580  
  97766199.93004       238.405          34.350  
  19776267.260   105715481.66308      -341.387          46.700    19776272.040  
  82223172.87107      -341.388          41.500  
  19763924.800   105686587.79309      -288.282          49.050    19763926.540  
  82200689.64308      -288.282          45.600  
  19457942.380   104086870.15909       343.972          49.750    19457947.000  
  80956473.25607       343.972          41.500  
  23297656.540   124670462.24207      -795.517          42.300    23297659.540  
  96965930.77006      -795.518          40.550  
  22737820.480   121717333.09506       708.306          41.000    22737821.440  
  94669041.45407       708.306          41.550  
  19521851.300   104538626.37009       270.422          48.650    19521851.320  
  81307821.99908       270.421          46.700  
 20 09 27 05 20 20.0000000  0 15G30G18G20G 2G 5G13G29G15R16R 1R24R23
                                R17R 7R 8
  23900339.800   125597133.04707        26.112          43.600    23900339.760  
  97867895.23446        26.111          39.400  
  21257766.820   111710320.38209      -424.259          48.700    21257763.340  
  87046986.29748      -424.259          45.250  
  23571580.460   123869481.57506      -604.255          40.900    23571574.060  
  96521692.60644      -604.256          33.950  
  24542171.200   128969973.89708       625.900          45.600    24542167.500  
 100496064.47645       625.901          37.200  
  21878985.740   114974845.44409       501.379          48.700    21878981.480  
  89590771.02848       501.379          45.600  
  20529256.880   107881971.88909       -43.414          49.950    20529252.100  
  84063855.04648       -43.414          45.800  
  22250887.180   116929200.43708       534.122          48.400    22250883.300  
  91113646.83947       534.122          44.250  
  20747697.200   109029884.41409      -420.804          50.350    20747693.480  
  84958337.55348      -420.804          47.100  
  23532381.320   125705752.14105       239.039          36.200    23532385.200  
  97771158.89604       239.039          34.650  
  19774561.620   105706364.20808      -340.918          46.600    19774566.440  
  82216081.52507      -340.918          41.650  
  19762485.140   105678889.27909      -287.631          49.050    19762486.880  
  82194701.91808      -287.631          45.750  
  19459664.140   104096080.38209       344.672          49.650    19459668.700  
  80963636.76407       344.672          41.650  
  23293679.280   124649179.16907      -795.438          42.550    23293682.260  
  96949377.28306      -795.439          40.600  
  22741362.220   121736292.12206       708.290          41.050    22741363.120  
  94683787.36407       708.289          41.700  
  19523204.700   104545873.83009       270.874          48.600    19523204.780  
  81313458.91608       270.874          46.900  
 20 09 27 05 20 25.0000000  0 15G30G18G20G 2G 5G13G29G15R16R 1R24R23
                                R17R 7R 8
  23900471.760   125597826.54107        26.718          43.700    23900471.600  
  97868435.64346        26.717          40.950  
  21255646.320   111699177.05309      -423.895          48.750    21255642.980  
  87038303.18948      -423.896          45.250  
  23568559.600   123853606.85106      -604.037          40.650    23568553.500  
  96509322.69044      -604.038          35.350  
  24545301.100   128986421.56407       626.092          42.450    24545297.520  
 100508880.84846       626.092          40.050  
  21881493.040   114988021.52109       501.600          48.750    21881488.760  
  89601038.10648       501.600          45.750  
  20529041.300   107880839.24209       -42.726          49.950    20529036.540  
  84062972.47448       -42.726          45.750  
  22253558.780   116943239.76909       534.551          48.700    22253554.940  
  91124586.57447       534.551          43.750  
  20745594.360   109018833.71609      -420.277          50.400    20745590.560  
  84949726.62948      -420.278          46.900  
  23533578.140   125712145.23005       239.833          36.700    23533581.980  
  97776131.29704       239.833          34.350  
  19772858.200   105697258.47408      -340.366          46.650    19772862.980  
  82208999.29806      -340.366          41.350  
  19761048.700   105671207.83909      -286.893          49.050    19761050.480  
  82188727.47308      -286.893          45.900  
  19461389.240   104105308.48809       345.441          49.650    19461393.780  
  80970814.18006       345.440          41.300  
  23289702.520   124627898.19507      -795.271          42.650    23289705.380  
  96932825.43006      -795.272          40.750  
  22744903.860   121755250.67706       708.397          40.550    22744904.720  
  94698532.90307       708.397          41.750  
  19524560.220   104553132.32909       271.386          48.550    19524560.280  
  81319104.42408       271.385          46.750  
 20 09 27 05 20 30.0000000  0 15G30G18G20G 2G 5G13G29G15R16R 1R24R23
                                R17R 7R 8
  23900606.660   125598535.60307        27.285          43.600    23900606.500  
  97868988.15946        27.285          40.750  
  21253527.780   111688043.92409      -423.527          48.800    21253524.520  
  87029628.03648      -423.528          45.850  
  23565539.260   123837734.97506      -604.017          40.750    23565533.160  
  96496955.02345      -604.018          36.550  
  24548431.800   129002873.34007       626.231          44.050    24548428.340  
 100521700.36746       626.233          40.650  
  21884001.540   115001203.93709       501.824          48.800    21883997.260  
  89611310.11748       501.824          45.550  
  20528829.060   107879724.12909       -42.121          50.050    20528824.340  
  84062103.55948       -42.121          45.950  
  22256232.600   116957290.72209       534.974          48.850    22256228.820  
  91135535.37147       534.974          43.450  
  20743494.220   109007797.36909      -419.748          50.450    20743490.380  
  84941126.89548      -419.749          46.900  
  23534779.000   125718558.71805       240.479          36.800    23534782.520  
  97781119.57704       240.479          34.550  
  19771157.540   105688167.43108      -339.859          46.600    19771162.240  
  82201928.49507      -339.860          41.650  
  19759615.980   105663546.49709      -286.162          49.100    19759617.840  
  82182768.66208      -286.163          45.900  
  19463118.200   104114557.24709       346.179          49.700    19463122.760  
  80978007.66407       346.178          41.550  
  23285726.720   124606622.33307      -795.063          42.400    23285729.480  
  96916277.54306      -795.063          41.050  
  22748445.900   121774211.88606       708.493          40.800    22748446.860  
  94713280.49907       708.494          41.950  
  19525918.360   104560405.08008       271.891          48.450    19525918.440  
  81324761.01708       271.891          46.800  
 20 09 27 05 20 35.0000000  0 15G30G18G20G 2G 5G13G29G15R16R 1R24R23
                                R17R 7R 8
  23900744.720   125599261.00607        27.957          43.500    23900744.500  
  97869553.43046        27.957          39.750  
  21251411.320   111676921.73909      -423.060          48.900    21251408.100  
  87020961.41348      -423.060          45.650  
  23562519.600   123821866.81506      -603.772          40.650    23562514.020  
  96484590.23345      -603.772          36.100  
  24551563.500   129019330.23008       626.458          45.450    24551560.060  
 100534523.89545       626.460          38.150  
  21886511.380   115014393.42209       502.161          48.800    21886507.100  
  89621587.64248       502.161          45.400  
  20528620.300   107878627.32409       -41.351          50.200    20528615.620  
  84061248.91648       -41.351          45.950  
  22258908.800   116971354.02709       535.506          48.750    22258905.060  
  91146493.79147       535.506          44.200  
  20741396.960   108996776.17009      -419.136          50.450    20741393.100  
  84932538.95748      -419.137          46.850  
  23535983.620   125724993.30705       241.287          36.650    23535987.060  
  97786124.26904       241.286          33.750  
  19769459.760   105679091.98208      -339.204          46.700    19769464.420  
  82194869.82106      -339.204          41.400  
  19758187.160   105655905.92809      -285.319          49.150    19758189.060  
  82176826.00308      -285.319          45.850  
  19464851.240   104123827.56509       347.043          49.700    19464855.720  
  80985217.91507       347.043          41.550  
  23281752.040   124585352.43407      -794.810          42.700    23281754.700  
  96899734.30306      -794.811          40.950  
  22751988.740   121793176.47706       708.630          40.550    22751989.680  
  94728030.73707       708.630          41.850  
  19527279.200   104567692.50408       272.507          48.350    19527279.320  
  81330429.01908       272.506          46.800  
 20 09 27 05 20 40.0000000  0 15G30G18G20G 2G 5G13G29G15R16R 1R24R23
                                R17R 7R 8
  23900885.880   125600002.49907        28.543          43.400    23900885.440  
  97870131.21946        28.542          41.350  
  21249296.880   111665810.25309      -422.704          48.700    21249293.700  
  87012303.12048      -422.704          45.800  
  23559500.660   123806002.02606      -603.813          40.500    23559495.080  
  96472228.08044      -603.814          34.600  
  24554696.140   129035791.87807       626.618          43.800    24554692.700  
 100547351.16646       626.618          39.550  
  21889022.540   115027589.73109       502.387          48.700    21889018.200  
  89631870.49248       502.387          45.400  
  20528414.980   107877548.55809       -40.707          50.200    20528410.340  
  84060408.33148       -40.708          45.800  
  22261587.260   116985429.41109       535.902          48.800    22261583.540  
  91157461.62847       535.902          44.350  
  20739302.540   108985769.87109      -418.592          50.400    20739298.640  
  84923962.63948      -418.592          47.150  
  23537191.980   125731448.71305       242.072          36.600    23537195.480  
  97791145.14004       242.072          33.800  
  19767764.860   105670031.74608      -338.701          46.700    19767769.480  
  82187822.98307      -338.702          41.600  
  19756762.180   105648285.98409      -284.597          49.050    19756764.100  
  82170899.39008      -284.597          45.800  
  19466588.240   104133119.21209       347.801          49.700    19466592.700  
  80992444.76007       347.801          41.700  
  23277778.340   124564088.18307      -794.666          42.600    23277781.000  
  96883195.46006      -794.666          40.850  
  22755532.100   121812144.32006       708.760          41.150    22755533.080  
  94742783.50607       708.759          42.000  
  19528642.840   104574994.68108       273.010          48.050    19528642.980  
  81336108.50008       273.010          46.800  
 20 09 27 05 20 45.0000000  0 15G30G18G20G 2G 5G13G29G15R16R 1R24R23
                                R17R 7R 8
  23901029.980   125600759.60207        29.102          43.550    23901029.460  
  97870721.18746        29.101          40.050  
  21247184.360   111654708.99308      -422.330          48.400    21247181.200  
  87003652.79648      -422.331          45.600  
  23556482.220   123790140.22706      -603.658          40.600    23556476.660  
  96459868.26345      -603.660          36.900  
  24557829.560   129052257.63908       626.740          44.650    24557826.080  
 100560181.61645       626.741          38.200  
  21891534.880   115040792.37709       502.588          48.650    21891530.560  
  89642158.27048       502.588          44.850  
  20528213.020   107876487.34509       -40.047          50.150    20528208.380  
  84059581.41848       -40.048          45.350  
  22264267.940   116999516.50309       536.337          48.650    22264264.280  
  91168438.58147       536.337          43.900  
  20737210.860   108974777.94709      -418.061          50.200    20737206.920  
  84915397.51048      -418.061          47.000  
  23538404.240   125737924.45205       242.895          36.250    23538407.680  
  97796181.83904       242.895          34.000  
  19766072.680   105660986.12808      -338.129          46.750    19766077.320  
  82180787.51707      -338.129          41.550  
  19755340.980   105640686.10609      -283.870          49.100    19755342.860  
  82164988.38908      -283.870          45.650  
  19468329.080   104142431.39909       348.562          49.750    19468333.500  
  80999687.57806       348.562          41.400  
  23273805.580   124542829.15007      -794.429          42.650    23273808.280  
  96866660.67106      -794.430          40.300  
  22759075.920   121831114.48206       708.818          40.950    22759076.960  
  94757538.07007       708.818          41.850  
  19530009.040   104582310.85008       273.528          47.900    19530009.220  
  81341798.86308       273.528          46.600  
 20 09 27 05 20 50.0000000  0 15G30G18G20G 2G 5G13G29G15R16R 1R24R23
                                R17R 7R 8
  23901177.180   125601532.93907        29.701          43.650    23901176.620  
  97871323.80346        29.700          39.450  
  21245073.920   111643618.60808      -421.908          48.350    21245070.780  
  86995010.95048      -421.909          45.750  
  23553464.460   123774282.02006      -603.418          40.000    23553459.180  
  96447511.24145      -603.419          36.600  
  24560963.920   129068728.44908       626.979          44.600    24560960.400  
 100573016.01245       626.979          37.950  
  21894048.560   115054002.02209       502.869          48.650    21894044.240  
  89652451.50148       502.869          44.850  
  20528014.560   107875444.34209       -39.362          50.100    20528009.900  
  84058768.70048       -39.363          45.950  
  22266950.960   117013615.78708       536.803          48.500    22266947.320  
  91179425.04047       536.803          44.000  
  20735122.040   108963801.14509      -417.484          50.150    20735118.080  
  84906844.17448      -417.485          47.150  
  23539620.400   125744421.20105       243.582          36.800    23539623.900  
  97801234.86404       243.582          32.500  
  19764383.420   105651956.07008      -337.604          47.000    19764388.080  
  82173764.15306      -337.605          41.400  
  19753923.660   105633107.09609      -283.103          49.350    19753925.520  
  82159093.61208      -283.104          45.750  
  19470073.940   104151765.17209       349.349          50.000    19470078.400  
  81006947.18407       349.349          41.550  
  23269833.920   124521575.97407      -794.253          42.750    23269836.660  
  96850130.44506      -794.254          40.550  
  22762620.300   121850088.03707       708.938          41.850    22762621.440  
  94772295.28107       708.938          41.750  
  19531378.000   104589641.86308       274.034          48.050    19531378.240  
  81347500.76608       274.033          46.600  
 20 09 27 05 20 55.0000000  0 15G30G18G20G 2G 5G13G29G15R16R 1R24R23
                                R17R 7R 8
  23901327.160   125602321.01507        30.213          43.300    23901326.400  
  97871937.90546        30.212          38.800  
  21242965.260   111632537.60908      -421.604          48.300    21242962.140  
  86986376.42648      -421.605          45.700  
  23550447.120   123758425.82506      -603.468          40.800    23550442.040  
  96435155.77545      -603.468          36.800  
  24564098.880   129085202.52607       627.010          42.150    24564095.380  
 100585852.95046       627.010          40.750  
  21896563.280   115067217.12609       503.002          48.550    21896558.960  
  89662748.99048       503.002          45.350  
  20527819.280   107874418.06509       -38.772          50.150    20527814.600  
  84057969.01848       -38.773          45.800  
  22269636.000   117027725.74909       537.155          48.750    22269632.380  
  91190419.81447       537.155          43.800  
  20733035.820   108952837.92709      -417.048          50.150    20733031.820  
  84898301.41348      -417.048          47.150  
  23540840.200   125750937.35105       244.271          36.550    23540843.740  
  97806303.01204       244.271          32.650  
  19762696.740   105642939.89008      -337.120          47.150    19762701.460  
  82166751.59106      -337.121          41.300  
  19752509.980   105625547.37509      -282.430          49.350    19752511.780  
  82153213.83708      -282.430          45.600  
  19471822.520   104161118.73609       350.041          50.000    19471826.960  
  81014222.18007       350.041          41.550  
  23265863.080   124500327.16107      -794.143          42.800    23265865.860  
  96833603.60206      -794.143          40.200  
  22766165.040   121869063.32307       708.964          42.100    22766166.260  
  94787053.84207       708.964          41.700  
  19532749.480   104596986.13008       274.505          48.100    19532749.700  
  81353212.98208       274.505          46.550  
 20 09 27 05 21  0.0000000  0 15G30G18G20G 2G 5G13G29G15R16R 1R24R23
                                R17R 7R 8
  23901480.140   125603124.86207        30.844          43.150    23901479.200  
  97872564.28946        30.843          39.550  
  21240858.580   111621467.02109      -421.228          48.700    21240855.480  
  86977750.00148      -421.229          45.700  
  23547430.360   123742572.71806      -603.428          40.150    23547425.380  
  96422802.74445      -603.430          37.300  
  24567234.640   129101681.01307       627.182          42.900    24567231.220  
 100598693.30846       627.182          40.000  
  21899079.220   115080438.71309       503.271          48.550    21899074.940  
  89673051.52848       503.271          45.550  
  20527627.340   107873409.49709       -38.109          50.100    20527622.660  
  84057183.13048       -38.110          46.000  
  22272323.280   117041847.41709       537.604          48.700    22272319.600  
  91201423.71147       537.604          43.550  
  20730952.360   108941889.30809      -416.515          50.200    20730948.360  
  84889770.03448      -416.516          47.150  
  23542063.920   125757474.11805       245.021          36.700    23542067.400  
  97811387.16604       245.021          32.300  
  19761012.840   105633938.65308      -336.570          47.100    19761017.660  
  82159750.63307      -336.571          41.500  
  19751100.080   105618007.96609      -281.669          49.450    19751101.840  
  82147349.85608      -281.669          45.600  
  19473575.000   104170493.17509       350.806          49.850    19473579.420  
  81021513.41007       350.807          41.500  
  23261893.060   124479083.70507      -793.943          42.650    23261896.020  
  96817080.93206      -793.944          40.050  
  22769710.320   121888041.31607       709.017          42.150    22769711.560  
  94801814.49707       709.017          41.800  
  19534123.580   104604344.55508       275.040          48.150    19534123.820  
  81358936.20708       275.039          46.550  
 20 09 27 05 21  5.0000000  0 15G30G18G20G 2G 5G13G29G15R16R 1R24R23
                                R17R 7R 8
  23901636.160   125603944.58207        31.436          42.650    23901635.080  
  97873203.04646        31.435          39.450  
  21238753.940   111610406.98709      -420.761          48.900    21238750.840  
  86969131.80548      -420.762          45.150  
  23544414.200   123726722.96906      -603.099          40.150    23544409.440  
  96410452.29845      -603.099          36.900  
  24570371.300   129118164.00807       627.380          43.650    24570367.940  
 100611537.17946       627.381          38.550  
  21901596.420   115093666.88808       503.541          48.300    21901592.180  
  89683359.21148       503.540          45.750  
  20527438.800   107872418.77809       -37.382          50.150    20527434.120  
  84056411.15648       -37.382          45.800  
  22275012.820   117055980.90509       538.096          48.750    22275009.060  
  91212436.82747       538.096          43.700  
  20728871.700   108930955.43709      -415.898          50.200    20728867.720  
  84881250.15148      -415.899          47.100  
  23543291.500   125764031.37605       245.949          35.500    23543294.940  
  97816487.27304       245.949          32.250  
  19759331.780   105624952.42908      -335.962          47.000    19759336.640  
  82152761.36507      -335.963          41.550  
  19749694.040   105610489.02209      -280.870          49.450    19749695.780  
  82141501.80308      -280.871          45.800  
  19475331.400   104179888.57609       351.642          49.750    19475335.820  
  81028820.95007       351.641          41.550  
  23257924.160   124457845.84107      -793.693          42.650    23257927.260  
  96800562.61306      -793.694          39.750  
  22773256.140   121907022.16007       709.169          42.400    22773257.400  
  94816577.38107       709.169          41.850  
  19535500.400   104611717.41708       275.593          48.250    19535500.620  
  81364670.66808       275.593          46.600  
 20 09 27 05 21 10.0000000  0 15G30G18G20G 2G 5G13G29G15R16R 1R24R23
                                R17R 7R 8
  23901795.140   125604780.08307        32.002          42.350    23901793.920  
  97873854.09446        32.001          40.200  
  21236651.300   111599357.36509      -420.462          48.950    21236648.160  
  86960521.71948      -420.462          45.450  
  23541398.620   123710876.23006      -603.164          40.900    23541393.980  
  96398104.22345      -603.165          35.750  
  24573508.740   129134651.24307       627.494          43.250    24573505.500  
 100624384.35946       627.494          39.750  
  21904114.840   115106901.53008       503.701          48.400    21904110.640  
  89693671.91848       503.701          45.550  
  20527253.640   107871445.76709       -36.782          50.100    20527248.940  
  84055652.97148       -36.783          45.950  
  22277704.540   117070126.05809       538.461          48.650    22277700.780  
  91223459.03247       538.461          43.800  
  20726793.820   108920036.18009      -415.411          50.150    20726789.820  
  84872741.65148      -415.412          47.050  
  23544522.860   125770609.21105       246.561          36.300    23544526.240  
  97821603.35404       246.561          31.650  
  19757653.520   105615981.11708      -335.486          47.000    19757658.400  
  82145783.68807      -335.487          41.500  
  19748291.800   105602990.46209      -280.186          49.450    19748293.560  
  82135669.59608      -280.186          45.800  
  19477091.700   104189304.84109       352.329          49.750    19477096.120  
  81036144.71607       352.328          41.750  
  23253956.300   124436613.38007      -793.550          42.900    23253959.480  
  96784048.49206      -793.551          39.400  
  22776802.480   121926005.73807       709.178          42.600    22776803.760  
  94831342.38907       709.178          41.600  
  19536879.820   104619104.36008       276.037          48.300    19536880.080  
  81370416.07508       276.036          46.600  
 20 09 27 05 21 15.0000000  0 15G30G18G20G 2G 5G13G29G15R16R 1R24R23
                                R17R 7R 8
  23901956.980   125605630.80707        32.554          42.400    23901955.640  
  97874517.01146        32.553          39.650  
  21234550.560   111588317.66609      -420.078          49.100    21234547.380  
  86951919.35648      -420.078          45.500  
  23538383.600   123695032.07506      -603.134          40.800    23538379.120  
  96385758.13846      -603.135          38.650  
  24576646.920   129151142.36408       627.564          44.700    24576643.760  
 100637234.57345       627.565          38.150  
  21906634.380   115120142.11208       503.937          48.250    21906630.260  
  89703989.25748       503.937          45.400  
  20527071.760   107870489.93909       -36.152          50.100    20527067.040  
  84054908.17648       -36.152          45.750  
  22280398.400   117084282.34309       538.869          48.650    22280394.600  
  91234489.90147       538.869          43.650  
  20724718.640   108909131.02709      -414.842          50.250    20724714.640  
  84864244.13848      -414.843          46.900  
  23545757.900   125777206.94204       247.342          35.300    23545761.180  
  97826734.92603       247.342          31.000  
  19755977.980   105607024.28008      -334.957          47.050    19755982.880  
  82138817.26407      -334.958          41.650  
  19746893.260   105595511.71409      -279.452          49.400    19746895.040  
  82129852.79808      -279.453          45.850  
  19478855.780   104198741.49009       353.103          49.750    19478860.220  
  81043484.33007       353.103          41.700  
  23249989.420   124415385.84907      -793.370          43.100    23249992.600  
  96767538.19306      -793.371          39.350  
  22780349.200   121944991.43407       709.297          42.400    22780350.520  
  94846109.03107       709.297          41.600  
  19538261.860   104626505.00608       276.568          48.250    19538262.080  
  81376172.13508       276.568          46.650  
 20 09 27 05 21 20.0000000  0 15G30G18G20G 2G 5G13G29G15R16R 1R24R23
                                R17R 7R 8
  23902121.920   125606497.88007        33.296          41.900    23902120.580  
  97875192.65646        33.295          41.250  
  21232451.920   111577289.00209      -419.545          49.150    21232448.660  
  86943325.60048      -419.545          45.600  
  23535369.240   123679191.67206      -602.759          40.900    23535364.840  
  96373415.01245      -602.761          36.850  
  24579786.040   129167638.39807       627.882          42.300    24579782.820  
 100650088.60946       627.882          39.650  
  21909155.260   115133389.72008       504.280          48.000    21909151.200  
  89714312.07148       504.280          45.800  
  20526893.320   107869552.37509       -35.380          50.050    20526888.620  
  84054177.61748       -35.380          46.050  
  22283094.580   117098450.87808       539.384          48.450    22283090.760  
  91245530.32647       539.384          43.750  
  20722646.340   108898241.07309      -414.235          50.250    20722642.360  
  84855758.47148      -414.235          47.300  
  23546996.800   125783825.70905       248.163          35.650    23547000.000  
  97831882.86404       248.162          31.500  
  19754305.360   105598082.97308      -334.285          46.950    19754310.280  
  82131862.92407      -334.285          41.600  
  19745498.640   105588053.93909      -278.591          49.400    19745500.420  
  82124052.31908      -278.591          45.800  
  19480623.880   104208199.60109       353.971          49.800    19480628.340  
  81050840.64307       353.971          41.750  
  23246023.680   124394164.36507      -793.123          43.350    23246026.840  
  96751032.60506      -793.123          39.350  
  22783896.520   121963980.46807       709.462          42.600    22783897.880  
  94860878.27707       709.463          41.550  
  19539646.620   104633920.43808       277.185          48.250    19539646.860  
  81381939.70108       277.185          46.600  
 20 09 27 05 21 25.0000000  0 15G30G18G20G 2G 5G13G29G15R16R 1R24R23
                                R17R 7R 8
  23902289.680   125607379.93007        33.850          41.800    23902288.400  
  97875879.97646        33.850          40.250  
  21230355.120   111566270.00709      -419.177          49.100    21230351.780  
  86934739.37248      -419.177          45.550  
  23532355.400   123663353.54706      -602.732          40.750    23532351.060  
  96361073.60745      -602.732          36.600  
  24582925.740   129184138.02706       627.992          41.350    24582922.620  
 100662945.44546       627.993          40.600  
  21911677.240   115146642.98808       504.519          48.000    21911673.220  
  89724639.29048       504.519          45.200  
  20526718.140   107868631.77909       -34.665          49.900    20526713.440  
  84053460.27048       -34.665          46.200  
  22285792.840   117112630.33208       539.912          48.350    22285789.040  
  91256579.25047       539.912          44.400  
  20720576.700   108887364.98109      -413.668          50.150    20720572.700  
  84847283.60248      -413.668          47.450  
  23548239.440   125790464.19704       248.994          34.850    23548242.660  
  97837046.13703       248.994          30.700  
  19752635.360   105589155.77208      -333.718          47.000    19752640.320  
  82124919.55207      -333.718          41.750  
  19744107.660   105580615.70909      -277.812          49.450    19744109.460  
  82118267.02908      -277.812          45.650  
  19482395.740   104217677.78809       354.756          49.800    19482400.220  
  81058212.56407       354.757          41.750  
  23242058.820   124372947.59607      -792.854          43.250    23242061.960  
  96734530.67906      -792.854          39.100  
  22787444.220   121982971.33707       709.571          42.350    22787445.620  
  94875648.94706       709.571          41.300  
  19541033.920   104641349.29908       277.729          48.400    19541034.160  
  81387717.70208       277.729          46.600  
 20 09 27 05 21 30.0000000  0 15G30G18G20G 2G 5G13G29G15R16R 1R24R23
                                R17R 7R 8
  23902460.160   125608276.21107        34.437          41.800    23902458.920  
  97876578.36646        34.437          40.550  
  21228260.000   111555259.94009      -418.844          49.200    21228256.620  
  86926160.10948      -418.844          45.400  
  23529341.840   123647517.01707      -602.706          41.500    23529337.460  
  96348733.47045      -602.707          37.200  
  24586065.960   129200640.42807       628.092          43.800    24586062.840  
 100675804.44845       628.092          37.300  
  21914200.140   115159901.18208       504.692          47.950    21914196.180  
  89734970.35548       504.691          45.500  
  20526546.020   107867727.34309       -34.115          50.050    20526541.320  
  84052755.52448       -34.115          46.050  
  22288493.020   117126819.91909       540.277          48.650    22288489.260  
  91267636.08147       540.277          44.000  
  20718509.540   108876502.00509      -413.158          50.300    20718505.560  
  84838818.95448      -413.158          47.050  
  23549485.720   125797121.53504       249.653          34.750    23549488.600  
  97842224.07503       249.653          29.800  
  19750967.860   105580241.97308      -333.244          47.000    19750972.860  
  82117986.60507      -333.244          41.700  
  19742720.220   105573196.36909      -277.127          49.550    19742722.020  
  82112496.43808      -277.128          45.700  
  19484171.200   104227175.20309       355.453          49.750    19484175.700  
  81065599.44807       355.453          41.900  
  23238094.680   124351734.82107      -792.725          43.350    23238097.820  
  96718031.85806      -792.725          39.050  
  22790992.100   122001963.35007       709.613          42.050    22790993.600  
  94890420.50606       709.613          41.450  
  19542423.520   104648790.67808       278.157          48.400    19542423.800  
  81393505.44808       278.156          46.700  
 20 09 27 05 21 35.0000000  0 15G30G18G20G 2G 5G13G29G15R16R 1R24R23
                                R17R 7R 8
  23902633.340   125609186.61707        35.116          41.750    23902632.160  
  97877287.78746        35.116          40.400  
  21226166.540   111544258.70709      -418.390          49.100    21226163.160  
  86917587.72648      -418.390          45.450  
  23526328.520   123631682.03106      -602.451          41.050    23526324.300  
  96336394.52945      -602.451          36.900  
  24589206.780   129217145.47306       628.361          39.750    24589203.520  
 100688665.53046       628.360          39.300  
  21916723.980   115173164.18208       504.985          48.100    21916720.060  
  89745305.15648       504.985          45.300  
  20526376.940   107866838.96609       -33.389          50.000    20526372.280  
  84052063.28948       -33.389          45.950  
  22291195.120   117141019.51309       540.715          48.700    22291191.400  
  91278700.69447       540.715          43.850  
  20716444.880   108865652.02809      -412.549          50.200    20716440.880  
  84830364.43748      -412.549          47.250  
  23550735.280   125803797.55004       250.442          34.500    23550738.240  
  97847416.54303       250.441          30.000  
  19749302.820   105571341.34008      -332.660          46.700    19749307.820  
  82111063.89507      -332.660          41.750  
  19741336.280   105565795.72909      -276.313          49.250    19741338.060  
  82106740.38208      -276.313          45.700  
  19485950.220   104236691.82909       356.282          49.550    19485954.760  
  81073001.26907       356.282          41.700  
  23234131.220   124330525.84307      -792.477          43.250    23234134.420  
  96701535.99706      -792.477          38.900  
  22794540.120   122020956.33107       709.723          41.650    22794541.740  
  94905192.82506       709.723          41.200  
  19543815.480   104656244.60608       278.756          48.100    19543815.800  
  81399302.95808       278.755          46.700  
 20 09 27 05 21 40.0000000  0 15G30G18G20G 2G 5G13G29G15R16R 1R24R23
                                R17R 7R 8
  23902810.580   125610118.41307        35.680          42.400    23902809.440  
  97878013.86745        35.680          37.750  
  21224076.180   111533273.60809      -417.938          49.050    21224072.780  
  86909027.91448      -417.938          45.350  
  23523316.860   123615855.77006      -602.298          40.500    23523312.740  
  96324062.39345      -602.299          35.550  
  24592349.500   129233660.47508       628.542          45.900    24592346.280  
 100701534.32445       628.545          36.250  
  21919250.140   115186439.34208       505.308          48.050    21919246.240  
  89755649.43948       505.308          45.450  
  20526212.340   107865973.94509       -32.654          50.050    20526207.680  
  84051389.25148       -32.654          46.200  
  22293900.520   117155236.33909       541.244          48.900    22293896.800  
  91289778.74047       541.244          43.750  
  20714384.080   108854822.37209      -411.918          50.200    20714380.080  
  84821925.75048      -411.919          47.700  
  23551989.860   125810499.75304       251.220          34.500    23551992.760  
  97852629.36003       251.220          29.050  
  19747641.680   105562461.47408      -331.995          46.600    19747646.700  
  82104157.33907      -331.996          41.750  
  19739957.220   105558421.25209      -275.489          49.150    19739958.980  
  82101004.68208      -275.490          45.700  
  19487734.200   104246234.97009       357.144          49.550    19487738.760  
  81080423.71407       357.144          41.850  
  23230169.920   124309328.14207      -792.201          43.250    23230173.160  
  96685048.90706      -792.201          39.300  
  22798089.720   122039957.71206       709.894          41.350    22798091.500  
  94919971.66806       709.894          41.150  
  19545211.140   104663718.40108       279.354          47.900    19545211.500  
  81405115.91108       279.354          46.600  
 20 09 27 05 21 45.0000000  0 15G30G18G20G 2G 5G13G29G15R16R 1R24R23
                                R17R 7R 8
  23902990.560   125611064.09407        36.279          42.000    23902989.460  
  97878750.77946        36.277          40.700  
  21221987.460   111522297.13609      -417.540          49.100    21221984.040  
  86900474.83048      -417.541          45.550  
  23520305.440   123600030.75306      -602.279          40.950    23520301.280  
  96311731.23044      -602.280          35.400  
  24595492.640   129250177.99005       628.780          37.700    24595489.540  
 100714405.13745       628.779          37.900  
  21921777.120   115199719.06908       505.517          47.850    21921773.280  
  89765997.28248       505.517          45.000  
  20526050.720   107865124.77309       -31.980          50.050    20526046.100  
  84050727.56648       -31.980          46.000  
  22296607.760   117169462.87609       541.667          48.950    22296604.040  
  91300864.36147       541.666          44.300  
  20712325.740   108844005.54609      -411.416          50.250    20712321.720  
  84813497.06348      -411.416          47.550  
  23553247.940   125817220.49504       252.019          34.400    23553250.800  
  97857856.62403       252.018          30.200  
  19745982.960   105553594.59308      -331.459          46.550    19745987.960  
  82097260.88607      -331.460          41.650  
  19738581.620   105551065.32209      -274.746          49.150    19738583.400  
  82095283.41308      -274.747          45.700  
  19489521.720   104255797.09109       357.888          49.600    19489526.340  
  81087860.92107       357.888          41.950  
  23226209.300   124288134.10507      -792.027          43.400    23226212.580  
  96668564.66606      -792.027          39.000  
  22801639.460   122058959.85507       709.944          41.700    22801641.420  
  94934751.12306       709.944          40.900  
  19546609.080   104671204.45908       279.844          48.000    19546609.480  
  81410938.40508       279.844          46.650  
 20 09 27 05 21 50.0000000  0 15G30G18G20G 2G 5G13G29G15R16R 1R24R23
                                R17R 7R 8
  23903173.160   125612023.58207        36.835          42.050    23903172.160  
  97879498.42446        36.836          40.000  
  21219900.360   111511329.17609      -417.220          49.200    21219896.880  
  86891928.37448      -417.221          45.550  
  23517294.260   123584206.97206      -602.129          41.100    23517290.160  
  96299401.01545      -602.129          36.650  
  24598636.180   129266697.72707       628.762          43.200    24598633.180  
 100727277.61746       628.763          38.700  
  21924304.980   115213003.20208       505.715          48.050    21924301.160  
  89776348.55548       505.714          44.700  
  20525892.100   107864291.33509       -31.351          50.150    20525887.540  
  84050078.14248       -31.352          46.150  
  22299316.840   117183699.01209       542.014          48.950    22299313.100  
  91311957.45447       542.014          44.150  
  20710269.800   108833201.44809      -410.894          50.300    20710265.800  
  84805078.29148      -410.895          47.550  
  23554509.500   125823959.54604       252.730          34.600    23554512.380  
  97863098.12103       252.729          31.050  
  19744326.660   105544740.76808      -330.965          46.550    19744331.700  
  82090374.59007      -330.966          41.700  
  19737209.440   105543727.84309      -274.052          49.250    19737211.280  
  82089576.49608      -274.053          45.800  
  19491312.740   104265377.91509       358.607          49.650    19491317.440  
  81095312.68107       358.607          41.950  
  23222249.400   124266943.57007      -791.899          43.450    23222252.680  
  96652083.14506      -791.899          39.650  
  22805189.220   122077962.52007       710.017          41.850    22805191.440  
  94949530.98006       710.017          41.100  
  19548009.260   104678702.61108       280.307          48.050    19548009.700  
  81416770.30908       280.307          46.750  
 20 09 27 05 21 55.0000000  0 15G30G18G20G 2G 5G13G29G15R16R 1R24R23
                                R17R 7R 8
  23903358.560   125612997.98407        37.296          42.750    23903357.660  
  97880257.69646        37.296          39.450  
  21217815.080   111500370.89509      -416.973          49.400    21217811.580  
  86883389.45148      -416.973          44.750  
  23514283.480   123568385.38707      -602.239          41.550    23514279.500  
  96287072.53244      -602.241          33.100  
  24601780.300   129283221.08807       628.861          41.500    24601777.420  
 100740152.94545       628.862          37.900  
  21926833.900   115226292.89308       505.792          48.100    21926830.120  
  89786704.15548       505.792          44.700  
  20525736.700   107863474.76909       -30.856          50.200    20525732.200  
  84049441.85748       -30.856          45.900  
  22302027.940   117197945.85409       542.342          48.850    22302024.180  
  91323058.89047       542.342          44.300  
  20708216.500   108822411.19709      -410.500          50.450    20708212.500  
  84796670.31048      -410.500          46.950  
  23555774.740   125830718.30804       253.301          34.200    23555777.540  
  97868354.95503       253.300          31.000  
  19742673.000   105535901.03708      -330.564          46.550    19742678.020  
  82083499.24407      -330.564          41.800  
  19735840.940   105536409.95509      -273.423          49.300    19735842.820  
  82083884.80708      -273.423          45.850  
  19493107.520   104274978.72109       359.227          49.600    19493112.240  
  81102779.97307       359.227          42.200  
  23218290.360   124245757.85107      -791.825          43.550    23218293.660  
  96635605.37006      -791.826          39.800  
  22808739.300   122096967.07206       709.999          41.400    22808741.760  
  94964312.29606       709.999          41.050  
  19549411.940   104686213.94208       280.695          48.050    19549412.380  
  81422612.45508       280.695          46.850  
 20 09 27 05 22  0.0000000  0 15G30G18G20G 2G 5G13G29G15R16R 1R24R23
                                R17R 7R 8
  23903546.940   125613987.83507        37.916          42.700    23903546.060  
  97881029.01146        37.916          40.000  
  21215731.780   111489422.82709      -416.546          49.400    21215728.220  
  86874858.50248      -416.546          44.650  
  23511273.300   123552566.72107      -602.102          41.650    23511269.420  
  96274746.29345      -602.102          36.000  
  24604925.200   129299748.27406       629.045          39.650    24604922.460  
 100753031.25145       629.046          38.150  
  21929363.940   115239588.66808       506.071          48.300    21929360.220  
  89797064.50447       506.071          44.200  
  20525584.620   107862675.62509       -30.135          50.150    20525580.160  
  84048819.14948       -30.135          45.350  
  22304741.160   117212203.94209       542.806          48.750    22304737.420  
  91334169.08847       542.806          43.800  
  20706165.940   108811635.29809      -409.880          50.550    20706161.920  
  84788273.51548      -409.880          47.000  
  23557043.800   125837496.92904       254.142          33.950    23557046.380  
  97873627.24703       254.141          31.200  
  19741022.080   105527075.91808      -329.975          46.650    19741027.080  
  82076635.26707      -329.975          41.850  
  19734476.220   105529112.33309      -272.628          49.400    19734478.140  
  82078208.88608      -272.628          45.850  
  19494906.140   104284600.02709       360.042          49.650    19494910.920  
  81110263.21707       360.041          42.250  
  23214332.320   124224577.39707      -791.563          43.800    23214335.640  
  96619131.69206      -791.563          39.950  
  22812289.820   122115973.83007       710.110          41.850    22812292.520  
  94979095.33806       710.110          40.900  
  19550817.200   104693739.18708       281.245          48.300    19550817.700  
  81428465.43008       281.245          46.900  
 20 09 27 05 22  5.0000000  0 14G30G18G20G 2G 5G13G29G15R 1R24R23R17
                                R 7R 8
  23903737.940   125614991.67607        38.507          42.650    23903737.080  
  97881811.23146        38.507          40.100  
  21213650.100   111478483.50409      -416.156          49.350    21213646.460  
  86866334.35648      -416.156          44.600  
  23508263.380   123536749.35606      -601.937          41.150    23508259.460  
  96262421.09145      -601.938          37.450  
  24608070.640   129316277.94407       629.166          44.150    24608067.880  
 100765911.47045       629.168          37.250  
  21931894.880   115252889.07708       506.313          48.200    21931891.180  
  89807428.46148       506.313          44.950  
  20525435.540   107861892.34909       -29.477          50.000    20525431.140  
  84048208.81048       -29.477          46.050  
  22307456.260   117226471.76109       543.236          48.550    22307452.500  
  91345286.87147       543.236          44.300  
  20704117.820   108800872.29909      -409.348          50.550    20704113.780  
  84779886.77748      -409.349          46.850  
  19739373.620   105518263.87208      -329.415          46.750    19739378.600  
  82069781.45907      -329.415          41.800  
  19733114.980   105521833.21109      -271.872          49.400    19733116.900  
  82072547.35008      -271.872          45.900  
  19496708.300   104294240.30909       360.817          49.850    19496713.160  
  81117761.21607       360.817          42.100  
  23210374.960   124203400.72707      -791.392          44.000    23210378.320  
  96602660.95906      -791.392          40.250  
  22815840.440   122134981.42007       710.200          41.800    22815843.420  
  94993879.02406       710.199          40.450  
  19552224.740   104701276.48108       281.759          48.400    19552225.260  
  81434327.77008       281.759          46.950  
 20 09 27 05 22 10.0000000  0 14G30G18G20G 2G 5G13G29G15R 1R24R23R17
                                R 7R 8
  23903931.580   125616009.35807        38.963          43.250    23903930.680  
  97882604.24445        38.963          38.200  
  21211570.080   111467552.81009      -415.900          49.350    21211566.340  
  86857816.93647      -415.900          44.450  
  23505253.700   123520933.35206      -601.918          40.800    23505249.780  
  96250096.93445      -601.918          36.700  
  24611216.560   129332810.01706       629.210          40.250    24611213.680  
 100778793.63646       629.209          39.600  
  21934426.720   115266194.03508       506.422          47.850    21934423.000  
  89817795.96548       506.422          44.900  
  20525289.480   107861124.88709       -28.927          50.050    20525285.140  
  84047610.79148       -28.927          45.900  
  22310173.160   117240749.19009       543.490          48.700    22310169.420  
  91356412.14047       543.490          44.150  
  20702072.140   108790122.08609      -408.929          50.450    20702068.080  
  84771509.99248      -408.929          47.050  
  19737727.560   105509464.86408      -329.009          46.700    19737732.560  
  82062937.79007      -329.009          41.750  
  19731757.220   105514572.66409      -271.244          49.400    19731759.140  
  82066900.25808      -271.244          45.950  
  19498513.980   104303899.35609       361.446          49.950    19498518.880  
  81125273.80907       361.446          42.100  
  23206418.300   124182227.73607      -791.312          44.150    23206421.680  
  96586193.08706      -791.312          40.150  
  22819391.280   122153989.68407       710.210          42.000    22819394.420  
  95008663.23106       710.210          40.250  
  19553634.540   104708826.03008       282.147          48.400    19553635.100  
  81440199.65008       282.147          47.000  
 20 09 27 05 22 15.0000000  0 14G30G18G20G 2G 5G13G29G15R 1R24R23R17
                                R 7R 8
  23904128.300   125617043.05507        39.711          43.100    23904127.320  
  97883409.72446        39.711          38.850  
  21209492.140   111456632.93009      -415.334          49.350    21209488.280  
  86849307.94147      -415.334          44.450  
  23502244.580   123505120.71606      -601.711          40.550    23502240.720  
  96237775.42945      -601.712          37.950  
  24614363.340   129349346.51006       629.507          41.400    24614360.380  
 100791679.18845       629.506          37.800  
  21936959.820   115279505.55808       506.799          48.000    21936956.080  
  89828168.58048       506.799          45.150  
  20525146.860   107860375.36409       -28.110          50.100    20525142.520  
  84047026.75348       -28.110          45.950  
  22312892.320   117255038.42809       544.128          48.800    22312888.600  
  91367546.61547       544.128          43.600  
  20700029.300   108779386.82909      -408.218          50.350    20700025.220  
  84763144.86548      -408.218          47.000  
  19736084.380   105500681.17608      -328.311          46.750    19736089.380  
  82056106.03707      -328.311          41.600  
  19730403.320   105507332.89109      -270.314          49.150    19730405.260  
  82061269.33008      -270.314          45.800  
  19500323.600   104313579.50109       362.377          49.950    19500328.520  
  81132802.80807       362.377          42.050  
  23202462.760   124161060.64707      -790.942          44.050    23202466.140  
  96569729.81006      -790.943          40.000  
  22822942.620   122173000.68907       710.413          42.450    22822945.940  
  95023449.56906       710.413          39.700  
  19555047.040   104716389.98609       282.828          48.600    19555047.640  
  81446082.72908       282.828          46.800  
 20 09 27 05 22 20.0000000  0 14G30G18G20G 2G 5G13G29G15R 1R24R23R17
                                R 7R 8
  23904328.580   125618095.42007        40.279          42.650    23904327.500  
  97884229.76246        40.278          39.900  
  21207416.720   111445726.50309      -414.973          49.350    21207412.780  
  86840809.42948      -414.973          44.600  
  23499236.640   123489314.19506      -601.594          40.150    23499232.800  
  96225458.64544      -601.594          35.400  
  24617511.440   129365890.27107       629.642          42.350    24617508.460  
 100804570.42245       629.643          37.400  
  21939494.660   115292826.33508       507.034          47.950    21939490.900  
  89838548.41047       507.034          44.400  
  20525008.140   107859646.45909       -27.467          50.150    20525003.840  
  84046458.78348       -27.467          45.550  
  22315614.220   117269342.05309       544.515          48.750    22315610.520  
  91378692.30047       544.515          43.850  
  20697989.800   108768669.19209      -407.708          50.400    20697985.720  
  84754793.46648      -407.708          47.050  
  19734444.560   105491915.33108      -327.774          46.750    19734449.500  
  82049288.16607      -327.775          41.550  
  19729053.820   105500116.59609      -269.605          49.100    19729055.800  
  82055656.66208      -269.606          45.800  
  19502137.620   104323283.24209       363.117          49.800    19502142.540  
  81140350.16207       363.117          41.700  
  23198508.760   124139902.20007      -790.760          44.250    23198512.180  
  96553273.24906      -790.761          40.050  
  22826495.000   122192017.22207       710.469          42.400    22826498.420  
  95038240.20906       710.469          39.650  
  19556462.700   104723970.87008       283.319          48.400    19556463.320  
  81451978.97408       283.319          46.800  
 20 09 27 05 22 25.0000000  0 15G30G18G20G 2G 5G13G29G15R16R 1R24R23
                                R17R 7R 8
  23904531.660   125619162.77107        40.834          42.250    23904530.660  
  97885061.48246        40.833          40.650  
  21205343.180   111434829.87709      -414.599          49.350    21205339.180  
  86832318.56348      -414.599          44.850  
  23496229.120   123473510.03806      -601.523          40.600    23496225.340  
  96213143.75045      -601.524          36.700  
  24620660.140   129382437.40606       629.753          40.900    24620657.240  
 100817464.27145       629.754          37.700  
  21942030.560   115306152.71008       507.215          48.050    21942026.820  
  89848932.60347       507.214          44.400  
  20524872.680   107858934.45509       -26.833          50.200    20524868.360  
  84045903.98248       -26.833          45.750  
  22318338.180   117283656.38109       544.945          48.900    22318334.460  
  91389846.32347       544.944          44.000  
  20695952.960   108757965.53409      -407.180          50.450    20695948.900  
  84746452.96148      -407.180          47.050  
  23563443.880   125871686.93304       257.824          33.900    23563446.940  
  97900212.99504       257.823          33.000  
  19732807.400   105483163.71408      -327.234          46.850    19732812.300  
  82042481.36507      -327.235          41.750  
  19727708.000   105492920.06609      -268.854          49.100    19727710.040  
  82050059.37108      -268.855          46.000  
  19503955.420   104333007.01109       363.858          49.750    19503960.300  
  81147913.09407       363.858          42.050  
  23194555.720   124118748.63407      -790.608          44.200    23194559.120  
  96536820.48806      -790.609          39.800  
  22830047.760   122211035.59807       710.556          42.150    22830051.240  
  95053032.29206       710.555          39.550  
  19557880.860   104731565.10808       283.810          48.450    19557881.500  
  81457885.61208       283.810          47.000  
 20 09 27 05 22 30.0000000  0 15G30G18G20G 2G 5G13G29G15R16R 1R24R23
                                R17R 7R 8
  23904737.500   125620244.70607        41.515          41.750    23904736.540  
  97885904.55246        41.515          39.750  
  21203271.420   111423942.64209      -414.119          49.400    21203267.400  
  86823835.00348      -414.120          44.850  
  23493222.080   123457707.90206      -601.306          40.150    23493218.440  
  96200830.41245      -601.307          37.350  
  24623809.420   129398987.62507       629.968          42.050    24623806.680  
 100830360.51145       629.970          38.350  
  21944567.500   115319484.22308       507.522          48.200    21944563.720  
  89859320.79747       507.522          44.250  
  20524740.340   107858238.96109       -26.106          50.050    20524736.020  
  84045362.03748       -26.106          45.800  
  22321064.080   117297980.99809       545.465          48.850    22321060.360  
  91401008.36547       545.464          44.050  
  20693918.680   108747275.38609      -406.561          50.300    20693914.640  
  84738122.98648      -406.562          47.150  
  23564735.260   125878585.16304       258.661          33.650    23564738.360  
  97905578.29504       258.660          32.700  
  19731172.780   105474425.73608      -326.618          46.900    19731177.660  
  82035685.17307      -326.618          41.550  
  19726365.800   105485742.80809      -268.005          49.100    19726367.880  
  82044477.06708      -268.005          45.900  
  19505776.840   104342750.20609       364.703          49.700    19505781.640  
  81155491.13607       364.703          41.750  
  23190603.560   124097599.62107      -790.280          44.150    23190606.880  
  96520371.26206      -790.280          39.650  
  22833600.820   122230055.35307       710.672          42.500    22833604.240  
  95067825.43506       710.672          39.100  
  19559301.400   104739172.09208       284.413          48.450    19559302.040  
  81463802.16308       284.412          46.700  
 20 09 27 05 22 35.0000000  0 15G30G18G20G 2G 5G13G29G15R16R 1R24R23
                                R17R 7R 8
  23904946.100   125621341.14306        41.980          40.900    23904945.160  
  97886758.91546        41.980          40.000  
  21201201.440   111413064.70509      -413.845          49.450    21201197.400  
  86815358.69348      -413.845          44.650  
  23490215.320   123441907.62906      -601.282          39.900    23490211.860  
  96188518.50544      -601.282          34.750  
  24626959.260   129415540.80307       630.023          41.650    24626956.700  
 100843259.08545       630.024          38.250  
  21947105.380   115332820.80108       507.632          48.350    21947101.560  
  89869712.93847       507.632          44.500  
  20524611.120   107857559.87709       -25.556          50.100    20524606.800  
  84044832.88748       -25.556          46.150  
  22323791.900   117312315.79709       545.749          48.750    22323788.200  
  91412178.33847       545.749          43.650  
  20691886.960   108736598.71509      -406.097          50.400    20691882.960  
  84729803.50348      -406.097          47.000  
  23566030.240   125885502.52904       259.351          34.150    23566033.260  
  97910958.49104       259.350          32.350  
  19729540.740   105465701.43708      -326.174          46.950    19729545.560  
  82028899.61507      -326.175          41.700  
  19725027.180   105478584.74109      -267.376          49.100    19725029.320  
  82038909.68308      -267.377          45.800  
  19507601.900   104352512.96309       365.355          49.900    19507606.660  
  81163084.39007       365.355          41.800  
  23186652.240   124076454.95107      -790.210          44.250    23186655.420  
  96503925.41006      -790.210          39.550  
  22837154.100   122249076.26107       710.651          42.200    22837157.460  
  95082619.48106       710.651          39.100  
  19560724.340   104746791.76409       284.806          48.550    19560724.960  
  81469728.57508       284.806          46.650  
 20 09 27 05 22 40.0000000  0 15G30G18G20G 2G 5G13G29G15R16R 1R24R23
                                R17R 7R 8
  23905158.240   125622456.47706        42.722          40.650    23905157.420  
  97887627.99646        42.723          40.050  
  21199134.100   111402200.51309      -413.255          49.300    21199130.040  
  86806893.09148      -413.255          44.750  
  23487209.740   123426113.67806      -601.067          40.000    23487206.380  
  96176211.56444      -601.068          32.200  
  24630110.540   129432101.33206       630.382          40.400    24630108.040  
 100856163.36345       630.383          38.350  
  21949645.080   115346166.88908       508.065          48.250    21949641.240  
  89880112.48547       508.065          44.150  
  20524485.880   107856901.61309       -24.696          50.150    20524481.520  
  84044319.95448       -24.696          45.950  
  22326522.500   117326665.16809       546.381          48.750    22326518.780  
  91423359.66447       546.381          43.900  
  20689858.640   108725939.88409      -405.377          50.300    20689854.660  
  84721497.93148      -405.377          47.250  
  23567329.700   125892443.37304       260.263          34.000    23567332.560  
  97916356.93404       260.263          32.400  
  19727912.140   105456995.43108      -325.426          47.000    19727916.900  
  82022128.28307      -325.427          42.050  
  19723693.000   105471450.48209      -266.435          49.000    19723695.200  
  82033360.82008      -266.435          45.950  
  19509431.420   104362299.50109       366.311          49.850    19509436.120  
  81170696.14207       366.311          41.850  
  23182702.520   124055319.28707      -789.827          44.000    23182705.620  
  96487486.56606      -789.827          39.550  
  22840708.480   122268102.89707       710.974          42.200    22840711.720  
  95097417.97606       710.974          38.950  
  19562150.520   104754428.72409       285.511          48.650    19562151.080  
  81475668.43708       285.511          46.650  
 20 09 27 05 22 45.0000000  0 15G30G18G20G 2G 5G13G29G15R16R 1R24R23
                                R17R 7R 8
  23905373.180   125623586.78006        43.303          40.850    23905372.540  
  97888508.75346        43.303          40.000  
  21197068.600   111391346.10409      -412.935          49.100    21197064.520  
  86798435.11848      -412.936          45.200  
  23484204.620   123410322.10206      -600.961          39.600    23484201.400  
  96163906.45044      -600.962          34.850  
  24633262.560   129448665.34307       630.448          41.900    24633260.000  
 100869070.37445       630.449          36.400  
  21952185.840   115359518.50508       508.240          48.400    21952181.960  
  89890516.34147       508.240          44.450  
  20524363.860   107856260.24109       -24.087          50.250    20524359.460  
  84043820.19048       -24.087          45.600  
  22329255.140   117341025.15109       546.686          48.750    22329251.400  
  91434549.26547       546.686          43.700  
  20687832.960   108715294.99309      -404.852          50.200    20687829.000  
  84713203.21748      -404.852          47.200  
  23568632.800   125899403.65304       260.956          34.200    23568635.500  
  97921770.50804       260.955          33.100  
  19726286.180   105448303.52108      -324.951          47.050    19726290.880  
  82015367.91107      -324.952          41.600  
  19722362.540   105464335.93609      -265.711          49.250    19722364.760  
  82027827.29508      -265.712          46.000  
  19511264.640   104372105.96509       367.017          50.000    19511269.320  
  81178323.38907       367.017          42.050  
  23178753.700   124034188.54907      -789.643          43.950    23178756.740  
  96471051.55406      -789.644          39.650  
  22844263.180   122287131.18807       710.973          41.950    22844266.300  
  95112217.75506       710.973          38.850  
  19563579.120   104762078.76109       285.983          48.800    19563579.660  
  81481618.47008       285.983          46.650  
 20 09 27 05 22 50.0000000  0 15G30G18G20G 2G 5G13G29G15R16R 1R24R23
                                R17R 7R 8
  23905590.840   125624731.37706        43.811          41.100    23905590.340  
  97889400.64346        43.811          40.450  
  21195004.820   111380500.89809      -412.553          49.100    21195000.780  
  86789984.31648      -412.554          44.900  
  23481199.840   123394532.26306      -600.906          39.600    23481196.760  
  96151602.69644      -600.906          35.100  
  24636415.080   129465231.99506       630.591          40.650    24636412.340  
 100881979.43745       630.590          38.250  
  21954727.540   115372875.04208       508.446          48.150    21954723.640  
  89900924.03248       508.446          44.800  
  20524244.960   107855635.15909       -23.425          50.250    20524240.500  
  84043333.11948       -23.426          45.900  
  22331989.680   117355395.19009       547.125          48.650    22331985.880  
  91445746.69447       547.125          43.850  
  20685809.820   108704663.43109      -404.343          50.100    20685805.880  
  84704918.89348      -404.343          47.250  
  23569939.340   125906382.88004       261.771          34.350    23569942.000  
  97927198.78504       261.771          33.400  
  19724662.720   105439625.18408      -324.396          46.850    19724667.400  
  82008618.10807      -324.396          41.650  
  19721035.640   105457240.50909      -264.979          49.250    19721037.900  
  82022308.63808      -264.979          45.900  
  19513101.460   104381931.69209       367.770          49.850    19513106.140  
  81185965.62207       367.770          41.850  
  23174805.720   124013062.15107      -789.512          43.400    23174808.680  
  96454619.91506      -789.512          39.700  
  22847818.120   122306160.48507       711.035          42.200    22847821.020  
  95127018.31506       711.035          39.100  
  19565010.080   104769741.38809       286.478          48.650    19565010.580  
  81487578.29708       286.478          46.600  
 20 09 27 05 22 55.0000000  0 15G30G18G20G 2G 5G13G29G15R16R 1R24R23
                                R17R 7R 8
  23905811.420   125625891.16106        44.478          41.250    23905811.060  
  97890304.36846        44.478          39.050  
  21192942.960   111369665.67209      -412.210          49.050    21192938.920  
  86781541.29348      -412.211          45.650  
  23478195.540   123378744.95606      -600.966          39.900    23478192.460  
  96139300.93644      -600.967          35.150  
  24639568.360   129481802.47807       630.710          42.400    24639565.540  
 100894891.52645       630.710          36.200  
  21957270.320   115386237.32308       508.644          48.250    21957266.380  
  89911336.19548       508.644          44.700  
  20524129.300   107855027.09709       -22.846          50.200    20524124.780  
  84042859.31248       -22.847          46.100  
  22334726.240   117369775.93909       547.497          48.700    22334722.440  
  91456952.47747       547.497          44.350  
  20683789.400   108694046.00209      -403.830          50.150    20683785.460  
  84696645.58048      -403.831          47.300  
  23571249.680   125913381.59204       262.442          33.950    23571252.240  
  97932642.23604       262.441          34.350  
  19723041.920   105430961.12908      -323.899          47.050    19723046.560  
  82001879.40707      -323.899          41.950  
  19719712.480   105450165.09009      -264.267          49.450    19719714.760  
  82016805.53708      -264.268          46.050  
  19514942.040   104391777.51209       368.472          49.900    19514946.740  
  81193623.48107       368.472          41.950  
  23170858.660   123991940.83107      -789.347          43.450    23170861.560  
  96438192.23006      -789.348          40.100  
  22851373.420   122325191.70307       711.069          42.450    22851376.120  
  95141820.37406       711.070          38.900  
  19566443.520   104777417.35109       286.938          48.800    19566443.980  
  81493548.49308       286.938          46.750  
 20 09 27 05 23  0.0000000  0 15G30G18G20G 2G 5G13G29G15R16R 1R24R23
                                R17R 7R 8
  23906034.580   125627064.04807        45.008          41.700    23906034.300  
  97891218.32146        45.008          40.700  
  21190882.640   111358838.46509      -411.814          49.200    21190878.560  
  86773104.50848      -411.815          44.850  
  23475191.380   123362958.30206      -600.628          40.250    23475188.160  
  96126999.66544      -600.629          35.300  
  24642721.860   129498374.25006       630.884          40.950    24642719.000  
 100907804.54246       630.885          38.950  
  21959813.800   115399603.29508       508.878          48.150    21959809.860  
  89921751.24547       508.878          44.500  
  20524016.500   107854434.07609       -22.131          50.250    20524011.900  
  84042397.22348       -22.131          46.000  
  22337464.500   117384165.44809       547.896          48.750    22337460.660  
  91468165.08347       547.896          43.900  
  20681771.260   108683440.72009      -403.263          50.200    20681767.320  
  84688381.73148      -403.263          47.250  
  23572563.220   125920397.97404       263.193          32.650    23572565.860  
  97938099.42004       263.193          34.950  
  19721423.420   105422309.31108      -323.348          47.000    19721428.020  
  81995150.22007      -323.349          41.900  
  19718392.680   105443107.60109      -263.519          49.400    19718394.980  
  82011316.37908      -263.519          46.100  
  19516785.960   104401641.27009       369.259          49.850    19516790.660  
  81201295.29307       369.259          42.250  
  23166912.220   123970822.78307      -789.120          43.000    23166915.060  
  96421767.08806      -789.120          40.150  
  22854928.580   122344222.75007       711.146          42.400    22854931.180  
  95156622.29706       711.146          38.950  
  19567879.060   104785104.53309       287.428          48.700    19567879.500  
  81499527.41408       287.428          46.700  
 20 09 27 05 23  5.0000000  0 15G30G18G20G 2G 5G13G29G15R16R 1R24R23
                                R17R 7R 8
  23906261.080   125628254.21907        45.497          42.650    23906260.780  
  97892145.71846        45.497          40.350  
  21188824.640   111348023.42809      -411.448          49.100    21188820.520  
  86764677.21348      -411.448          44.950  
  23472188.120   123347176.26406      -600.646          40.550    23472184.780  
  96114701.98544      -600.646          34.650  
  24645876.480   129514951.98507       630.933          41.950    24645873.640  
 100920722.25845       630.934          37.350  
  21962358.760   115412977.15308       509.040          48.050    21962354.820  
  89932172.42948       509.040          44.650  
  20523907.340   107853860.24209       -21.564          50.250    20523902.700  
  84041950.08648       -21.564          46.350  
  22340205.200   117398567.89209       548.315          48.750    22340201.340  
  91479387.76747       548.315          43.950  
  20679756.240   108672851.72109      -402.819          50.200    20679752.300  
  84680130.56548      -402.819          47.400  
  23573880.880   125927436.19104       263.715          32.650    23573883.500  
  97943573.58104       263.715          34.950  
  19719808.020   105413674.12608      -322.856          46.950    19719812.600  
  81988433.97307      -322.856          41.750  
  19717077.040   105436072.29709      -262.804          49.400    19717079.360  
  82005844.47908      -262.804          46.100  
  19518634.060   104411527.27309       369.945          49.850    19518638.760  
  81208984.40607       369.945          42.200  
  23162967.160   123949711.98607      -788.945          42.850    23162969.920  
  96405347.58706      -788.946          40.400  
  22858484.560   122363257.89506       711.172          41.300    22858487.000  
  95171427.39805       711.173          37.950  
  19569317.540   104792807.33309       287.868          48.650    19569317.920  
  81505518.48008       287.868          46.750  
 20 09 27 05 23 10.0000000  0 15G30G18G20G 2G 5G13G29G15R16R 1R24R23
                                R17R 7R 8
  23906490.840   125629461.56007        46.204          42.700    23906490.500  
  97893086.52146        46.204          38.550  
  21186768.900   111337220.42309      -411.023          49.200    21186764.780  
  86756259.28948      -411.023          44.900  
  23469185.680   123331398.88906      -600.384          40.650    23469182.440  
  96102407.93144      -600.384          32.500  
  24649032.140   129531535.19506       631.160          41.250    24649029.240  
 100933644.20746       631.161          39.250  
  21964905.220   115426358.72808       509.358          48.450    21964901.260  
  89942599.63047       509.358          44.400  
  20523801.820   107853305.48409       -20.832          50.350    20523797.100  
  84041517.81048       -20.833          45.950  
  22342948.340   117412983.06409       548.773          48.950    22342944.440  
  91490620.36447       548.773          43.850  
  20677744.280   108662278.90309      -402.162          50.250    20677740.340  
  84671892.00948      -402.162          47.500  
  23575202.400   125934496.03203       264.635          31.150    23575205.120  
  97949064.57404       264.635          35.200  
  19718195.660   105405055.26908      -322.244          46.950    19718200.240  
  81981730.42307      -322.245          41.850  
  19715765.520   105429059.01809      -261.979          49.600    19715767.860  
  82000389.70908      -261.979          46.300  
  19520486.280   104421435.45409       370.773          49.950    19520491.000  
  81216690.76807       370.773          42.250  
  23159023.440   123928608.41607      -788.666          42.700    23159026.160  
  96388933.70806      -788.666          40.900  
  22862041.200   122382296.81906       711.302          41.400    22862043.500  
  95186235.44105       711.302          38.250  
  19570758.840   104800525.45609       288.476          48.700    19570759.200  
  81511521.46908       288.475          46.950  
 20 09 27 05 23 15.0000000  0 15G30G18G20G 2G 5G13G29G15R16R 1R24R23
                                R17R 7R 8
  23906722.660   125630679.58007        46.807          42.600    23906722.240  
  97894035.63146        46.806          40.450  
  21184714.220   111326423.04609      -410.565          49.200    21184710.100  
  86747845.75148      -410.565          45.250  
  23466182.940   123315619.63607      -600.314          41.550    23466179.600  
  96090112.41144      -600.314          33.850  
  24652187.700   129548117.58807       631.342          43.300    24652184.700  
 100946565.55045       631.342          37.750  
  21967451.920   115439741.59508       509.604          48.450    21967447.960  
  89953027.84047       509.604          44.250  
  20523698.680   107852763.35409       -20.125          50.250    20523693.920  
  84041095.37548       -20.125          46.000  
  22345692.680   117427404.57609       549.261          48.950    22345688.720  
  91501857.90047       549.261          43.850  
  20675734.180   108651715.83209      -401.560          50.350    20675730.260  
  84663661.05148      -401.560          47.300  
  23576526.700   125941571.02503       265.388          31.350    23576529.580  
  97954567.30905       265.389          35.650  
  19716585.140   105396446.29808      -321.652          46.900    19716589.740  
  81975034.56307      -321.652          42.000  
  19714456.920   105422061.25409      -261.177          49.600    19714459.280  
  81994947.00808      -261.178          46.250  
  19522341.400   104431359.10409       371.571          49.950    19522346.100  
  81224409.16607       371.571          42.250  
  23155079.840   123907505.62207      -788.418          42.450    23155082.540  
  96372520.43406      -788.419          41.050  
  22865597.420   122401333.01906       711.438          40.900    22865599.460  
  95201041.35805       711.438          37.950  
  19572201.800   104808252.41409       289.014          48.700    19572202.140  
  81517531.32808       289.014          46.700  
 20 09 27 05 23 20.0000000  0 15G30G18G20G 2G 5G13G29G15R16R 1R24R23
                                R17R 7R 8
  23906958.260   125631917.35907        47.224          42.350    23906957.760  
  97895000.14746        47.223          38.850  
  21182662.320   111315640.29209      -410.366          49.050    21182658.180  
  86739443.61348      -410.367          44.950  
  23463181.560   123299847.59106      -600.339          41.050    23463178.260  
  96077822.52244      -600.340          35.300  
  24655344.740   129564708.10607       631.334          43.000    24655341.700  
 100959493.19345       631.336          36.050  
  21970000.580   115453134.73908       509.655          48.450    21969996.600  
  89963464.06048       509.655          44.550  
  20523599.640   107852242.88209       -19.680          50.100    20523594.880  
  84040689.81748       -19.681          45.950  
  22348439.920   117441841.37309       549.482          48.750    22348435.940  
  91513107.35647       549.482          43.800  
  20673727.660   108641171.53209      -401.221          50.350    20673723.760  
  84655444.71748      -401.221          47.350  
  23577855.620   125948670.16603       265.977          30.800    23577858.580  
  97960088.85905       265.977          36.200  
  19714978.180   105387856.32808      -321.316          46.850    19714982.820  
  81968353.47807      -321.316          42.200  
  19713152.960   105415088.16209      -260.605          49.550    19713155.320  
  81989523.50008      -260.606          46.300  
  19524201.140   104441307.47209       372.144          49.900    19524205.820  
  81232146.78307       372.144          42.100  
  23151138.100   123886412.67407      -788.430          42.350    23151140.780  
  96356114.81806      -788.430          41.200  
  22869154.820   122420375.84306       711.321          40.950    22869156.720  
  95215852.44705       711.321          37.800  
  19573648.140   104815997.47509       289.330          48.650    19573648.440  
  81523555.26608       289.330          46.650  
 20 09 27 05 23 25.0000000  0 15G30G18G20G 2G 5G13G29G15R16R 1R24R23
                                R17R 7R 8
  23907196.360   125633168.42607        47.856          42.300    23907195.740  
  97895975.01446        47.855          38.650  
  21180611.980   111304865.74509      -409.857          49.100    21180607.860  
  86731047.87148      -409.858          44.850  
  23460180.320   123284076.22506      -600.061          40.900    23460176.980  
  96065533.16345      -600.062          35.600  
  24658502.120   129581300.26307       631.520          42.000    24658499.040  
 100972422.13145       631.521          36.000  
  21972549.960   115466531.76308       509.976          48.450    21972546.000  
  89973903.29247       509.976          44.200  
  20523503.500   107851737.61809       -18.902          50.150    20523498.700  
  84040296.10548       -18.902          45.950  
  22351188.820   117456286.99709       549.976          48.700    22351184.800  
  91524363.68547       549.976          43.650  
  20671723.480   108630639.54009      -400.546          50.350    20671719.600  
  84647237.98048      -400.546          47.250  
  23579187.920   125955787.18804       266.901          31.600    23579190.960  
  97965624.31405       266.901          36.050  
  19713373.580   105379278.90708      -320.638          47.050    19713378.260  
  81961682.15607      -320.638          42.350  
  19711852.360   105408133.22109      -259.732          49.750    19711854.740  
  81984114.10608      -259.732          46.150  
  19526064.280   104451273.95009       373.015          50.000    19526068.960  
  81239898.48707       373.015          42.200  
  23147197.040   123865323.17207      -788.115          42.600    23147199.680  
  96339711.88306      -788.116          41.400  
  22872712.180   122439418.45206       711.526          41.000    22872713.940  
  95230663.37605       711.525          37.950  
  19575096.560   104823753.81409       289.959          48.650    19575096.860  
  81529587.97408       289.959          46.750  
 20 09 27 05 23 30.0000000  0 15G30G18G20G 2G 5G13G29G15R16R 1R24R23
                                R17R 7R 8
  23907437.440   125634435.23907        48.363          42.200    23907436.680  
  97896962.13546        48.362          39.900  
  21178563.700   111294101.88509      -409.556          49.100    21178559.540  
  86722660.44748      -409.556          44.550  
  23457179.700   123268308.11306      -600.194          40.650    23457176.420  
  96053246.33745      -600.195          35.750  
  24661660.260   129597896.63707       631.632          41.850    24661657.100  
 100985354.35245       631.633          37.950  
  21975100.540   115479935.09608       510.129          48.300    21975096.600  
  89984347.44148       510.129          44.550  
  20523410.700   107851250.04009       -18.338          50.100    20523405.920  
  84039916.17848       -18.338          45.900  
  22353939.880   117470743.93409       550.307          48.550    22353935.820  
  91535628.81847       550.307          43.450  
  20669722.080   108620122.29909      -400.088          50.300    20669718.240  
  84639042.72748      -400.088          47.150  
  23580523.880   125962924.23703       267.455          31.450    23580527.120  
  97971175.36105       267.454          36.650  
  19711771.740   105370716.27708      -320.205          46.900    19711776.480  
  81955022.33507      -320.205          42.350  
  19710555.640   105401198.94309      -259.068          49.700    19710558.000  
  81978720.77608      -259.068          46.200  
  19527931.260   104461260.93609       373.674          49.950    19527935.900  
  81247666.14007       373.674          42.050  
  23143257.040   123844239.55907      -787.976          42.450    23143259.720  
  96323313.52806      -787.977          41.350  
  22876269.960   122458463.47906       711.500          40.400    22876271.620  
  95245476.17506       711.499          38.900  
  19576547.600   104831524.05109       290.338          48.600    19576547.860  
  81535631.48808       290.338          46.650  
 20 09 27 05 23 35.0000000  0 15G30G18G20G 2G 5G13G29G15R16R 1R24R23
                                R17R 7R 8
  23907681.360   125635716.99407        49.186          42.300    23907680.480  
  97897960.92645        49.185          36.900  
  21176517.280   111283347.87809      -408.978          49.150    21176513.120  
  86714280.71348      -408.979          44.850  
  23454179.520   123252542.36006      -599.946          40.550    23454176.280  
  96040961.34745      -599.947          35.900  
  24664819.040   129614496.21906       631.922          41.100    24664815.800  
 100998289.09146       631.922          39.050  
  21977652.120   115493343.82908       510.535          48.300    21977648.220  
  89994795.80447       510.535          44.300  
  20523321.120   107850779.28909       -17.497          50.050    20523316.320  
  84039549.36948       -17.497          46.050  
  22356692.900   117485211.33009       550.986          48.750    22356688.840  
  91546902.11447       550.987          43.550  
  20667723.380   108609619.04609      -399.359          50.350    20667719.560  
  84630858.38948      -399.360          47.050  
  23581863.560   125970080.74004       268.339          31.550    23581866.940  
  97976741.52605       268.339          36.950  
  19710172.560   105362167.91508      -319.431          46.800    19710177.380  
  81948373.61707      -319.431          42.550  
  19709262.620   105394284.47409      -258.113          49.600    19709265.000  
  81973342.86008      -258.113          46.200  
  19529801.940   104471267.82309       374.618          49.950    19529806.580  
  81255449.28107       374.618          41.950  
  23139317.980   123823160.98507      -787.626          42.450    23139320.680  
  96306919.10206      -787.627          41.400  
  22879828.060   122477510.00706       711.792          40.750    22879829.600  
  95260290.14305       711.792          38.200  
  19578001.060   104839307.30908       291.059          48.450    19578001.340  
  81541685.14108       291.059          46.750  
 20 09 27 05 23 40.0000000  0 15G30G18G20G 2G 5G13G29G15R16R 1R24R23
                                R17R 7R 8
  23907928.840   125637017.27707        49.696          42.400    23907927.760  
  97898974.12745        49.696          38.000  
  21174473.440   111272607.35309      -408.682          49.200    21174469.220  
  86705911.46948      -408.682          44.700  
  23451180.460   123236782.68806      -599.881          40.550    23451177.340  
  96028681.09744      -599.882          35.100  
  24667979.220   129631102.85107       631.967          41.800    24667976.060  
 101011229.29945       631.967          37.650  
  21980205.440   115506761.60808       510.671          48.250    21980201.580  
  90005251.21147       510.671          44.250  
  20523235.420   107850329.00609       -16.910          50.050    20523230.620  
  84039198.49748       -16.910          45.650  
  22359448.600   117499692.76309       551.200          48.750    22359444.520  
  91558186.34747       551.200          43.000  
  20665728.020   108599133.40809      -398.918          50.350    20665724.220  
  84622687.76448      -398.919          46.800  
  23583207.660   125977260.18204       268.990          32.200    23583211.020  
  97982325.52605       268.990          36.600  
  19708576.720   105353637.33208      -319.009          46.850    19708581.600  
  81941738.72107      -319.009          42.350  
  19707973.980   105387393.58809      -257.461          49.600    19707976.380  
  81967983.28408      -257.462          46.150  
  19531677.020   104481298.12909       375.284          50.050    19531681.620  
  81263250.62607       375.284          41.900  
  23135380.620   123802091.16207      -787.501          42.200    23135383.300  
  96290531.47406      -787.501          41.400  
  22883387.120   122496561.82206       711.712          40.650    22883388.600  
  95275108.23806       711.711          39.050  
  19579457.640   104847107.27408       291.460          48.450    19579457.900  
  81547751.77808       291.460          46.700  
 20 09 27 05 23 45.0000000  0 15G30G18G20G 2G 5G13G29G15R16R 1R24R23
                                R17R 7R 8
  23908178.660   125638329.84507        50.389          42.400    23908177.380  
  97899996.91845        50.389          37.550  
  21172430.980   111261874.09809      -408.179          49.250    21172426.740  
  86697547.89648      -408.180          45.000  
  23448181.400   123221022.73706      -599.614          40.550    23448178.180  
  96016400.63844      -599.614          33.850  
  24671139.560   129647710.10406       632.259          41.000    24671136.320  
 101024170.01545       632.259          38.150  
  21982759.320   115520182.21708       511.019          48.400    21982755.480  
  90015708.83248       511.019          44.550  
  20523152.400   107849892.91709       -16.121          50.100    20523147.640  
  84038858.69148       -16.121          45.700  
  22362205.820   117514182.04409       551.786          48.700    22362201.720  
  91569476.70047       551.785          43.600  
  20663734.840   108588659.16409      -398.227          50.350    20663731.040  
  84614526.01948      -398.227          46.950  
  23584554.780   125984456.42304       270.102          32.550    23584558.240  
  97987922.60405       270.102          36.550  
  19706983.060   105345118.29208      -318.334          46.850    19706987.980  
  81935112.81007      -318.334          42.400  
  19706688.580   105380519.83709      -256.568          49.700    19706690.980  
  81962637.04008      -256.568          46.150  
  19533555.300   104491345.54909       376.164          50.100    19533559.840  
  81271065.28107       376.164          42.000  
  23131443.640   123781023.81207      -787.120          41.950    23131446.380  
  96274145.76507      -787.121          41.800  
  22886945.920   122515612.50906       711.978          39.250    22886947.420  
  95289925.42306       711.979          40.100  
  19580916.180   104854917.62008       292.093          48.500    19580916.440  
  81553826.49208       292.093          46.600  
 20 09 27 05 23 50.0000000  0 15G30G18G20G 2G 5G13G29G15R16R 1R24R23
                                R17R 7R 8
  23908431.580   125639658.52807        50.928          42.850    23908430.100  
  97901032.27845        50.927          38.300  
  21170390.600   111251151.90709      -407.785          49.200    21170386.340  
  86689192.94248      -407.785          45.050  
  23445183.000   123205266.38806      -599.556          40.850    23445179.740  
  96004122.97144      -599.557          32.350  
  24674300.680   129664321.87806       632.374          40.100    24674297.480  
 101037114.22246       632.375          38.750  
  21985314.420   115533609.44508       511.245          48.050    21985310.620  
  90026171.60347       511.245          44.300  
  20523072.820   107849474.81009       -15.518          50.050    20523068.060  
  84038532.89248       -15.518          45.250  
  22364965.220   117528682.92009       552.201          48.650    22364961.120  
  91580776.07847       552.201          43.450  
  20661744.520   108578200.07209      -397.733          50.250    20661740.720  
  84606376.08048      -397.733          46.800  
  23585905.760   125991673.04704       270.669          32.650    23585909.240  
  97993535.53405       270.669          36.800  
  19705392.240   105336614.54108      -317.829          46.900    19705397.200  
  81928498.77707      -317.829          42.600  
  19705407.080   105373667.09409      -255.836          49.700    19705409.500  
  81957307.12408      -255.837          46.200  
  19535437.460   104501413.86809       376.893          50.050    19535441.960  
  81278896.18807       376.893          41.950  
  23127507.880   123759962.78307      -786.949          42.050    23127510.640  
  96257764.97007      -786.950          42.100  
  22890505.160   122534665.95406       711.954          40.200    22890506.780  
  95304744.74106       711.955          39.550  
  19582377.340   104862742.08109       292.568          48.650    19582377.600  
  81559912.18808       292.568          46.700  
 20 09 27 05 23 55.0000000  0 15G30G18G20G 2G 5G13G29G15R16R 1R24R23
                                R17R 7R 8
  23908687.540   125641003.19707        51.521          42.750    23908685.920  
  97902080.10245        51.521          37.950  
  21168352.320   111240440.67909      -407.437          49.250    21168348.060  
  86680846.53948      -407.437          45.100  
  23442185.240   123189513.48606      -599.447          40.450    23442181.940  
  95991847.98744      -599.446          35.100  
  24677462.620   129680937.98206       632.500          39.900    24677459.400  
 101050061.81746       632.500          39.300  
  21987870.780   115547043.14508       511.393          48.100    21987866.960  
  90036639.42548       511.393          44.650  
  20522996.660   107849074.59509       -14.880          50.150    20522991.900  
  84038221.04248       -14.880          45.700  
  22367726.780   117543195.26308       552.535          48.450    22367722.740  
  91592084.39547       552.536          43.400  
  20659757.080   108567756.06709      -397.196          50.350    20659753.280  
  84598237.90748      -397.196          46.900  
  23587260.540   125998910.11604       271.488          32.350    23587264.040  
  97999164.36905       271.488          36.750  
  19703804.280   105328126.02008      -317.306          47.000    19703809.300  
  81921896.60207      -317.307          42.400  
  19704129.520   105366835.36109      -255.107          49.550    19704131.960  
  81951993.55808      -255.107          46.100  
  19537323.520   104511503.04409       377.601          49.900    19537327.980  
  81286743.32907       377.601          42.050  
  23123573.260   123738907.99507      -786.806          42.000    23123576.060  
  96241389.03607      -786.807          42.050  
  22894064.860   122553721.96006       712.005          39.550    22894066.620  
  95319566.06906       712.006          39.150  
  19583841.160   104870580.69909       293.044          48.650    19583841.400  
  81566008.89508       293.043          46.800  
 20 09 27 05 24  0.0000000  0 15G30G18G20G 2G 5G13G29G15R16R 1R24R23
                                R17R 7R 8
  23908946.460   125642363.43707        51.952          42.300    23908944.740  
  97903140.02145        51.951          38.250  
  21166316.040   111229740.00009      -407.164          49.100    21166311.820  
  86672508.35548      -407.164          45.550  
  23439188.040   123173763.63006      -599.441          40.450    23439184.720  
  95979575.40345      -599.442          36.050  
  24680625.280   129697557.99806       632.489          40.900    24680622.020  
 101063012.44745       632.491          36.400  
  21990428.280   115560482.90308       511.497          47.850    21990424.500  
  90047111.96248       511.497          44.750  
  20522923.820   107848691.88109       -14.353          50.150    20522919.060  
  84037922.82448       -14.353          45.600  
  22370490.480   117557718.64608       552.841          48.400    22370486.440  
  91603401.30947       552.842          43.750  
  20657772.420   108557326.69309      -396.786          50.200    20657768.620  
  84590111.12748      -396.786          46.750  
  23588618.880   126006167.03004       272.045          32.550    23588622.540  
  98004808.63805       272.045          36.250  
  19702219.140   105319652.31608      -316.864          47.050    19702224.180  
  81915305.95007      -316.864          42.350  
  19702855.780   105360024.18909      -254.480          49.400    19702858.240  
  81946695.98608      -254.480          45.950  
  19539213.400   104521612.56309       378.248          49.850    19539217.840  
  81294606.28207       378.248          41.900  
  23119639.740   123717859.02007      -786.700          41.550    23119642.580  
  96225017.62407      -786.701          42.050  
  22897625.000   122572780.14706       712.027          39.900    22897626.840  
  95334389.10506       712.027          38.900  
  19585307.500   104878432.89409       293.404          48.550    19585307.740  
  81572116.15808       293.404          46.600  
 20 09 27 05 24  5.0000000  0 15G30G18G20G 2G 5G13G29G15R16R 1R24R23
                                R17R 7R 8
  23909207.760   125643735.97307        52.627          42.450    23909205.880  
  97904209.53646        52.627          38.700  
  21164281.160   111219046.61509      -406.665          49.150    21164276.980  
  86664175.85048      -406.666          45.600  
  23436190.900   123158013.53406      -599.255          41.100    23436187.480  
  95967302.60544      -599.256          34.850  
  24683788.040   129714178.64606       632.726          40.300    24683784.740  
 101075963.58646       632.726          38.750  
  21992986.320   115573925.47008       511.824          47.900    21992982.560  
  90057586.69248       511.824          45.150  
  20522853.660   107848323.34809       -13.611          50.100    20522848.920  
  84037635.65948       -13.611          45.900  
  22373255.600   117572249.73608       553.345          48.300    22373251.620  
  91614724.23647       553.345          43.450  
  20655789.920   108546908.75009      -396.140          50.150    20655786.140  
  84581993.25848      -396.140          47.450  
  23589980.280   126013440.69504       272.793          32.600    23589984.200  
  98010465.93805       272.793          36.250  
  19700636.100   105311190.05708      -316.238          47.100    19700641.160  
  81908724.20007      -316.238          42.450  
  19701585.300   105353230.31609      -253.611          49.450    19701587.780  
  81941411.86508      -253.611          45.900  
  19541106.460   104531739.09109       379.081          49.850    19541110.880  
  81302482.47007       379.081          42.000  
  23115706.660   123696812.54807      -786.391          41.650    23115709.560  
  96208648.15907      -786.392          42.500  
  22901184.920   122591837.17806       712.126          39.550    22901186.860  
  95349211.24306       712.127          39.300  
  19586775.800   104886295.59709       294.016          48.650    19586776.040  
  81578231.59808       294.016          46.800  
 20 09 27 05 24 10.0000000  0 15G30G18G20G 2G 5G13G29G15R16R 1R24R23
                                R17R 7R 8
  23909472.160   125645124.95607        53.152          43.100    23909470.140  
  97905291.86645        53.152          37.900  
  21162248.420   111208364.65209      -406.408          49.150    21162244.300  
  86655852.25248      -406.409          46.100  
  23433194.480   123142267.39106      -599.229          41.400    23433191.040  
  95955032.89944      -599.229          34.750  
  24686951.820   129730804.03007       632.718          42.750    24686948.340  
 101088918.41745       632.718          36.250  
  21995545.680   115587374.98208       511.920          47.800    21995541.920  
  90068066.83748       511.920          45.050  
  20522787.040   107847973.16309       -13.070          50.250    20522782.260  
  84037362.79648       -13.070          45.850  
  22376023.020   117586792.70808       553.672          48.300    22376019.060  
  91626056.42047       553.672          43.350  
  20653810.380   108536506.32109      -395.688          50.150    20653806.620  
  84573887.47548      -395.688          47.150  
  23591345.700   126020735.14604       273.365          33.350    23591349.740  
  98016139.39505       273.365          35.800  
  19699056.000   105302743.52308      -315.810          47.100    19699061.060  
  81902154.67907      -315.811          42.300  
  19700318.780   105346457.77709      -252.965          49.550    19700321.260  
  81936144.33508      -252.965          45.850  
  19543003.460   104541886.86309       379.725          49.900    19543007.920  
  81310375.18607       379.724          42.000  
  23111774.820   123675772.79107      -786.314          41.550    23111777.780  
  96192283.92507      -786.315          42.400  
  22904745.420   122610897.15906       712.130          39.600    22904747.400  
  95364035.67406       712.130          39.200  
  19588246.780   104894172.65509       294.407          48.700    19588247.060  
  81584358.20308       294.407          46.750  
 20 09 27 05 24 15.0000000  0 15G30G18G20G 2G 5G13G29G15R16R 1R24R23
                                R17R 7R 8
  23909739.900   125646531.59707        53.782          42.900    23909737.840  
  97906387.95546        53.782          38.550  
  21160218.120   111197695.41609      -405.887          49.150    21160214.060  
  86647538.56848      -405.887          45.900  
  23430199.120   123126526.45507      -599.074          42.100    23430195.520  
  95942767.24344      -599.074          34.750  
  24690116.800   129747435.48207       633.001          42.250    24690113.100  
 101101878.01045       633.001          37.250  
  21998106.580   115600832.65508       512.246          47.700    21998102.820  
  90078553.33348       512.246          44.900  
  20522724.160   107847642.58709       -12.288          50.200    20522719.320  
  84037105.20648       -12.288          45.800  
  22378792.880   117601348.79608       554.154          48.300    22378788.980  
  91637398.82447       554.154          43.450  
  20651834.040   108526120.70809      -395.046          50.200    20651830.280  
  84565794.79648      -395.046          47.050  
  23592715.380   126028051.87004       274.238          33.550    23592719.460  
  98021830.17005       274.238          36.200  
  19697479.080   105294313.90708      -315.157          47.050    19697484.120  
  81895598.30907      -315.157          42.300  
  19699056.520   105339707.99609      -252.094          49.300    19699058.980  
  81930894.50508      -252.094          45.750  
  19544904.700   104552057.23109       380.582          49.900    19544909.180  
  81318285.47007       380.582          42.300  
  23107844.540   123654741.11906      -786.010          41.350    23107847.520  
  96175925.96907      -786.010          42.550  
  22908306.700   122629961.44306       712.239          39.300    22908308.760  
  95378863.45306       712.238          39.050  
  19589720.740   104902065.51809       294.984          48.600    19589721.000  
  81590497.09408       294.984          46.850  
 20 09 27 05 24 20.0000000  0 15G30G18G20G 2G 5G13G29G15R16R 1R24R23
                                R17R 7R 8
  23910010.380   125647952.56407        54.371          42.950    23910008.260  
  97907495.21446        54.371          39.400  
  21158189.580   111187035.47409      -405.530          49.150    21158185.560  
  86639232.12448      -405.530          46.050  
  23427204.100   123110787.31907      -598.920          42.350    23427200.400  
  95930502.98344      -598.920          35.100  
  24693282.220   129764069.52907       633.125          43.850    24693278.440  
 101114839.56145       633.127          37.000  
  22000668.380   115614295.10008       512.454          47.650    22000664.640  
  90089043.54648       512.455          44.750  
  20522664.320   107847328.14709       -11.692          50.150    20522659.460  
  84036860.19648       -11.692          45.950  
  22381564.640   117615914.58808       554.534          48.350    22381560.740  
  91648748.78347       554.534          43.350  
  20649860.260   108515748.50509      -394.495          50.150    20649856.500  
  84557712.56248      -394.496          47.200  
  23594088.480   126035386.99604       275.047          34.250    23594092.640  
  98027535.26005       275.048          35.500  
  19695904.700   105285897.89008      -314.640          46.950    19695909.720  
  81889052.52007      -314.640          42.250  
  19697797.900   105332977.54109      -251.370          49.300    19697800.320  
  81925659.71308      -251.371          45.600  
  19546809.520   104562246.76309       381.309          49.850    19546814.040  
  81326210.66007       381.309          42.100  
  23103915.220   123633713.98807      -785.793          41.600    23103918.100  
  96159571.54607      -785.793          42.450  
  22911868.080   122649026.59206       712.336          38.850    22911870.260  
  95393691.91306       712.336          39.000  
  19591196.960   104909970.62309       295.454          48.600    19591197.240  
  81596645.50908       295.454          46.800  
 20 09 27 05 24 25.0000000  0 15G30G18G20G 2G 5G13G29G15R16R 1R24R23
                                R17R 7R 8
  23910284.020   125649390.17907        54.836          42.850    23910281.880  
  97908615.44146        54.836          39.100  
  21156163.280   111176387.22809      -405.240          49.250    21156159.280  
  86630934.80148      -405.240          46.050  
  23424209.900   123095052.29207      -598.935          42.600    23424206.040  
  95918241.95044      -598.936          33.450  
  24696448.580   129780708.59506       633.121          40.100    24696444.800  
 101127805.07346       633.121          39.250  
  22003231.540   115627764.69408       512.601          47.600    22003227.820  
  90099539.34348       512.601          45.300  
  20522608.040   107847032.28809       -11.090          50.150    20522603.140  
  84036629.66148       -11.090          45.650  
  22384338.680   117630492.46109       554.853          48.600    22384334.840  
  91660108.16747       554.853          42.950  
  20647889.460   108505392.08909      -394.039          50.100    20647885.720  
  84549642.64048      -394.040          47.450  
  23595465.620   126042743.32704       275.623          35.000    23595469.780  
  98033256.85004       275.623          35.100  
  19694333.280   105277497.79508      -314.175          47.000    19694338.300  
  81882519.12107      -314.176          42.100  
  19696543.300   105326268.80309      -250.694          49.450    19696545.720  
  81920441.80708      -250.695          45.650  
  19548718.320   104572457.58009       381.972          50.000    19548722.840  
  81334152.40607       381.972          42.150  
  23099987.160   123612693.89407      -785.675          41.600    23099990.000  
  96143222.60107      -785.676          42.600  
  22915430.060   122668094.92606       712.336          38.850    22915432.340  
  95408522.84306       712.336          39.400  
  19592675.960   104917890.53909       295.874          48.700    19592676.260  
  81602805.45208       295.873          46.750  
 20 09 27 05 24 30.0000000  0 15G30G18G20G 2G 5G13G29G15R16R 1R24R23
                                R17R 7R 8
  23910560.240   125650841.59607        55.572          42.750    23910558.100  
  97909746.42845        55.572          38.300  
  21154138.640   111165747.83309      -404.680          49.200    21154134.660  
  86622644.36848      -404.680          46.050  
  23421215.940   123079318.60307      -598.707          42.550    23421211.960  
  95905981.92544      -598.707          34.350  
  24699615.240   129797349.81107       633.444          42.100    24699611.540  
 101140772.20744       633.446          34.850  
  22005795.500   115641238.53608       512.956          47.600    22005791.800  
  90110038.44248       512.956          45.150  
  20522554.740   107846752.16109       -10.288          50.150    20522549.820  
  84036411.38448       -10.289          45.700  
  22387114.500   117645079.52309       555.421          48.600    22387110.680  
  91671474.70447       555.421          42.950  
  20645921.160   108495048.60509      -393.332          50.050    20645917.400  
  84541582.78448      -393.332          47.200  
  23596846.120   126050117.60005       276.551          35.850    23596850.280  
  98038992.41304       276.551          34.900  
  19692764.280   105269110.70608      -313.493          46.750    19692769.320  
  81875995.83807      -313.493          42.000  
  19695292.260   105319578.92409      -249.773          49.350    19695294.640  
  81915238.57108      -249.773          45.550  
  19550630.600   104582686.95109       382.885          50.050    19550635.120  
  81342108.58207       382.885          42.000  
  23096059.800   123591677.91006      -785.325          41.200    23096062.660  
  96126876.84307      -785.326          42.550  
  22918992.060   122687163.47406       712.517          38.600    22918994.480  
  95423353.93006       712.517          39.250  
  19594157.160   104925822.14809       296.530          48.750    19594157.440  
  81608974.48708       296.530          46.650  
 20 09 27 05 24 35.0000000  0 15G30G18G20G 2G 5G13G29G15R16R 1R24R23
                                R17R 7R 8
  23910839.320   125652307.69807        56.277          42.700    23910837.140  
  97910888.84746        56.276          39.050  
  21152115.860   111155118.17009      -404.126          49.150    21152111.920  
  86614361.51848      -404.126          45.950  
  23418222.360   123063587.11807      -598.473          42.450    23418218.340  
  95893723.62744      -598.473          34.400  
  24702782.420   129813994.03205       633.751          36.250    24702778.840  
 101153741.73845       633.750          36.100  
  22008360.460   115654717.50508       513.348          47.600    22008356.780  
  90120541.53248       513.348          45.350  
  20522504.600   107846488.58409        -9.515          50.150    20522499.640  
  84036206.00148        -9.515          45.700  
  22389892.240   117659676.62609       555.949          48.600    22389888.440  
  91682849.06347       555.949          43.400  
  20643955.480   108484718.95009      -392.646          50.000    20643951.720  
  84533533.70748      -392.646          47.200  
  23598230.300   126057511.01105       277.383          35.900    23598234.360  
  98044742.84604       277.383          34.900  
  19691197.940   105260737.60808      -312.788          46.800    19691202.960  
  81869483.42907      -312.788          41.950  
  19694044.900   105312908.69809      -248.888          49.350    19694047.260  
  81910050.61708      -248.888          45.800  
  19552546.540   104592935.78309       383.768          50.050    19552551.040  
  81350079.89407       383.768          42.050  
  23092133.400   123570666.97706      -785.012          41.250    23092136.240  
  96110535.02107      -785.013          42.550  
  22922554.300   122706233.29406       712.726          38.900    22922556.860  
  95438186.00106       712.726          39.650  
  19595640.720   104933766.46709       297.182          48.800    19595640.980  
  81615153.40208       297.182          46.750  
 20 09 27 05 24 40.0000000  0 15G30G18G20G 2G 5G13G29G15R16R 1R24R23
                                R17R 7R 8
  23911121.540   125653790.39307        56.629          42.900    23911119.380  
  97912044.20445        56.629          38.100  
  21150095.320   111144500.14809      -404.004          49.150    21150091.380  
  86606087.74348      -404.004          46.100  
  23415229.520   123047859.76707      -598.630          42.600    23415225.520  
  95881468.56844      -598.631          32.950  
  24705950.680   129830643.16707       633.642          42.950    24705947.060  
 101166715.04944       633.644          35.200  
  22010926.780   115668203.50308       513.286          47.600    22010923.080  
  90131050.10648       513.286          44.800  
  20522457.960   107846243.47009        -9.094          50.200    20522452.980  
  84036015.01248        -9.094          46.000  
  22392672.260   117674285.70409       556.125          48.600    22392668.500  
  91694232.75147       556.125          43.300  
  20641992.780   108474405.01309      -392.335          49.900    20641989.020  
  84525496.88048      -392.335          47.450  
  23599618.480   126064925.38305       277.908          37.150    23599622.340  
  98050509.58404       277.908          34.200  
  19689634.520   105252380.29708      -312.491          46.850    19689639.540  
  81862983.30207      -312.491          42.050  
  19692801.560   105306260.11209      -248.363          49.450    19692803.960  
  81904879.50108      -248.364          45.750  
  19554466.460   104603205.99409       384.284          50.100    19554470.940  
  81358067.83507       384.284          42.150  
  23088208.240   123549662.92606      -785.012          40.950    23088211.120  
  96094198.54507      -785.012          42.400  
  22926117.220   122725306.32206       712.513          38.750    22926119.820  
  95453020.57506       712.513          39.600  
  19597127.040   104941725.42109       297.407          48.900    19597127.240  
  81621343.70408       297.407          46.800  
 20 09 27 05 24 45.0000000  0 15G30G18G20G 2G 5G13G29G15R16R 1R24R23
                                R17R 7R 8
  23911406.680   125655288.52807        57.422          42.850    23911404.500  
  97913211.58446        57.421          40.700  
  21148076.800   111133892.65709      -403.441          49.350    21148072.840  
  86597822.16348      -403.441          46.000  
  23412237.260   123032135.38407      -598.282          42.400    23412233.240  
  95869215.79644      -598.282          34.500  
  24709119.680   129847295.99607       633.954          42.000    24709115.920  
 101179691.27145       633.954          35.550  
  22013494.200   115681695.35708       513.663          47.700    22013490.500  
  90141563.23548       513.663          44.800  
  20522414.640   107846015.70409        -8.258          50.350    20522409.640  
  84035837.52648        -8.259          45.750  
  22395454.320   117688905.55109       556.710          48.650    22395450.600  
  91705624.83447       556.710          43.100  
  20640032.880   108464105.64509      -391.626          50.100    20640029.100  
  84517471.39748      -391.626          47.100  
  23601010.220   126072359.34105       278.752          36.900    23601014.000  
  98056291.55704       278.752          34.400  
  19688073.840   105244037.62408      -311.798          46.750    19688078.880  
  81856494.55607      -311.799          42.000  
  19691562.080   105299632.09609      -247.447          49.300    19691564.480  
  81899724.37508      -247.448          45.700  
  19556390.120   104613496.37109       385.183          50.000    19556394.640  
  81366071.45407       385.183          42.250  
  23084284.160   123528664.86906      -784.603          40.600    23084287.120  
  96077866.73307      -784.603          42.600  
  22929680.360   122744381.22205       712.704          38.250    22929683.140  
  95467856.59606       712.705          39.450  
  19598615.860   104949697.81009       298.083          48.800    19598616.040  
  81627544.44908       298.083          46.850  
 20 09 27 05 24 50.0000000  0 15G30G18G20G 2G 5G13G29G15R16R 1R24R23
                                R17R 7R 8
  23911694.580   125656801.52907        57.817          42.250    23911692.480  
  97914390.55046        57.817          40.050  
  21146060.180   111123295.11609      -403.169          49.350    21146056.200  
  86589564.34148      -403.169          45.900  
  23409245.480   123016413.26407      -598.348          42.000    23409241.380  
  95856964.77745      -598.348          36.250  
  24712289.300   129863951.96207       633.939          42.550    24712285.420  
 101192669.94645       633.939          36.050  
  22016062.660   115695192.55808       513.786          47.750    22016058.940  
  90152080.53548       513.786          44.600  
  20522374.480   107845804.68309        -7.741          50.250    20522369.460  
  84035673.09848        -7.742          46.000  
  22398238.320   117703535.61508       556.979          48.250    22398234.640  
  91717024.87547       556.979          43.650  
  20638075.620   108453820.34009      -391.198          50.000    20638071.860  
  84509456.88048      -391.199          47.350  
  23602405.700   126079812.63105       279.364          36.600    23602409.340  
  98062088.56004       279.364          34.550  
  19686515.800   105235709.15408      -311.345          46.700    19686520.860  
  81850016.86107      -311.345          42.250  
  19690326.300   105293024.03809      -246.813          49.300    19690328.720  
  81894584.78108      -246.813          45.800  
  19558317.440   104623806.34309       385.809          49.950    19558321.980  
  81374090.32307       385.809          42.350  
  23080361.080   123507672.02006      -784.552          40.700    23080364.080  
  96061538.97507      -784.553          42.800  
  22933243.800   122763457.45405       712.770          38.100    22933246.660  
  95482693.66506       712.770          39.650  
  19600107.040   104957683.01409       298.442          48.700    19600107.220  
  81633755.16508       298.442          47.000  
 20 09 27 05 24 55.0000000  0 15G30G18G20G 2G 5G13G29G15R16R 1R24R23
                                R17R 7R 8
  23911985.480   125658330.36007        58.388          41.750    23911983.400  
  97915581.86246        58.387          39.200  
  21144045.620   111112708.47409      -402.802          49.100    21144041.640  
  86581315.01748      -402.802          46.050  
  23406254.320   123000694.53907      -598.267          42.100    23406250.140  
  95844716.44844      -598.268          33.600  
  24715459.640   129880612.08506       634.029          41.400    24715455.600  
 101205651.86045       634.030          35.950  
  22018632.300   115708696.02308       513.940          47.650    22018628.580  
  90162602.71748       513.940          45.150  
  20522337.720   107845611.31909        -7.117          50.200    20522332.660  
  84035522.43548        -7.118          45.600  
  22401024.460   117718176.82708       557.333          48.000    22401020.840  
  91728433.61247       557.334          43.850  
  20636121.220   108443549.98809      -390.672          50.000    20636117.460  
  84501454.02048      -390.673          47.050  
  23603804.780   126087285.98205       280.115          36.650    23603808.380  
  98067901.16904       280.115          34.300  
  19684960.540   105227395.62208      -310.851          46.650    19684965.640  
  81843550.79407      -310.851          41.950  
  19689094.480   105286436.84409      -246.085          49.300    19689096.860  
  81889461.41208      -246.085          45.800  
  19560248.580   104634136.73409       386.519          49.950    19560253.160  
  81382125.07107       386.519          42.450  
  23076439.220   123486685.47306      -784.324          39.950    23076442.240  
  96045216.12107      -784.325          42.900  
  22936807.700   122782535.87905       712.704          37.700    22936810.600  
  95497532.44006       712.704          39.900  
  19601600.800   104965681.99309       298.904          48.650    19601601.000  
  81639976.60008       298.904          47.050  
 20 09 27 05 25  0.0000000  0 15G30G18G20G 2G 5G13G29G15R16R 1R24R23
                                R17R 7R 8
  23912279.320   125659874.81806        59.091          41.400    23912277.320  
  97916785.33146        59.090          39.950  
  21142033.080   111102132.53609      -402.330          49.100    21142029.100  
  86573074.03148      -402.330          46.250  
  23403263.800   122984979.01307      -598.060          42.100    23403259.580  
  95832470.57245      -598.060          36.100  
  24718630.600   129897276.05007       634.303          42.650    24718626.640  
 101218636.72845       634.305          37.000  
  22021203.080   115722205.55808       514.248          47.800    22021199.360  
  90173129.62348       514.249          44.600  
  20522304.300   107845435.47209        -6.359          50.150    20522299.180  
  84035385.41348        -6.359          45.800  
  22403812.660   117732828.95908       557.848          47.750    22403809.080  
  91739850.85447       557.849          43.550  
  20634169.640   108433294.43909      -390.071          49.950    20634165.880  
  84493462.69048      -390.071          46.950  
  23605207.540   126094779.13305       280.898          36.000    23605211.100  
  98073729.18704       280.898          34.250  
  19683408.100   105219096.96508      -310.214          46.750    19683413.180  
  81837096.28207      -310.214          42.000  
  19687866.500   105279870.40909      -245.199          49.400    19687868.860  
  81884354.18908      -245.199          45.550  
  19562183.560   104644487.54809       387.372          50.000    19562188.160  
  81390175.70207       387.372          42.600  
  23072518.420   123465704.94006      -784.025          40.200    23072521.520  
  96028897.95007      -784.026          42.950  
  22940372.080   122801616.64005       712.901          38.500    22940375.000  
  95512373.03006       712.901          39.550  
  19603097.080   104973694.41709       299.495          48.650    19603097.260  
  81646208.48208       299.496          47.050  
 20 09 27 05 25  5.0000000  0 15G30G18G20G 2G 5G13G29G15R16R 1R24R23
                                R17R 7R 8
  23912576.260   125661435.70006        59.607          41.400    23912574.380  
  97918001.60146        59.607          40.100  
  21140022.740   111091568.19109      -401.907          49.000    21140018.780  
  86564842.08248      -401.907          46.050  
  23400274.020   122969267.49807      -597.973          42.400    23400269.840  
  95820227.81745      -597.972          35.500  
  24721802.480   129913944.80707       634.393          42.700    24721798.620  
 101231625.33845       634.396          36.000  
  22023775.200   115735721.99608       514.499          48.100    22023771.460  
  90183661.91048       514.499          44.550  
  20522274.360   107845277.95509        -5.696          50.150    20522269.200  
  84035262.67748        -5.696          45.750  
  22406603.120   117747492.84408       558.274          47.750    22406599.560  
  91751277.25147       558.274          43.900  
  20632221.040   108423054.56109      -389.462          50.050    20632217.280  
  84485483.56648      -389.462          46.950  
  23606614.160   126102293.12705       281.646          35.600    23606617.760  
  98079573.40704       281.646          33.700  
  19681858.620   105210814.16008      -309.662          46.850    19681863.700  
  81830654.10707      -309.663          41.900  
  19686642.600   105273325.65509      -244.441          49.400    19686644.920  
  81879263.82208      -244.441          45.450  
  19564122.500   104654859.49709       388.127          49.950    19564127.120  
  81398242.77407       388.127          42.300  
  23068598.960   123444731.38806      -783.771          39.700    23068602.100  
  96012585.20207      -783.772          42.800  
  22943937.080   122820700.19805       712.954          38.350    22943939.880  
  95527215.76806       712.955          39.300  
  19604596.060   104981721.31709       299.989          48.700    19604596.260  
  81652451.63108       299.989          47.100  
 20 09 27 05 25 10.0000000  0 15G30G18G20G 2G 5G13G29G15R16R 1R24R23
                                R17R 7R 8
  23912875.980   125663011.38307        60.236          41.600    23912874.260  
  97919229.40446        60.237          39.750  
  21138014.300   111081013.70209      -401.541          49.050    21138010.360  
  86556617.80948      -401.541          46.050  
  23397284.660   122953558.30807      -597.848          42.550    23397280.480  
  95807986.90645      -597.849          36.100  
  24724975.000   129930616.46207       634.474          42.550    24724971.140  
 101244616.22345       634.475          36.950  
  22026348.280   115749243.57208       514.670          48.200    22026344.520  
  90194198.20048       514.671          44.550  
  20522247.600   107845137.07809        -5.093          50.250    20522242.380  
  84035152.90548        -5.093          45.800  
  22409395.480   117762166.73708       558.618          47.800    22409391.940  
  91762711.44547       558.618          43.650  
  20630275.100   108412828.58309      -388.980          50.050    20630271.340  
  84477515.27548      -388.981          46.950  
  23608024.320   126109826.04204       282.337          35.400    23608027.900  
  98085432.34104       282.337          33.500  
  19680311.740   105202545.30108      -309.164          46.750    19680316.840  
  81824222.77707      -309.164          41.950  
  19685422.400   105266800.67609      -243.716          49.250    19685424.680  
  81874188.83908      -243.716          45.450  
  19566065.080   104665250.95009       388.818          49.850    19566069.700  
  81406325.01107       388.819          42.250  
  23064680.560   123423763.03506      -783.621          39.600    23064683.680  
  95996276.50107      -783.622          43.000  
  22947502.260   122839785.00605       713.013          38.050    22947505.000  
  95542059.50006       713.013          39.450  
  19606097.400   104989760.94008       300.455          48.450    19606097.620  
  81658704.67408       300.455          47.150  
 20 09 27 05 25 15.0000000  0 15G30G18G20G 2G 5G13G29G15R16R 1R24R23
                                R17R 7R 8
  23913178.480   125664601.39907        60.776          41.700    23913176.880  
  97920468.38346        60.776          39.850  
  21136007.640   111070468.71409      -401.140          49.100    21136003.720  
  86548400.94448      -401.140          46.250  
  23394295.660   122937851.04107      -597.717          42.600    23394291.460  
  95795747.49544      -597.718          35.150  
  24728148.100   129947290.84207       634.653          43.450    24728144.200  
 101257609.24945       634.653          35.500  
  22028922.300   115762769.93908       514.872          48.150    22028918.520  
  90204738.23047       514.872          44.450  
  20522223.900   107845012.45709        -4.434          50.200    20522218.680  
  84035055.80448        -4.435          45.850  
  22412189.680   117776850.28608       559.047          47.750    22412186.180  
  91774153.17647       559.046          43.850  
  20628331.740   108402616.18109      -388.402          50.050    20628327.980  
  84469557.57048      -388.403          47.050  
  23609437.920   126117377.56804       283.075          34.600    23609441.540  
  98091305.75604       283.075          33.500  
  19678767.440   105194290.07708      -308.603          46.750    19678772.500  
  81817802.05507      -308.603          41.800  
  19684205.840   105260295.21209      -242.945          49.250    19684208.100  
  81869129.04008      -242.945          45.550  
  19568011.180   104675661.32609       389.589          49.950    19568015.840  
  81414421.97207       389.589          42.400  
  23060763.100   123402799.54306      -783.403          39.950    23060766.140  
  95979971.58207      -783.404          43.250  
  22951067.740   122858870.67405       713.128          37.950    22951070.300  
  95556903.91406       713.128          39.650  
  19607601.040   104997812.71409       300.977          48.600    19607601.260  
  81664967.16908       300.977          47.200  
 20 09 27 05 25 20.0000000  0 15G30G18G20G 2G 5G13G29G15R16R 1R24R23
                                R17R 7R 8
  23913484.320   125666208.98007        61.408          41.750    23913482.840  
  97921721.04046        61.409          40.150  
  21134003.420   111059936.41409      -400.689          49.200    21133999.500  
  86540193.95948      -400.690          46.250  
  23391307.640   122922148.86107      -597.555          42.700    23391303.440  
  95783512.02444      -597.555          32.850  
  24731322.300   129963970.78407       634.831          43.000    24731318.260  
 101270606.59445       634.831          35.650  
  22031497.860   115776304.38508       515.186          48.200    22031494.040  
  90215284.53948       515.186          44.700  
  20522203.900   107844907.26209        -3.710          50.250    20522198.660  
  84034973.83648        -3.710          45.850  
  22414986.280   117791546.62608       559.501          47.950    22414982.840  
  91785604.86347       559.501          43.950  
  20626391.560   108392420.53709      -387.789          50.000    20626387.800  
  84461612.91448      -387.789          47.000  
  23610855.760   126124950.89104       283.816          35.350    23610859.240  
  98097196.11304       283.816          33.700  
  19677226.340   105186051.77608      -307.987          46.800    19677231.340  
  81811394.49407      -307.987          41.950  
  19682993.560   105253812.43509      -242.096          49.350    19682995.760  
  81864086.88008      -242.096          45.500  
  19569961.500   104686094.00709       390.395          50.050    19569966.140  
  81422536.27307       390.395          42.400  
  23056847.120   123381844.17706      -783.115          39.950    23056850.120  
  95963672.97707      -783.116          43.000  
  22954633.820   122877960.24605       713.144          38.000    22954636.340  
  95571751.35306       713.144          39.650  
  19609107.560   105005880.18409       301.521          48.550    19609107.840  
  81671241.86508       301.521          47.250  
 20 09 27 05 25 25.0000000  0 15G30G18G20G 2G 5G13G29G15R16R 1R24R23
                                R17R 7R 8
  23913793.060   125667831.73507        62.262          41.800    23913791.680  
  97922985.53046        62.261          39.100  
  21132001.140   111049414.45109      -400.062          49.350    21131997.260  
  86531995.03348      -400.062          45.900  
  23388320.120   122906449.44807      -597.253          42.700    23388316.020  
  95771278.72844      -597.254          34.750  
  24734497.140   129980654.35007       635.174          43.000    24734492.940  
 101283606.76145       635.175          35.700  
  22034074.460   115789844.41208       515.594          48.300    22034070.620  
  90225835.21448       515.595          44.550  
  20522187.140   107844819.12509        -2.824          50.350    20522181.880  
  84034905.15948        -2.824          45.650  
  22417784.880   117806253.41808       560.104          48.050    22417781.480  
  91797064.69947       560.104          43.650  
  20624454.120   108382239.28409      -387.023          50.000    20624450.380  
  84453679.47548      -387.023          46.850  
  23612277.040   126132543.62204       284.762          34.600    23612280.540  
  98103101.57004       284.761          33.550  
  19675687.860   105177827.78808      -307.229          46.600    19675692.860  
  81804998.06507      -307.230          41.950  
  19681785.060   105247350.00009      -241.131          49.200    19681787.240  
  81859060.54308      -241.131          45.450  
  19571915.500   104696546.54609       391.366          49.950    19571920.160  
  81430666.02407       391.366          42.350  
  23052932.120   123360894.53506      -782.673          40.100    23052935.160  
  95947378.82507      -782.674          43.150  
  22958200.280   122897051.49405       713.558          37.900    22958202.680  
  95586600.09706       713.558          39.700  
  19610616.500   105013960.61708       302.244          48.500    19610616.820  
  81677526.64508       302.244          47.250  
 20 09 27 05 25 30.0000000  0 15G30G18G20G 2G 5G13G29G15R16R 1R24R23
                                R17R 7R 8
  23914104.700   125669469.66407        62.583          42.250    23914103.440  
  97924261.84246        62.583          40.100  
  21130000.860   111038902.80409      -399.881          49.350    21129996.960  
  86523804.14348      -399.882          46.200  
  23385333.120   122890752.76707      -597.430          42.750    23385329.040  
  95759047.55844      -597.431          35.150  
  24737672.520   129997341.18408       635.122          44.800    24737668.160  
 101296609.45844       635.124          33.400  
  22036652.140   115803389.99408       515.604          48.450    22036648.240  
  90236390.20948       515.604          44.550  
  20522173.620   107844748.01309        -2.408          50.350    20522168.360  
  84034849.74848        -2.408          45.450  
  22420585.480   117820970.66808       560.270          48.100    22420582.120  
  91808532.68647       560.270          43.750  
  20622519.420   108372072.40609      -386.684          50.050    20622515.680  
  84445757.24048      -386.684          47.050  
  23613702.120   126140155.79304       285.299          34.850    23613705.500  
  98109022.14504       285.299          33.550  
  19674152.120   105169618.31908      -306.909          46.650    19674157.100  
  81798612.92907      -306.910          41.950  
  19680580.380   105240908.04809      -240.594          49.200    19680582.540  
  81854050.13608      -240.594          45.350  
  19573873.200   104707018.87309       391.881          49.950    19573877.880  
  81438811.16707       391.880          42.050  
  23049018.280   123339950.64406      -782.713          40.400    23049021.300  
  95931089.14707      -782.714          43.100  
  22961766.940   122916144.24605       713.348          37.400    22961769.320  
  95601450.01706       713.348          39.900  
  19612127.880   105022054.06108       302.501          48.400    19612128.240  
  81683821.54708       302.501          47.200  
 20 09 27 05 25 35.0000000  0 15G30G18G20G 2G 5G13G29G15R16R 1R24R23
                                R17R 7R 8
  23914419.280   125671122.64107        63.234          42.800    23914418.040  
  97925549.88245        63.233          38.150  
  21128002.500   111028401.36909      -399.431          49.350    21127998.600  
  86515621.20948      -399.431          46.150  
  23382346.640   122875058.66707      -597.253          42.900    23382342.640  
  95746818.40144      -597.254          31.550  
  24740848.500   130014031.47107       635.304          42.900    24740844.100  
 101309614.87944       635.305          34.100  
  22039230.820   115816940.96008       515.872          48.500    22039226.900  
  90246949.40047       515.872          44.150  
  20522163.300   107844693.80309        -1.743          50.400    20522158.060  
  84034807.50348        -1.743          45.700  
  22423388.020   117835698.12508       560.725          48.100    22423384.680  
  91820008.61747       560.725          43.900  
  20620587.420   108361919.79609      -386.077          50.050    20620583.700  
  84437846.11848      -386.078          47.050  
  23615130.640   126147787.11504       286.088          34.300    23615134.060  
  98114957.62704       286.087          34.750  
  19672619.060   105161423.15408      -306.294          46.600    19672624.040  
  81792238.91607      -306.295          42.050  
  19679379.480   105234486.22409      -239.770          49.150    19679381.600  
  81849055.38008      -239.770          45.400  
  19575834.600   104717510.93609       392.673          49.850    19575839.260  
  81446971.65807       392.673          42.200  
  23045105.540   123319012.34106      -782.476          40.450    23045108.480  
  95914803.80607      -782.476          43.200  
  22965333.920   122935238.47305       713.444          38.100    22965336.260  
  95616301.07606       713.444          40.000  
  19613641.680   105030160.44208       303.034          48.400    19613642.060  
  81690126.50808       303.034          47.200  
 20 09 27 05 25 40.0000000  0 15G30G18G20G 2G 5G13G29G15R16R 1R24R23
                                R17R 7R 8
  23914736.880   125672791.40607        63.878          43.300    23914735.660  
  97926850.22945        63.877          37.800  
  21126006.240   111017910.92609      -398.972          49.200    21126002.320  
  86507446.84448      -398.973          46.200  
  23379360.740   122859367.96907      -597.045          42.350    23379356.840  
  95734591.89645      -597.046          36.600  
  24744025.260   130030725.63607       635.471          44.050    24744020.860  
 101322623.29344       635.471          34.700  
  22041810.700   115830498.11808       516.143          48.450    22041806.740  
  90257513.41847       516.143          44.150  
  20522156.360   107844657.29309        -0.990          50.300    20522151.140  
  84034779.05948        -0.989          45.550  
  22426192.640   117850436.58208       561.217          48.000    22426189.340  
  91831493.12247       561.217          43.350  
  20618658.280   108351782.21509      -385.482          50.050    20618654.580  
  84429946.70648      -385.482          46.850  
  23616562.860   126155438.65104       286.907          32.950    23616566.440  
  98120908.81005       286.907          35.700  
  19671088.820   105153243.12608      -305.695          46.700    19671093.800  
  81785876.68007      -305.695          41.900  
  19678182.520   105228085.43109      -238.936          49.300    19678184.580  
  81844076.99008      -238.936          45.650  
  19577799.840   104728023.55109       393.492          49.950    19577804.520  
  81455148.13907       393.492          42.300  
  23041193.900   123298080.46406      -782.167          40.500    23041196.840  
  95898523.48207      -782.168          43.300  
  22968901.340   122954334.90805       713.569          37.250    22968903.600  
  95631153.86906       713.569          40.300  
  19615158.040   105038280.53709       303.588          48.600    19615158.440  
  81696442.14408       303.588          47.250  
 20 09 27 05 25 45.0000000  0 14G30G18G20G 2G 5G13G29G15R 1R24R23R17
                                R 7R 8
  23915057.200   125674474.30807        64.318          42.950    23915055.980  
  97928161.59745        64.317          38.300  
  21124011.720   111007429.77609      -398.711          49.150    21124007.800  
  86499279.72448      -398.712          46.300  
  23376375.180   122843678.95007      -597.055          42.150    23376371.380  
  95722366.70544      -597.057          34.700  
  24747202.600   130047422.30607       635.507          43.150    24747198.160  
 101335633.67844       635.507          35.050  
  22044391.420   115844059.75709       516.239          48.600    22044387.420  
  90268080.92548       516.239          44.800  
  20522152.440   107844636.75709        -0.466          50.300    20522147.240  
  84034763.06248        -0.466          46.050  
  22428999.000   117865184.29508       561.473          48.150    22428995.740  
  91842984.83747       561.474          43.150  
  20616731.700   108341658.00109      -385.057          50.050    20616727.980  
  84422057.71448      -385.057          46.900  
  19669561.040   105145076.44308      -305.286          46.750    19669566.060  
  81779524.81907      -305.287          42.000  
  19676989.140   105221703.88409      -238.298          49.400    19676991.200  
  81839113.57008      -238.298          45.400  
  19579768.560   104738554.84709       394.105          49.950    19579773.260  
  81463339.14607       394.105          42.100  
  23037283.120   123277153.29606      -782.049          40.250    23037286.100  
  95882246.81307      -782.049          43.150  
  22972468.800   122973431.94505       713.515          35.800    22972471.060  
  95646007.10606       713.515          40.200  
  19616676.600   105046412.42908       303.969          48.500    19616677.020  
  81702766.95308       303.969          47.100  
 20 09 27 05 25 50.0000000  0 14G30G18G20G 2G 5G13G29G15R 1R24R23R17
                                R 7R 8
  23915380.340   125676172.32807        64.959          43.000    23915379.140  
  97929484.71046        64.960          39.550  
  21122019.180   110996958.96309      -398.209          49.200    21122015.240  
  86491120.65148      -398.209          46.200  
  23373390.140   122827992.61907      -596.885          42.200    23373386.440  
  95710143.58245      -596.885          35.550  
  24750380.600   130064122.13808       635.683          44.900    24750376.120  
 101348646.52645       635.683          35.900  
  22046973.200   115857626.88908       516.527          48.500    22046969.160  
  90278652.71048       516.528          44.550  
  20522151.780   107844633.21509         0.248          50.200    20522146.580  
  84034760.30048         0.248          45.750  
  22431807.380   117879942.29708       561.953          48.300    22431804.120  
  91854484.58147       561.953          43.650  
  20614807.840   108331548.14509      -384.385          50.000    20614804.140  
  84414179.90448      -384.385          47.050  
  19668035.980   105136924.07008      -304.653          46.550    19668041.000  
  81773184.08507      -304.653          42.050  
  19675799.600   105215342.76709      -237.459          49.550    19675801.620  
  81834166.02708      -237.459          45.550  
  19581740.960   104749105.81409       394.929          49.800    19581745.660  
  81471545.45007       394.930          42.400  
  23033373.380   123256231.81206      -781.772          40.900    23033376.420  
  95865974.54907      -781.773          43.100  
  22976036.520   122992530.38805       713.639          37.400    22976038.780  
  95660861.42106       713.640          40.400  
  19618197.600   105054557.44108       304.519          48.400    19618198.060  
  81709101.96308       304.519          47.250  
 20 09 27 05 25 55.0000000  0 14G30G18G20G 2G 5G13G29G15R 1R24R23R17
                                R 7R 8
  23915706.880   125677888.37807        65.678          42.950    23915705.780  
  97930821.92446        65.677          38.800  
  21120029.160   110986501.36309      -397.728          49.200    21120025.200  
  86482971.87848      -397.729          46.200  
  23370406.200   122812311.91907      -596.678          42.550    23370402.540  
  95697924.89544      -596.679          34.300  
  24753559.860   130080828.35906       635.997          40.150    24753555.280  
 101361664.36846       635.997          39.750  
  22049556.580   115871202.43309       516.856          48.750    22049552.460  
  90289231.05547       516.856          44.200  
  20522154.880   107844649.57609         1.029          50.100    20522149.720  
  84034773.05648         1.029          45.750  
  22434618.260   117894713.46108       562.441          48.350    22434615.000  
  91865994.57247       562.442          43.500  
  20612887.260   108321455.55809      -383.717          49.950    20612883.580  
  84406315.55748      -383.717          46.650  
  19666514.160   105128789.06108      -303.989          46.550    19666519.180  
  81766856.86207      -303.989          42.050  
  19674614.420   105209004.88709      -236.558          49.550    19674616.400  
  81829236.57108      -236.558          45.600  
  19583717.600   104759679.41909       395.775          49.800    19583722.300  
  81479769.36307       395.775          42.250  
  23029465.200   123235319.12406      -781.431          41.000    23029468.380  
  95849709.14607      -781.432          43.200  
  22979605.060   123011633.15005       713.839          37.150    22979607.340  
  95675719.14006       713.839          40.700  
  19619721.600   105062718.41108       305.134          48.500    19619722.080  
  81715449.38308       305.133          47.200  
 20 09 27 05 26  0.0000000  0 14G30G18G20G 2G 5G13G29G15R 1R24R23R17
                                R 7R 8
  23916035.960   125679617.77307        66.074          42.550    23916034.940  
  97932169.51146        66.074          39.200  
  21118040.780   110976052.37209      -397.499          49.250    21118036.800  
  86474829.81148      -397.500          45.950  
  23367422.460   122796632.21007      -596.721          42.100    23367418.800  
  95685706.91744      -596.721          34.500  
  24756739.300   130097536.05807       635.908          42.750    24756734.700  
 101374683.32445       635.909          35.800  
  22052140.660   115884781.71509       516.903          48.700    22052136.500  
  90299812.31247       516.904          44.000  
  20522160.840   107844681.20409         1.499          50.050    20522155.720  
  84034797.70048         1.499          45.650  
  22437430.780   117909493.15908       562.666          48.250    22437427.500  
  91877511.21847       562.666          43.300  
  20610969.080   108311375.58809      -383.380          49.950    20610965.420  
  84398461.04148      -383.380          46.800  
  19664994.700   105120666.81608      -303.651          46.300    19664999.760  
  81760539.55807      -303.651          42.000  
  19673432.720   105202685.63709      -236.004          49.350    19673434.680  
  81824321.59908      -236.004          45.350  
  19585697.560   104770270.95609       396.338          49.750    19585702.320  
  81488007.22107       396.338          42.150  
  23025557.920   123214410.37806      -781.376          40.850    23025561.080  
  95833446.79707      -781.376          42.900  
  22983173.540   123030735.77605       713.680          36.250    22983175.860  
  95690576.70206       713.682          41.200  
  19621247.620   105070890.38208       305.428          48.350    19621248.140  
  81721805.35908       305.428          47.050  
 20 09 27 05 26  5.0000000  0 14G30G18G20G 2G 5G13G29G15R 1R24R23R17
                                R 7R 8
  23916367.840   125681361.86707        66.928          42.250    23916366.900  
  97933528.53346        66.928          40.250  
  21116054.260   110965613.27509      -396.851          49.250    21116050.300  
  86466695.45448      -396.851          46.150  
  23364439.100   122780954.73707      -596.378          42.000    23364435.460  
  95673490.71745      -596.378          35.750  
  24759919.220   130114246.73706       636.321          39.750    24759914.600  
 101387704.62745       636.320          38.000  
  22054725.720   115898366.01109       517.348          48.600    22054721.480  
  90310397.47447       517.349          44.250  
  20522169.980   107844729.39509         2.438          50.100    20522164.900  
  84034835.25248         2.438          45.950  
  22440245.140   117924282.66808       563.347          48.100    22440241.860  
  91889035.50747       563.347          43.750  
  20609053.560   108301309.58109      -382.551          49.900    20609049.920  
  84390617.40548      -382.551          46.850  
  19663477.820   105112558.44508      -302.835          46.600    19663482.940  
  81754233.04907      -302.835          42.050  
  19672254.740   105196386.33109      -234.958          49.450    19672256.700  
  81819422.13908      -234.958          45.450  
  19587681.160   104780881.81109       397.359          49.850    19587685.900  
  81496260.10707       397.359          41.900  
  23021651.580   123193507.00406      -780.881          41.400    23021654.780  
  95817188.63007      -780.882          42.900  
  22986742.240   123049839.26605       714.010          36.650    22986744.560  
  95705434.98106       714.010          40.550  
  19622776.040   105079074.91608       306.194          48.500    19622776.560  
  81728171.11208       306.195          47.100  
 20 09 27 05 26 10.0000000  0 14G30G18G20G 2G 5G13G29G15R 1R24R23R17
                                R 7R 8
  23916703.120   125683123.84907        67.210          42.200    23916702.260  
  97934901.51046        67.210          40.450  
  21114070.260   110955187.29609      -396.734          49.250    21114066.300  
  86458571.31648      -396.734          46.150  
  23361456.820   122765282.76507      -596.574          41.900    23361453.180  
  95661278.80144      -596.575          33.400  
  24763100.280   130130963.44407       636.097          42.450    24763095.620  
 101400730.60145       636.098          37.350  
  22057312.320   115911958.61209       517.268          48.700    22057308.040  
  90320989.10947       517.268          43.850  
  20522182.880   107844797.36109         2.759          50.150    20522177.820  
  84034888.21148         2.759          45.700  
  22443061.980   117939085.21508       563.397          48.150    22443058.700  
  91900569.94747       563.397          43.350  
  20607141.300   108291260.74409      -382.321          49.950    20607137.700  
  84382787.14548      -382.321          47.000  
  19661964.200   105104467.25208      -302.603          46.650    19661969.340  
  81747939.90307      -302.603          42.300  
  19671081.080   105190110.22509      -234.502          49.450    19671083.040  
  81814540.72508      -234.502          45.500  
  19589668.920   104791515.04909       397.773          49.750    19589673.680  
  81504530.39807       397.773          42.100  
  23017746.840   123172612.23607      -780.958          41.500    23017750.060  
  95800937.15107      -780.958          43.050  
  22990311.700   123068947.02305       713.809          36.700    22990314.060  
  95720296.55906       713.809          40.900  
  19624307.400   105087275.24408       306.348          48.450    19624307.940  
  81734549.14108       306.348          47.050  
 20 09 27 05 26 15.0000000  0 13G30G18G20G 5G13G29G15R 1R24R23R17R 7
                                R 8
  23917040.260   125684895.59507        67.717          42.350    23917039.480  
  97936282.10146        67.716          39.700  
  21112087.220   110944766.31109      -396.378          49.300    21112083.240  
  86450451.07448      -396.379          46.000  
  23358474.020   122749608.18207      -596.435          41.850    23358470.400  
  95649064.83444      -596.435          33.350  
  22059898.960   115925551.30209       517.462          48.800    22059894.600  
  90331580.82047       517.462          44.050  
  20522198.000   107844876.96209         3.381          50.150    20522192.960  
  84034950.25148         3.381          45.600  
  22445879.740   117953892.63808       563.752          48.500    22445876.480  
  91912108.20347       563.752          43.100  
  20605230.780   108281220.92309      -381.817          49.900    20605227.180  
  84374963.91848      -381.817          47.150  
  19660452.220   105096384.95908      -302.097          46.650    19660457.420  
  81741653.68807      -302.097          42.300  
  19669910.220   105183849.03609      -233.768          49.600    19669912.160  
  81809670.91908      -233.768          45.450  
  19591659.360   104802162.63809       398.491          49.850    19591664.120  
  81512811.86107       398.491          42.250  
  23013842.180   123151717.84107      -780.758          42.200    23013845.440  
  95784685.98007      -780.759          43.100  
  22993880.480   123088050.90105       713.838          37.400    22993882.840  
  95735155.13706       713.838          40.800  
  19625840.140   105095482.96809       306.808          48.600    19625840.700  
  81740932.93408       306.808          47.150  
 20 09 27 05 26 20.0000000  0 13G30G18G20G 5G13G29G15R 1R24R23R17R 7
                                R 8
  23917380.820   125686685.42007        68.478          42.650    23917380.140  
  97937676.76746        68.478          39.600  
  21110106.700   110934358.70009      -395.807          49.250    21110102.720  
  86442341.24848      -395.806          46.350  
  23355492.340   122733939.28207      -596.269          41.750    23355488.680  
  95636855.28344      -596.269          34.600  
  22062487.200   115939152.45609       517.835          48.650    22062482.780  
  90342179.11347       517.835          44.400  
  20522216.900   107844976.47909         4.208          50.150    20522211.880  
  84035027.79548         4.208          45.750  
  22448700.040   117968713.26209       564.313          48.700    22448696.760  
  91923656.73347       564.313          43.400  
  20603323.560   108271198.50109      -381.058          50.000    20603319.980  
  84367154.24248      -381.058          46.850  
  19658943.560   105088320.16208      -301.383          46.450    19658948.720  
  81735381.06407      -301.383          42.400  
  19668743.760   105177611.25509      -232.824          49.400    19668745.640  
  81804819.30508      -232.824          45.550  
  19593654.040   104812832.92509       399.394          49.700    19593658.820  
  81521110.96607       399.394          42.150  
  23009939.220   123130832.32507      -780.383          42.000    23009942.460  
  95768441.69407      -780.383          43.150  
  22997450.080   123107159.21505       714.081          37.750    22997452.440  
  95750017.15306       714.081          40.950  
  19627375.840   105103706.57709       307.482          48.550    19627376.400  
  81747329.06808       307.482          47.150  
 20 09 27 05 26 25.0000000  0 13G30G18G20G 5G13G29G15R 1R24R23R17R 7
                                R 8
  23917725.440   125688496.34507        69.089          43.150    23917724.820  
  97939087.87146        69.089          39.700  
  21108129.300   110923967.44509      -395.395          49.350    21108125.340  
  86434244.17048      -395.395          46.200  
  23352512.340   122718279.16907      -596.025          41.550    23352508.620  
  95624652.62644      -596.025          32.300  
  22065077.620   115952765.06109       518.080          48.800    22065073.140  
  90352786.32948       518.080          44.550  
  20522240.180   107845098.95009         4.893          50.200    20522235.180  
  84035123.22948         4.893          45.850  
  22451523.420   117983550.06709       564.735          48.650    22451520.100  
  91935217.87547       564.736          43.750  
  20601420.220   108261196.47409      -380.487          50.150    20601416.660  
  84359360.45948      -380.488          46.900  
  19657438.680   105080275.81808      -300.813          46.350    19657443.880  
  81729124.35807      -300.813          42.400  
  19667582.220   105171399.93809      -232.024          49.400    19667584.080  
  81799988.27908      -232.024          45.400  
  19595653.520   104823528.93309       400.169          49.700    19595658.320  
  81529430.08207       400.169          42.100  
  23006038.540   123109958.78107      -780.149          42.250    23006041.740  
  95752206.72807      -780.149          43.150  
  23001021.100   123126274.97705       714.095          37.750    23001023.440  
  95764884.95706       714.096          41.050  
  19628915.100   105111949.22108       307.989          48.450    19628915.660  
  81753740.01708       307.989          47.100  
 20 09 27 05 26 30.0000000  0 13G30G18G20G 5G13G29G15R 1R24R23R17R 7
                                R 8
  23918072.420   125690319.64307        69.594          43.150    23918071.820  
  97940508.62646        69.594          40.200  
  21106153.380   110913583.81609      -395.106          49.150    21106149.420  
  86426153.03248      -395.107          46.200  
  23349532.300   122702618.94006      -596.095          41.200    23349528.520  
  95612449.84844      -596.096          34.900  
  22067668.520   115966380.32909       518.175          48.700    22067664.000  
  90363395.63447       518.175          44.400  
  20522266.160   107845235.59409         5.423          50.100    20522261.180  
  84035229.70948         5.423          45.750  
  22454348.220   117998394.38109       565.013          48.600    22454344.880  
  91946784.87347       565.013          42.900  
  20599519.100   108251206.05509      -380.055          50.050    20599515.540  
  84351575.72348      -380.056          47.000  
  19655936.000   105072243.08908      -300.375          46.550    19655941.180  
  81722876.68707      -300.375          42.250  
  19666423.960   105165206.23909      -231.363          49.400    19666425.780  
  81795170.95108      -231.363          45.350  
  19597656.200   104834241.92409       400.789          49.700    19597661.000  
  81537762.40407       400.789          42.250  
  23002138.440   123089088.26707      -780.036          42.700    23002141.580  
  95735974.11207      -780.036          43.000  
  23004591.880   123145389.44905       714.078          37.850    23004594.220  
  95779751.75706       714.079          40.950  
  19630456.220   105120201.84308       308.358          48.400    19630456.780  
  81760158.72208       308.358          46.950  
 20 09 27 05 26 35.0000000  0 13G30G18G20G 5G13G29G15R 1R24R23R17R 7
                                R 8
  23918422.300   125692158.06407        70.212          42.900    23918421.700  
  97941941.15646        70.212          39.700  
  21104179.420   110903210.64109      -394.590          49.100    21104175.460  
  86418070.05148      -394.591          46.200  
  23346552.820   122686961.53006      -595.869          41.100    23346549.020  
  95600249.28244      -595.870          34.000  
  22070260.480   115980001.10809       518.490          48.650    22070255.920  
  90374009.22847       518.491          44.100  
  20522295.400   107845389.26409         6.170          50.050    20522290.420  
  84035349.46148         6.169          45.850  
  22457174.960   118013248.87308       565.534          48.450    22457171.560  
  91958359.80247       565.534          43.150  
  20597620.760   108241230.11909      -379.400          50.000    20597617.180  
  84343802.27248      -379.400          46.950  
  19654436.020   105064224.83908      -299.718          46.550    19654441.200  
  81716640.28007      -299.718          42.200  
  19665269.560   105159033.12209      -230.507          49.200    19665271.380  
  81790369.64008      -230.507          45.350  
  19599662.540   104844974.53309       401.646          49.600    19599667.360  
  81546109.99007       401.646          42.000  
  22998239.500   123068223.75107      -779.707          42.450    22998242.540  
  95719746.16107      -779.708          42.900  
  23008162.840   123164505.24105       714.233          37.950    23008165.260  
  95794619.59706       714.233          41.000  
  19631999.780   105128467.44008       308.944          48.300    19632000.320  
  81766587.52408       308.944          46.900  
 20 09 27 05 26 40.0000000  0 13G30G18G20G 5G13G29G15R 1R24R23R17R 7
                                R 8
  23918775.220   125694012.30107        71.040          42.800    23918774.600  
  97943386.03946        71.039          39.600  
  21102207.620   110892848.54909      -393.982          49.250    21102203.640  
  86409995.70048      -393.983          46.300  
  23343574.000   122671307.53106      -595.518          41.150    23343570.140  
  95588051.36644      -595.519          35.250  
  22072853.600   115993628.06708       518.916          48.400    22072849.020  
  90384627.64347       518.915          44.000  
  20522327.980   107845560.56509         7.037          50.100    20522323.000  
  84035482.94848         7.037          45.900  
  22460003.760   118028114.17908       566.121          48.250    22460000.340  
  91969943.15547       566.121          43.550  
  20595725.280   108231269.27509      -378.642          49.900    20595721.700  
  84336040.58648      -378.642          47.500  
  19652938.840   105056221.67708      -298.978          46.750    19652944.040  
  81710415.60707      -298.978          42.250  
  19664119.100   105152881.09809      -229.529          49.300    19664120.920  
  81785584.73708      -229.529          45.350  
  19601672.700   104855727.43109       402.573          49.700    19601677.520  
  81554473.35607       402.573          42.100  
  22994341.740   123047365.81707      -779.262          42.800    22994344.740  
  95703523.33607      -779.262          42.650  
  23011734.240   123183623.08805       714.462          37.950    23011736.700  
  95809489.03106       714.462          40.900  
  19633545.860   105136746.52108       309.637          48.450    19633546.380  
  81773026.81108       309.637          46.900  
 20 09 27 05 26 45.0000000  0 13G30G18G20G 5G13G29G15R 1R24R23R17R 7
                                R 8
  23919130.920   125695881.21007        71.395          43.000    23919130.280  
  97944842.32946        71.394          39.250  
  21100237.680   110882496.43409      -393.810          49.400    21100233.700  
  86401929.12148      -393.811          46.250  
  23340595.600   122655655.82006      -595.725          41.300    23340591.760  
  95575855.23644      -595.725          35.300  
  22075447.680   116007260.01209       518.896          48.600    22075443.060  
  90395249.92648       518.896          44.550  
  20522363.720   107845748.39109         7.448          50.200    20522358.740  
  84035629.31248         7.448          45.550  
  22462834.400   118042989.20808       566.272          48.050    22462830.940  
  91981534.07947       566.272          43.650  
  20593832.440   108221322.37609      -378.336          49.950    20593828.860  
  84328289.76048      -378.336          47.400  
  19651444.300   105048232.44808      -298.654          46.700    19651449.500  
  81704201.76207      -298.654          42.400  
  19662972.360   105146749.04409      -228.987          49.250    19662974.220  
  81780815.36408      -228.987          45.550  
  19603686.420   104866499.51009       403.097          49.700    19603691.280  
  81562851.63807       403.097          42.050  
  22990445.000   123026513.38107      -779.279          42.300    22990447.980  
  95687304.78607      -779.279          42.450  
  23015305.780   123202742.01406       714.346          38.850    23015308.340  
  95824359.28406       714.347          41.200  
  19635094.260   105145038.05808       309.895          48.350    19635094.780  
  81779475.78808       309.895          47.050  
 20 09 27 05 26 50.0000000  0 13G30G18G20G 5G13G29G15R 1R24R23R17R 7
                                R 8
  23919489.520   125697765.37907        71.896          42.850    23919488.880  
  97946310.51746        71.896          39.400  
  21098269.760   110872154.92409      -393.489          49.450    21098265.780  
  86393870.79348      -393.489          45.900  
  23337617.720   122640007.07306      -595.603          41.100    23337613.920  
  95563661.39945      -595.602          35.850  
  22078042.820   116020897.50709       519.022          48.700    22078038.180  
  90405876.53747       519.022          44.150  
  20522402.720   107845953.33209         8.036          50.350    20522397.740  
  84035789.00248         8.036          45.300  
  22465666.980   118057874.45108       566.560          48.350    22465663.500  
  91993132.95547       566.561          43.000  
  20591942.400   108211390.08009      -377.829          49.900    20591938.800  
  84320550.30748      -377.830          47.400  
  19649952.520   105040257.86308      -298.190          46.650    19649957.700  
  81697999.30507      -298.190          42.400  
  19661829.500   105140637.63109      -228.293          49.200    19661831.380  
  81776062.04508      -228.293          45.800  
  19605703.840   104877291.39009       403.755          49.750    19605708.720  
  81571245.31807       403.756          42.450  
  22986549.400   123005667.04907      -779.131          42.100    22986552.360  
  95671090.98207      -779.131          42.550  
  23018877.780   123221862.47706       714.296          38.650    23018880.260  
  95839230.73206       714.297          41.250  
  19636645.080   105153342.49709       310.298          48.550    19636645.560  
  81785934.79508       310.298          47.100  
 20 09 27 05 26 55.0000000  0 13G30G18G20G 5G13G29G15R 1R24R23R17R 7
                                R 8
  23919851.020   125699664.89807        72.409          43.000    23919850.380  
  97947790.66845        72.409          38.200  
  21096303.860   110861824.09209      -393.098          49.400    21096299.880  
  86385820.80248      -393.098          45.900  
  23334640.380   122624361.27706      -595.525          41.050    23334636.620  
  95551469.89144      -595.526          34.350  
  22080639.020   116034540.66408       519.214          48.500    22080634.380  
  90416507.56748       519.215          44.650  
  20522444.980   107846175.45209         8.644          50.350    20522440.000  
  84035962.08248         8.644          45.800  
  22468501.540   118072770.05908       566.961          48.100    22468498.040  
  92004739.91447       566.962          44.200  
  20590055.120   108201472.48609      -377.318          50.050    20590051.560  
  84312822.31748      -377.318          47.150  
  19648463.440   105032297.87208      -297.675          46.700    19648468.620  
  81691808.20707      -297.675          42.350  
  19660690.500   105134546.92109      -227.533          49.250    19660692.380  
  81771324.82408      -227.533          45.750  
  19607724.980   104888103.19009       404.458          49.800    19607729.900  
  81579654.49107       404.458          42.400  
  22982654.960   122984826.95107      -778.913          42.050    22982657.900  
  95654882.02507      -778.914          42.350  
  23022449.960   123240984.54806       714.283          39.250    23022452.500  
  95854103.44806       714.284          41.300  
  19638198.360   105161660.06709       310.757          48.700    19638198.820  
  81792404.01608       310.756          47.100  
 20 09 27 05 27  0.0000000  0 13G30G18G20G 5G13G29G15R 1R24R23R17R 7
                                R 8
  23920215.400   125701579.57807        73.216          42.650    23920214.740  
  97949282.64545        73.215          38.050  
  21094339.920   110851503.71709      -392.521          49.300    21094335.980  
  86377778.95248      -392.521          46.300  
  23331663.580   122608718.26906      -595.244          41.100    23331659.860  
  95539280.54844      -595.244          33.600  
  22083236.240   116048189.24208       519.622          48.400    22083231.640  
  90427142.82047       519.622          44.500  
  20522490.480   107846414.53809         9.467          50.350    20522485.500  
  84036148.38748         9.467          45.850  
  22471338.020   118087675.74608       567.530          48.250    22471334.500  
  92016354.73347       567.530          43.750  
  20588170.640   108191569.33709      -376.567          50.000    20588167.040  
  84305105.58648      -376.567          47.200  
  19646977.060   105024352.42308      -296.953          46.700    19646982.280  
  81685628.42207      -296.953          42.300  
  19659555.340   105128476.70509      -226.596          49.250    19659557.200  
  81766603.54208      -226.596          45.850  
  19609749.820   104898934.52409       405.395          49.700    19609754.720  
  81588078.86207       405.395          42.300  
  22978761.560   122963992.83807      -778.533          42.050    22978764.560  
  95638677.72307      -778.534          42.150  
  23026022.460   123260107.83106       714.563          38.650    23026024.960  
  95868977.09206       714.563          40.800  
  19639754.020   105169990.41709       311.437          48.600    19639754.440  
  81798883.18008       311.437          47.100  
 20 09 27 05 27  5.0000000  0 13G30G18G20G 5G13G29G15R 1R24R23R17R 7
                                R 8
  23920582.860   125703510.32607        73.836          42.250    23920582.160  
  97950787.11346        73.836          39.700  
  21092378.200   110841194.77709      -392.076          49.150    21092374.260  
  86369746.02248      -392.076          46.650  
  23328687.500   122593079.01806      -595.065          40.700    23328683.760  
  95527094.14944      -595.065          33.850  
  22085834.680   116061844.19208       519.877          48.100    22085830.100  
  90437783.03448       519.878          44.950  
  20522539.400   107846671.55909        10.189          50.150    20522534.420  
  84036348.66548        10.189          46.050  
  22474176.600   118102592.49608       567.979          48.050    22474173.060  
  92027978.17247       567.979          43.650  
  20586289.060   108181681.66209      -375.941          50.000    20586285.480  
  84297400.90848      -375.942          47.200  
  19645493.580   105016422.27908      -296.340          46.650    19645498.780  
  81679460.53607      -296.341          42.050  
  19658424.180   105122428.06109      -225.760          49.100    19658426.060  
  81761899.04508      -225.760          45.800  
  19611778.460   104909786.49709       406.188          49.700    19611783.400  
  81596519.28407       406.189          42.150  
  22974869.560   122943165.76407      -778.227          41.750    22974872.540  
  95622478.90107      -778.227          41.900  
  23029595.440   123279233.56106       714.691          39.600    23029597.880  
  95883852.68006       714.691          40.150  
  19641312.240   105178334.59508       311.960          48.500    19641312.660  
  81805373.09508       311.960          47.000  
 20 09 27 05 27 10.0000000  0 13G30G18G20G 5G13G29G15R 1R24R23R17R 7
                                R 8
  23920953.720   125705459.25806        74.392          41.250    23920953.060  
  97952305.76446        74.392          38.600  
  21090419.060   110830899.35109      -391.705          49.200    21090415.100  
  86361723.62048      -391.706          46.550  
  23325712.580   122577445.57106      -595.018          40.600    23325708.720  
  95514912.24144      -595.018          33.750  
  22088434.740   116075507.59908       520.059          47.950    22088430.180  
  90448429.84848       520.059          44.850  
  20522592.120   107846948.59409        10.776          50.050    20522587.160  
  84036564.54348        10.775          45.950  
  22477017.700   118117522.33508       568.339          48.100    22477014.120  
  92039611.80947       568.339          43.750  
  20584410.860   108171811.49409      -375.482          49.900    20584407.240  
  84289709.87948      -375.482          47.400  
  19644013.360   105008509.66008      -295.850          46.400    19644018.540  
  81673306.27907      -295.850          42.100  
  19657297.440   105116402.96409      -225.060          48.950    19657299.340  
  81757212.86708      -225.061          45.850  
  19613811.360   104920661.16309       406.854          49.800    19613816.340  
  81604977.36107       406.854          42.350  
  22970979.200   122922347.75807      -778.056          41.850    22970982.200  
  95606287.13507      -778.057          41.700  
  23033169.160   123298363.70406       714.658          39.700    23033171.620  
  95898731.66006       714.659          40.000  
  19642873.420   105186694.58408       312.398          48.500    19642873.840  
  81811875.31308       312.397          47.150  
 20 09 27 05 27 15.0000000  0 13G30G18G20G 5G13G29G15R 1R24R23R17R 7
                                R 8
  23921326.760   125707419.82506        74.811          41.350    23921326.160  
  97953833.47646        74.811          39.200  
  21088461.240   110820610.95609      -391.463          49.250    21088457.300  
  86353706.68748      -391.463          46.250  
  23322737.480   122561811.41806      -595.088          40.500    23322733.520  
  95502729.83644      -595.089          33.000  
  22091035.140   116089172.97008       520.099          48.000    22091030.660  
  90459078.18448       520.099          44.800  
  20522647.420   107847239.11809        11.284          50.100    20522642.480  
  84036790.93848        11.284          45.800  
  22479860.060   118132458.78308       568.567          48.050    22479856.420  
  92051250.59647       568.568          43.600  
  20582534.740   108161952.33809      -375.056          49.950    20582531.100  
  84282027.42648      -375.056          47.200  
  19642535.220   105000607.99708      -295.466          46.350    19642540.360  
  81667160.54507      -295.466          42.200  
  19656173.880   105110394.93909      -224.418          49.050    19656175.820  
  81752539.96308      -224.419          46.100  
  19615847.280   104931551.89009       407.434          49.600    19615852.260  
  81613447.91807       407.434          42.350  
  22967089.420   122901532.31607      -777.979          41.850    22967092.340  
  95590097.35507      -777.979          41.500  
  23036742.680   123317491.63106       714.531          40.750    23036744.920  
  95913608.93806       714.531          39.950  
  19644436.320   105195063.99009       312.715          48.550    19644436.780  
  81818384.85108       312.715          47.200  
 20 09 27 05 27 20.0000000  0 13G30G18G20G 5G13G29G15R 1R24R23R17R 7
                                R 8
  23921702.840   125709396.17307        75.490          41.700    23921702.240  
  97955373.49646        75.490          38.900  
  21086505.560   110810333.73009      -390.941          49.250    21086501.620  
  86345698.46548      -390.942          46.600  
  23319763.060   122546180.77206      -594.858          40.300    23319758.980  
  95490550.08445      -594.858          37.150  
  22093636.700   116102844.43808       520.411          47.950    22093632.280  
  90469731.27948       520.411          45.000  
  20522706.060   107847547.26809        12.062          50.100    20522701.120  
  84037031.06348        12.062          46.150  
  22482704.440   118147405.97208       569.035          48.100    22482700.800  
  92062897.76047       569.035          43.500  
  20580661.500   108152108.38809      -374.370          49.850    20580657.860  
  84274356.82548      -374.370          47.650  
  19641059.860   104992721.34708      -294.808          46.650    19641064.980  
  81661026.48807      -294.808          41.950  
  19655054.280   105104408.03309      -223.542          49.150    19655056.280  
  81747883.48908      -223.542          45.950  
  19617886.960   104942462.88509       408.300          49.700    19617891.960  
  81621934.24607       408.300          42.300  
  22963200.820   122880723.62607      -777.640          41.900    22963203.720  
  95573912.83306      -777.640          41.350  
  23040316.580   123336621.64906       714.736          40.250    23040318.600  
  95928487.84106       714.736          39.600  
  19646001.740   105203446.61709       313.323          48.600    19646002.180  
  81824904.67808       313.323          47.100  
 20 09 27 05 27 25.0000000  0 13G30G18G20G 5G13G29G15R 1R24R23R17R 7
                                R 8
  23922082.000   125711388.73507        76.126          42.400    23922081.480  
  97956926.14046        76.126          38.800  
  21084552.060   110800068.08109      -390.512          49.100    21084548.140  
  86337699.25648      -390.512          46.550  
  23316789.400   122530553.99606      -594.666          40.250    23316785.220  
  95478373.37444      -594.666          34.500  
  22096239.540   116116522.46508       520.656          47.900    22096235.160  
  90480389.47348       520.656          44.800  
  20522768.120   107847873.43509        12.740          50.100    20522763.220  
  84037285.21548        12.740          45.850  
  22485550.920   118162364.26208       569.513          48.150    22485547.260  
  92074553.55447       569.514          43.550  
  20578791.220   108142280.00309      -373.789          49.750    20578787.560  
  84266698.33948      -373.789          47.200  
  19639587.420   104984850.23908      -294.227          46.900    19639592.500  
  81654904.52207      -294.227          41.900  
  19653938.740   105098442.84409      -222.733          49.200    19653940.780  
  81743243.88908      -222.733          46.100  
  19619930.520   104953394.52709       409.066          49.650    19619935.500  
  81630436.63207       409.066          42.250  
  22959313.580   122859922.10507      -777.346          41.900    22959316.440  
  95557733.87606      -777.346          41.100  
  23043890.920   123355754.07006       714.843          40.850    23043892.720  
  95943368.59006       714.844          39.200  
  19647569.760   105211843.40309       313.824          48.650    19647570.240  
  81831435.50908       313.824          47.200  
 20 09 27 05 27 30.0000000  0 13G30G18G20G 5G13G29G15R 1R24R23R17R 7
                                R 8
  23922464.540   125713398.81007        76.761          42.450    23922463.980  
  97958492.43046        76.761          39.200  
  21082601.020   110789815.34709      -390.051          49.100    21082597.140  
  86329710.12748      -390.051          46.350  
  23313816.720   122514932.46006      -594.479          40.200    23313812.480  
  95466200.76844      -594.479          32.200  
  22098843.820   116130208.24908       520.927          48.050    22098839.520  
  90491053.72448       520.927          45.000  
  20522833.880   107848218.95109        13.438          50.100    20522828.980  
  84037554.45448        13.438          45.750  
  22488399.760   118177334.94108       569.913          48.300    22488396.080  
  92086219.02347       569.913          43.700  
  20576924.140   108132468.51009      -373.186          49.800    20576920.480  
  84259053.03048      -373.187          47.150  
  19638118.140   104976995.98608      -293.621          46.950    19638123.180  
  81648795.66607      -293.622          42.000  
  19652827.500   105092500.66709      -221.896          49.100    19652829.560  
  81738622.20208      -221.896          46.100  
  19621978.180   104964348.18109       409.865          49.800    19621983.160  
  81638956.14607       409.864          42.150  
  22955427.880   122839129.14207      -777.075          41.600    22955430.760  
  95541561.56806      -777.075          41.300  
  23047465.840   123374890.21406       714.972          40.250    23047467.520  
  95958252.25806       714.972          39.400  
  19649140.560   105220255.07008       314.362          48.500    19649141.080  
  81837977.92508       314.362          47.300  
 20 09 27 05 27 35.0000000  0 13G30G18G20G 5G13G29G15R 1R24R23R17R 7
                                R 8
  23922849.600   125715422.27407        77.283          42.550    23922849.000  
  97960069.18445        77.282          37.600  
  21080651.640   110779571.45409      -389.669          49.150    21080647.820  
  86321727.87748      -389.669          46.600  
  23310844.240   122499311.99606      -594.522          39.900    23310839.960  
  95454028.96444      -594.521          33.550  
  22101448.820   116143897.71108       521.084          47.950    22101444.580  
  90501720.83547       521.084          44.500  
  20522902.520   107848579.72509        14.034          50.150    20522897.660  
  84037835.57948        14.034          45.700  
  22491250.200   118192313.96308       570.273          48.350    22491246.500  
  92097890.97947       570.273          43.300  
  20575059.500   108122669.84709      -372.659          49.800    20575055.840  
  84251417.71748      -372.659          47.200  
  19636651.260   104969154.55908      -293.146          47.100    19636656.260  
  81642696.78307      -293.146          41.900  
  19651719.780   105086577.27309      -221.151          49.050    19651721.880  
  81734015.12008      -221.151          46.200  
  19624029.160   104975319.58909       410.550          49.900    19624034.140  
  81647489.46007       410.550          42.400  
  22951543.020   122818340.57607      -776.900          41.700    22951545.900  
  95525392.68906      -776.901          41.050  
  23051040.720   123394025.89206       714.940          40.450    23051042.220  
  95973135.55106       714.940          39.600  
  19650713.480   105228677.96908       314.784          48.500    19650714.000  
  81844529.06508       314.784          47.200  
 20 09 27 05 27 40.0000000  0 13G30G18G20G 5G13G29G15R 1R24R23R17R 7
                                R 8
  23923237.740   125717461.71407        77.811          42.700    23923237.060  
  97961658.35045        77.810          36.200  
  21078704.440   110769338.92509      -389.334          49.100    21078700.640  
  86313754.47648      -389.335          46.450  
  23307872.460   122483695.19506      -594.447          39.350    23307868.160  
  95441860.02844      -594.447          34.300  
  22104055.000   116157593.38208       521.223          47.750    22104050.820  
  90512392.78148       521.223          44.700  
  20522974.560   107848958.29309        14.644          50.000    20522969.720  
  84038130.56348        14.644          46.000  
  22494102.680   118207303.79908       570.591          48.400    22494098.960  
  92109571.36347       570.591          43.750  
  20573197.800   108112886.52909      -372.168          49.750    20573194.120  
  84243794.35248      -372.168          47.000  
  19635187.200   104961328.40508      -292.632          46.850    19635192.180  
  81636609.76807      -292.632          41.850  
  19650616.100   105080675.39009      -220.452          49.050    19650618.220  
  81729424.76408      -220.452          46.000  
  19626083.980   104986311.47109       411.222          49.900    19626088.940  
  81656038.69107       411.222          42.250  
  22947659.460   122797558.99607      -776.694          41.700    22947662.360  
  95509229.24206      -776.694          40.850  
  23054616.000   123413163.77906       714.937          40.000    23054617.320  
  95988020.56906       714.937          38.800  
  19652288.900   105237114.39008       315.240          48.300    19652289.460  
  81851090.72108       315.240          47.150  
 20 09 27 05 27 45.0000000  0 13G30G18G20G 5G13G29G15R 1R24R23R17R 7
                                R 8
  23923628.460   125719514.77007        78.398          42.600    23923627.740  
  97963258.11745        78.398          37.400  
  21076758.980   110759115.43009      -388.937          49.150    21076755.160  
  86305788.12248      -388.937          46.150  
  23304900.900   122468079.67006      -594.309          40.150    23304896.600  
  95429692.09344      -594.309          34.350  
  22106661.880   116171292.90408       521.453          47.900    22106657.780  
  90523067.72748       521.453          44.800  
  20523049.520   107849352.29209        15.266          50.050    20523044.720  
  84038437.57748        15.266          46.200  
  22496956.760   118222302.10408       570.952          48.250    22496953.060  
  92121258.34647       570.953          43.650  
  20571338.560   108103116.22809      -371.613          49.800    20571334.880  
  84236181.13348      -371.614          47.000  
  19633725.580   104953515.16808      -292.105          47.000    19633730.520  
  81630532.80407      -292.105          41.750  
  19649515.980   105074792.56209      -219.691          49.300    19649518.100  
  81724849.23208      -219.691          46.050  
  19628142.140   104997321.32009       411.950          49.900    19628147.080  
  81664601.90507       411.950          41.950  
  22943776.720   122776781.98807      -776.518          42.200    22943779.680  
  95493069.37406      -776.519          40.750  
  23058191.240   123432301.41706       714.981          40.250    23058192.380  
  96002905.38606       714.982          38.950  
  19653866.460   105245561.97009       315.681          48.650    19653866.960  
  81857661.06108       315.681          47.000  
 20 09 27 05 27 50.0000000  0 13G30G18G20G 5G13G29G15R 1R24R23R17R 7
                                R 8
  23924022.360   125721584.43707        79.013          42.450    23924021.620  
  97964870.85345        79.013          37.450  
  21074815.780   110748903.98909      -388.482          49.250    21074811.980  
  86297831.16348      -388.482          46.600  
  23301930.080   122452468.44705      -594.096          38.400    23301925.860  
  95417527.49344      -594.096          35.000  
  22109270.100   116184999.29308       521.719          47.850    22109266.060  
  90533748.03448       521.719          45.250  
  20523128.000   107849764.74409        15.979          50.050    20523123.200  
  84038758.97648        15.979          46.150  
  22499813.000   118237311.91708       571.400          48.150    22499809.340  
  92132954.30047       571.401          43.550  
  20569482.380   108093361.97609      -371.004          49.800    20569478.680  
  84228580.42148      -371.004          47.550  
  19632266.920   104945717.87008      -291.492          46.900    19632271.840  
  81624468.24307      -291.492          41.700  
  19648420.000   105068931.87709      -218.845          49.350    19648422.140  
  81720290.92808      -218.845          46.000  
  19630204.240   105008352.19109       412.742          49.750    19630209.180  
  81673181.47607       412.742          42.100  
  22939895.480   122756012.72407      -776.166          41.900    22939898.460  
  95476915.51306      -776.166          40.400  
  23061766.900   123451441.76606       715.105          40.350    23061767.940  
  96017792.32206       715.105          39.250  
  19655446.640   105254023.74109       316.231          48.650    19655447.140  
  81864242.44108       316.231          47.100  
 20 09 27 05 27 55.0000000  0 13G30G18G20G 5G13G29G15R 1R24R23R17R 7
                                R 8
  23924419.400   125723670.42807        79.741          42.300    23924418.560  
  97966496.30745        79.741          38.150  
  21072874.860   110738704.33309      -387.926          49.300    21072871.040  
  86289883.38248      -387.926          46.200  
  23298960.020   122436861.26206      -593.922          38.750    23298955.920  
  95405366.06144      -593.922          33.800  
  22111879.580   116198712.25308       522.062          47.800    22111875.580  
  90544433.45348       522.063          44.950  
  20523209.940   107850195.36009        16.747          50.000    20523205.160  
  84039094.52348        16.746          45.900  
  22502671.380   118252332.91808       571.930          48.100    22502667.740  
  92144658.96847       571.930          42.950  
  20567629.180   108083623.50409      -370.306          49.750    20567625.500  
  84220992.00648      -370.306          47.250  
  19630811.220   104937936.24708      -290.813          47.100    19630816.100  
  81618415.86907      -290.813          41.800  
  19647328.100   105063093.04609      -217.929          49.450    19647330.260  
  81715749.61208      -217.929          46.150  
  19632270.200   105019403.83909       413.618          49.850    19632275.120  
  81681777.20207       413.617          42.200  
  22936015.640   122735250.90807      -775.766          42.000    22936018.600  
  95460767.44206      -775.766          40.000  
  23065343.060   123470584.64106       715.289          40.400    23065344.000  
  96032681.22106       715.289          39.600  
  19657029.420   105262499.45809       316.845          48.700    19657029.900  
  81870834.66708       316.845          47.100  
 20 09 27 05 28  0.0000000  0 13G30G18G20G 5G13G29G15R 1R24R23R17R 7
                                R 8
  23924819.260   125725771.48607        80.178          41.800    23924818.400  
  97968133.50345        80.178          37.600  
  21070935.940   110728515.20609      -387.688          49.200    21070932.100  
  86281943.80448      -387.688          46.200  
  23295990.440   122421256.86306      -593.942          38.850    23295986.460  
  95393206.84645      -593.944          37.850  
  22114490.040   116212430.51008       522.122          47.650    22114486.120  
  90555123.00648       522.122          45.050  
  20523295.100   107850642.87309        17.257          50.000    20523290.320  
  84039443.23948        17.257          45.850  
  22505531.640   118267363.91208       572.158          47.700    22505528.040  
  92156371.42447       572.158          43.600  
  20565778.780   108073899.52409      -369.903          49.700    20565775.080  
  84213414.89448      -369.904          47.300  
  19629358.220   104930169.08108      -290.430          47.150    19629363.080  
  81612374.74507      -290.430          42.000  
  19646240.060   105057274.78509      -217.324          49.350    19646242.260  
  81711224.30308      -217.324          46.250  
  19634339.800   105030474.87809       414.199          49.850    19634344.720  
  81690388.01207       414.199          42.250  
  22932136.960   122714495.20607      -775.721          41.900    22932139.880  
  95444624.13306      -775.722          40.200  
  23068919.420   123489728.70806       715.154          40.000    23068920.280  
  96047571.04706       715.154          39.600  
  19658614.540   105270987.78709       317.172          48.750    19658615.040  
  81877436.70508       317.172          47.200  
 20 09 27 05 28  5.0000000  0 13G30G18G20G 5G13G29G15R 1R24R23R17R 7
                                R 8
  23925221.540   125727885.58207        80.720          41.700    23925220.600  
  97969780.85045        80.720          37.900  
  21068998.640   110718334.59409      -387.232          49.250    21068994.760  
  86274010.86048      -387.232          46.000  
  23293021.000   122405653.22006      -593.804          39.400    23293017.280  
  95381048.14845      -593.805          35.600  
  22117101.140   116226152.08508       522.377          47.650    22117097.260  
  90565815.14148       522.377          44.900  
  20523383.080   107851105.23509        17.936          50.050    20523378.340  
  84039803.53148        17.936          46.300  
  22508393.420   118282402.83008       572.573          47.800    22508389.840  
  92168090.05447       572.574          43.400  
  20563930.740   108064187.99209      -369.311          49.750    20563927.020  
  84205847.47348      -369.311          47.350  
  19627907.540   104922414.13508      -289.845          47.150    19627912.340  
  81606343.12407      -289.845          41.900  
  19645155.480   105051475.04109      -216.501          49.250    19645157.720  
  81706713.39208      -216.501          46.350  
  19636412.660   105041563.35409       414.971          49.950    19636417.560  
  81699012.37807       414.971          42.000  
  22928259.060   122693743.68907      -775.461          41.700    22928261.940  
  95428484.07206      -775.461          39.550  
  23072495.560   123508871.88306       715.274          39.900    23072496.400  
  96062460.17706       715.274          39.700  
  19660201.660   105279486.66509       317.685          48.800    19660202.140  
  81884046.94808       317.685          47.100  
 20 09 27 05 28 10.0000000  0 13G30G18G20G 5G13G29G15R 1R24R23R17R 7
                                R 8
  23925627.320   125730018.29807        81.438          41.500    23925626.360  
  97971442.72345        81.438          38.050  
  21067064.020   110708168.06309      -386.776          49.300    21067060.120  
  86266088.89248      -386.776          46.250  
  23290052.820   122390055.95406      -593.684          39.100    23290049.280  
  95368894.44145      -593.683          36.850  
  22119713.920   116239882.49708       522.596          47.600    22119710.080  
  90576514.16348       522.596          44.950  
  20523474.960   107851588.03109        18.636          49.950    20523470.200  
  84040179.73648        18.636          45.950  
  22511257.740   118297455.11508       572.979          47.850    22511254.200  
  92179819.11147       572.979          43.450  
  20562086.140   108054494.58509      -368.704          49.750    20562082.400  
  84198294.17148      -368.704          47.150  
  19626460.200   104914677.27108      -289.269          47.050    19626465.020  
  81600325.56307      -289.269          42.200  
  19644075.420   105045699.51709      -215.689          49.100    19644077.700  
  81702221.32108      -215.689          46.400  
  19638489.840   105052674.84809       415.734          49.950    19638494.720  
  81707654.64707       415.735          41.700  
  22924382.900   122673001.91106      -775.108          41.150    22924385.780  
  95412351.58006      -775.109          39.700  
  23076072.580   123528019.78806       715.376          38.850    23076073.380  
  96077352.99606       715.376          39.750  
  19661791.820   105288001.91508       318.201          48.450    19661792.300  
  81890669.92008       318.201          47.150  
 20 09 27 05 28 15.0000000  0 13G30G18G20G 5G13G29G15R 1R24R23R17R 7
                                R 8
  23926035.840   125732165.25407        81.968          41.600    23926034.800  
  97973115.68244        81.968          35.250  
  21065131.280   110698011.26709      -386.359          49.350    21065127.320  
  86258174.50548      -386.359          46.400  
  23287085.000   122374460.64806      -593.458          39.550    23287081.640  
  95356742.27745      -593.459          36.250  
  22122327.560   116253617.39108       522.826          47.550    22122323.760  
  90587216.67248       522.827          44.700  
  20523569.880   107852086.91209        19.307          50.000    20523565.140  
  84040568.47548        19.307          46.050  
  22514123.780   118312516.43008       573.400          47.900    22514120.280  
  92191555.18847       573.401          43.400  
  20560244.140   108044814.87009      -368.102          49.850    20560240.400  
  84190751.53848      -368.102          47.100  
  19625015.380   104906953.90908      -288.685          47.000    19625020.220  
  81594318.50207      -288.685          42.100  
  19642999.040   105039943.71809      -214.889          49.150    19643001.360  
  81697744.59008      -214.889          46.550  
  19640570.520   105063804.94109       416.505          50.000    19640575.360  
  81716311.37707       416.506          41.950  
  22920507.820   122652265.51906      -774.898          41.200    22920510.640  
  95396223.30306      -774.898          39.250  
  23079649.640   123547168.12106       715.430          38.800    23079650.460  
  96092246.12506       715.431          39.850  
  19663384.160   105296528.80208       318.696          48.500    19663384.640  
  81897301.94608       318.696          47.200  
 20 09 27 05 28 20.0000000  0 13G30G18G20G 5G13G29G15R 1R24R23R17R 7
                                R 8
  23926447.540   125734328.89607        82.707          41.550    23926446.420  
  97974801.63345        82.707          37.700  
  21063200.820   110687866.66609      -385.813          49.250    21063196.840  
  86250269.62348      -385.813          46.100  
  23284118.100   122358869.75206      -593.238          39.800    23284114.780  
  95344593.55344      -593.240          35.150  
  22124942.500   116267359.22208       523.181          47.600    22124938.780  
  90597924.59648       523.181          44.800  
  20523668.340   107852604.31309        20.095          49.900    20523663.620  
  84040971.64848        20.094          45.950  
  22516992.020   118327589.28508       573.938          47.800    22516988.560  
  92203300.26247       573.938          43.050  
  20558405.220   108035151.28109      -367.414          49.750    20558401.460  
  84183221.47248      -367.415          47.050  
  19623573.560   104899246.63208      -288.010          47.100    19623578.420  
  81588323.96407      -288.010          42.100  
  19641926.820   105034210.17709      -213.959          49.350    19641929.180  
  81693285.17608      -213.959          46.200  
  19642655.120   105074956.04909       417.367          50.150    19642659.920  
  81724984.45907       417.367          41.850  
  22916634.140   122631537.07606      -774.541          41.350    22916636.940  
  95380101.15706      -774.540          38.950  
  23083227.140   123566319.25405       715.635          37.850    23083228.060  
  96107141.44606       715.635          39.650  
  19664979.140   105305069.96009       319.330          48.700    19664979.640  
  81903945.06608       319.330          47.000  
 20 09 27 05 28 25.0000000  0 13G30G18G20G 5G13G29G15R 1R24R23R17R 7
                                R 8
  23926862.420   125736509.15807        83.209          41.900    23926861.220  
  97976500.55745        83.208          37.050  
  21061272.660   110677734.18209      -385.483          49.200    21061268.680  
  86242374.18548      -385.484          46.250  
  23281152.120   122343283.21906      -593.238          40.000    23281148.840  
  95332448.22445      -593.240          38.000  
  22127558.760   116281107.88808       523.303          47.400    22127555.080  
  90608637.83848       523.303          44.700  
  20523770.300   107853140.13709        20.635          49.850    20523765.580  
  84041389.16948        20.635          46.100  
  22519862.440   118342673.47808       574.199          47.700    22519859.000  
  92215054.16947       574.199          43.200  
  20556569.360   108025503.74709      -366.998          49.900    20556565.580  
  84175703.91648      -366.998          47.050  
  19622134.740   104891555.28008      -287.575          46.850    19622139.620  
  81582341.79907      -287.575          42.000  
  19640858.740   105028498.83909      -213.277          49.250    19640861.140  
  81688843.02208      -213.277          46.050  
  19644743.660   105086128.12109       417.996          50.050    19644748.400  
  81733673.83807       417.997          41.900  
  22912762.000   122610816.43606      -774.404          41.200    22912764.720  
  95363985.12206      -774.404          38.750  
  23086805.180   123585473.11105       715.619          37.400    23086806.180  
  96122038.88106       715.619          39.800  
  19666576.760   105313625.31408       319.704          48.450    19666577.280  
  81910599.22608       319.705          46.900  
 20 09 27 05 28 30.0000000  0 13G30G18G20G 5G13G29G15R 1R24R23R17R 7
                                R 8
  23927280.080   125738704.02107        83.708          41.800    23927278.840  
  97978210.84145        83.708          38.400  
  21059346.460   110667611.84309      -385.148          49.250    21059342.460  
  86234486.65548      -385.148          46.300  
  23278186.580   122327699.03106      -593.200          40.400    23278183.240  
  95320304.68445      -593.200          37.750  
  22130175.940   116294861.40308       523.453          47.600    22130172.320  
  90619354.86548       523.454          44.950  
  20523875.380   107853692.39909        21.260          49.850    20523870.700  
  84041819.51248        21.260          46.250  
  22522734.620   118357767.01508       574.573          47.600    22522731.220  
  92226815.36247       574.573          44.000  
  20554736.200   108015870.31609      -366.463          49.900    20554732.380  
  84168197.35748      -366.463          47.550  
  19620698.540   104883877.98908      -287.048          46.850    19620703.440  
  81576370.57907      -287.048          42.300  
  19639794.480   105022807.69309      -212.558          49.200    19639796.860  
  81684416.57508      -212.558          46.250  
  19646835.740   105097319.20709       418.689          50.000    19646840.420  
  81742378.02107       418.689          41.950  
  22908890.860   122590101.56106      -774.192          41.400    22908893.560  
  95347873.55906      -774.192          38.700  
  23090383.260   123604627.76405       715.667          36.150    23090384.440  
  96136936.93506       715.668          39.850  
  19668176.660   105322192.87508       320.130          48.450    19668177.200  
  81917262.88708       320.130          47.100  
 20 09 27 05 28 35.0000000  0 13G30G18G20G 5G13G29G15R 1R24R23R17R 7
                                R 8
  23927700.680   125740914.23607        84.338          42.050    23927699.360  
  97979933.09145        84.338          38.050  
  21057422.300   110657500.35409      -384.671          49.150    21057418.300  
  86226607.57448      -384.672          46.300  
  23275221.600   122312117.90306      -592.977          40.700    23275218.280  
  95308163.53545      -592.977          37.250  
  22132794.180   116308620.46308       523.735          47.550    22132790.620  
  90630076.20048       523.735          45.050  
  20523983.720   107854261.76909        21.949          49.750    20523979.060  
  84042263.17848        21.949          46.550  
  22525608.700   118372870.59708       574.974          47.600    22525605.360  
  92238584.38447       574.974          43.100  
  20552905.860   108006251.64909      -365.838          49.900    20552902.000  
  84160702.29148      -365.838          47.300  
  19619265.040   104876215.33508      -286.463          46.900    19619269.980  
  81570410.73407      -286.463          42.300  
  19638734.100   105017137.47409      -211.718          49.200    19638736.520  
  81680006.40508      -211.718          46.250  
  19648931.500   105108530.00809       419.478          50.000    19648936.140  
  81751097.53107       419.477          41.950  
  22905021.000   122569393.26007      -773.896          41.650    22905023.660  
  95331767.11506      -773.896          38.650  
  23093961.600   123623783.70105       715.644          37.950    23093962.940  
  96151835.99306       715.645          39.800  
  19669778.980   105330773.20409       320.669          48.650    19669779.500  
  81923936.47008       320.669          47.000  
 20 09 27 05 28 40.0000000  0 13G30G18G20G 5G13G29G15R 1R24R23R17R 7
                                R 8
  23928124.040   125743138.57407        85.077          42.850    23928122.560  
  97981666.35645        85.077          36.650  
  21055500.020   110647398.54909      -384.142          49.050    21055496.000  
  86218736.04248      -384.142          46.250  
  23272256.980   122296538.64906      -592.731          40.700    23272253.640  
  95296023.88744      -592.731          32.800  
  22135413.280   116322383.86108       524.039          47.450    22135409.740  
  90640800.93448       524.039          45.050  
  20524095.100   107854847.11209        22.726          49.750    20524090.460  
  84042719.29648        22.726          46.400  
  22528484.460   118387983.03508       575.483          47.400    22528481.160  
  92250360.30347       575.484          44.050  
  20551078.100   107996646.59509      -365.156          49.950    20551074.240  
  84153217.84648      -365.156          47.450  
  19617834.060   104868566.15908      -285.802          46.800    19617839.060  
  81564461.38607      -285.802          42.250  
  19637677.420   105011487.01509      -210.835          49.250    19637679.860  
  81675611.60908      -210.836          46.250  
  19651030.700   105119759.19309       420.311          50.000    19651035.300  
  81759831.33407       420.311          41.850  
  22901152.160   122548690.36107      -773.512          41.500    22901154.740  
  95315664.85506      -773.512          39.150  
  23097540.000   123642939.83105       715.880          35.950    23097541.500  
  96166735.20106       715.881          39.700  
  19671383.460   105339365.16209       321.260          48.550    19671384.000  
  81930619.11008       321.260          47.050  
 20 09 27 05 28 45.0000000  0 13G30G18G20G 5G13G29G15R 1R24R23R17R 7
                                R 8
  23928550.240   125745378.06307        85.487          42.600    23928548.680  
  97983411.42245        85.486          36.950  
  21053579.760   110637307.47509      -383.854          49.100    21053575.720  
  86210872.86848      -383.854          46.650  
  23269292.980   122280962.38206      -592.755          40.950    23269289.600  
  95283886.54345      -592.756          36.250  
  22138033.380   116336152.62908       524.124          47.600    22138029.880  
  90651529.83648       524.124          45.200  
  20524209.720   107855449.44409        23.228          49.800    20524205.100  
  84043188.64848        23.228          46.650  
  22531362.100   118403105.32508       575.694          47.450    22531358.840  
  92262143.90147       575.694          43.250  
  20549253.120   107987056.19709      -364.735          50.000    20549249.240  
  84145744.81348      -364.736          47.200  
  19616405.800   104860931.55008      -285.391          46.800    19616410.860  
  81558523.35507      -285.391          42.250  
  19636624.620   105005857.30509      -210.190          49.400    19636627.100  
  81671232.94808      -210.190          46.350  
  19653133.520   105131007.86209       420.911          50.000    19653138.100  
  81768580.29307       420.911          41.900  
  22897284.600   122527993.88607      -773.452          41.600    22897287.060  
  95299567.60706      -773.453          38.900  
  23101118.680   123662097.18705       715.759          38.100    23101120.280  
  96181635.35406       715.760          39.950  
  19672990.320   105347969.85409       321.587          48.700    19672990.860  
  81937311.64808       321.587          47.050  
 20 09 27 05 28 50.0000000  0 13G30G18G20G 5G13G29G15R 1R24R23R17R 7
                                R 8
  23928979.120   125747631.65607        85.999          42.600    23928977.460  
  97985167.47145        85.999          38.250  
  21051661.320   110627226.03709      -383.567          49.200    21051657.280  
  86203017.21148      -383.568          46.150  
  23266329.300   122265387.94906      -592.755          40.950    23266325.960  
  95271750.62145      -592.756          36.000  
  22140654.340   116349925.65708       524.194          47.800    22140650.840  
  90662262.06748       524.194          45.700  
  20524327.360   107856067.69609        23.786          49.950    20524322.780  
  84043670.40748        23.786          46.450  
  22534241.460   118418236.40308       575.976          47.500    22534238.180  
  92273934.34747       575.976          43.850  
  20547430.740   107977479.38709      -364.259          50.050    20547426.820  
  84138282.36948      -364.260          47.100  
  19614980.060   104853310.35608      -284.949          46.850    19614985.180  
  81552595.76507      -284.950          42.150  
  19635575.520   105000247.30209      -209.485          49.300    19635578.020  
  81666869.61608      -209.486          46.150  
  19655239.780   105142274.88409       421.550          49.900    19655244.340  
  81777343.53307       421.550          41.750  
  22893417.960   122507302.71706      -773.273          41.300    22893420.380  
  95283474.48206      -773.273          38.550  
  23104697.340   123681254.78604       715.790          35.150    23104699.120  
  96196535.70506       715.790          39.200  
  19674599.340   105356586.06709       321.973          48.750    19674599.880  
  81944013.14508       321.973          47.050  
 20 09 27 05 28 55.0000000  0 13G30G18G20G 5G13G29G15R 1R24R23R17R 7
                                R 8
  23929411.120   125749901.54007        86.752          42.250    23929409.400  
  97986936.22845        86.752          36.850  
  21049745.160   110617156.46109      -382.980          49.250    21049741.100  
  86195170.79348      -382.980          46.150  
  23263366.380   122249817.54206      -592.482          40.800    23263363.060  
  95259617.85045      -592.483          35.950  
  22143276.520   116363705.16608       524.573          47.750    22143273.020  
  90672999.34848       524.573          45.300  
  20524448.420   107856704.00209        24.600          49.950    20524443.880  
  84044166.23248        24.600          46.650  
  22537122.900   118433378.46208       576.509          47.550    22537119.620  
  92285733.35247       576.509          43.150  
  20545611.360   107967918.35709      -363.561          50.000    20545607.420  
  84130832.21848      -363.561          47.650  
  19613557.260   104845704.73608      -284.255          46.700    19613562.400  
  81546680.28907      -284.255          42.450  
  19634530.480   104994659.17409      -208.568          49.200    19634533.000  
  81662523.29708      -208.568          46.100  
  19657349.880   105153562.46709       422.434          49.800    19657354.440  
  81786122.76407       422.434          41.950  
  22889552.740   122486619.17407      -772.871          41.600    22889555.080  
  95267387.28905      -772.872          38.400  
  23108276.460   123700414.58305       715.940          36.100    23108278.340  
  96211437.75706       715.940          39.600  
  19676210.920   105365215.94509       322.580          48.800    19676211.440  
  81950725.27508       322.580          47.100  
 20 09 27 05 29  0.0000000  0 13G30G18G20G 5G13G29G15R 1R24R23R17R 7
                                R 8
  23929846.420   125752189.11207        87.320          42.350    23929844.720  
  97988718.75645        87.320          37.600  
  21047831.520   110607100.16509      -382.600          49.100    21047827.440  
  86187334.71848      -382.600          46.150  
  23260404.520   122234252.62607      -592.416          41.500    23260401.200  
  95247489.35545      -592.418          37.550  
  22145900.220   116377492.61908       524.746          47.900    22145896.720  
  90683742.81348       524.746          45.050  
  20524573.220   107857359.82009        25.212          49.850    20524568.680  
  84044677.25648        25.212          46.450  
  22540006.680   118448532.91308       576.894          47.300    22540003.420  
  92297542.00547       576.894          44.100  
  20543795.220   107958374.52709      -363.006          49.900    20543791.280  
  84123395.47348      -363.006          47.550  
  19612137.640   104838116.37408      -283.710          46.800    19612142.860  
  81540778.23007      -283.710          42.350  
  19633489.820   104989094.48709      -207.799          49.200    19633492.380  
  81658195.20708      -207.799          46.100  
  19659464.080   105164872.06809       423.135          49.900    19659468.660  
  81794919.11607       423.135          41.850  
  22885689.260   122465944.74607      -772.677          41.600    22885691.500  
  95251307.17705      -772.677          38.400  
  23111856.160   123719578.21704       715.925          35.000    23111858.300  
  96226342.80806       715.926          39.200  
  19677825.360   105373861.14709       323.046          48.950    19677825.880  
  81957449.31908       323.046          47.050  
 20 09 27 05 29  5.0000000  0 13G30G18G20G 5G13G29G15R 1R24R23R17R 7
                                R 8
  23930284.220   125754489.81107        87.777          42.300    23930282.520  
  97990511.52045        87.777          36.700  
  21045919.520   110597052.61109      -382.246          49.200    21045915.420  
  86179505.45748      -382.246          46.300  
  23257442.860   122218688.65907      -592.356          41.650    23257439.460  
  95235361.57245      -592.356          35.950  
  22148524.560   116391283.39508       524.893          47.900    22148521.040  
  90694488.87348       524.893          45.250  
  20524700.840   107858030.59109        25.787          49.900    20524696.360  
  84045199.93348        25.788          46.150  
  22542891.960   118463695.16408       577.197          47.300    22542888.700  
  92309356.73847       577.198          43.250  
  20541981.500   107948843.34809      -362.528          49.900    20541977.560  
  84115968.57948      -362.528          47.650  
  19610720.380   104830540.38508      -283.258          46.650    19610725.620  
  81534885.79407      -283.257          42.200  
  19632452.700   104983548.52509      -207.095          49.100    19632455.260  
  81653881.67608      -207.095          45.950  
  19661581.540   105176199.01109       423.782          49.850    19661586.120  
  81803728.95807       423.782          41.800  
  22881826.580   122445274.76806      -772.478          41.350    22881828.760  
  95235230.53105      -772.478          38.400  
  23115435.700   123738740.92905       715.918          35.950    23115438.040  
  96241247.13306       715.919          39.100  
  19679441.740   105382516.81009       323.452          48.900    19679442.280  
  81964181.50308       323.452          47.050  
 20 09 27 05 29 10.0000000  0 13G30G18G20G 5G13G29G15R 1R24R23R17R 7
                                R 8
  23930724.660   125756804.29407        88.434          41.700    23930722.920  
  97992315.00445        88.434          37.100  
  21044009.300   110587014.40509      -381.785          49.100    21044005.200  
  86171683.48148      -381.786          46.150  
  23254481.520   122203126.22907      -592.181          42.250    23254478.040  
  95223235.00544      -592.181          33.850  
  22151149.660   116405078.11308       525.184          47.800    22151146.120  
  90705237.99948       525.185          45.100  
  20524831.420   107858716.91509        26.501          49.950    20524826.980  
  84045734.72948        26.501          46.250  
  22545778.880   118478865.81808       577.621          47.450    22545775.580  
  92321178.02747       577.621          43.200  
  20540170.300   107939325.48509      -361.889          49.850    20540166.380  
  84108552.06448      -361.889          47.600  
  19609305.560   104822977.52108      -282.632          46.650    19609310.860  
  81529003.56907      -282.632          42.350  
  19631419.200   104978021.97309      -206.258          49.000    19631421.740  
  81649583.24908      -206.258          45.950  
  19663702.360   105187543.95409       424.595          49.800    19663706.960  
  81812552.79707       424.595          41.750  
  22877964.860   122424609.87606      -772.193          41.300    22877966.980  
  95219157.83106      -772.193          38.600  
  23119015.320   123757903.43205       715.985          35.900    23119017.740  
  96256151.30006       715.985          39.550  
  19681060.180   105391183.57109       323.962          48.800    19681060.740  
  81970922.31108       323.962          47.100  
 20 09 27 05 29 15.0000000  0 13G30G18G20G 5G13G29G15R 1R24R23R17R 7
                                R 8
  23931168.320   125759136.01406        89.033          40.400    23931166.600  
  97994131.93845        89.033          37.350  
  21042101.520   110576989.09009      -381.337          49.050    21042097.420  
  86163871.55148      -381.337          46.200  
  23251521.140   122187568.88007      -592.052          42.300    23251517.560  
  95211112.40444      -592.052          34.250  
  22153776.180   116418880.31908       525.401          47.850    22153772.640  
  90715992.95748       525.401          44.800  
  20524965.620   107859422.28809        27.168          49.850    20524961.220  
  84046284.37648        27.168          46.100  
  22548668.020   118494048.36408       578.001          47.500    22548664.740  
  92333008.57447       578.002          42.900  
  20538362.300   107929824.40809      -361.319          49.800    20538358.380  
  84101148.63548      -361.319          47.350  
  19607893.880   104815431.28008      -282.056          46.750    19607899.160  
  81523134.27007      -282.056          42.050  
  19630389.960   104972518.44009      -205.442          49.050    19630392.520  
  81645302.72308      -205.442          45.900  
  19665827.220   105198910.54609       425.345          49.850    19665831.840  
  81821393.48007       425.345          41.800  
  22874104.700   122403953.60506      -771.957          41.000    22874106.840  
  95203091.84506      -771.957          38.850  
  23122595.360   123777069.25304       716.112          35.200    23122598.040  
  96271058.06506       716.111          39.350  
  19682681.420   105399865.14409       324.477          48.750    19682681.980  
  81977674.65008       324.476          47.000  
 20 09 27 05 29 20.0000000  0 13G30G18G20G 5G13G29G15R 1R24R23R17R 7
                                R 8
  23931615.240   125761485.19306        89.698          40.100    23931613.600  
  97995962.47246        89.697          38.650  
  21040196.240   110566976.85309      -380.805          49.200    21040192.140  
  86156069.80748      -380.805          45.900  
  23248561.780   122172016.75207      -591.800          42.400    23248558.060  
  95198993.85944      -591.801          34.750  
  22156404.140   116432690.14208       525.715          47.650    22156400.600  
  90726753.86048       525.715          45.300  
  20525103.500   107860146.92509        27.928          49.950    20525099.140  
  84046849.02948        27.928          46.300  
  22551559.500   118509243.01608       578.531          47.450    22551556.200  
  92344848.55847       578.531          43.250  
  20536557.540   107920340.35109      -360.632          49.800    20536553.640  
  84093758.46348      -360.633          47.650  
  19606485.340   104807901.87708      -281.374          46.850    19606490.640  
  81517278.07007      -281.374          42.400  
  19629365.140   104967038.08709      -204.541          49.100    19629367.640  
  81641040.22508      -204.541          46.000  
  19667956.120   105210298.73409       426.185          49.750    19667960.740  
  81830250.95307       426.185          41.900  
  22870246.200   122383306.24306      -771.538          40.700    22870248.360  
  95187032.78606      -771.538          38.850  
  23126176.000   123796238.59205       716.239          35.550    23126178.980  
  96285967.52506       716.240          39.000  
  19684305.440   105408561.71109       325.089          48.550    19684306.000  
  81984438.64008       325.089          47.000  
 20 09 27 05 29 25.0000000  0 13G30G18G20G 5G13G29G15R 1R24R23R17R 7
                                R 8
  23932064.980   125763849.48406        90.291          40.050    23932063.540  
  97997804.75445        90.291          37.150  
  21038293.020   110556975.33809      -380.436          49.250    21038288.900  
  86148276.42548      -380.436          45.600  
  23245602.940   122156467.52007      -591.773          42.400    23245599.140  
  95186877.58044      -591.773          35.350  
  22159033.080   116446505.20808       525.888          47.700    22159029.540  
  90737518.84448       525.888          45.700  
  20525244.600   107860888.41109        28.542          49.950    20525240.240  
  84047426.81848        28.542          46.150  
  22554452.820   118524447.32808       578.823          47.600    22554449.480  
  92356696.06847       578.823          42.600  
  20534755.540   107910870.93509      -360.127          49.850    20534751.660  
  84086379.70148      -360.127          47.650  
  19605079.540   104800386.96408      -280.894          46.950    19605084.840  
  81511433.15007      -280.895          42.350  
  19628344.160   104961578.47209      -203.805          49.250    19628346.660  
  81636793.86008      -203.805          46.100  
  19670088.680   105221706.33109       426.868          49.800    19670093.260  
  81839123.52607       426.868          41.800  
  22866388.920   122362665.39206      -771.316          40.700    22866391.120  
  95170978.80706      -771.316          39.800  
  23129756.920   123815408.93705       716.242          36.000    23129760.120  
  96300877.78906       716.242          39.250  
  19685931.820   105417270.70709       325.506          48.750    19685932.360  
  81991212.29908       325.506          47.100  
 20 09 27 05 29 30.0000000  0 13G30G18G20G 5G13G29G15R 1R24R23R17R 7
                                R 8
  23932517.480   125766228.06206        90.757          40.200    23932516.200  
  97999658.19445        90.757          37.250  
  21036391.720   110546983.75009      -380.111          49.550    21036387.540  
  86140490.77248      -380.112          45.750  
  23242644.520   122140920.42407      -591.683          42.950    23242640.560  
  95174762.96244      -591.684          33.600  
  22161662.880   116460324.74208       525.998          47.900    22161659.360  
  90748287.31548       525.998          45.450  
  20525388.740   107861645.95809        29.104          50.050    20525384.400  
  84048017.11548        29.103          45.850  
  22557347.840   118539660.53008       579.128          47.900    22557344.460  
  92368550.51347       579.128          43.350  
  20532956.180   107901415.35709      -359.632          49.900    20532952.320  
  84079011.72348      -359.632          47.550  
  19603676.320   104792885.74608      -280.430          46.950    19603681.580  
  81505598.87307      -280.430          42.400  
  19627326.960   104956138.82009      -203.119          49.450    19627329.420  
  81632563.02308      -203.119          46.200  
  19672224.660   105233132.41409       427.513          49.850    19672229.260  
  81848010.47307       427.513          41.900  
  22862532.720   122342030.25206      -771.201          40.800    22862534.960  
  95154929.26206      -771.202          39.850  
  23133337.960   123834579.59004       716.156          35.250    23133341.320  
  96315788.29506       716.156          39.550  
  19687560.360   105425991.40609       325.902          48.750    19687560.900  
  81997995.06908       325.902          47.100  
 20 09 27 05 29 35.0000000  0 13G30G18G20G 5G13G29G15R 1R24R23R17R 7
                                R 8
  23932973.020   125768622.61406        91.581          40.350    23932971.900  
  98001524.07846        91.581          39.000  
  21034492.620   110537003.82009      -379.440          49.350    21034488.420  
  86132714.20448      -379.440          45.450  
  23239686.800   122125377.06507      -591.369          42.850    23239682.800  
  95162651.25145      -591.369          35.900  
  22164293.860   116474150.42308       526.443          47.800    22164290.320  
  90759060.56448       526.444          45.100  
  20525536.280   107862421.29909        30.001          49.900    20525531.960  
  84048621.27748        30.001          46.250  
  22560244.900   118554884.32308       579.735          47.800    22560241.440  
  92380413.20347       579.735          43.600  
  20531159.800   107891975.34809      -358.831          49.900    20531155.940  
  84071655.87648      -358.832          47.650  
  19602275.960   104785399.84208      -279.622          46.950    19602281.200  
  81499776.50807      -279.623          42.350  
  19626313.800   104950720.92309      -202.080          49.600    19626316.240  
  81628349.10108      -202.080          46.300  
  19674364.440   105244578.70509       428.480          49.800    19674369.020  
  81856913.13807       428.480          41.850  
  22858677.900   122321402.52506      -770.652          40.900    22858680.180  
  95138885.48406      -770.652          40.650  
  23136919.280   123853752.14505       716.492          36.750    23136922.860  
  96330700.26406       716.493          39.600  
  19689191.380   105434725.36909       326.604          48.750    19689191.900  
  82004788.14308       326.604          47.100  
 20 09 27 05 29 40.0000000  0 13G30G18G20G 5G13G29G15R 1R24R23R17R 7
                                R 8
  23933431.680   125771032.96206        92.063          40.250    23933430.560  
  98003402.26345        92.063          37.150  
  21032595.700   110527035.32509      -379.181          49.350    21032591.460  
  86124946.54948      -379.181          45.700  
  23236729.780   122109837.31207      -591.370          42.550    23236725.700  
  95150542.36945      -591.371          36.200  
  22166925.940   116487982.12008       526.508          47.900    22166922.420  
  90769838.50847       526.508          44.400  
  20525687.160   107863214.22909        30.503          49.900    20525682.840  
  84049239.15248        30.502          45.800  
  22563143.920   118570118.46108       579.958          47.750    22563140.420  
  92392283.95747       579.958          43.000  
  20529366.340   107882550.69409      -358.393          49.900    20529362.500  
  84064311.99648      -358.393          47.400  
  19600878.440   104777929.10708      -279.237          46.950    19600883.640  
  81493965.94707      -279.237          42.000  
  19625304.660   104945324.51009      -201.427          49.350    19625307.100  
  81624151.89708      -201.427          46.300  
  19676507.920   105256044.94509       429.051          49.750    19676512.520  
  81865831.32507       429.050          41.800  
  22854824.420   122300782.05806      -770.530          40.900    22854826.780  
  95122847.36106      -770.531          40.800  
  23140501.040   123872926.50505       716.340          35.850    23140504.740  
  96345613.66106       716.340          39.600  
  19690824.920   105443472.64109       326.937          48.800    19690825.400  
  82011591.57708       326.937          46.950  
 20 09 27 05 29 45.0000000  0 13G30G18G20G 5G13G29G15R 1R24R23R17R 7
                                R 8
  23933893.120   125773458.14806        92.579          40.600    23933892.140  
  98005292.02445        92.579          36.750  
  21030700.800   110517077.37209      -378.787          49.300    21030696.520  
  86117187.10148      -378.788          45.550  
  23233773.240   122094300.25907      -591.260          42.850    23233769.160  
  95138435.58745      -591.261          36.050  
  22169558.980   116501818.80208       526.735          47.850    22169555.460  
  90780620.33447       526.735          44.200  
  20525841.200   107864023.81209        31.143          50.000    20525836.900  
  84049869.99448        31.143          46.000  
  22566044.720   118585362.04408       580.346          48.000    22566041.160  
  92404162.06047       580.347          43.450  
  20527575.620   107873140.49209      -357.850          49.900    20527571.800  
  84056979.37148      -357.850          47.200  
  19599483.600   104770472.63408      -278.708          47.050    19599488.740  
  81488166.46607      -278.708          42.200  
  19624299.380   104939948.71909      -200.658          49.300    19624301.820  
  81619970.72508      -200.658          46.150  
  19678654.980   105267530.24709       429.794          49.800    19678659.600  
  81874764.33307       429.794          41.550  
  22850972.100   122280167.98406      -770.274          40.900    22850974.580  
  95106814.19806      -770.274          41.250  
  23144083.080   123892101.74505       716.498          36.950    23144086.800  
  96360527.71806       716.499          39.350  
  19692460.720   105452232.08909       327.398          48.850    19692461.160  
  82018404.48108       327.398          46.750  
 20 09 27 05 29 50.0000000  0 13G30G18G20G 5G13G29G15R 1R24R23R17R 7
                                R 8
  23934357.320   125775897.81406        93.203          40.950    23934356.380  
  98007193.06745        93.203          35.950  
  21028807.800   110507129.59709      -378.409          49.300    21028803.500  
  86109435.58948      -378.409          45.250  
  23230817.160   122078765.52307      -591.131          42.400    23230813.080  
  95126330.57944      -591.131          34.750  
  22172192.920   116515660.09808       526.904          47.750    22172189.360  
  90791405.75548       526.904          44.800  
  20525998.360   107864849.68609        31.776          50.050    20525994.060  
  84050513.53448        31.776          45.600  
  22568947.260   118600614.63208       580.686          48.250    22568943.640  
  92416047.18747       580.686          42.450  
  20525787.580   107863744.34709      -357.313          49.950    20525783.780  
  84049657.70348      -357.313          47.150  
  19598091.320   104763030.02808      -278.184          47.150    19598096.440  
  81482377.77607      -278.184          42.050  
  19623297.860   104934593.14709      -199.905          49.300    19623300.300  
  81615805.28208      -199.905          46.200  
  19680805.560   105279034.31409       430.493          49.950    19680810.160  
  81883711.93507       430.493          41.650  
  22847120.980   122259559.88706      -770.095          40.950    22847123.520  
  95090785.69507      -770.096          41.500  
  23147665.240   123911277.40605       716.409          37.700    23147668.960  
  96375442.10406       716.410          39.800  
  19694098.740   105461003.44809       327.832          48.850    19694099.140  
  82025226.64708       327.832          46.700  
 20 09 27 05 29 55.0000000  0 13G30G18G20G 5G13G29G15R 1R24R23R17R 7
                                R 8
  23934824.820   125778354.53506        93.736          41.100    23934823.920  
  98009107.42044        93.735          34.300  
  21026917.220   110497194.58809      -377.974          49.250    21026912.940  
  86101694.02748      -377.974          45.300  
  23227862.000   122063235.66807      -591.022          42.200    23227857.920  
  95114229.42345      -591.023          35.850  
  22174828.220   116529508.64308       527.127          47.700    22174824.660  
  90802196.82948       527.127          44.700  
  20526159.120   107865694.40409        32.425          50.000    20526154.780  
  84051171.76248        32.425          45.800  
  22571851.980   118615878.80508       581.044          48.000    22571848.320  
  92427941.34247       581.044          42.900  
  20524002.740   107854364.90709      -356.745          50.100    20523998.940  
  84042349.05148      -356.745          47.150  
  19596702.120   104755603.89308      -277.601          47.050    19596707.200  
  81476601.90007      -277.601          41.900  
  19622300.620   104929260.46709      -199.117          49.250    19622303.080  
  81611657.64808      -199.118          46.100  
  19682960.100   105290559.54309       431.214          49.900    19682964.680  
  81892675.99807       431.214          41.600  
  22843271.460   122238960.35706      -769.872          41.050    22843274.040  
  95074763.85707      -769.873          41.700  
  23151247.820   123930456.02705       716.502          37.900    23151251.700  
  96390358.80906       716.502          39.950  
  19695739.440   105469789.16709       328.320          48.750    19695739.800  
  82032059.98808       328.320          46.600  
 20 09 27 05 30  0.0000000  0 13G30G18G20G 5G13G29G15R 1R24R23R17R 7
                                R 8
  23935294.860   125780824.88006        94.367          40.850    23935293.980  
  98011032.37444        94.367          35.100  
  21025028.420   110487268.91109      -377.472          49.200    21025024.140  
  86093959.73748      -377.472          45.200  
  23224907.120   122047707.29407      -590.781          42.250    23224903.060  
  95102129.40745      -590.782          36.800  
  22177464.240   116543360.96308       527.394          47.600    22177460.680  
  90812990.84748       527.394          44.750  
  20526322.820   107866554.54309        33.154          50.050    20526318.440  
  84051842.00448        33.154          45.650  
  22574758.240   118631151.14908       581.512          47.950    22574754.540  
  92439841.86247       581.513          42.950  
  20522220.380   107844998.67109      -356.091          50.200    20522216.600  
  84035050.69348      -356.091          46.900  
  19595315.380   104748190.77308      -276.990          47.000    19595320.420  
  81470836.14207      -276.990          41.950  
  19621306.980   104923947.15809      -198.245          49.300    19621309.460  
  81607525.08108      -198.246          46.150  
  19685117.960   105302102.53009       432.019          49.850    19685122.540  
  81901653.87807       432.019          41.750  
  22839422.820   122218366.01806      -769.506          41.000    22839425.540  
  95058746.05707      -769.507          41.800  
  23154830.420   123949634.26005       716.623          37.850    23154834.360  
  96405275.21106       716.623          40.400  
  19697382.180   105478585.76709       328.869          48.900    19697382.480  
  82038901.79408       328.869          46.750  
 20 09 27 05 30  5.0000000  0 13G30G18G20G 5G13G29G15R 1R24R23R17R 7
                                R 8
  23935767.960   125783311.29706        95.032          39.900    23935767.100  
  98012969.83645        95.032          37.300  
  21023141.860   110477354.99709      -376.984          49.400    21023137.580  
  86086234.60848      -376.984          44.950  
  23221952.940   122032182.80707      -590.698          42.150    23221948.840  
  95090032.40845      -590.699          36.000  
  22180101.400   116557219.44108       527.649          47.650    22180097.840  
  90823789.65247       527.649          44.450  
  20526489.900   107867432.50709        33.840          50.150    20526485.500  
  84052526.13248        33.839          45.750  
  22577666.500   118646434.06208       581.958          48.150    22577662.780  
  92451750.61047       581.959          42.700  
  20520441.040   107835648.08909      -355.477          50.200    20520437.260  
  84027764.52648      -355.477          47.050  
  19593931.500   104740793.06408      -276.407          46.900    19593936.520  
  81465082.36607      -276.407          42.200  
  19620317.460   104918655.69909      -197.413          49.250    19620319.920  
  81603409.49608      -197.413          46.250  
  19687279.600   105313665.76009       432.791          49.700    19687284.160  
  81910647.49607       432.791          41.700  
  22835575.620   122197779.34206      -769.189          41.100    22835578.480  
  95042734.21007      -769.190          41.800  
  23158413.480   123968814.33906       716.741          38.650    23158417.420  
  96420193.03406       716.741          40.750  
  19699027.420   105487395.84309       329.396          48.850    19699027.680  
  82045754.06708       329.396          46.800  
 20 09 27 05 30 10.0000000  0 13G30G18G20G 5G13G29G15R 1R24R23R17R 7
                                R 8
  23936244.100   125785813.71106        95.479          39.550    23936243.180  
  98014919.76345        95.480          37.550  
  21021257.540   110467452.82409      -376.738          49.350    21021253.260  
  86078518.63248      -376.738          45.650  
  23218999.500   122016662.33307      -590.725          41.850    23218995.480  
  95077938.52444      -590.725          33.400  
  22182739.740   116571084.02108       527.676          47.600    22182736.180  
  90834593.22048       527.676          45.050  
  20526660.360   107868328.27209        34.313          50.150    20526655.940  
  84053224.13748        34.313          45.600  
  22580576.760   118661727.46008       582.136          48.250    22580573.020  
  92463667.53447       582.136          42.300  
  20518664.660   107826313.11509      -355.100          50.200    20518660.880  
  84020490.52848      -355.100          47.250  
  19592550.500   104733410.78708      -276.019          46.800    19592555.520  
  81459340.60307      -276.020          42.050  
  19619332.020   104913386.06909      -196.785          49.350    19619334.480  
  81599310.89608      -196.785          46.300  
  19689444.980   105325249.11009       433.349          49.700    19689449.560  
  81919656.76507       433.349          41.700  
  22831729.920   122177200.26506      -769.106          41.250    22831732.820  
  95026728.27507      -769.107          41.850  
  23161996.900   123987996.46605       716.604          38.150    23162000.860  
  96435112.45506       716.604          41.100  
  19700675.140   105496219.19909       329.681          48.750    19700675.360  
  82052616.68108       329.681          46.850  
 20 09 27 05 30 15.0000000  0 13G30G18G20G 5G13G29G15R 1R24R23R17R 7
                                R 8
  23936723.060   125788331.43006        95.982          39.950    23936722.220  
  98016881.62844        95.982          34.900  
  21019375.300   110457561.70709      -376.317          49.400    21019371.040  
  86070811.26848      -376.318          45.650  
  23216046.620   122001145.00207      -590.591          41.850    23216042.600  
  95065847.12245      -590.592          36.000  
  22185379.100   116584954.04108       527.890          47.600    22185375.560  
  90845401.02548       527.890          44.650  
  20526834.080   107869241.15309        34.985          50.150    20526829.640  
  84053935.47748        34.985          45.700  
  22583488.900   118677030.66508       582.517          48.300    22583485.120  
  92475592.10747       582.518          42.450  
  20516891.120   107816993.07909      -354.523          50.250    20516887.360  
  84013228.16648      -354.523          47.200  
  19591172.220   104726043.26708      -275.475          46.750    19591177.260  
  81453610.31407      -275.475          42.000  
  19618350.560   104908137.60309      -195.985          49.250    19618353.000  
  81595228.75608      -195.985          46.200  
  19691614.020   105336852.04409       434.075          49.550    19691618.620  
  81928681.26907       434.075          41.500  
  22827885.520   122156628.09906      -768.821          41.000    22827888.460  
  95010727.71207      -768.822          41.600  
  23165580.600   124007179.81405       716.709          38.100    23165584.560  
  96450032.82606       716.710          41.250  
  19702325.160   105505055.12009       330.155          48.650    19702325.420  
  82059489.07108       330.155          46.850  
 20 09 27 05 30 20.0000000  0 13G30G18G20G 5G13G29G15R 1R24R23R17R 7
                                R 8
  23937204.900   125790864.17106        96.716          39.100    23937204.100  
  98018855.20245        96.716          37.250  
  21017495.120   110447681.37009      -375.762          49.450    21017490.880  
  86063112.30548      -375.762          45.400  
  23213094.260   121985630.50007      -590.336          41.600    23213090.260  
  95053757.89845      -590.336          35.950  
  22188019.420   116598829.22408       528.230          47.600    22188015.920  
  90856212.85247       528.230          44.400  
  20527011.000   107870170.85009        35.768          50.250    20527006.540  
  84054659.91048        35.768          45.950  
  22586402.840   118692343.36008       583.044          48.350    22586399.040  
  92487524.06147       583.044          41.850  
  20515120.380   107807687.69009      -353.815          50.250    20515116.600  
  84005977.21748      -353.815          47.300  
  19589796.680   104718690.14008      -274.783          46.650    19589801.700  
  81447891.20907      -274.782          41.950  
  19617372.980   104902909.91309      -195.073          49.250    19617375.400  
  81591162.77308      -195.073          46.250  
  19693786.600   105348473.89809       434.938          49.450    19693791.220  
  81937720.48307       434.938          41.600  
  22824042.360   122136062.59207      -768.434          41.500    22824045.320  
  94994732.33207      -768.435          41.850  
  23169164.480   124026364.22705       716.865          38.100    23169168.440  
  96464954.02607       716.865          41.650  
  19703977.500   105513903.42508       330.773          48.500    19703977.780  
  82066371.08208       330.773          46.900  
 20 09 27 05 30 25.0000000  0 13G30G18G20G 5G13G29G15R 1R24R23R17R 7
                                R 8
  23937689.680   125793412.35006        97.392          39.650    23937688.980  
  98020840.76445        97.393          36.700  
  21015617.060   110437812.18209      -375.347          49.350    21015612.840  
  86055422.03148      -375.347          45.300  
  23210142.580   121970119.26207      -590.253          41.700    23210138.600  
  95041671.20644      -590.253          35.100  
  22190660.800   116612709.89808       528.415          47.900    22190657.320  
  90867028.95847       528.415          44.300  
  20527191.200   107871117.70509        36.409          50.150    20527186.720  
  84055397.72348        36.409          45.950  
  22589318.660   118707665.90608       583.403          48.350    22589314.800  
  92499463.70347       583.404          42.550  
  20513352.500   107798397.33909      -353.249          50.100    20513348.720  
  83998737.98848      -353.249          47.500  
  19588423.880   104711351.71608      -274.231          46.650    19588428.880  
  81442183.55407      -274.231          41.900  
  19616399.360   104897703.48409      -194.263          49.250    19616401.760  
  81587113.33208      -194.263          46.150  
  19695962.900   105360115.47209       435.671          49.650    19695967.500  
  81946775.03907       435.671          41.600  
  22820200.480   122115504.10606      -768.184          41.450    22820203.520  
  94978742.41807      -768.185          41.700  
  23172748.540   124045549.79006       716.891          38.600    23172752.560  
  96479876.09407       716.893          41.750  
  19705632.180   105522764.33008       331.229          48.400    19705632.480  
  82073262.89708       331.229          46.900  
 20 09 27 05 30 30.0000000  0 13G30G18G20G 5G13G29G15R 1R24R23R17R 7
                                R 8
  23938177.440   125795976.38706        97.942          39.600    23938176.800  
  98022838.75845        97.940          35.600  
  21013741.220   110427954.67109      -374.887          49.350    21013737.020  
  86047740.85748      -374.887          45.250  
  23207191.620   121954611.82007      -590.028          41.750    23207187.620  
  95029587.48844      -590.028          34.900  
  22193303.340   116626596.59208       528.668          47.650    22193299.860  
  90877849.76248       528.668          45.100  
  20527374.740   107872082.25409        37.082          50.150    20527370.260  
  84056149.32848        37.082          45.950  
  22592236.420   118722998.78808       583.785          48.350    22592232.540  
  92511411.39947       583.785          42.350  
  20511587.580   107789122.51509      -352.646          50.150    20511583.780  
  83991510.86048      -352.646          47.800  
  19587053.900   104704028.70308      -273.654          46.700    19587058.940  
  81436487.88107      -273.654          42.000  
  19615429.820   104892518.81309      -193.474          49.250    19615432.200  
  81583080.81708      -193.474          46.150  
  19698142.900   105371777.01809       436.413          49.650    19698147.500  
  81955845.13007       436.413          41.500  
  22816360.000   122094953.24507      -767.872          41.650    22816363.120  
  94962758.43407      -767.872          41.700  
  23176332.960   124064737.09406       716.931          39.550    23176337.020  
  96494799.53907       716.932          41.850  
  19707289.360   105531638.53108       331.724          48.450    19707289.680  
  82080165.05108       331.724          47.000  
 20 09 27 05 30 35.0000000  0 13G30G18G20G 5G13G29G15R 1R24R23R17R 7
                                R 8
  23938668.100   125798555.39806        98.537          39.950    23938667.480  
  98024848.35045        98.538          37.700  
  21011867.440   110418107.93809      -374.444          49.450    21011863.240  
  86040068.07848      -374.444          45.800  
  23204241.160   121939107.19607      -589.888          41.950    23204237.220  
  95017505.97844      -589.889          35.350  
  22195946.840   116640488.39408       528.928          47.800    22195943.380  
  90888674.53348       528.928          44.850  
  20527561.500   107873063.55309        37.779          50.300    20527557.000  
  84056913.97848        37.779          45.900  
  22595155.980   118738341.15008       584.221          48.350    22595152.080  
  92523366.48547       584.221          42.100  
  20509825.440   107779862.33509      -352.017          50.350    20509821.640  
  83984295.14048      -352.017          47.250  
  19585686.660   104696720.03708      -273.067          46.700    19585691.700  
  81430803.36607      -273.067          42.000  
  19614464.200   104887354.95009      -192.626          49.400    19614466.540  
  81579064.48008      -192.626          46.150  
  19700326.460   105383457.65909       437.193          49.800    19700331.080  
  81964930.06406       437.193          41.400  
  22812520.880   122074409.07407      -767.615          41.950    22812523.960  
  94946779.64606      -767.616          41.400  
  23179917.560   124083925.32906       717.042          39.950    23179921.640  
  96509723.71807       717.042          41.700  
  19708948.860   105540525.08909       332.239          48.600    19708949.180  
  82087076.81008       332.239          46.950  
 20 09 27 05 30 40.0000000  0 13G30G18G20G 5G13G29G15R 1R24R23R17R 7
                                R 8
  23939162.060   125801151.86206        98.999          39.450    23939161.520  
  98026871.58944        98.998          35.250  
  21009996.180   110408274.43709      -374.102          49.350    21009991.980  
  86032405.61648      -374.102          45.850  
  23201291.760   121923607.87307      -589.920          42.150    23201287.860  
  95005428.58045      -589.920          35.500  
  22198591.740   116654387.72908       529.016          47.700    22198588.340  
  90899505.18147       529.016          44.050  
  20527751.900   107874064.04609        38.326          50.200    20527747.400  
  84057693.58848        38.326          45.850  
  22598077.800   118753695.36008       584.482          48.250    22598073.880  
  92535330.79847       584.482          42.550  
  20508066.560   107770619.25109      -351.594          50.200    20508062.740  
  83977092.73948      -351.595          47.450  
  19584322.540   104689428.26408      -272.618          46.700    19584327.620  
  81425131.99107      -272.618          41.950  
  19613502.900   104882214.43609      -191.934          49.450    19613505.220  
  81575066.30308      -191.934          46.000  
  19702514.100   105395159.93709       437.801          49.850    19702518.680  
  81974031.83606       437.801          41.350  
  22808683.420   122053874.06107      -767.427          42.350    22808686.520  
  94930807.98006      -767.427          41.200  
  23183502.820   124103116.96606       716.965          39.950    23183506.900  
  96524650.53407       716.966          41.550  
  19710611.100   105549426.25009       332.603          48.700    19710611.400  
  82093999.93308       332.603          46.950  
 20 09 27 05 30 45.0000000  0 13G30G18G20G 5G13G29G15R 1R24R23R17R 7
                                R 8
  23939658.320   125803760.23806        99.663          38.900    23939657.860  
  98028904.10644        99.662          35.050  
  21008126.400   110398448.63209      -373.707          49.400    21008122.200  
  86024749.14748      -373.707          45.450  
  23198342.320   121908108.38807      -589.734          42.750    23198338.440  
  94993351.06544      -589.735          32.700  
  22201237.040   116668289.05808       529.232          47.350    22201233.680  
  90910337.38648       529.232          44.600  
  20527944.900   107875078.24209        38.991          50.150    20527940.400  
  84058483.87048        38.991          46.050  
  22601000.820   118769055.89208       584.853          48.200    22600996.880  
  92547300.03547       584.854          42.950  
  20506309.880   107761387.72009      -351.010          50.200    20506306.040  
  83969899.34448      -351.010          47.550  
  19582960.580   104682147.82608      -272.046          46.550    19582965.680  
  81419469.43007      -272.046          41.850  
  19612544.920   104877091.63809      -191.133          49.450    19612547.220  
  81571081.90508      -191.133          46.050  
  19704704.680   105406878.08709       438.532          49.900    19704709.240  
  81983145.94906       438.532          41.250  
  22804846.620   122033342.54207      -767.183          42.800    22804849.720  
  94914839.02906      -767.184          41.050  
  23187087.660   124122306.23406       717.027          39.900    23187091.720  
  96539575.52907       717.026          41.500  
  19712275.000   105558336.45509       333.073          48.750    19712275.360  
  82100930.09508       333.073          47.050  
 20 09 27 05 30 50.0000000  0 13G30G18G20G 5G13G29G15R 1R24R23R17R 7
                                R 8
  23940157.720   125806385.34906       100.309          39.850    23940157.200  
  98030949.62444       100.309          35.250  
  21006259.020   110388635.41109      -373.151          49.400    21006254.800  
  86017102.48148      -373.152          45.700  
  23195393.760   121892613.49807      -589.529          42.950    23195389.960  
  94981277.12744      -589.530          33.750  
  22203883.640   116682197.34008       529.542          47.400    22203880.340  
  90921175.00647       529.542          44.350  
  20528141.440   107876110.96909        39.737          50.100    20528136.920  
  84059288.59948        39.737          45.850  
  22603925.960   118784427.54908       585.310          48.100    22603922.020  
  92559277.94347       585.311          42.650  
  20504556.320   107752172.59709      -350.321          50.100    20504552.460  
  83962718.73348      -350.321          47.500  
  19581601.640   104674883.52408      -271.407          46.400    19581606.760  
  81413819.41707      -271.407          42.000  
  19611591.160   104871991.51609      -190.257          49.350    19611593.460  
  81567115.14608      -190.257          46.050  
  19706899.180   105418617.04309       439.370          49.850    19706903.680  
  81992276.24406       439.371          41.300  
  22801011.420   122012819.57007      -766.818          43.000    22801014.520  
  94898876.72606      -766.819          40.700  
  23190672.920   124141498.06606       717.156          39.450    23190676.980  
  96554502.52007       717.156          41.600  
  19713941.580   105567260.82409       333.665          48.700    19713941.940  
  82107871.26708       333.665          47.100  
 20 09 27 05 30 55.0000000  0 13G30G18G20G 5G13G29G15R 1R24R23R17R 7
                                R 8
  23940660.400   125809027.18106       100.776          40.100    23940659.840  
  98033008.17344       100.776          34.050  
  21004394.020   110378834.74609      -372.855          49.450    21004389.780  
  86009465.60148      -372.855          45.750  
  23192446.120   121877123.26107      -589.529          43.000    23192442.280  
  94969206.82544      -589.530          32.350  
  22206531.560   116696112.49308       529.612          47.550    22206528.300  
  90932017.98047       529.613          44.250  
  20528341.500   107877162.21309        40.242          50.100    20528336.960  
  84060107.74748        40.241          46.050  
  22606853.200   118799810.35108       585.556          47.950    22606849.280  
  92571264.54147       585.557          42.900  
  20502805.880   107742973.89709      -349.904          50.200    20502802.020  
  83955550.92148      -349.905          47.400  
  19580245.720   104667635.35708      -270.981          46.450    19580250.860  
  81408181.95607      -270.981          42.200  
  19610641.680   104866914.05209      -189.595          49.350    19610643.940  
  81563166.01008      -189.595          46.100  
  19709097.560   105430376.84309       439.964          49.700    19709102.020  
  82001422.74706       439.964          41.250  
  22797177.800   121992305.09207      -766.668          43.050    22797180.920  
  94882921.02906      -766.668          40.950  
  23194258.800   124160692.61206       717.100          39.850    23194262.740  
  96569431.59707       717.101          41.500  
  19715610.780   105576199.08709       333.982          48.800    19715611.120  
  82114823.25108       333.983          47.200  
 20 09 27 05 31  0.0000000  0 13G30G18G20G 5G13G29G15R 1R24R23R17R 7
                                R 8
  23941166.000   125811684.01406       101.325          40.400    23941165.360  
  98035078.47145       101.324          37.000  
  21002531.100   110369044.91209      -372.427          49.550    21002526.840  
  86001837.15948      -372.427          45.900  
  23189499.000   121861635.92007      -589.435          42.950    23189495.160  
  94957138.77144      -589.436          31.700  
  22209180.440   116710032.65808       529.835          47.650    22209177.200  
  90942864.86447       529.835          44.200  
  20528544.720   107878230.19609        40.888          50.150    20528540.200  
  84060939.95148        40.888          45.800  
  22609782.200   118815202.50808       585.911          48.000    22609778.320  
  92583258.42747       585.911          42.700  
  20501058.220   107733789.85509      -349.319          50.300    20501054.340  
  83948394.52948      -349.320          47.250  
  19578892.460   104660401.60208      -270.443          46.550    19578897.660  
  81402555.70607      -270.443          42.350  
  19609696.080   104861857.49309      -188.796          49.400    19609698.340  
  81559233.13608      -188.797          46.250  
  19711299.480   105442155.67809       440.677          49.450    19711303.920  
  82010584.06107       440.677          41.650  
  22793345.540   121971797.43707      -766.401          43.300    22793348.580  
  94866970.63706      -766.402          40.850  
  23197844.800   124179888.04706       717.121          40.200    23197848.640  
  96584361.38407       717.121          41.750  
  19717282.240   105585149.68509       334.456          48.800    19717282.620  
  82121784.82508       334.456          47.200  
 20 09 27 05 31  5.0000000  0 13G30G18G20G 5G13G29G15R 1R24R23R17R 7
                                R 8
  23941674.540   125814356.15506       101.958          40.650    23941673.780  
  98037160.65344       101.958          33.900  
  21000670.280   110359266.24709      -371.954          49.400    21000666.040  
  85994217.42648      -371.954          45.850  
  23186552.460   121846151.81407      -589.232          42.600    23186548.600  
  94945073.21345      -589.231          36.200  
  22211830.340   116723958.20808       530.053          47.650    22211827.140  
  90953715.94047       530.054          44.500  
  20528751.200   107879315.24309        41.593          49.950    20528746.680  
  84061785.44348        41.593          46.100  
  22612713.040   118830604.34208       586.352          47.750    22612709.220  
  92595259.84647       586.352          42.900  
  20499313.400   107724620.83009      -348.707          50.150    20499309.540  
  83941249.84048      -348.708          47.300  
  19577542.020   104653182.58408      -269.839          46.750    19577547.200  
  81396940.92307      -269.840          42.100  
  19608754.460   104856822.12309      -187.945          49.550    19608756.740  
  81555316.73708      -187.945          46.200  
  19713505.020   105453953.92909       441.453          49.400    19713509.460  
  82019760.48007       441.453          41.550  
  22789514.540   121951296.82707      -766.088          43.450    22789517.560  
  94851025.72806      -766.088          40.600  
  23201430.880   124199084.45106       717.186          40.800    23201434.720  
  96599291.91406       717.186          41.300  
  19718956.020   105594112.62509       334.959          48.800    19718956.400  
  82128756.00508       334.958          47.200  
 20 09 27 05 31 10.0000000  0 13G30G18G20G 5G13G29G15R 1R24R23R17R 7
                                R 8
  23942185.980   125817043.37006       102.504          40.750    23942185.180  
  98039254.59444       102.504          34.850  
  20998811.540   110349498.48709      -371.574          49.350    20998807.320  
  85986606.18548      -371.574          45.850  
  23183606.540   121830670.70807      -589.207          43.000    23183602.600  
  94933010.03244      -589.207          34.850  
  22214481.220   116737888.82108       530.214          47.700    22214478.060  
  90964570.95547       530.214          44.500  
  20528960.880   107880417.10809        42.191          49.950    20528956.380  
  84062644.03848        42.191          46.050  
  22615645.680   118846015.60308       586.672          47.900    22615641.880  
  92607268.61647       586.673          42.550  
  20497571.400   107715466.59509      -348.171          50.200    20497567.540  
  83934116.67248      -348.171          47.300  
  19576194.240   104645978.00508      -269.329          46.900    19576199.460  
  81391337.36007      -269.330          42.450  
  19607816.780   104851807.81709      -187.203          49.550    19607819.080  
  81551416.71908      -187.203          46.200  
  19715714.140   105465771.30609       442.134          49.450    19715718.560  
  82028951.76807       442.135          41.600  
  22785684.820   121930803.09107      -765.870          43.650    22785687.840  
  94835086.15406      -765.870          40.350  
  23205017.200   124218281.74306       717.220          40.900    23205020.940  
  96614223.13506       717.220          41.350  
  19720632.100   105603088.01409       335.410          48.700    19720632.520  
  82135736.86108       335.411          47.050  
 20 09 27 05 31 15.0000000  0 13G30G18G20G 5G13G29G15R 1R24R23R17R 7
                                R 8
  23942700.020   125819744.32206       103.012          40.850    23942699.200  
  98041359.21844       103.012          34.800  
  20996954.620   110339740.36409      -371.177          49.350    20996950.420  
  85979002.45548      -371.177          46.250  
  23180660.900   121815191.24907      -589.092          42.900    23180657.000  
  94920948.12144      -589.092          33.650  
  22217132.860   116751823.25408       530.379          47.600    22217129.680  
  90975428.95148       530.380          44.550  
  20529173.500   107881534.49109        42.817          49.850    20529169.040  
  84063514.72848        42.817          46.300  
  22618579.860   118861434.98008       586.962          47.750    22618576.120  
  92619283.70647       586.963          43.050  
  20495831.980   107706325.79709      -347.627          50.150    20495828.100  
  83926993.97448      -347.628          47.300  
  19574848.940   104638786.63808      -268.806          46.900    19574854.200  
  81385744.07807      -268.806          42.450  
  19606882.760   104846813.15009      -186.436          49.450    19606885.060  
  81547531.97808      -186.436          46.300  
  19717926.600   105477606.45209       442.822          49.550    19717931.020  
  82038156.87607       442.822          41.850  
  22781856.160   121910315.01307      -765.630          43.400    22781859.140  
  94819150.98406      -765.630          40.650  
  23208603.460   124237478.72207       717.167          41.600    23208607.100  
  96629154.10007       717.168          41.650  
  19722310.240   105612074.36709       335.826          48.650    19722310.660  
  82142726.24408       335.826          47.200  
 20 09 27 05 31 20.0000000  0 13G30G18G20G 5G13G29G15R 1R24R23R17R 7
                                R 8
  23943217.080   125822461.04906       103.756          41.000    23943216.180  
  98043476.15844       103.755          34.600  
  20995099.920   110329993.87109      -370.645          49.300    20995095.740  
  85971407.79148      -370.646          46.000  
  23177716.020   121799715.52507      -588.836          42.650    23177712.080  
  94908889.10844      -588.836          32.700  
  22219785.580   116765763.52408       530.713          47.450    22219782.420  
  90986291.49848       530.713          45.100  
  20529389.460   107882669.41109        43.609          49.850    20529385.020  
  84064399.08348        43.609          46.300  
  22621515.940   118876864.42908       587.482          47.650    22621512.260  
  92631306.65147       587.482          42.900  
  20494095.480   107697200.44609      -346.941          50.100    20494091.580  
  83919883.31948      -346.941          47.450  
  19573506.520   104631610.45508      -268.140          47.150    19573511.760  
  81380162.60907      -268.140          42.550  
  19605952.840   104841840.24609      -185.505          49.550    19605955.120  
  81543664.17008      -185.505          46.050  
  19720142.720   105489461.23109       443.670          49.750    19720147.140  
  82047377.26507       443.670          41.800  
  22778028.980   121889834.51607      -765.261          43.750    22778031.900  
  94803221.71906      -765.261          39.850  
  23212190.100   124256677.20307       717.365          41.850    23212193.540  
  96644086.25107       717.365          41.600  
  19723990.760   105621073.57909       336.422          48.700    19723991.200  
  82149725.63608       336.422          46.900  
 20 09 27 05 31 25.0000000  0 13G30G18G20G 5G13G29G15R 1R24R23R17R 7
                                R 8
  23943737.300   125825194.26606       104.369          41.400    23943736.300  
  98045605.92444       104.370          34.500  
  20993247.580   110320259.76609      -370.197          49.350    20993243.420  
  85963822.77248      -370.197          46.150  
  23174771.960   121784244.24807      -588.670          42.350    23174767.980  
  94896833.55645      -588.670          35.700  
  22222439.560   116779710.37208       530.968          47.400    22222436.400  
  90997159.17047       530.968          44.400  
  20529608.860   107883822.53409        44.289          49.900    20529604.460  
  84065297.61848        44.289          46.300  
  22624454.080   118892304.67708       587.902          47.700    22624450.460  
  92643338.00547       587.902          42.650  
  20492362.060   107688091.35709      -346.307          50.200    20492358.160  
  83912785.32648      -346.307          47.450  
  19572167.040   104624450.15008      -267.552          47.100    19572172.320  
  81374593.47707      -267.553          42.400  
  19605027.080   104836889.76809      -184.690          49.600    19605029.320  
  81539813.79608      -184.690          46.050  
  19722362.720   105501336.63309       444.440          49.750    19722367.140  
  82056613.68007       444.440          41.750  
  22774203.300   121869362.41407      -764.948          43.450    22774206.200  
  94787298.96706      -764.948          40.200  
  23215777.120   124275878.12207       717.473          42.650    23215780.440  
  96659020.28707       717.474          41.800  
  19725673.820   105630086.42109       336.932          48.600    19725674.300  
  82156735.62208       336.932          47.000  
 20 09 27 05 31 30.0000000  0 13G30G18G20G 5G13G29G15R 1R24R23R17R 7
                                R 8
  23944260.460   125827943.26207       104.980          41.650    23944259.420  
  98047748.01945       104.979          35.550  
  20991397.480   110310537.34909      -369.823          49.350    20991393.320  
  85956246.87548      -369.823          46.250  
  23171828.560   121768776.72407      -588.595          42.050    23171824.580  
  94884780.96644      -588.595          33.100  
  22225094.700   116793663.06408       531.115          47.300    22225091.480  
  91008031.40048       531.115          44.850  
  20529831.600   107884993.19609        44.869          49.900    20529827.240  
  84066209.82448        44.869          45.650  
  22627394.180   118907755.02308       588.192          47.850    22627390.600  
  92655377.23547       588.192          43.000  
  20490631.620   107678997.77109      -345.799          50.150    20490627.700  
  83905699.42248      -345.799          47.250  
  19570830.460   104617305.16108      -267.060          46.900    19570835.720  
  81369036.26707      -267.060          42.350  
  19604105.420   104831961.12509      -183.940          49.550    19604107.620  
  81535980.40708      -183.940          46.000  
  19724586.380   105513231.81309       445.103          49.750    19724590.840  
  82065865.48307       445.104          41.750  
  22770379.060   121848898.02407      -764.727          43.350    22770381.940  
  94771382.22506      -764.727          40.150  
  23219364.460   124295080.54307       717.431          42.200    23219367.620  
  96673955.48907       717.432          41.700  
  19727359.340   105639112.32808       337.342          48.400    19727359.820  
  82163755.77608       337.342          46.850  
 20 09 27 05 31 35.0000000  0 13G30G18G20G 5G13G29G15R 1R24R23R17R 7
                                R 8
  23944786.560   125830707.58706       105.518          41.250    23944785.480  
  98049902.03244       105.518          34.400  
  20989549.540   110300826.19109      -369.341          49.350    20989545.360  
  85948679.74148      -369.341          46.000  
  23168885.800   121753312.49006      -588.424          41.350    23168881.800  
  94872730.89744      -588.423          34.550  
  22227750.860   116807621.18208       531.367          47.250    22227747.580  
  91018907.85548       531.367          44.850  
  20530057.620   107886180.96809        45.555          49.850    20530053.260  
  84067135.35948        45.555          46.000  
  22630336.080   118923214.95608       588.603          47.650    22630332.560  
  92667423.93047       588.603          42.700  
  20488904.040   107669919.25009      -345.199          50.100    20488900.100  
  83898625.25748      -345.199          47.250  
  19569496.620   104610174.95808      -266.474          46.750    19569501.880  
  81363490.55307      -266.474          42.300  
  19603187.740   104827053.77609      -183.094          49.400    19603189.900  
  81532163.58208      -183.094          46.050  
  19726813.700   105525146.38809       445.860          49.650    19726818.160  
  82075132.37207       445.860          41.800  
  22766556.160   121828440.87607      -764.419          42.900    22766559.040  
  94755471.11906      -764.420          39.650  
  23222951.980   124314284.10407       717.537          42.000    23222955.000  
  96688891.58507       717.537          41.900  
  19729047.180   105648150.81408       337.842          48.250    19729047.700  
  82170785.70908       337.843          46.800  
 20 09 27 05 31 40.0000000  0 13G30G18G20G 5G13G29G15R 1R24R23R17R 7
                                R 8
  23945315.640   125833487.57407       106.106          41.750    23945314.540  
  98052068.26044       106.105          32.850  
  20987703.800   110291126.59109      -368.985          49.350    20987699.600  
  85941121.60748      -368.985          45.900  
  23165943.680   121737851.87806      -588.327          40.650    23165939.680  
  94860683.68244      -588.327          34.400  
  22230408.100   116821584.95408       531.531          47.500    22230404.780  
  91029788.70947       531.532          44.200  
  20530286.920   107887386.11809        46.162          49.800    20530282.580  
  84068074.43548        46.163          46.100  
  22633279.860   118938684.80308       588.915          47.400    22633276.400  
  92679478.35047       588.916          43.150  
  20487179.380   107660856.15309      -344.646          50.100    20487175.440  
  83891563.10548      -344.646          47.200  
  19568165.580   104603059.72508      -265.961          46.700    19568170.820  
  81357956.47707      -265.961          42.250  
  19602274.100   104822167.99109      -182.367          49.300    19602276.220  
  81528363.51908      -182.366          45.950  
  19729044.680   105537080.49509       446.538          49.550    19729049.140  
  82084414.44907       446.538          41.750  
  22762734.680   121807991.33507      -764.167          42.450    22762737.560  
  94739565.92206      -764.167          39.800  
  23226539.780   124333489.12007       717.518          41.950    23226542.680  
  96703828.80607       717.518          41.700  
  19730737.420   105657201.93708       338.277          48.200    19730737.920  
  82177825.46408       338.277          46.800  
 20 09 27 05 31 45.0000000  0 13G30G18G20G 5G13G29G15R 1R24R23R17R 7
                                R 8
  23945847.420   125836281.54007       106.771          41.600    23945846.280  
  98054245.38044       106.771          35.250  
  20985859.940   110281436.95409      -368.439          49.400    20985855.720  
  85933571.24148      -368.439          46.350  
  23163001.940   121722393.19606      -588.188          40.250    23162997.920  
  94848637.93645      -588.188          35.850  
  22233066.120   116835552.81508       531.822          47.550    22233062.760  
  91040672.75447       531.822          44.200  
  20530519.240   107888607.04909        46.896          49.750    20530514.920  
  84069025.81248        46.896          46.200  
  22636225.240   118954162.93708       589.406          47.600    22636221.800  
  92691539.22447       589.407          42.250  
  20485457.380   107651806.83209      -343.992          50.200    20485453.400  
  83884511.68748      -343.992          47.250  
  19566837.100   104595958.03208      -265.315          46.850    19566842.300  
  81352432.94007      -265.315          42.000  
  19601364.220   104817302.32809      -181.465          49.150    19601366.280  
  81524579.11408      -181.465          45.900  
  19731279.000   105549032.64409       447.344          49.450    19731283.480  
  82093710.55607       447.344          41.800  
  22758914.280   121787547.71307      -763.824          42.600    22758917.180  
  94723665.32506      -763.824          40.000  
  23230127.540   124352693.87507       717.659          42.150    23230130.300  
  96718765.82507       717.660          41.650  
  19732429.740   105666264.23908       338.801          48.200    19732430.240  
  82184873.92108       338.801          46.650  
 20 09 27 05 31 50.0000000  0 13G30G18G20G 5G13G29G15R 1R24R23R17R 7
                                R 8
  23946382.180   125839091.63606       107.298          41.050    23946381.040  
  98056435.07445       107.298          36.500  
  20984018.380   110271759.37009      -368.064          49.300    20984014.140  
  85926030.27048      -368.064          46.150  
  23160060.900   121706938.61506      -588.119          39.900    23160056.980  
  94836595.45745      -588.120          35.750  
  22235725.340   116849526.86808       532.007          47.750    22235721.900  
  91051561.62747       532.007          44.200  
  20530754.960   107889845.88709        47.530          49.800    20530750.640  
  84069991.14248        47.530          46.200  
  22639172.600   118969651.41308       589.703          47.700    22639169.180  
  92703608.16647       589.703          42.300  
  20483738.360   107642773.37109      -343.437          50.150    20483734.400  
  83877472.63048      -343.438          47.600  
  19565511.460   104588871.84908      -264.791          47.050    19565516.680  
  81346921.47707      -264.792          42.150  
  19600458.420   104812458.71209      -180.705          49.200    19600460.480  
  81520811.86608      -180.705          46.000  
  19733517.080   105561004.77109       448.024          49.550    19733521.560  
  82103022.20707       448.025          41.750  
  22755095.420   121767112.23807      -763.596          42.700    22755098.300  
  94707771.07906      -763.596          39.750  
  23233715.640   124371900.48407       717.688          42.750    23233718.240  
  96733704.29707       717.688          41.800  
  19734124.540   105675339.82208       339.241          48.300    19734125.020  
  82191932.71108       339.241          46.700  
 20 09 27 05 31 55.0000000  0 13G30G18G20G 5G13G29G15R 1R24R23R17R 7
                                R 8
  23946920.080   125841918.10706       107.848          40.400    23946918.900  
  98058637.50245       107.849          36.100  
  20982179.160   110262094.13609      -367.580          49.300    20982174.920  
  85918498.91648      -367.580          46.050  
  23157120.700   121691488.40306      -588.013          40.300    23157116.840  
  94824556.31545      -588.013          36.800  
  22238385.800   116863507.36208       532.222          47.900    22238382.260  
  91062455.51847       532.222          43.650  
  20530994.140   107891102.85509        48.202          49.900    20530989.820  
  84070970.59848        48.202          46.200  
  22642121.980   118985150.52808       590.115          47.800    22642118.600  
  92715685.39947       590.115          42.650  
  20482022.440   107633756.09609      -342.858          50.300    20482018.460  
  83870446.18648      -342.858          47.400  
  19564188.820   104581801.41708      -264.211          46.950    19564194.000  
  81341422.25907      -264.212          42.050  
  19599556.840   104807637.58609      -179.883          49.200    19599558.880  
  81517062.10108      -179.883          45.850  
  19735758.960   105572997.31209       448.777          49.550    19735763.440  
  82112349.73907       448.777          41.700  
  22751278.120   121746685.09707      -763.274          42.750    22751281.000  
  94691883.30906      -763.275          39.950  
  23237304.160   124391109.23807       717.724          42.250    23237306.600  
  96748644.42807       717.725          41.650  
  19735821.860   105684428.88508       339.741          48.350    19735822.320  
  82199001.98508       339.741          46.650  
 20 09 27 05 32  0.0000000  0 13G30G18G20G 5G13G29G15R 1R24R23R17R 7
                                R 8
  23947460.860   125844759.94606       108.422          41.250    23947459.700  
  98060851.92045       108.423          37.000  
  20980342.080   110252440.22309      -367.240          49.250    20980337.820  
  85910976.39348      -367.240          45.850  
  23154181.160   121676041.57606      -587.831          40.600    23154177.380  
  94812519.83845      -587.832          35.550  
  22241047.280   116877493.24708       532.354          47.750    22241043.660  
  91073353.61547       532.354          44.000  
  20531236.580   107892376.91209        48.776          49.950    20531232.260  
  84071963.37648        48.776          46.300  
  22645073.180   119000659.18108       590.397          47.800    22645069.840  
  92727770.05947       590.397          42.450  
  20480309.380   107624753.93309      -342.354          50.200    20480305.420  
  83863431.51848      -342.354          47.500  
  19562868.960   104574745.95308      -263.730          46.750    19562874.120  
  81335934.68207      -263.730          42.100  
  19598659.280   104802837.89409      -179.129          49.400    19598661.300  
  81513329.01208      -179.129          46.050  
  19738004.440   105585009.18009       449.440          49.450    19738008.920  
  82121692.30307       449.440          41.750  
  22747462.120   121726265.35407      -763.107          42.900    22747465.100  
  94676001.28906      -763.107          40.350  
  23240892.820   124410319.20307       717.703          42.250    23240895.160  
  96763585.50807       717.703          41.650  
  19737521.520   105693530.46608       340.114          48.400    19737521.960  
  82206080.99608       340.114          46.750  
 20 09 27 05 32  5.0000000  0 13G30G18G20G 5G13G29G15R 1R24R23R17R 7
                                R 8
  23948004.060   125847614.09206       108.837          40.900    23948002.920  
  98063075.93845       108.837          38.000  
  20978506.560   110242794.59709      -366.938          49.100    20978502.320  
  85903460.32148      -366.938          46.050  
  23151241.760   121660595.03206      -587.754          40.000    23151238.000  
  94800483.56045      -587.754          35.550  
  22243709.180   116891481.47608       532.435          47.750    22243705.480  
  91084253.52547       532.435          44.200  
  20531481.700   107893664.99509        49.306          49.950    20531477.360  
  84072967.07948        49.306          46.000  
  22648025.620   119016174.34808       590.618          47.400    22648022.300  
  92739859.79747       590.618          43.900  
  20478598.640   107615763.84709      -341.919          50.100    20478594.680  
  83856426.26248      -341.919          47.800  
  19561551.280   104567702.13208      -263.295          46.700    19561556.400  
  81330456.15407      -263.295          42.100  
  19597765.120   104798056.43209      -178.504          49.450    19597767.120  
  81509610.09108      -178.504          46.150  
  19740252.960   105597037.32409       450.008          49.450    19740257.460  
  82131047.51907       450.008          41.850  
  22743646.960   121705849.87107      -762.924          42.750    22743649.960  
  94660122.58206      -762.924          40.600  
  23244481.060   124429527.01507       717.610          42.000    23244483.340  
  96778524.91307       717.610          41.650  
  19739222.900   105702641.26508       340.461          48.350    19739223.340  
  82213167.17008       340.461          46.850  
 20 09 27 05 32 10.0000000  0 13G30G18G20G 5G13G29G15R 1R24R23R17R 7
                                R 8
  23948550.180   125850483.83006       109.604          41.250    23948549.060  
  98065312.08645       109.604          36.300  
  20976673.260   110233160.54409      -366.417          49.050    20976669.000  
  85895953.26648      -366.417          46.250  
  23148302.940   121645152.02006      -587.675          39.700    23148299.360  
  94788450.05944      -587.675          34.200  
  22246372.200   116905475.31508       532.733          47.700    22246368.400  
  91095157.81747       532.733          44.300  
  20531730.100   107894970.42209        50.053          50.000    20531725.780  
  84073984.29948        50.053          46.250  
  22650979.960   119031699.32008       591.073          47.400    22650976.640  
  92751957.17447       591.073          43.150  
  20476890.820   107606789.14009      -341.215          50.050    20476886.860  
  83849432.98448      -341.216          47.650  
  19560236.420   104560673.36308      -262.658          46.700    19560241.480  
  81324989.33807      -262.658          41.850  
  19596875.040   104793296.65709      -177.596          49.400    19596877.020  
  81505908.04508      -177.596          46.100  
  19742505.120   105609084.86909       450.842          49.550    19742509.600  
  82140417.82807       450.842          41.650  
  22739833.220   121685442.07207      -762.529          43.000    22739836.280  
  94644249.85806      -762.530          40.600  
  23248069.520   124448736.25207       717.705          42.400    23248071.760  
  96793465.42207       717.706          41.550  
  19740926.640   105711764.78808       341.027          48.300    19740927.100  
  82220263.24308       341.027          46.850  
 20 09 27 05 32 15.0000000  0 13G30G18G20G 5G13G29G15R 1R24R23R17R 7
                                R 8
  23949099.880   125853371.90806       110.281          41.250    23949098.720  
  98067562.54245       110.280          38.250  
  20974842.680   110223540.84909      -365.808          49.050    20974838.420  
  85888457.40748      -365.808          46.100  
  23145365.300   121629715.38206      -587.354          39.800    23145361.860  
  94776421.52844      -587.355          33.800  
  22249036.780   116919477.56208       533.116          47.650    22249032.920  
  91106068.65347       533.117          44.350  
  20531982.360   107896295.96509        50.864          49.900    20531978.020  
  84075017.19648        50.864          46.250  
  22653936.660   119047236.84908       591.582          47.350    22653933.360  
  92764064.34247       591.582          43.350  
  20475186.440   107597832.58609      -340.490          50.100    20475182.480  
  83842453.86148      -340.490          48.050  
  19558924.920   104553662.47008      -261.938          46.800    19558929.920  
  81319536.42307      -261.938          41.900  
  19595989.520   104788561.34109      -176.624          49.350    19595991.480  
  81502225.02608      -176.625          46.050  
  19744761.460   105621154.90109       451.728          49.600    19744765.980  
  82149805.63207       451.728          41.650  
  22736021.500   121665044.76207      -762.124          43.000    22736024.580  
  94628385.29606      -762.125          40.600  
  23251658.720   124467949.62307       717.933          42.350    23251660.980  
  96808409.14907       717.933          41.550  
  19742633.280   105720903.83708       341.660          48.300    19742633.760  
  82227371.39208       341.660          46.850  
 20 09 27 05 32 20.0000000  0 13G30G18G20G 5G13G29G15R 1R24R23R17R 7
                                R 8
  23949652.480   125856275.35506       110.744          41.400    23949651.300  
  98069824.96645       110.745          37.000  
  20973014.240   110213932.55509      -365.503          49.050    20973010.040  
  85880970.43348      -365.503          45.900  
  23142428.380   121614282.16506      -587.358          40.750    23142425.000  
  94764395.67844      -587.359          34.850  
  22251702.400   116933485.28508       533.188          47.750    22251698.480  
  91116983.75747       533.187          44.200  
  20532237.860   107897638.60009        51.392          50.000    20532233.520  
  84076063.40348        51.392          46.150  
  22656895.180   119062783.95608       591.873          47.550    22656891.900  
  92776178.95847       591.874          43.600  
  20473484.960   107588891.20909      -340.046          50.250    20473481.000  
  83835486.55648      -340.046          47.700  
  19557616.200   104546666.41108      -261.501          46.750    19557621.160  
  81314095.04007      -261.501          42.200  
  19595108.000   104783847.52409      -175.931          49.200    19595110.000  
  81498558.72608      -175.931          46.050  
  19747021.380   105633244.10609       452.324          49.650    19747025.940  
  82159208.34607       452.324          41.650  
  22732211.200   121644654.97007      -761.956          42.950    22732214.260  
  94612526.57106      -761.957          40.850  
  23255248.160   124487164.08807       717.860          42.250    23255250.400  
  96823353.72607       717.860          41.600  
  19744342.260   105730055.52408       341.994          48.350    19744342.780  
  82234489.37108       341.994          46.900  
 20 09 27 05 32 25.0000000  0 13G30G18G20G 5G13G29G15R 1R24R23R17R 7
                                R 8
  23950207.660   125859192.58806       111.260          41.400    23950206.500  
  98072098.12045       111.260          37.800  
  20971187.700   110204334.05409      -365.158          49.200    20971183.520  
  85873491.08148      -365.158          45.900  
  23139491.860   121598850.70906      -587.397          41.000    23139488.440  
  94752371.15444      -587.398          34.350  
  22254368.760   116947496.79908       533.288          47.850    22254364.760  
  91127901.82047       533.288          43.800  
  20532496.320   107898996.76909        51.938          50.150    20532491.940  
  84077121.71948        51.938          45.950  
  22659855.200   119078338.99708       592.064          47.700    22659851.960  
  92788299.76147       592.064          42.950  
  20471786.060   107579963.42409      -339.555          50.300    20471782.120  
  83828529.84748      -339.555          47.650  
  19556309.940   104539683.64408      -261.061          46.800    19556314.880  
  81308664.00507      -261.061          42.050  
  19594230.200   104779153.57009      -175.225          49.250    19594232.200  
  81494907.87708      -175.226          46.250  
  19749284.620   105645351.11509       452.930          49.650    19749289.240  
  82168624.90207       452.930          41.750  
  22728401.980   121624271.01307      -761.771          42.850    22728405.040  
  94596672.38907      -761.771          41.500  
  23258837.440   124506378.02007       717.780          42.300    23258839.700  
  96838297.89207       717.780          41.750  
  19746053.220   105739217.92108       342.345          48.350    19746053.800  
  82241615.67808       342.345          46.950  
 20 09 27 05 32 30.0000000  0 13G30G18G20G 5G13G29G15R 1R24R23R17R 7
                                R 8
  23950765.780   125862125.27607       111.893          41.550    23950764.620  
  98074383.32845       111.894          37.950  
  20969363.320   110194747.03809      -364.666          49.100    20969359.180  
  85866020.68348      -364.666          46.200  
  23136556.040   121583422.74006      -587.085          40.900    23136552.600  
  94740349.38044      -587.085          35.100  
  22257036.140   116961513.73408       533.578          47.800    22257032.100  
  91138824.10548       533.578          44.650  
  20532758.080   107900372.14109        52.656          50.050    20532753.660  
  84078193.43548        52.656          45.950  
  22662817.060   119093903.64808       592.544          47.600    22662813.840  
  92800428.04847       592.544          43.200  
  20470090.080   107571050.91609      -338.934          50.200    20470086.140  
  83821585.03348      -338.934          47.950  
  19555006.440   104532715.71408      -260.430          46.800    19555011.360  
  81303244.50807      -260.430          42.050  
  19593356.420   104774481.13209      -174.363          49.350    19593358.440  
  81491273.75608      -174.363          46.250  
  19751551.500   105657477.37809       453.707          49.450    19751556.140  
  82178056.43407       453.707          41.750  
  22724594.140   121603894.58907      -761.418          42.850    22724597.220  
  94580824.06707      -761.418          41.850  
  23262427.100   124525593.09007       717.891          42.350    23262429.220  
  96853242.93607       717.891          41.650  
  19747766.540   105748392.84908       342.900          48.350    19747767.160  
  82248751.72608       342.900          47.000  
 20 09 27 05 32 35.0000000  0 13G30G18G20G 5G13G29G15R 1R24R23R17R 7
                                R 8
  23951326.900   125865073.68706       112.509          41.400    23951325.700  
  98076680.79345       112.509          38.300  
  20967541.180   110185171.79609      -364.227          48.900    20967537.100  
  85858559.45248      -364.227          46.150  
  23133620.860   121567998.52706      -587.023          40.700    23133617.440  
  94728330.52145      -587.023          35.950  
  22259704.640   116975536.42308       533.755          47.700    22259700.540  
  91149750.87047       533.755          44.350  
  20533023.140   107901764.98009        53.324          50.000    20533018.680  
  84079278.76848        53.324          46.200  
  22665780.760   119109478.13808       592.872          47.550    22665777.600  
  92812564.00647       592.872          43.050  
  20468397.060   107562153.96409      -338.337          50.150    20468393.120  
  83814652.34648      -338.337          47.800  
  19553705.760   104525763.02408      -259.889          46.850    19553710.720  
  81297836.86407      -259.889          42.250  
  19592486.740   104769830.55409      -173.568          49.350    19592488.760  
  81487656.64008      -173.568          46.300  
  19753822.040   105669623.24709       454.438          49.450    19753826.700  
  82187503.21407       454.438          42.050  
  22720787.800   121583526.09707      -761.173          42.650    22720790.900  
  94564981.91507      -761.173          42.400  
  23266016.900   124544809.59207       717.976          42.200    23266019.040  
  96868189.10207       717.976          41.800  
  19749482.200   105757580.52408       343.345          48.350    19749482.900  
  82255897.69308       343.345          47.050  
 20 09 27 05 32 40.0000000  0 13G30G18G20G 5G13G29G15R 1R24R23R17R 7
                                R 8
  23951891.020   125868037.74506       113.025          41.000    23951889.760  
  98078990.44945       113.026          36.550  
  20965721.240   110175608.25409      -363.859          49.100    20965717.240  
  85851107.34748      -363.859          46.200  
  23130686.400   121552578.02006      -586.946          40.700    23130683.000  
  94716314.52944      -586.947          34.200  
  22262374.220   116989564.78808       533.910          47.800    22262370.060  
  91160682.06147       533.910          44.100  
  20533291.540   107903175.19809        53.922          50.150    20533287.020  
  84080377.63748        53.921          45.950  
  22668746.360   119125062.38508       593.205          47.650    22668743.200  
  92824707.56347       593.205          43.050  
  20466706.960   107553272.49209      -337.804          50.250    20466703.060  
  83807731.72248      -337.805          47.700  
  19552407.940   104518825.44308      -259.373          46.850    19552412.880  
  81292440.96807      -259.373          41.900  
  19591621.120   104765201.77509      -172.796          49.300    19591623.140  
  81484056.47708      -172.796          46.250  
  19756096.200   105681788.49909       455.125          49.450    19756100.880  
  82196965.07307       455.126          42.100  
  22716982.900   121563165.38607      -760.913          42.800    22716986.020  
  94549145.81707      -760.913          42.450  
  23269606.960   124564027.47207       717.990          41.800    23269609.120  
  96883136.33807       717.991          41.800  
  19751200.280   105766780.82808       343.754          48.450    19751201.000  
  82263053.48008       343.755          47.000  
 20 09 27 05 32 45.0000000  0 13G30G18G20G 5G13G29G15R 1R24R23R17R 7
                                R 8
  23952458.060   125871017.34506       113.722          41.200    23952456.780  
  98081312.20546       113.722          38.650  
  20963903.580   110166056.34209      -363.275          49.050    20963899.580  
  85843664.30548      -363.275          46.150  
  23127752.540   121537161.09906      -586.651          40.850    23127749.260  
  94704301.38145      -586.652          36.950  
  22265044.800   117003598.69608       534.249          47.850    22265040.620  
  91171617.57447       534.249          44.250  
  20533563.220   107904602.73109        54.678          50.250    20533558.660  
  84081490.00648        54.678          46.050  
  22671713.800   119140656.31108       593.688          47.450    22671710.660  
  92836858.67047       593.688          43.600  
  20465019.780   107544406.40409      -337.100          50.250    20465015.920  
  83800823.08448      -337.101          47.950  
  19551112.940   104511902.91508      -258.703          46.700    19551117.860  
  81287056.77907      -258.703          42.000  
  19590759.560   104760594.64809      -171.870          49.250    19590761.600  
  81480473.15408      -171.870          46.350  
  19758374.000   105693973.23609       455.964          49.350    19758378.700  
  82206442.08607       455.964          41.850  
  22713179.460   121542812.55007      -760.470          42.800    22713182.640  
  94533315.84507      -760.471          42.650  
  23273197.260   124583246.64007       718.125          42.050    23273199.440  
  96898084.57307       718.125          41.600  
  19752920.720   105775993.84308       344.362          48.350    19752921.480  
  82270219.15408       344.363          46.900  
