     2.11           OBSERVATION DATA    M                   RINEX VERSION / TYPE
LEICA GEO OFFICE 8.4                    27-9-20 23:31       PGM / RUN BY / DATE
                                                            OBSERVER / AGENCY
BLHR                                                        MARKER NAME
BLHR                                                        MARKER NUMBER
196020              LEICA GX1230+ GNSS  7.50                REC # / TYPE / VERS
                    LEIAX1203+GNSS                          ANT # / TYPE
 -1119129.6312  3883942.4992  4918552.4209                  APPROX POSITION XYZ
        1.3700        0.0000        0.0000                  ANTENNA: DELTA H/E/N
L1PhaOff:   0.0585  L2PhaOff:   0.0555                      COMMENT
     1     1                                                WAVELENGTH FACT L1/2
     8    C1    L1    D1    S1    P2    L2    D2    S2      # / TYPES OF OBSERV
  2020     9    27     7    33   50.0000000     GPS         TIME OF FIRST OBS
  2020     9    27     9    15   50.0000000     GPS         TIME OF LAST OBS
    18                                                      LEAP SECONDS
    22                                                      # OF SATELLITES
          C1    L1    D1    S1    P2    L2    D2    S2      COMMENT
   G 1     0     0     0     0     0     0     0     0      PRN / # OF OBS
   G 2     0     0     0     0     0     0     0     0      PRN / # OF OBS
   G 3     0     0     0     0     0     0     0     0      PRN / # OF OBS
   G 4     0     0     0     0     0     0     0     0      PRN / # OF OBS
   G 5     0     0     0     0     0     0     0     0      PRN / # OF OBS
   G 6     0     0     0     0     0     0     0     0      PRN / # OF OBS
   G 7     0     0     0     0     0     0     0     0      PRN / # OF OBS
   G 8   383   383   383   383   376   376   376   376      PRN / # OF OBS
   G 9     0     0     0     0     0     0     0     0      PRN / # OF OBS
   G10  1225  1225  1225  1225  1225  1225  1225  1225      PRN / # OF OBS
   G11   331   331   331   331   323   323   323   323      PRN / # OF OBS
   G12   262   260   262   262   261   260   261   261      PRN / # OF OBS
   G13   315   315   315   315   315   315   315   315      PRN / # OF OBS
   G14     0     0     0     0     0     0     0     0      PRN / # OF OBS
   G15  1225  1225  1225  1225  1225  1225  1225  1225      PRN / # OF OBS
   G16     0     0     0     0     0     0     0     0      PRN / # OF OBS
   G17     0     0     0     0     0     0     0     0      PRN / # OF OBS
   G18  1059  1059  1059  1059  1059  1059  1059  1059      PRN / # OF OBS
   G19     0     0     0     0     0     0     0     0      PRN / # OF OBS
   G20  1225  1225  1225  1225  1225  1225  1225  1225      PRN / # OF OBS
   G21  1196  1196  1196  1196  1194  1194  1194  1194      PRN / # OF OBS
   G22     0     0     0     0     0     0     0     0      PRN / # OF OBS
   G23     0     0     0     0     0     0     0     0      PRN / # OF OBS
   G24  1225  1225  1225  1225  1225  1225  1225  1225      PRN / # OF OBS
   G25     0     0     0     0     0     0     0     0      PRN / # OF OBS
   G26     0     0     0     0     0     0     0     0      PRN / # OF OBS
   G27   340   340   340   340   331   331   331   331      PRN / # OF OBS
   G28     0     0     0     0     0     0     0     0      PRN / # OF OBS
   G29     0     0     0     0     0     0     0     0      PRN / # OF OBS
   G30     0     0     0     0     0     0     0     0      PRN / # OF OBS
   G31     0     0     0     0     0     0     0     0      PRN / # OF OBS
   G32  1057  1056  1057  1057  1055  1055  1055  1055      PRN / # OF OBS
   R 1  1175  1175  1175  1175  1175  1175  1175  1175      PRN / # OF OBS
   R 2  1225  1225  1225  1225  1225  1225  1225  1225      PRN / # OF OBS
   R 3  1016  1016  1016  1016  1014  1013  1014  1014      PRN / # OF OBS
   R 4     0     0     0     0     0     0     0     0      PRN / # OF OBS
   R 5     0     0     0     0     0     0     0     0      PRN / # OF OBS
   R 6     0     0     0     0     0     0     0     0      PRN / # OF OBS
   R 7     0     0     0     0     0     0     0     0      PRN / # OF OBS
   R 8     0     0     0     0     0     0     0     0      PRN / # OF OBS
   R 9     0     0     0     0     0     0     0     0      PRN / # OF OBS
   R10   633   633   633   633     0     0     0     0      PRN / # OF OBS
   R11  1225  1225  1225  1225  1225  1225  1225  1225      PRN / # OF OBS
   R12  1140  1140  1140  1140  1139  1138  1139  1139      PRN / # OF OBS
   R13     0     0     0     0     0     0     0     0      PRN / # OF OBS
   R14     0     0     0     0     0     0     0     0      PRN / # OF OBS
   R15     0     0     0     0     0     0     0     0      PRN / # OF OBS
   R16     0     0     0     0     0     0     0     0      PRN / # OF OBS
   R17  1061  1061  1061  1061  1061  1061  1061  1061      PRN / # OF OBS
   R18  1225  1224  1225  1225  1224  1224  1224  1224      PRN / # OF OBS
   R19    82    82    82    82    82    82    82    82      PRN / # OF OBS
   R20     0     0     0     0     0     0     0     0      PRN / # OF OBS
   R21     0     0     0     0     0     0     0     0      PRN / # OF OBS
   R22     0     0     0     0     0     0     0     0      PRN / # OF OBS
   R23     0     0     0     0     0     0     0     0      PRN / # OF OBS
   R24   283   283   283   283   283   283   283   283      PRN / # OF OBS
                                                            END OF HEADER
 20 09 27 07 33 50.0000000  0 14G18G20G27G24G10G13G15R10R 2R11R18R 1
                                R24R17
  21218312.480   111502979.15009       452.507          49.200    21218308.960  
  86885420.74248       452.506          45.400  
  20085155.280   105548221.27909      -168.510          49.350    20085150.380  
  82245391.52948      -168.510          47.850  
  24038569.180   126323519.88906       237.125          39.550    24038567.360  
  98433907.71444       237.125          35.000  
  21165105.680   111223428.00109      -376.329          48.850    21165104.660  
  86667623.42048      -376.330          46.650  
  22246012.600   116903614.35009      -504.192          48.950    22246011.140  
  91093737.54147      -504.192          44.400  
  23600897.140   124023557.33607       655.131          44.350    23600892.660  
  96641718.86245       655.131          36.200  
  21091933.580   110838866.44709       450.485          49.300    21091929.480  
  86367935.98548       450.485          46.300  
  22068528.680   117637674.13007       280.651          44.200                  
                                                
  20048340.220   106981825.18909      -347.631          48.750    20048343.900  
  83208110.13308      -347.631          46.600  
  21613681.080   115496989.49408      -497.919          46.750    21613684.480  
  89831012.31708      -497.920          45.050  
  21865881.000   116721578.80207      -471.137          41.750    21865885.980  
  90783468.79207      -471.137          44.350  
  20345026.920   108755832.25408       413.339          45.450    20345031.860  
  84587891.01107       413.339          41.800  
  22427453.280   119929649.27008       808.191          44.650    22427456.740  
  93278620.56807       808.191          42.300  
  20315215.560   108710836.58609       255.401          48.850    20315216.760  
  84552893.88308       255.401          46.600  
 20 09 27 07 33 55.0000000  0 14G18G20G27G24G10G13G15R10R 2R11R18R 1
                                R24R17
  21220576.360   111514875.81509       453.053          49.300    21220572.820  
  86894690.86348       453.053          45.250  
  20084313.880   105543799.75809      -167.996          49.350    20084308.980  
  82241946.18448      -167.996          47.650  
  24039756.080   126329757.00105       237.684          38.400    24039754.480  
  98438767.79545       237.685          37.350  
  21163225.440   111213547.18909      -375.722          48.950    21163224.400  
  86659924.08648      -375.722          46.550  
  22243492.120   116890369.13309      -503.962          48.950    22243490.620  
  91083416.58848      -503.962          44.550  
  23604173.120   124040773.08207       655.300          44.150    23604168.840  
  96655133.72745       655.300          37.950  
  21094186.860   110850707.52109       450.864          49.300    21094182.740  
  86377162.79448       450.864          46.400  
  22069934.120   117645165.65207       281.521          43.900                  
                                                
  20046602.940   106972554.97009      -347.229          48.950    20046606.660  
  83200899.96308      -347.229          46.750  
  21611193.020   115483694.24608      -497.241          46.550    21611196.420  
  89820671.57408      -497.242          45.350  
  21863527.040   116709013.43607      -470.433          41.700    21863532.020  
  90773695.74208      -470.434          44.600  
  20347094.500   108766884.41308       413.680          45.600    20347099.380  
  84596487.13307       413.680          41.750  
  22431494.920   119951261.88807       808.504          44.000    22431498.400  
  93295430.37507       808.504          42.000  
  20316494.700   108717681.46309       256.293          48.750    20316495.880  
  84558217.66808       256.293          46.650  
 20 09 27 07 34  0.0000000  0 14G18G20G27G24G10G13G15R10R 2R11R18R 1
                                R24R17
  21222842.960   111526786.76009       453.471          49.350    21222839.400  
  86903972.11848       453.472          45.200  
  20083474.980   105539391.43509      -167.633          49.450    20083470.100  
  82238511.12948      -167.632          47.800  
  24040945.880   126336010.05205       238.101          37.200    24040944.700  
  98443640.32145       238.100          37.150  
  21161348.380   111203682.96709      -375.201          49.100    21161347.280  
  86652237.68448      -375.201          46.600  
  22240972.900   116877130.54709      -503.826          49.150    22240971.380  
  91073100.81047      -503.826          44.300  
  23607449.900   124057993.36507       655.405          44.300    23607445.840  
  96668552.12145       655.406          37.550  
  21096442.140   110862559.15309       451.181          49.400    21096438.000  
  86386397.83048       451.181          46.100  
  22071343.700   117652679.53607       282.236          43.750                  
                                                
  20044867.660   106963295.50309      -346.930          49.000    20044871.420  
  83193698.15608      -346.930          46.850  
  21608708.280   115470416.93608      -496.700          46.550    21608711.740  
  89810344.78808      -496.701          45.400  
  21861176.820   116696468.01307      -469.792          41.800    21861181.780  
  90763938.19308      -469.792          44.900  
  20349163.840   108777946.03408       413.926          45.650    20349168.660  
  84605090.60807       413.926          41.650  
  22435538.120   119972882.52108       808.682          45.250    22435541.520  
  93312246.40507       808.682          42.100  
  20317778.320   108724550.29609       257.063          48.950    20317779.480  
  84563560.10008       257.063          46.500  
 20 09 27 07 34  5.0000000  0 14G18G20G27G24G10G13G15R10R 2R11R18R 1
                                R24R17
  21225112.120   111538711.24209       454.130          49.350    21225108.560  
  86913263.92348       454.130          45.450  
  20082638.460   105534995.60009      -167.015          49.350    20082633.600  
  82235085.80948      -167.015          47.950  
  24042138.360   126342278.30805       238.866          35.950    24042137.420  
  98448524.67444       238.867          35.400  
  21159474.320   111193834.58909      -374.487          49.200    21159473.200  
  86644563.63348      -374.487          46.750  
  22238454.800   116863897.85809      -503.482          49.000    22238453.240  
  91062789.63048      -503.482          44.550  
  23610727.440   124075217.41707       655.626          44.050    23610723.420  
  96681973.45045       655.627          37.100  
  21098699.300   110874420.61109       451.660          49.450    21098695.140  
  86395640.52548       451.660          46.100  
  22072757.360   117660215.13407       283.189          43.700                  
                                                
  20043134.300   106954046.26109      -346.440          48.850    20043138.120  
  83186504.30708      -346.440          46.600  
  21606226.780   115457156.86208      -495.915          46.350    21606230.280  
  89800031.41408      -495.915          45.050  
  21858830.180   116683941.76407      -468.954          41.700    21858835.180  
  90754195.56908      -468.954          44.900  
  20351234.860   108789016.41708       414.391          45.450    20351239.560  
  84613700.90406       414.391          41.150  
  22439582.760   119994510.55008       809.076          45.150    22439586.060  
  93329068.19707       809.076          41.950  
  20319066.260   108731442.30709       258.053          48.850    20319067.420  
  84568920.55508       258.053          46.400  
 20 09 27 07 34 10.0000000  0 14G18G20G27G24G10G13G15R10R 2R11R18R 1
                                R24R17
  21227384.020   111550650.17609       454.732          49.250    21227380.460  
  86922566.98648       454.732          45.700  
  20081804.520   105530613.19709      -166.465          49.250    20081799.660  
  82231670.94848      -166.465          48.150  
  24043333.760   126348562.69504       239.518          35.150    24043333.700  
  98453421.61744       239.517          34.350  
  21157603.460   111184002.92209      -373.821          49.100    21157602.280  
  86636902.60548      -373.821          46.400  
  22235937.980   116850672.03509      -503.170          48.950    22235936.420  
  91052483.79548      -503.170          44.650  
  23614005.860   124092446.23207       655.866          43.700    23614001.740  
  96695398.51145       655.866          36.200  
  21100958.520   110886292.82409       452.117          49.350    21100954.320  
  86404891.60048       452.117          46.300  
  22074175.260   117667773.48807       284.065          43.650                  
                                                
  20041402.940   106944807.45709      -345.986          49.000    20041406.760  
  83179318.57408      -345.986          46.650  
  21603748.660   115443914.93108      -495.191          46.900    21603752.240  
  89789732.13608      -495.191          45.300  
  21856487.280   116671435.65007      -468.115          42.200    21856492.360  
  90744468.59408      -468.115          45.400  
  20353307.700   108800096.56308       414.806          45.600    20353312.300  
  84622318.79306       414.806          41.300  
  22443628.920   120016146.80908       809.446          44.800    22443632.160  
  93345896.39607       809.446          41.950  
  20320358.700   108738358.33709       259.005          48.900    20320359.860  
  84574299.68908       259.005          46.450  
 20 09 27 07 34 15.0000000  0 14G18G20G27G24G10G13G15R10R 2R11R18R 1
                                R24R17
  21229658.560   111562602.92009       455.098          49.200    21229654.980  
  86931880.81048       455.098          45.350  
  20080973.020   105526243.56409      -166.148          49.400    20080968.140  
  82228266.04548      -166.148          47.950  
  24044532.180   126354862.52104       240.018          33.850    24044532.660  
  98458330.58344       240.018          33.350  
  21155735.700   111174187.47509      -373.338          49.250    21155734.440  
  86629254.21648      -373.338          46.600  
  22233422.360   116837452.40509      -503.079          49.050    22233420.800  
  91042182.79348      -503.079          44.750  
  23617285.040   124109679.13307       655.874          43.550    23617281.040  
  96708826.72745       655.874          36.850  
  21103219.680   110898175.14009       452.341          49.450    21103215.440  
  86414150.54948       452.340          46.200  
  22075597.280   117675353.78607       284.742          43.600                  
                                                
  20039673.560   106935579.33009      -345.758          48.950    20039677.400  
  83172141.14408      -345.759          46.550  
  21601273.840   115430690.57708      -494.735          46.300    21601277.480  
  89779446.53608      -494.736          45.300  
  21854148.140   116658948.94607      -467.577          42.150    21854153.220  
  90734756.72708      -467.578          45.600  
  20355382.180   108811185.71108       414.979          45.650    20355386.700  
  84630943.68606       414.979          41.000  
  22447676.460   120037790.69607       809.557          44.400    22447679.680  
  93362730.51407       809.558          41.950  
  20321655.460   108745297.79109       259.735          48.650    20321656.660  
  84579697.04108       259.735          46.650  
 20 09 27 07 34 20.0000000  0 14G18G20G27G24G10G13G15R10R 2R11R18R 1
                                R24R17
  21231935.620   111574568.90109       455.652          49.200    21231932.040  
  86941204.94748       455.653          45.550  
  20080143.840   105521886.19909      -165.595          49.450    20080138.980  
  82224870.69848      -165.596          48.150  
  24045733.480   126361177.28404       240.603          33.300    24045734.180  
  98463251.18144       240.603          32.950  
  21153870.840   111164387.47209      -372.694          49.250    21153869.560  
  86621617.85748      -372.694          46.700  
  22230907.820   116824238.44709      -502.791          49.000    22230906.260  
  91031886.20348      -502.792          45.300  
  23620564.900   124126915.51207       656.034          43.650    23620561.080  
  96722257.66845       656.034          37.300  
  21105482.660   110910066.98009       452.753          49.550    21105478.360  
  86423416.92048       452.753          46.150  
  22077023.360   117682955.54107       285.600          43.550                  
                                                
  20037945.980   106926360.62609      -345.343          49.100    20037949.800  
  83164971.04808      -345.343          46.450  
  21598802.220   115417483.32008      -494.017          46.400    21598805.940  
  89769174.22708      -494.017          45.300  
  21851812.580   116646481.18607      -466.747          42.200    21851817.640  
  90725059.59108      -466.747          45.750  
  20357458.260   108822283.41008       415.357          45.450    20357462.700  
  84639575.22706       415.357          41.300  
  22451725.340   120059441.57008       809.898          45.300    22451728.500  
  93379570.05707       809.899          42.000  
  20322956.500   108752260.13908       260.646          48.400    20322957.760  
  84585112.20208       260.646          46.700  
 20 09 27 07 34 25.0000000  0 14G18G20G27G24G10G13G15R10R 2R11R18R 1
                                R24R17
  21234214.820   111586546.25609       455.945          49.150    21234211.260  
  86950537.94348       455.945          45.400  
  20079316.660   105517539.17609      -165.373          49.400    20079311.780  
  82221483.40548      -165.373          48.000  
  24046937.480   126367505.06105       240.967          36.550    24046937.960  
  98468181.91145       240.967          36.700  
  21152008.600   111154601.15609      -372.347          49.200    21152007.260  
  86613992.15648      -372.347          46.550  
  22228394.020   116811028.27309      -502.818          49.300    22228392.460  
  91021592.57148      -502.818          45.450  
  23623845.020   124144153.43207       656.026          43.450    23623841.380  
  96735689.81945       656.026          36.700  
  21107747.080   110921966.47009       452.880          49.600    21107742.740  
  86432689.24548       452.880          46.050  
  22078453.120   117690576.89207       286.195          43.850                  
                                                
  20036219.900   106917149.90909      -345.205          49.200    20036223.700  
  83157807.15808      -345.205          46.400  
  21596333.440   115404291.13308      -493.600          46.150    21596337.220  
  89758913.64108      -493.600          45.400  
  21849480.200   116634030.45807      -466.310          42.750    21849485.240  
  90715375.69108      -466.310          45.900  
  20359535.580   108833387.76308       415.449          45.550    20359539.980  
  84648211.94706       415.449          41.250  
  22455775.200   120081097.53107       809.922          44.250    22455778.260  
  93396413.58307       809.923          41.750  
  20324261.460   108759243.42208       261.281          48.300    20324262.780  
  84590543.64108       261.281          46.600  
 20 09 27 07 34 30.0000000  0 14G18G20G27G24G10G13G15R10R 2R11R18R 1
                                R24R17
  21236496.220   111598535.10509       456.492          49.250    21236492.680  
  86959879.90348       456.492          45.300  
  20078491.460   105513202.71809      -164.832          49.300    20078486.580  
  82218104.34748      -164.832          48.350  
  24048144.100   126373845.96605       241.605          36.900    24048144.780  
  98473122.90645       241.604          35.750  
  21150148.980   111144828.70109      -371.648          49.050    21150147.620  
  86606377.25648      -371.648          46.950  
  22225880.980   116797822.08808      -502.514          48.000    22225879.420  
  91011302.04147      -502.514          43.650  
  23627125.540   124161393.12807       656.154          43.800    23627121.920  
  96749123.32245       656.155          38.400  
  21110012.980   110933873.75209       453.306          49.600    21110008.620  
  86441967.64148       453.306          46.550  
  22079886.600   117698217.89107       287.048          43.250                  
                                                
  20034495.280   106907947.01409      -344.776          48.600    20034499.080  
  83150649.34308      -344.776          45.050  
  21593867.520   115391114.21808      -492.914          46.350    21593871.380  
  89748664.93008      -492.914          45.150  
  21847151.080   116621597.17206      -465.500          39.200    21847156.120  
  90705705.35807      -465.500          42.800  
  20361614.120   108844498.70808       415.803          45.700    20361618.480  
  84656853.78406       415.804          40.950  
  22459826.020   120102758.72507       810.261          44.500    22459829.000  
  93413261.16406       810.261          41.050  
  20325570.380   108766247.83309       262.162          48.950    20325571.720  
  84595991.50908       262.162          47.150  
 20 09 27 07 34 35.0000000  0 13G18G20G24G10G13G15R10R 2R11R18R 1R24
                                R17
  21238780.540   111610539.26909       457.243          49.400    21238777.020  
  86969233.79347       457.244          43.850  
  20077669.000   105508880.64408      -164.143          47.900    20077664.100  
  82214736.50148      -164.144          46.800  
  21148292.780   111135074.09609      -370.814          49.750    21148291.360  
  86598776.26948      -370.813          47.650  
  22223369.420   116784623.77208      -502.081          47.350    22223367.880  
  91001017.64147      -502.081          41.750  
  23630407.160   124178638.45907       656.563          43.450    23630403.520  
  96762561.25545       656.563          36.550  
  21112281.080   110945792.63709       453.906          50.000    21112276.700  
  86451255.07848       453.907          46.200  
  22081324.480   117705882.46208       288.097          45.300                  
                                                
  20032772.960   106898756.29408      -344.174          47.600    20032776.720  
  83143501.02308      -344.175          45.050  
  21591405.220   115377956.53708      -492.012          47.000    21591409.120  
  89738431.18208      -492.012          45.450  
  21844825.820   116609184.81805      -464.488          35.650    21844830.900  
  90696051.32606      -464.489          41.100  
  20363694.640   108855620.35208       416.399          46.100    20363699.000  
  84665503.94307       416.399          41.500  
  22463878.520   120124429.01508       810.712          45.700    22463881.440  
  93430115.81107       810.715          42.250  
  20326883.960   108773277.16908       263.304          45.650    20326885.320  
  84601458.80607       263.302          44.300  
 20 09 27 07 34 40.0000000  0 13G18G20G24G10G13G15R10R 2R11R18R 1R24
                                R17
  21241067.500   111622557.40409       457.593          49.550    21241064.020  
  86978598.55547       457.594          44.200  
  20076849.020   105504571.50709      -163.845          48.550    20076844.100  
  82211378.73648      -163.845          46.700  
  21146439.660   111125335.82209      -370.373          49.450    21146438.220  
  86591187.99748      -370.372          46.800  
  22220859.080   116771431.82608      -502.020          46.800    22220857.540  
  90990738.20047      -502.021          41.750  
  23633689.600   124195887.95307       656.517          43.400    23633686.060  
  96776002.41444       656.516          34.800  
  21114551.120   110957721.75709       454.142          49.550    21114546.700  
  86460550.50448       454.142          45.900  
  22082766.540   117713569.16507       288.753          44.250                  
                                                
  20031052.520   106889575.59708      -343.962          46.900    20031056.240  
  83136360.48408      -343.962          44.800  
  21588946.280   115364816.67808      -491.524          47.350    21588950.220  
  89728211.30008      -491.524          45.950  
  21842504.280   116596792.18704      -464.034          35.250    21842509.300  
  90686412.61706      -464.034          39.900  
  20365776.920   108866751.26308       416.563          45.600    20365781.260  
  84674161.31206       416.563          41.200  
  22467932.500   120146106.97408       810.866          44.550    22467935.320  
  93446976.44507       810.865          43.700  
  20328201.960   108780330.03208       263.948          45.100    20328203.340  
  84606944.39307       263.946          43.850  
 20 09 27 07 34 45.0000000  0 13G18G20G24G10G13G15R10R 2R11R18R 1R24
                                R17
  21243356.420   111634585.75709       458.016          49.750    21243352.980  
  86987971.30048       458.016          46.400  
  20076030.820   105500271.62909      -163.446          48.650    20076025.860  
  82208028.19448      -163.446          46.450  
  21144588.960   111115610.30709      -369.865          49.100    21144587.500  
  86583609.67448      -369.865          46.850  
  22218349.220   116758242.43008      -501.911          46.900    22218347.720  
  90980460.75547      -501.911          42.950  
  23636972.200   124213137.94607       656.540          43.600    23636968.720  
  96789443.96145       656.540          35.500  
  21116822.380   110969657.36209       454.416          49.400    21116817.940  
  86469850.97148       454.417          45.650  
  22084212.000   117721274.17107       289.458          43.750                  
                                                
  20029333.360   106880401.85209      -343.690          48.700    20029337.060  
  83129225.33208      -343.690          46.300  
  21586489.940   115351690.86808      -490.953          46.650    21586493.940  
  89718002.34208      -490.953          45.900  
  21840185.760   116584415.57506      -463.410          41.050    21840190.760  
  90676786.38207      -463.411          43.650  
  20367860.220   108877887.54008       416.765          45.650    20367864.520  
  84682822.86306       416.764          40.650  
  22471987.120   120167788.90507       811.077          42.200    22471989.940  
  93463840.10307       811.078          43.450  
  20329523.640   108787402.59808       264.721          46.600    20329525.040  
  84612445.23007       264.722          43.600  
 20 09 27 07 34 50.0000000  0 13G18G20G24G10G13G15R10R 2R11R18R 1R24
                                R17
  21245647.660   111646626.33909       458.581          49.100    21245644.240  
  86997353.59648       458.580          45.000  
  20075214.760   105495983.15009      -162.874          49.400    20075209.780  
  82204686.51048      -162.874          47.800  
  21142741.040   111105899.40309      -369.194          49.000    21142739.560  
  86576042.76748      -369.195          46.200  
  22215840.320   116745057.96109      -501.565          49.200    22215838.820  
  90970187.16248      -501.565          45.350  
  23640255.160   124230390.58707       656.787          42.850    23640251.700  
  96802887.58045       656.787          37.200  
  21119095.300   110981601.57609       454.871          49.350    21119090.860  
  86479158.15048       454.872          46.550  
  22085661.280   117728999.60407       290.369          43.600                  
                                                
  20027615.820   106871236.62809      -343.226          49.300    20027619.480  
  83122096.83508      -343.226          46.550  
  21584036.640   115338581.18708      -490.215          46.450    21584040.640  
  89707805.94508      -490.216          45.400  
  21837870.540   116572057.02106      -462.606          40.600    21837875.560  
  90667174.16308      -462.607          44.800  
  20369944.940   108889031.32308       417.206          45.650    20369949.200  
  84691490.24806       417.206          41.250  
  22476042.860   120189476.70507       811.361          44.300    22476045.660  
  93480708.43806       811.360          41.300  
  20330849.420   108794497.21908       265.708          48.150    20330850.840  
  84617963.25808       265.709          46.350  
 20 09 27 07 34 55.0000000  0 13G18G20G24G10G13G15R10R 2R11R18R 1R24
                                R17
  21247941.880   111658682.55609       459.284          49.700    21247938.480  
  87006748.02748       459.286          46.300  
  20074401.500   105491709.35309      -162.247          48.750    20074396.520  
  82201356.26248      -162.246          46.150  
  21140896.560   111096206.55109      -368.426          49.350    21140895.060  
  86568489.89348      -368.426          46.700  
  22213332.940   116731881.67207      -501.188          43.750    22213331.480  
  90959919.90146      -501.187          40.950  
  23643539.300   124247649.04807       657.123          41.700    23643535.760  
  96816335.72544       657.123          33.950  
  21121370.460   110993557.68309       455.374          49.650    21121366.040  
  86488474.58648       455.374          46.950  
  22087115.040   117736748.94407       291.330          43.750                  
                                                
  20025900.660   106862084.19708      -342.666          46.350    20025904.320  
  83114978.27608      -342.665          44.800  
  21581587.040   115325491.13608      -489.435          47.650    21581591.020  
  89697624.78808      -489.434          45.900  
  21835559.440   116559720.29004      -461.633          35.400    21835564.460  
  90657578.88605      -461.631          38.250  
  20372031.700   108900186.04008       417.703          46.300    20372035.920  
  84700166.12407       417.704          41.650  
  22480100.320   120211173.83408       811.813          44.700    22480103.100  
  93497583.95307       811.814          41.650  
  20332179.920   108801616.96108       266.700          47.350    20332181.340  
  84623500.80608       266.701          44.800  
 20 09 27 07 35  0.0000000  0 13G18G20G24G10G13G15R10R 2R11R18R 1R24
                                R17
  21250238.440   111670751.09809       459.455          48.550    21250235.080  
  87016152.06847       459.456          42.950  
  20073590.440   105487447.07708      -162.124          48.050    20073585.440  
  82198035.02948      -162.126          46.650  
  21139054.900   111086528.50709      -368.171          48.850    21139053.380  
  86560948.53748      -368.170          45.300  
  22210826.460   116718710.13806      -501.272          39.350    22210825.140  
  90949656.44644      -501.276          34.700  
  23646823.960   124264910.16906       656.814          40.250    23646820.340  
  96829786.02744       656.811          34.950  
  21123647.280   111005522.45609       455.414          49.200    21123642.880  
  86497797.79048       455.414          46.150  
  22088572.600   117744518.87907       291.819          43.350                  
                                                
  20024187.120   106852940.39808      -342.631          46.050    20024190.780  
  83107866.42807      -342.631          43.400  
  21579140.500   115312417.44808      -489.116          47.800    21579144.500  
  89687456.38308      -489.116          45.050  
  21833252.700                        -461.316          39.100                  
                                                
  20374119.900   108911348.47608       417.668          46.000    20374124.080  
  84708848.01206       417.668          41.200  
  22484158.940   120232876.92807       811.710          43.450    22484161.700  
  93514464.12707       811.711          42.000  
  20333514.540   108808758.69407       267.211          43.950    20333515.980  
  84629055.51007       267.210          41.500  
 20 09 27 07 35  5.0000000  0 13G18G20G24G10G13G15R10R 2R11R18R 1R24
                                R17
  21252537.540   111682832.87909       460.072          49.200    21252534.200  
  87025566.45648       460.072          44.850  
  20072781.700   105483197.05708      -161.500          48.500    20072776.700  
  82194723.33348      -161.500          46.200  
  21137216.260   111076866.23609      -367.432          49.200    21137214.700  
  86553419.50948      -367.432          46.350  
  22208321.140   116705544.62706      -500.912          40.850    22208319.960  
  90939397.58746      -500.912          39.350  
  23650109.240   124282174.86507       657.169          43.850    23650105.420  
  96843238.96144       657.173          34.650  
  21125925.900   111017496.67909       455.900          49.050    21125921.500  
  86507128.37848       455.899          45.300  
  22090034.240   117752310.16807       292.731          41.600                  
                                                
  20022475.380   106843806.43608      -342.140          47.100    20022479.100  
  83100762.24607      -342.140          44.250  
  21576697.160   115299360.98008      -488.333          47.350    21576701.180  
  89677301.34208      -488.334          46.000  
  21830947.680   116535083.65506      -460.470          39.900    21830953.300  
  90638417.08607      -460.470          42.000  
  20376209.640   108922519.30908       418.109          44.700    20376213.800  
  84717536.46206       418.108          39.800  
  22488218.860   120254586.93608       812.101          44.650    22488221.580  
  93531349.68107       812.102          42.300  
  20334853.440   108815923.20707       268.201          42.950    20334854.860  
  84634627.89507       268.201          42.900  
 20 09 27 07 35 10.0000000  0 13G18G20G24G10G13G15R10R 2R11R18R 1R24
                                R17
  21254838.580   111694924.95209       460.373          48.750    21254835.260  
  87034988.85047       460.372          42.550  
  20071974.760   105478956.52208      -161.237          48.150    20071969.740  
  82191419.02648      -161.238          46.750  
  21135380.040   111067216.84309      -367.026          48.700    21135378.460  
  86545900.50447      -367.025          44.500  
  22205816.260   116692381.73805      -500.907          37.750    22205815.160  
  90929140.82344      -500.908          34.000  
  23653394.640   124299440.05606       657.083          39.100    23653390.920  
  96856692.42644       657.080          33.600  
  21128205.800   111029477.58709       456.072          49.050    21128201.380  
  86516464.13248       456.073          46.000  
  22091499.300   117760119.89307       293.338          43.600                  
                                                
  20020764.960   106834679.32108      -342.006          46.850    20020768.660  
  83093663.37607      -342.006          43.600  
  21574256.500   115286318.75808      -487.891          47.600    21574260.480  
  89667157.40208      -487.891          44.850  
  21828646.780   116522800.34107      -459.937          41.550    21828651.840  
  90628863.39107      -459.937          43.050  
  20378300.440   108933695.72408       418.230          45.700    20378304.540  
  84726229.22006       418.230          41.150  
  22492279.580   120276300.91006       812.203          41.350    22492282.220  
  93548238.30407       812.203          42.300  
  20336196.040   108823107.55707       268.836          43.700    20336197.440  
  84640215.71607       268.837          41.750  
 20 09 27 07 35 15.0000000  0 13G18G20G24G10G13G15R10R 2R11R18R 1R24
                                R17
  21257142.380   111707031.54409       461.086          48.700    21257139.080  
  87044422.55547       461.087          43.950  
  20071170.400   105474729.58408      -160.554          48.450    20071165.400  
  82188125.31448      -160.554          46.400  
  21133547.100   111057584.55209      -366.210          49.000    21133545.480  
  86538394.82748      -366.210          45.000  
  22203312.820   116679226.10306      -500.471          40.600    22203311.920  
  90918889.69645      -500.471          37.800  
  23656680.980   124316710.15706       657.445          38.950    23656677.220  
  96870149.64444       657.445          34.900  
  21130487.740   111041469.27409       456.638          49.600    21130483.340  
  86525808.29748       456.638          46.550  
  22092968.600   117767952.15308       294.335          44.700                  
                                                
  20019056.620   106825563.16308      -341.384          47.200    20019060.260  
  83086573.04507      -341.385          43.900  
  21571819.320   115273295.14608      -487.025          47.800    21571823.300  
  89657027.92508      -487.025          44.700  
  21826349.620   116510537.45406      -459.027          40.100    21826354.200  
  90619325.60007      -459.028          41.700  
  20380393.120   108944882.02308       418.788          46.250    20380397.140  
  84734929.67306       418.788          41.400  
  22496341.680   120298022.98707       812.647          43.800    22496344.400  
  93565133.25507       812.647          42.200  
  20337543.160   108830316.05408       269.932          45.550    20337544.580  
  84645822.31207       269.933          42.750  
 20 09 27 07 35 20.0000000  0 13G18G20G24G10G13G15R10R 2R11R18R 1R24
                                R17
  21259448.640   111719151.03309       461.441          49.250    21259445.340  
  87053866.30048       461.442          45.250  
  20070368.360   105470514.70209      -160.214          49.250    20070363.320  
  82184840.95848      -160.214          47.950  
  21131717.060   111047967.68509      -365.757          48.900    21131715.460  
  86530901.20348      -365.758          46.250  
  22200810.460   116666075.96308      -500.438          48.350    22200809.520  
  90908642.74347      -500.435          44.000  
  23659967.840   124333983.30607       657.396          42.100    23659964.060  
  96883609.10644       657.399          35.350  
  21132771.440   111053470.13209       456.859          49.400    21132767.020  
  86535159.60448       456.860          45.950  
  22094441.900   117775805.53807       295.019          43.650                  
                                                
  20017350.060   106816456.35509      -341.175          49.100    20017353.640  
  83079489.99708      -341.176          45.850  
  21569385.300   115260288.39808      -486.537          47.400    21569389.280  
  89646911.60808      -486.539          45.450  
  21824056.720   116498294.42508      -458.425          45.450    21824059.940  
  90609800.51208      -458.426          45.750  
  20382487.260   108956076.34208       418.947          45.300    20382491.260  
  84743636.37006       418.946          41.100  
  22500405.020   120319751.71107       812.786          44.400    22500407.800  
  93582033.34707       812.787          41.750  
  20338894.460   108837547.05808       270.631          47.850    20338895.900  
  84651446.45208       270.630          45.650  
 20 09 27 07 35 25.0000000  0 13G18G20G24G10G13G15R10R 2R11R18R 1R24
                                R17
  21261757.560   111731284.47609       462.087          49.100    21261754.280  
  87063320.93948       462.087          45.550  
  20069568.820   105466313.00609      -159.640          49.200    20069563.760  
  82181566.92648      -159.640          47.800  
  21129890.160   111038367.24709      -365.052          48.850    21129888.540  
  86523420.34048      -365.053          46.150  
  22198309.340   116652932.39908      -500.089          48.350    22198308.380  
  90898401.02647      -500.089          44.200  
  23663255.540   124351260.66207       657.716          42.450    23663251.880  
  96897071.97245       657.718          36.500  
  21135057.080   111065481.24609       457.335          49.300    21135052.660  
  86544518.91748       457.335          46.000  
  22095919.340   117783681.14807       295.935          43.450                  
                                                
  20015645.580   106807360.69309      -340.680          49.450    20015649.080  
  83072415.57308      -340.680          45.900  
  21566954.700   115247299.82708      -485.764          46.850    21566958.660  
  89636809.38608      -485.765          45.800  
  21821766.580   116486070.40408      -457.622          45.750    21821770.060  
  90600292.91408      -457.622          45.850  
  20384583.120   108967280.07608       419.374          45.650    20384587.160  
  84752350.38706       419.374          41.350  
  22504469.800   120341487.93008       813.099          45.250    22504472.640  
  93598939.25707       813.100          42.100  
  20340250.100   108844801.67708       271.607          47.850    20340251.620  
  84657088.94008       271.606          45.700  
 20 09 27 07 35 30.0000000  0 13G18G20G24G10G13G15R10R 2R11R18R 1R24
                                R17
  21264068.720   111743429.66509       462.443          49.300    21264065.460  
  87072784.72248       462.443          45.150  
  20068771.340   105462122.26009      -159.309          49.400    20068766.280  
  82178301.40948      -159.310          47.550  
  21128066.020   111028781.20109      -364.581          49.000    21128064.360  
  86515950.70448      -364.581          46.300  
  22195809.060   116639793.22908      -499.978          48.350    22195808.060  
  90888162.72047      -499.978          43.700  
  23666543.620   124368540.04107       657.710          42.700    23666540.160  
  96910536.41945       657.711          35.900  
  21137344.260   111077500.39009       457.560          49.550    21137339.820  
  86553884.48648       457.560          45.900  
  22097400.520   117791576.63107       296.591          43.250                  
                                                
  20013942.620   106798273.26009      -340.445          49.450    20013946.100  
  83065347.57008      -340.445          46.200  
  21564527.040   115234327.08408      -485.258          46.800    21564531.000  
  89626719.49308      -485.259          45.650  
  21819479.960   116473864.18308      -457.023          45.450    21819483.500  
  90590799.18608      -457.022          46.350  
  20386680.280   108978490.83308       419.572          45.550    20386684.380  
  84761069.87306       419.572          41.400  
  22508535.640   120363229.57108       813.241          45.550    22508538.500  
  93615849.40807       813.242          41.850  
  20341609.740   108852077.57008       272.335          47.950    20341611.320  
  84662747.96508       272.335          45.650  
 20 09 27 07 35 35.0000000  0 13G18G20G24G10G13G15R10R 2R11R18R 1R24
                                R17
  21266382.600   111755589.16809       463.061          49.300    21266379.340  
  87082259.65248       463.061          45.300  
  20067976.460   105457945.07209      -158.693          49.600    20067971.380  
  82175046.45748      -158.693          47.950  
  21126245.080   111019212.10209      -363.849          49.000    21126243.420  
  86508494.26748      -363.849          46.450  
  22193310.080   116626661.04809      -499.654          48.700    22193309.080  
  90877929.83948      -499.654          44.650  
  23669832.600   124385823.97107       657.896          43.200    23669829.200  
  96924004.40245       657.896          35.550  
  21139633.460   111089530.16009       458.064          49.700    21139628.980  
  86563258.32848       458.064          46.000  
  22098885.820   117799494.64907       297.535          43.500                  
                                                
  20012241.740   106789196.78309      -339.970          48.850    20012245.160  
  83058288.09508      -339.971          45.900  
  21562102.860   115221372.90208      -484.483          46.900    21562106.760  
  89616644.03908      -484.484          45.450  
  21817197.120   116461678.25507      -456.118          44.250    21817200.840  
  90581321.25208      -456.119          44.600  
  20388779.300   108989711.23408       419.971          45.800    20388783.420  
  84769796.84307       419.971          41.950  
  22512602.960   120384979.13207       813.622          44.050    22512605.820  
  93632765.73107       813.622          42.350  
  20342973.880   108859377.37508       273.286          48.000    20342975.460  
  84668425.57908       273.286          45.900  
 20 09 27 07 35 40.0000000  0 14G18G20G27G24G10G13G15R10R 2R11R18R 1
                                R24R17
  21268697.020   111767751.52209       463.051          49.200    21268693.780  
  87091736.81548       463.051          45.100  
  20067181.960   105453769.90709      -158.743          49.600    20067176.860  
  82171793.08248      -158.743          47.650  
  24065333.300   126464187.49005       249.286          35.500    24065330.700  
  98543508.19544       249.285          31.500  
  21124425.180   111009648.50709      -363.736          49.000    21124423.520  
  86501042.12048      -363.737          46.300  
  22190810.240   116613524.37408      -499.943          48.100    22190809.240  
  90867693.48347      -499.943          43.150  
  23673120.260   124403101.06707       657.480          43.000    23673116.880  
  96937467.08244       657.481          33.900  
  21141922.480   111101559.06409       457.947          49.600    21141918.000  
  86572631.49948       457.947          45.950  
  22100373.260   117807423.58107       297.848          43.350                  
                                                
  20010540.700   106780119.63809      -340.106          49.350    20010544.120  
  83051228.10608      -340.107          46.250  
  21559679.920   115208425.60008      -484.305          47.000    21559683.800  
  89606573.90708      -484.305          45.500  
  21814915.900   116449501.14207      -455.962          43.100    21814919.800  
  90571850.19607      -455.963          44.250  
  20390877.920   109000929.55508       419.797          45.800    20390882.060  
  84778522.20607       419.797          42.050  
  22516669.540   120406724.98907       813.353          44.100    22516672.480  
  93649679.18007       813.353          43.050  
  20344340.320   108866689.52209       273.630          48.600    20344341.940  
  84674112.79808       273.630          46.700  
 20 09 27 07 35 45.0000000  0 14G18G20G27G24G10G13G15R10R 2R11R18R 1
                                R24R17
  21271014.880   111779932.04209       464.200          49.350    21271011.660  
  87101228.12948       464.200          45.450  
  20066390.780   105449612.12309      -157.631          49.550    20066385.660  
  82168553.25248      -157.631          47.800  
  24066580.340   126470744.96305       250.201          38.000    24066578.900  
  98548617.91444       250.199          32.750  
  21122609.220   111000105.66209      -362.518          49.000    21122607.580  
  86493606.13748      -362.518          46.250  
  22188312.480   116600398.56909      -499.060          49.250    22188311.480  
  90857465.58648      -499.060          45.000  
  23676409.540   124420386.62307       658.253          43.150    23676406.360  
  96950936.35944       658.253          33.350  
  21144214.260   111113602.40009       458.891          49.750    21144209.760  
  86582015.91648       458.891          45.850  
  22101865.680   117815378.97407       299.268          42.900                  
                                                
  20008842.460   106771057.44809      -339.078          49.400    20008845.860  
  83044179.73408      -339.078          46.600  
  21557261.200   115195500.69608      -483.063          46.600    21557265.060  
  89596521.20608      -483.063          45.450  
  21812639.220   116437348.47007      -454.581          43.950    21812643.220  
  90562398.12608      -454.581          46.250  
  20392979.100   109012161.49908       420.776          46.000    20392983.240  
  84787258.16307       420.776          41.950  
  22520738.300   120428482.68108       814.262          45.050    22520741.320  
  93666601.81807       814.263          42.750  
  20345711.980   108874029.54909       275.128          48.750    20345713.580  
  84679821.71008       275.128          47.000  
 20 09 27 07 35 50.0000000  0 14G18G20G27G24G10G13G15R10R 2R11R18R 1
                                R24R17
  21273336.800   111792133.90109       464.713          49.300    21273333.600  
  87110736.05748       464.714          44.950  
  20065603.480   105445474.96709      -157.143          49.300    20065598.380  
  82165329.49948      -157.143          47.950  
  24067832.080   126477325.67805       250.820          38.250    24067831.100  
  98553745.73245       250.820          36.750  
  21120797.880   110990586.98309      -361.882          48.900    21120796.240  
  86486188.98848      -361.882          46.750  
  22185817.360   116587286.80609      -498.828          48.950    22185816.360  
  90847248.62648      -498.828          45.600  
  23679701.020   124437683.79307       658.453          43.200    23679697.780  
  96964414.65144       658.453          35.200  
  21146509.380   111125663.39709       459.299          49.600    21146504.860  
  86591414.09848       459.299          46.000  
  22103363.680   117823363.89907       300.056          42.750                  
                                                
  20007147.600   106762013.45409      -338.724          49.250    20007151.020  
  83037145.52508      -338.724          46.550  
  21554847.300   115182601.49908      -482.382          46.300    21554851.140  
  89586488.50908      -482.383          45.200  
  21810367.740   116425223.40107      -453.869          43.400    21810371.860  
  90552967.51708      -453.869          45.950  
  20395083.460   109023410.21808       421.077          45.900    20395087.580  
  84796007.16007       421.077          41.800  
  22524809.900   120450255.46807       814.560          44.400    22524813.000  
  93683536.17507       814.561          42.250  
  20347089.480   108881400.57909       275.993          48.750    20347091.020  
  84685554.73508       275.993          46.700  
 20 09 27 07 35 55.0000000  0 14G18G20G27G24G10G13G15R10R 2R11R18R 1
                                R24R17
  21275661.240   111804348.86809       465.106          49.300    21275658.040  
  87120254.21548       465.106          45.300  
  20064818.560   105441350.19009      -156.760          49.300    20064813.460  
  82162115.39148      -156.761          47.850  
  24069086.640   126483921.18405       251.340          38.050    24069085.880  
  98558885.12445       251.340          35.700  
  21118989.500   110981083.95809      -361.409          49.050    21118987.880  
  86478784.04848      -361.409          46.650  
  22183323.360   116574180.89509      -498.704          49.150    22183322.400  
  90837036.24248      -498.704          45.100  
  23682993.220   124454984.35507       658.511          43.500    23682989.880  
  96977895.62944       658.511          35.300  
  21148806.300   111137733.79309       459.543          49.450    21148801.760  
  86600819.60548       459.543          45.450  
  22104865.640   117831370.21507       300.783          42.600                  
                                                
  20005454.580   106752979.12409      -338.423          49.300    20005457.980  
  83030118.83208      -338.423          46.450  
  21552436.620   115169719.75108      -481.828          46.200    21552440.440  
  89576469.38508      -481.829          45.050  
  21808099.660   116413117.61307      -453.241          43.650    21808103.980  
  90543551.91408      -453.241          45.850  
  20397189.360   109034667.34608       421.325          46.000    20397193.500  
  84804762.70207       421.325          42.100  
  22528882.760   120472034.89708       814.695          44.750    22528885.900  
  93700475.72307       814.696          42.750  
  20348471.200   108888794.38809       276.752          48.600    20348472.740  
  84691305.47808       276.751          46.750  
 20 09 27 07 36  0.0000000  0 14G18G20G27G24G10G13G15R10R 2R11R18R 1
                                R24R17
  21277987.480   111816573.49509       465.383          49.100    21277984.320  
  87129779.89248       465.383          45.250  
  20064035.340   105437234.34709      -156.531          49.250    20064030.240  
  82158908.24448      -156.531          47.900  
  24070343.500   126490527.98005       251.608          37.750    24070343.280  
  98564033.25844       251.609          31.900  
  21117183.480   110971593.26709      -361.043          49.050    21117181.860  
  86471388.70848      -361.043          46.450  
  22180829.820   116561077.37209      -498.700          49.050    22180828.880  
  90826825.70748      -498.700          46.000  
  23686285.380   124472284.88607       658.411          43.550    23686281.980  
  96991376.54545       658.412          35.750  
  21151104.340   111149810.15109       459.659          49.550    21151099.800  
  86610229.74648       459.659          46.050  
  22106370.920   117839394.34307       301.340          42.700                  
                                                
  20003762.720   106743951.17609      -338.298          49.200    20003766.120  
  83023097.08708      -338.298          46.350  
  21550028.580   115156851.84808      -481.406          47.000    21550032.320  
  89566461.02208      -481.407          45.100  
  21805834.740   116401027.55207      -452.746          43.600    21805838.960  
  90534148.53708      -452.746          45.900  
  20399296.180   109045929.51108       421.426          45.800    20399300.340  
  84813522.16007       421.426          41.800  
  22532956.260   120493817.47808       814.676          45.250    22532959.400  
  93717417.73607       814.676          42.200  
  20349856.460   108896207.32809       277.370          48.750    20349858.020  
  84697071.09108       277.370          46.800  
 20 09 27 07 36  5.0000000  0 14G18G20G27G24G10G13G15R10R 2R11R18R 1
                                R24R17
  21280316.140   111828810.77209       465.977          49.050    21280313.000  
  87139315.43348       465.977          45.350  
  20063254.400   105433130.48709      -155.963          49.450    20063249.300  
  82155710.42748      -155.963          47.450  
  24071603.240   126497149.09605       252.223          37.850    24071603.520  
  98569192.54345       252.224          36.900  
  21115380.380   110962117.93609      -360.349          49.150    21115378.760  
  86464005.33348      -360.349          46.250  
  22178337.280   116547979.25909      -498.408          49.200    22178336.400  
  90816619.38748      -498.408          45.750  
  23689578.120   124489588.31407       658.552          43.450    23689574.700  
  97004859.72244       658.552          35.250  
  21153404.080   111161895.43709       460.115          49.550    21153399.540  
  86619646.85048       460.115          45.900  
  22107880.120   117847439.25407       302.240          42.700                  
                                                
  20002072.620   106734932.62309      -337.850          49.200    20002076.040  
  83016082.65208      -337.850          46.100  
  21547623.720   115144000.98108      -480.659          47.050    21547627.400  
  89556465.90808      -480.659          45.050  
  21803573.300   116388956.45607      -451.940          43.550    21803577.620  
  90524759.92408      -451.941          45.750  
  20401404.540   109057199.59908       421.805          45.700    20401408.660  
  84822287.78607       421.804          41.600  
  22537030.820   120515606.15008       815.017          45.450    22537034.020  
  93734364.47107       815.017          41.900  
  20351245.920   108903642.51309       278.300          48.550    20351247.460  
  84702854.00908       278.300          46.700  
 20 09 27 07 36 10.0000000  0 14G18G20G27G24G10G13G15R10R 2R11R18R 1
                                R24R17
  21282647.160   111841060.41009       466.441          49.000    21282644.020  
  87148860.59948       466.441          45.200  
  20062475.660   105429038.28309      -155.530          49.350    20062470.580  
  82152521.69948      -155.531          47.750  
  24072865.880   126503784.33505       252.886          38.000    24072865.520  
  98574362.83444       252.887          35.200  
  21113580.160   110952657.75009      -359.757          49.000    21113578.560  
  86456633.76248      -359.757          46.550  
  22175845.760   116534886.28909      -498.203          49.150    22175844.920  
  90806417.07648      -498.203          46.050  
  23692871.400   124506894.35207       658.716          43.850    23692867.900  
  97018344.94245       658.716          35.800  
  21155705.480   111173989.37609       460.431          49.400    21155700.940  
  86629070.69648       460.431          46.100  
  22109393.140   117855504.68107       302.996          42.650                  
                                                
  20000384.220   106725923.08309      -337.507          49.100    20000387.620  
  83009075.23008      -337.507          45.950  
  21545221.940   115131166.77908      -480.047          46.600    21545225.640  
  89546483.75408      -480.048          44.900  
  21801315.420   116376903.91507      -451.211          43.650    21801319.840  
  90515385.72808      -451.212          45.650  
  20403514.260   109068477.39808       422.092          45.650    20403518.400  
  84831059.40706       422.092          41.350  
  22541106.540   120537400.78708       815.249          44.550    22541109.740  
  93751315.84107       815.250          41.900  
  20352639.440   108911099.65908       279.127          48.450    20352641.020  
  84708654.00708       279.128          46.750  
 20 09 27 07 36 15.0000000  0 15G18G20G27G24G10G21G13G15R10R 2R11R18
                                R 1R24R17
  21284980.600   111853322.70909       466.847          48.950    21284977.460  
  87158415.63748       466.847          45.650  
  20061699.220   105424958.07909      -155.150          49.200    20061694.140  
  82149342.32148      -155.150          47.850  
  24074131.220   126510433.79905       253.161          38.350    24074131.020  
  98579544.23345       253.160          36.550  
  21111782.880   110943213.01109      -359.239          48.850    21111781.300  
  86449274.23848      -359.240          46.750  
  22173355.300   116521798.77309      -498.075          48.850    22173354.460  
  90796219.02248      -498.075          46.100  
  24813417.200   130395377.62705      -528.093          36.900                  
                                                
  23696165.260   124524203.34307       658.700          43.850    23696161.640  
  97031832.46645       658.700          35.700  
  21158008.580   111186092.28009       460.702          49.300    21158004.040  
  86638501.53448       460.702          45.950  
  22110910.100   117863590.92607       303.695          42.750                  
                                                
  19998697.580   106716923.01409      -337.231          49.000    19998700.980  
  83002075.17908      -337.232          45.850  
  21542823.400   115118349.67108      -479.481          46.650    21542827.080  
  89536514.91108      -479.481          44.950  
  21799061.100   116364870.22307      -450.595          43.850    21799065.600  
  90506026.19408      -450.595          45.800  
  20405625.520   109079763.11108       422.303          45.800    20405629.620  
  84839837.18806       422.303          41.300  
  22545183.440   120559201.51708       815.408          45.250    22545186.660  
  93768271.95007       815.409          42.000  
  20354037.160   108918579.08708       279.869          48.500    20354038.740  
  84714471.33808       279.869          46.700  
 20 09 27 07 36 20.0000000  0 15G18G20G27G24G10G21G13G15R10R 2R11R18
                                R 1R24R17
  21287316.320   111865596.94809       467.359          49.100    21287313.160  
  87167979.96948       467.359          45.250  
  20060924.900   105420889.17609      -154.650          49.250    20060919.860  
  82146171.74848      -154.651          47.950  
  24075399.400   126517096.99005       253.936          38.400    24075399.160  
  98584736.35044       253.936          34.350  
  21109988.400   110933783.02909      -358.596          48.950    21109986.840  
  86441926.19948      -358.596          46.950  
  22170865.760   116508716.02009      -497.800          49.200    22170864.920  
  90786024.67648      -497.800          46.150  
  24810776.140   130381507.36805      -527.775          36.050    24810778.940  
 101595981.63243      -527.775          31.150  
  23699459.560   124541514.54207       658.890          44.200    23699455.760  
  97045321.70744       658.890          34.600  
  21160313.260   111198203.42609       461.107          49.350    21160308.720  
  86647938.79748       461.107          46.150  
  22112430.840   117871697.45907       304.533          42.600                  
                                                
  19997012.560   106707931.69109      -336.820          48.950    19997015.980  
  82995081.93008      -336.821          45.800  
  21540427.920   115105548.83208      -478.785          46.750    21540431.540  
  89526558.70708      -478.785          44.950  
  21796810.140   116352854.84107      -449.816          44.100    21796814.820  
  90496680.90208      -449.816          45.850  
  20407738.120   109091056.17108       422.675          45.800    20407742.220  
  84848620.68106       422.675          41.150  
  22549261.380   120581007.79808       815.681          44.950    22549264.600  
  93785232.39507       815.681          42.400  
  20355438.900   108926080.02209       280.750          48.650    20355440.480  
  84720305.39508       280.750          46.550  
 20 09 27 07 36 25.0000000  0 16G 8G18G20G27G24G10G21G13G15R10R 2R11
                                R18R 1R24R17
  24636010.260   129463106.64805       -94.818          36.850    24636009.340  
 100880341.84244       -94.819          33.650  
  21289654.660   111877884.95009       467.914          49.150    21289651.480  
  87177555.03748       467.914          45.100  
  20060153.120   105416833.39509      -154.130          49.250    20060148.060  
  82143011.40548      -154.130          47.900  
  24076670.480   126523775.55406       254.491          38.750    24076670.100  
  98589940.40846       254.492          38.750  
  21108197.080   110924369.63409      -357.990          48.950    21108195.540  
  86434591.09748      -357.991          46.750  
  22168377.440   116495639.82309      -497.595          49.300    22168376.620  
  90775835.44448      -497.595          45.750  
  24808137.900   130367643.98805      -527.479          36.750    24808131.640  
 101585179.08544      -527.481          32.500  
  23702754.580   124558829.80707       659.018          44.150    23702750.780  
  97058814.13244       659.018          34.800  
  21162619.840   111210324.63309       461.475          49.350    21162615.300  
  86657383.90048       461.475          45.900  
  22113955.680   117879825.89307       305.368          42.300                  
                                                
  19995329.500   106698950.79809      -336.448          48.900    19995332.920  
  82988096.79908      -336.448          45.750  
  21538035.800   115092766.21008      -478.126          46.800    21538039.440  
  89516616.67208      -478.126          45.000  
  21794563.020   116340859.43607      -449.088          43.900    21794567.800  
  90487351.14908      -449.088          46.000  
  20409852.420   109102358.35108       422.991          45.900    20409856.540  
  84857411.26406       422.991          41.350  
  22553340.640   120602821.42108       815.952          44.550    22553343.920  
  93802198.54007       815.952          42.300  
  20356845.000   108933604.33708       281.624          48.450    20356846.560  
  84726157.64608       281.624          46.550  
 20 09 27 07 36 30.0000000  0 16G 8G18G20G27G24G10G21G13G15R10R 2R11
                                R18R 1R24R17
  24635538.140   129460623.97005       -94.145          37.950    24635538.360  
 100878407.30844       -94.146          33.750  
  21291995.260   111890184.88609       468.392          49.250    21291992.080  
  87187139.40148       468.392          44.700  
  20059383.480   105412788.95709      -153.632          49.250    20059378.420  
  82139859.89748      -153.632          47.700  
  24077944.040   126530467.71805       254.979          38.500    24077943.660  
  98595155.06345       254.979          35.700  
  21106408.580   110914971.04009      -357.373          49.000    21106407.080  
  86427267.51948      -357.373          46.850  
  22165890.080   116482568.45109      -497.326          49.450    22165889.220  
  90765649.96348      -497.327          45.800  
  24805500.520   130353785.72105      -527.230          36.200    24805490.280  
 101574380.42343      -527.232          31.250  
  23706050.100   124576147.32507       659.165          44.400    23706046.020  
  97072308.32244       659.164          34.350  
  21164928.000   111222454.07709       461.853          49.450    21164923.440  
  86666835.41148       461.853          45.800  
  22115484.300   117887974.33507       306.145          42.600                  
                                                
  19993648.120   106689978.86709      -336.033          48.950    19993651.560  
  82981118.62808      -336.033          45.800  
  21535646.760   115079999.96608      -477.463          46.750    21535650.400  
  89506687.38408      -477.463          45.000  
  21792319.280   116328882.33107      -448.334          44.000    21792324.160  
  90478035.62908      -448.334          46.050  
  20411968.100   109113667.74808       423.327          45.900    20411972.200  
  84866207.45906       423.326          41.300  
  22557420.880   120624640.44808       816.243          44.550    22557424.220  
  93819168.87707       816.244          42.100  
  20358255.080   108941150.16308       282.509          48.350    20358256.660  
  84732026.62208       282.509          46.450  
 20 09 27 07 36 35.0000000  0 16G 8G18G20G27G24G10G21G13G15R10R 2R11
                                R18R 1R24R17
  24635069.000   129458156.93305       -93.582          36.850    24635067.180  
 100876484.88244       -93.580          32.900  
  21294338.320   111902497.69909       468.859          49.200    21294335.120  
  87196733.79948       468.859          45.000  
  20058616.160   105408756.75509      -153.213          49.200    20058611.120  
  82136717.91748      -153.213          48.000  
  24079220.320   126537174.45706       255.533          38.750    24079219.860  
  98600381.11245       255.533          37.400  
  21104623.060   110905588.09009      -356.778          48.950    21104621.580  
  86419956.13648      -356.779          46.600  
  22163403.800   116469502.78009      -497.145          49.400    22163402.880  
  90755468.92248      -497.144          45.350  
  24802864.320   130339933.50505      -527.095          35.950                  
                                                
  23709346.220   124593467.98208       659.299          44.650    23709342.060  
  97085804.90445       659.300          36.100  
  21167237.900   111234592.66309       462.146          49.300    21167233.340  
  86676294.04548       462.146          45.800  
  22117016.880   117896143.83007       306.946          42.700                  
                                                
  19991968.560   106681016.41309      -335.718          49.000    19991971.980  
  82974147.83008      -335.718          45.800  
  21533260.980   115067251.07808      -476.827          46.750    21533264.620  
  89496771.58608      -476.827          45.000  
  21790079.080   116316924.45807      -447.661          43.750    21790084.060  
  90468735.05708      -447.661          45.950  
  20414085.320   109124985.45708       423.604          45.800    20414089.440  
  84875010.11506       423.604          41.200  
  22561502.320   120646465.77108       816.402          45.150    22561505.700  
  93836144.11607       816.402          41.950  
  20359669.360   108948718.44808       283.296          48.250    20359670.960  
  84737913.06208       283.296          46.400  
 20 09 27 07 36 40.0000000  0 16G 8G18G20G27G24G10G21G13G15R10R 2R11
                                R18R 1R24R17
  24634602.600   129455705.41405       -92.943          37.050    24634600.180  
 100874574.68744       -92.945          33.000  
  21296683.800   111914823.21709       469.467          49.200    21296680.600  
  87206338.09648       469.467          45.150  
  20057851.160   105404736.65809      -152.648          49.150    20057846.120  
  82133585.37648      -152.648          47.950  
  24080499.360   126543895.57906       256.205          39.550    24080498.620  
  98605618.35445       256.205          36.000  
  21102840.500   110896220.79009      -356.089          48.900    21102839.040  
  86412656.94748      -356.090          46.850  
  22160918.580   116456442.69309      -496.809          49.550    22160917.620  
  90745292.23748      -496.810          45.650  
  24800229.600   130326087.28005      -526.596          36.050    24800222.880  
 101552776.31643      -526.603          28.950  
  23712642.900   124610791.61908       659.502          44.700    23712638.620  
  97099303.85644       659.502          35.250  
  21169549.500   111246740.28409       462.623          49.300    21169544.960  
  86685759.72448       462.623          45.800  
  22118553.420   117904334.26707       307.783          43.150                  
                                                
  19990290.760   106672063.50309      -335.268          49.000    19990294.180  
  82967184.46208      -335.268          45.850  
  21530878.420   115054519.31408      -476.059          46.550    21530882.040  
  89486869.11008      -476.059          45.000  
  21787842.520   116304985.62607      -446.826          43.750    21787847.480  
  90459449.30308      -446.826          45.650  
  20416204.040   109136311.19708       424.015          45.800    20416208.160  
  84883819.03106       424.015          41.200  
  22565584.900   120668297.22508       816.789          44.750    22565588.340  
  93853124.13007       816.789          42.000  
  20361087.780   108956308.94608       284.246          48.100    20361089.420  
  84743816.78408       284.246          46.450  
 20 09 27 07 36 45.0000000  0 16G 8G18G20G27G24G10G21G13G15R10R 2R11
                                R18R 1R24R17
  24634139.300   129453271.59705       -92.446          36.000    24634134.920  
 100872678.21144       -92.447          31.550  
  21299032.120   111927163.61709       469.968          49.150    21299028.880  
  87215953.99048       469.968          45.300  
  20057088.880   105400730.86309      -152.171          49.100    20057083.840  
  82130463.98148      -152.171          47.800  
  24081781.460   126550633.23406       256.718          38.950    24081780.900  
  98610868.46045       256.719          37.550  
  21101061.300   110886871.10909      -355.469          48.900    21101059.860  
  86405371.49248      -355.469          46.750  
  22158434.820   116443390.36709      -496.597          49.400    22158433.800  
  90735121.59448      -496.597          45.750  
  24797596.100   130312249.01904      -526.597          35.050    24797591.320  
 101541993.30541      -526.600          23.500  
  23715940.580   124628120.40908       659.632          44.950    23715936.220  
  97112806.79645       659.633          35.600  
  21171863.220   111258899.04409       462.998          49.300    21171858.700  
  86695234.07848       462.999          46.150  
  22120094.340   117912547.79507       308.597          42.900                  
                                                
  19988615.160   106663122.37209      -334.878          48.900    19988618.580  
  82960230.24908      -334.878          45.850  
  21528499.560   115041807.10608      -475.390          47.100    21528503.080  
  89476981.85108      -475.390          44.700  
  21785609.980   116293068.25107      -446.080          43.450    21785614.940  
  90450180.23408      -446.080          45.750  
  20418324.680   109147647.22808       424.316          45.650    20418328.800  
  84892635.94106       424.316          41.200  
  22569669.120   120690137.09908       816.985          44.850    22569672.540  
  93870110.68407       816.985          42.100  
  20362510.780   108963924.00408       285.082          47.950    20362512.500  
  84749739.60308       285.082          46.350  
 20 09 27 07 36 50.0000000  0 16G 8G18G20G27G24G10G21G13G15R10R 2R11
                                R18R 1R24R17
  24633678.880   129450852.51005       -91.787          37.150    24633675.560  
 100870793.23242       -91.790          26.250  
  21301382.720   111939515.99809       470.284          49.050    21301379.440  
  87225579.22548       470.284          45.150  
  20056328.780   105396736.47609      -151.868          49.100    20056323.740  
  82127351.46848      -151.868          47.850  
  24083066.160   126557384.54906       257.050          39.350    24083065.680  
  98616129.24745       257.050          35.650  
  21099284.940   110877536.30909      -355.066          48.800    21099283.500  
  86398097.62748      -355.066          46.650  
  22155951.980   116430342.93909      -496.552          49.200    22155950.920  
  90724954.77348      -496.552          45.850  
  24794963.540   130298416.18905      -526.302          35.950    24794959.500  
 101531248.30843      -526.302          30.700  
  23719238.700   124645451.48708       659.592          45.150    23719234.260  
  97126311.52644       659.593          35.350  
  21174178.500   111271066.08509       463.158          49.150    21174174.040  
  86704714.88348       463.159          46.250  
  22121639.020   117920781.45107       309.244          43.000                  
                                                
  19986941.240   106654190.08309      -334.682          48.800    19986944.660  
  82953282.92008      -334.683          45.900  
  21526123.740   115029111.37208      -474.917          47.300    21526127.200  
  89467107.39108      -474.917          44.750  
  21783380.820   116281169.23007      -445.541          43.150    21783385.880  
  90440925.45208      -445.541          45.850  
  20420446.660   109158990.58008       424.489          45.650    20420450.800  
  84901458.54606       424.490          41.300  
  22573754.300   120711982.37408       817.079          44.950    22573757.760  
  93887101.44907       817.079          42.100  
  20363937.820   108971560.67708       285.762          48.150    20363939.580  
  84755679.22908       285.762          46.450  
 20 09 27 07 36 55.0000000  0 16G 8G18G20G27G24G10G21G13G15R10R 2R11
                                R18R 1R24R17
  24633221.540   129448449.92405       -91.286          37.550    24633218.240  
 100868921.06644       -91.286          34.050  
  21303735.940   111951882.04509       470.795          49.000    21303732.620  
  87235215.09748       470.795          45.150  
  20055571.160   105392755.18009      -151.350          49.100    20055566.120  
  82124249.16348      -151.350          47.800  
  24084353.920   126564151.24206       257.751          39.900    24084353.080  
  98621401.98544       257.751          33.700  
  21097511.740   110868218.15309      -354.401          48.800    21097510.320  
  86390836.73148      -354.401          46.800  
  22153470.400   116417302.09809      -496.285          49.100    22153469.300  
  90714793.08748      -496.286          45.800  
  24792332.580   130284590.16005      -526.252          36.600    24792322.960  
 101520474.88744      -526.250          33.250  
  23722537.600   124662786.51108       659.755          45.250    23722533.060  
  97139819.33844       659.755          35.250  
  21176495.660   111283243.10009       463.543          49.100    21176491.280  
  86714203.46948       463.543          46.300  
  22123187.740   117929036.78507       310.053          42.750                  
                                                
  19985269.260   106645268.16909      -334.263          48.950    19985272.680  
  82946343.65708      -334.263          46.050  
  21523751.340   115016433.86008      -474.236          46.750    21523754.740  
  89457247.11908      -474.236          44.800  
  21781155.500   116269290.41707      -444.798          43.000    21781160.540  
  90431686.38608      -444.799          45.700  
  20422570.360   109170342.92508       424.834          45.600    20422574.500  
  84910288.14606       424.834          41.400  
  22577840.740   120733834.69408       817.325          45.300    22577844.300  
  93904097.68707       817.326          42.050  
  20365369.220   108979220.55908       286.636          48.350    20365371.020  
  84761636.92108       286.636          46.350  
 20 09 27 07 37  0.0000000  0 16G 8G18G20G27G24G10G21G13G15R10R 2R11
                                R18R 1R24R17
  24632766.380   129446059.46305       -90.482          37.250    24632764.380  
 100867058.40144       -90.483          35.200  
  21306090.900   111964257.34109       471.284          49.150    21306087.540  
  87244858.17948       471.284          45.250  
  20054815.180   105388782.58609      -150.886          49.100    20054810.160  
  82121153.63348      -150.886          47.900  
  24085643.680   126570928.82206       258.281          40.400    24085642.720  
  98626683.24745       258.281          37.000  
  21095740.860   110858912.21109      -353.815          48.850    21095739.440  
  86383585.35348      -353.816          46.900  
  22150989.240   116404263.46409      -496.034          49.300    22150988.100  
  90704633.11948      -496.035          46.100  
  24789701.920   130270766.72605      -525.942          36.050    24789696.400  
 101509703.44944      -525.942          33.850  
  23725836.400   124680121.09408       659.858          45.000    23725831.760  
  97153326.82244       659.858          34.300  
  21178813.900   111295425.65209       463.886          49.000    21178809.560  
  86723696.36648       463.886          46.400  
  22124739.720   117937309.57307       310.852          42.250                  
                                                
  19983598.480   106636352.55809      -333.913          48.900    19983601.880  
  82939409.29608      -333.913          45.800  
  21521381.540   115003770.18008      -473.588          46.950    21521384.880  
  89447397.60508      -473.589          44.750  
  21778933.100   116257427.18807      -444.058          42.900    21778938.120  
  90422459.43408      -444.059          45.700  
  20424694.900   109181699.94008       425.144          45.600    20424699.080  
  84919121.37406       425.144          41.400  
  22581927.700   120755689.73808       817.536          44.650    22581931.320  
  93921096.02807       817.537          42.050  
  20366804.140   108986899.21608       287.473          48.200    20366805.940  
  84767609.20808       287.473          46.250  
 20 09 27 07 37  5.0000000  0 16G 8G18G20G27G24G10G21G13G15R10R 2R11
                                R18R 1R24R17
  24632314.680   129443687.20305       -89.982          36.450    24632313.420  
 100865209.82944       -89.981          33.800  
  21308448.800   111976648.07109       471.808          49.300    21308445.400  
  87254513.29148       471.808          45.000  
  20054062.040   105384824.91309      -150.391          49.200    20054057.060  
  82118069.73948      -150.391          47.600  
  24086936.780   126577723.54606       258.856          40.200    24086935.480  
  98631977.81645       258.856          38.400  
  21093973.460   110849624.65809      -353.188          49.000    21093972.080  
  86376348.30348      -353.189          46.650  
  22148509.680   116391233.19909      -495.828          49.450    22148508.500  
  90694479.66748      -495.828          46.000  
  24787073.180   130256952.07805      -525.654          36.400    24787068.620  
 101498938.74244      -525.653          31.750  
  23729136.280   124697461.37108       659.984          45.050    23729131.600  
  97166838.72244       659.984          35.050  
  21181134.420   111307620.07009       464.267          49.100    21181130.100  
  86733198.50148       464.267          46.200  
  22126296.160   117945605.97007       311.703          41.800                  
                                                
  19981929.960   106627449.04309      -333.559          48.900    19981933.340  
  82932484.34308      -333.559          46.250  
  21519015.500   114991126.64608      -472.894          47.500    21519018.780  
  89437563.75308      -472.895          44.900  
  21776714.840   116245585.91807      -443.326          42.900    21776719.840  
  90413249.57008      -443.327          45.850  
  20426821.500   109193067.71308       425.436          45.300    20426825.660  
  84927962.97506       425.436          41.450  
  22586016.320   120777553.69708       817.834          44.950    22586020.000  
  93938101.32107       817.835          42.100  
  20368243.740   108994602.98808       288.323          48.300    20368245.560  
  84773601.02908       288.324          46.250  
 20 09 27 07 37 10.0000000  0 16G 8G18G20G27G24G10G21G13G15R10R 2R11
                                R18R 1R24R17
  24631865.680   129441329.52905       -89.364          36.950    24631865.180  
 100863372.70744       -89.364          33.200  
  21310808.900   111989050.38509       472.299          49.300    21310805.460  
  87264177.42648       472.299          44.800  
  20053311.020   105380878.31409      -149.941          49.300    20053306.040  
  82114994.46248      -149.941          47.550  
  24088232.440   126584531.51506       259.354          40.450    24088231.040  
  98637282.75445       259.354          35.650  
  21092208.840   110840351.58609      -352.585          49.050    21092207.480  
  86369122.53548      -352.585          46.450  
  22146031.000   116378207.51609      -495.595          49.600    22146029.780  
  90684329.78548      -495.595          45.950  
  24784445.140   130243142.26505      -525.427          36.750    24784440.940  
 101488177.81244      -525.428          32.800  
  23732436.480   124714803.52408       660.069          45.050    23732431.760  
  97180352.07944       660.069          33.950  
  21183456.400   111319822.38609       464.632          49.200    21183452.160  
  86742706.79948       464.632          46.300  
  22127856.280   117953922.21007       312.447          42.550                  
                                                
  19980263.060   106618554.18209      -333.174          49.000    19980266.420  
  82925566.11808      -333.174          46.300  
  21516652.500   114978499.34908      -472.234          47.250    21516655.740  
  89427742.52008      -472.234          45.050  
  21774499.980   116233762.70607      -442.589          43.800    21774504.920  
  90404053.74908      -442.589          45.850  
  20428949.300   109204442.42108       425.755          45.300    20428953.540  
  84936809.96406       425.756          41.200  
  22590106.000   120799422.62608       818.072          44.750    22590109.580  
  93955110.48207       818.072          42.000  
  20369687.320   109002327.92408       289.167          48.400    20369689.120  
  84779609.30408       289.168          46.100  
 20 09 27 07 37 15.0000000  0 16G 8G18G20G27G24G10G21G13G15R10R 2R11
                                R18R 1R24R17
  24631420.140   129438988.27905       -88.787          37.150    24631420.440  
 100861548.34645       -88.787          36.850  
  21313171.600   112001466.36009       472.789          49.200    21313168.120  
  87273852.20648       472.790          44.700  
  20052562.520   105376944.90909      -149.451          49.200    20052557.540  
  82111929.47048      -149.451          47.800  
  24089530.980   126591354.82906       259.922          40.950    24089529.860  
  98642599.62645       259.921          35.700  
  21090447.380   110831095.13209      -351.985          49.050    21090446.040  
  86361909.71848      -351.985          46.250  
  22143553.580   116365188.46009      -495.385          49.450    22143552.300  
  90674185.07248      -495.385          46.200  
  24781818.480   130229339.49705      -525.229          37.250    24781814.080  
 101477422.45943      -525.229          29.300  
  23735737.440   124732149.60308       660.206          44.900    23735732.680  
  97193868.48844       660.207          33.100  
  21185780.300   111332034.64109       464.986          49.000    21185776.100  
  86752222.84148       464.986          46.650  
  22129420.460   117962260.30007       313.267          41.900                  
                                                
  19978598.120   106609669.75709      -332.798          49.000    19978601.480  
  82918656.00808      -332.798          46.550  
  21514292.940   114965890.41808      -471.569          46.750    21514296.120  
  89417935.58408      -471.569          45.200  
  21772288.980   116221959.83507      -441.866          44.000    21772293.800  
  90394873.74208      -441.866          46.000  
  20431078.840   109215826.23908       426.080          45.150    20431083.120  
  84945664.02807       426.080          41.500  
  22594196.900   120821298.57607       818.313          44.050    22594200.500  
  93972125.10507       818.313          42.250  
  20371135.220   109010076.10408       290.000          48.450    20371137.020  
  84785635.66808       290.000          46.000  
 20 09 27 07 37 20.0000000  0 16G 8G18G20G27G24G10G21G13G15R10R 2R11
                                R18R 1R24R17
  24630977.620   129436662.90005       -88.194          38.250    24630978.620  
 100859736.37144       -88.194          33.850  
  21315536.760   112013895.22109       473.195          49.200    21315533.240  
  87283537.02648       473.195          44.950  
  20051816.360   105373023.89309      -149.072          49.150    20051811.400  
  82108874.13348      -149.072          47.700  
  24090832.340   126598192.71306       260.403          40.700    24090831.000  
  98647927.81145       260.403          37.900  
  21088688.940   110821854.53609      -351.458          49.050    21088687.600  
  86354709.26448      -351.459          46.550  
  22141077.280   116352175.31609      -495.222          49.400    22141075.980  
  90664044.96248      -495.222          46.000  
  24779193.000   130215542.96905      -525.034          37.200    24779189.020  
 101466671.94243      -525.034          28.650  
  23739039.000   124749498.87708       660.284          45.250    23739034.220  
  97207387.40244       660.284          33.550  
  21188105.940   111344256.05409       465.248          49.100    21188101.780  
  86761746.01548       465.248          46.400  
  22130988.600   117970619.22807       313.946          42.100                  
                                                
  19976935.040   106600795.13409      -332.517          49.100    19976938.400  
  82911753.52908      -332.517          46.700  
  21511936.640   114953299.03908      -470.992          47.050    21511939.800  
  89408142.30308      -470.992          45.150  
  21770081.660   116210176.44207      -441.212          44.050    21770086.320  
  90385708.87908      -441.211          45.750  
  20433209.940   109227218.30208       426.272          45.100    20433214.240  
  84954524.52707       426.272          41.550  
  22598288.920   120843180.79608       818.446          44.750    22598292.600  
  93989144.58307       818.447          42.800  
  20372587.380   109017846.75808       290.779          48.450    20372589.120  
  84791679.50408       290.779          46.100  
 20 09 27 07 37 25.0000000  0 16G 8G18G20G27G24G10G21G13G15R10R 2R11
                                R18R 1R24R17
  24630538.000   129434352.43206       -87.581          38.800    24630538.460  
 100857935.98145       -87.580          35.500  
  21317904.220   112026336.24109       473.816          49.150    21317900.680  
  87293231.32347       473.817          44.200  
  20051072.440   105369114.59609      -148.470          49.100    20051067.480  
  82105827.93148      -148.470          48.000  
  24092136.240   126605044.45206       261.108          40.850    24092134.960  
  98653266.84245       261.109          37.550  
  21086933.400   110812629.15809      -350.728          49.000    21086932.060  
  86347520.66248      -350.729          46.250  
  22138601.940   116339167.33809      -494.891          49.550    22138600.620  
  90653908.87448      -494.891          46.050  
  24776568.620   130201751.94305      -524.693          37.100    24776564.740  
 101455925.72743      -524.695          30.050  
  23742341.060   124766850.58608       660.515          45.000    23742336.200  
  97220908.20144       660.516          31.650  
  21190433.160   111356485.90909       465.693          49.050    21190429.060  
  86771275.76848       465.694          46.400  
  22132560.600   117978998.54507       314.814          41.850                  
                                                
  19975273.660   106591929.72909      -332.018          49.050    19975277.060  
  82904858.22108      -332.018          46.800  
  21509583.500   114940724.61208      -470.213          47.050    21509586.640  
  89398362.19408      -470.213          45.600  
  21767877.800   116198411.70107      -440.324          44.050    21767882.320  
  90376558.51208      -440.323          46.000  
  20435342.420   109238617.80608       426.725          45.000    20435346.760  
  84963390.80807       426.724          41.800  
  22602382.040   120865068.52207       818.827          43.800    22602385.680  
  94006168.35707       818.828          42.700  
  20374043.560   109025639.15408       291.718          48.250    20374045.320  
  84797740.25008       291.718          46.350  
 20 09 27 07 37 30.0000000  0 16G 8G18G20G27G24G10G21G13G15R10R 2R11
                                R18R 1R24R17
  24630101.940   129432060.08806       -87.041          38.750    24630102.700  
 100856149.77445       -87.042          35.950  
  21320274.580   112038792.35409       474.252          49.100    21320270.980  
  87302937.38348       474.252          45.000  
  20050331.320   105365219.97909      -148.036          49.150    20050326.360  
  82102793.16948      -148.037          47.700  
  24093443.320   126611912.98007       261.681          41.550    24093442.140  
  98658618.93045       261.681          37.200  
  21085181.320   110803421.98409      -350.143          48.950    21085179.980  
  86340346.24248      -350.143          46.450  
  22136128.120   116326167.52309      -494.681          49.450    22136126.840  
  90643779.15548      -494.681          46.050  
  24773945.900   130187969.44805      -524.436          37.400    24773940.840  
 101445186.11143      -524.437          29.350  
  23745644.120   124784207.71608       660.638          45.200    23745639.180  
  97234433.22744       660.639          35.350  
  21192762.580   111368727.18509       466.044          49.150    21192758.520  
  86780814.42348       466.044          45.750  
  22134136.960   117987401.18806       315.632          41.300                  
                                                
  19973614.540   106583076.36509      -331.698          49.100    19973617.980  
  82897972.28008      -331.698          46.800  
  21507234.120   114928170.13908      -469.578          47.200    21507237.240  
  89388597.61208      -469.578          45.900  
  21765678.020   116186668.84007      -439.638          43.950    21765682.440  
  90367425.17808      -439.638          46.000  
  20437476.920   109250028.07108       427.034          45.300    20437481.300  
  84972265.46507       427.034          41.700  
  22606476.760   120886964.83807       819.043          43.650    22606480.420  
  94023198.80407       819.044          42.700  
  20375504.380   109033456.21408       292.531          48.400    20375506.140  
  84803820.18608       292.531          46.550  
 20 09 27 07 37 35.0000000  0 16G 8G18G20G27G24G10G21G13G15R10R 2R11
                                R18R 1R24R17
  24629668.580   129429781.48906       -86.443          39.000    24629669.020  
 100854374.22244       -86.441          34.700  
  21322646.980   112051259.32209       474.755          49.050    21322643.340  
  87312651.89748       474.756          44.750  
  20049592.180   105361335.76909      -147.554          49.200    20049587.220  
  82099766.51448      -147.555          47.900  
  24094752.780   126618794.00206       262.197          41.150    24094751.700  
  98663980.76746       262.198          38.850  
  21083431.860   110794228.68609      -349.547          48.950    21083430.560  
  86333182.64648      -349.548          46.350  
  22133655.040   116313171.60009      -494.448          49.450    22133653.800  
  90633652.46548      -494.448          46.100  
  24771323.840   130174191.23405      -524.240          37.200    24771320.100  
 101434449.85843      -524.240          30.100  
  23748947.380   124801565.96308       660.738          45.100    23748942.380  
  97247959.13744       660.739          31.800  
  21195093.360   111380975.60909       466.367          49.250    21195089.320  
  86790358.65248       466.367          45.650  
  22135716.820   117995822.85306       316.350          41.250                  
                                                
  19971956.840   106574230.59009      -331.310          49.000    19971960.320  
  82891092.23008      -331.310          46.850  
  21504887.660   114915631.23408      -468.915          47.000    21504890.760  
  89378845.14308      -468.915          45.800  
  21763481.540   116174943.45907      -438.925          44.050    21763485.820  
  90358305.45008      -438.925          45.850  
  20439612.600   109261444.45608       427.337          45.400    20439616.980  
  84981144.87007       427.337          41.750  
  22610572.240   120908865.29507       819.270          43.800    22610575.880  
  94040232.48907       819.270          42.650  
  20376969.000   109041293.70509       293.397          48.600    20376970.760  
  84809916.01608       293.397          46.350  
 20 09 27 07 37 40.0000000  0 16G 8G18G20G27G24G10G21G13G15R10R 2R11
                                R18R 1R24R17
  24629237.960   129427517.86906       -85.749          39.000    24629238.640  
 100852610.37045       -85.749          37.550  
  21325021.660   112063738.30709       475.300          49.050    21325018.020  
  87322375.77848       475.300          44.950  
  20048855.240   105357463.14709      -147.035          49.150    20048850.280  
  82096748.88448      -147.035          47.800  
  24096064.820   126625688.74006       262.804          40.800    24096063.860  
  98669353.29946       262.803          38.600  
  21081685.280   110785050.43309      -348.897          48.850    21081684.000  
  86326030.76048      -348.897          46.700  
  22131182.920   116300180.75809      -494.198          49.450    22131181.740  
  90623529.73848      -494.198          46.400  
  24768702.840   130160418.47205      -524.066          36.800    24768698.580  
 101423717.79743      -524.065          29.900  
  23752251.080   124818926.55008       660.937          44.950    23752245.900  
  97261486.85844       660.937          33.350  
  21197425.720   111393232.31709       466.765          49.200    21197421.720  
  86799909.33548       466.765          46.200  
  22137300.460   118004264.76706       317.245          40.900                  
                                                
  19970300.840   106565393.93409      -330.917          49.050    19970304.360  
  82884219.27708      -330.917          46.750  
  21502544.320   114903109.13608      -468.212          47.000    21502547.440  
  89369105.73708      -468.213          45.850  
  21761288.580   116163236.78007      -438.100          44.400    21761292.720  
  90349200.25308      -438.100          45.850  
  20441749.660   109272868.23208       427.657          45.450    20441754.040  
  84990030.03107       427.657          41.650  
  22614668.780   120930771.05707       819.550          43.700    22614672.360  
  94057270.29407       819.551          42.850  
  20378437.640   109049152.81508       294.265          48.450    20378439.380  
  84816028.65508       294.265          46.250  
 20 09 27 07 37 45.0000000  0 16G 8G18G20G27G24G10G21G13G15R10R 2R11
                                R18R 1R24R17
  24628810.660   129425271.63106       -85.072          39.450    24628811.180  
 100850860.04044       -85.074          34.550  
  21327399.080   112076231.70509       475.871          49.150    21327395.420  
  87332110.89348       475.871          45.350  
  20048120.960   105353604.52409      -146.491          49.100    20048116.020  
  82093742.16948      -146.491          47.900  
  24097379.940   126632599.61606       263.457          40.850    24097379.000  
  98674738.38945       263.457          38.250  
  21079942.040   110775889.67909      -348.222          48.800    21079940.780  
  86318892.51848      -348.222          46.600  
  22128712.240   116287197.41709      -493.891          49.350    22128711.100  
  90613412.85948      -493.891          45.850  
  24766083.420   130146653.63205      -523.573          35.500    24766079.780  
 101412992.04444      -523.575          34.300  
  23755555.620   124836291.80708       661.087          44.650    23755550.480  
  97275018.23944       661.086          31.900  
  21199760.120   111405499.72409       467.178          49.100    21199756.140  
  86809468.35248       467.178          46.450  
  22138888.280   118012729.21006       318.117          40.600                  
                                                
  19968646.980   106556568.54809      -330.458          49.100    19968650.500  
  82877355.08808      -330.458          46.800  
  21500204.600   114890606.30208      -467.496          46.850    21500207.720  
  89359381.31908      -467.497          45.800  
  21759099.560   116151551.17307      -437.302          44.250    21759103.580  
  90340111.44708      -437.302          45.700  
  20443888.540   109284301.92708       428.066          45.350    20443892.940  
  84998922.90207       428.066          41.500  
  22618766.720   120952684.63007       819.845          43.650    22618770.300  
  94074314.16307       819.846          42.550  
  20379910.780   109057035.88708       295.163          48.300    20379912.520  
  84822159.93608       295.163          46.300  
 20 09 27 07 37 50.0000000  0 16G 8G18G20G27G24G10G21G13G15R10R 2R11
                                R18R 1R24R17
  24628386.380   129423040.94706       -84.614          39.400    24628386.400  
 100849121.85144       -84.614          34.950  
  21329778.920   112088737.75909       476.167          49.050    21329775.240  
  87341855.86448       476.167          45.150  
  20047389.000   105349758.18809      -146.191          49.100    20047384.100  
  82090745.02248      -146.191          47.800  
  24098697.800   126639524.77806       263.794          41.150    24098697.060  
  98680134.63145       263.794          36.400  
  21078201.800   110766744.74309      -347.783          48.750    21078200.560  
  86311766.59648      -347.783          46.850  
  22126242.640   116274219.85509      -493.819          49.300    22126241.560  
  90603300.46748      -493.819          46.100  
  24763465.080   130132894.85305      -523.545          36.100    24763461.600  
 101402270.81744      -523.543          33.150  
  23758860.700   124853659.87008       661.049          44.750    23758855.580  
  97288551.77644       661.050          33.050  
  21202096.220   111417776.09709       467.342          49.100    21202092.280  
  86819034.35648       467.342          46.300  
  22140480.000   118021214.44006       318.744          40.750                  
                                                
  19966994.960   106547753.02609      -330.282          49.100    19966998.500  
  82870498.56508      -330.282          46.700  
  21497868.200   114878121.09908      -466.999          47.050    21497871.320  
  89349670.61008      -466.999          45.850  
  21756914.140   116139885.02807      -436.775          44.000    21756918.120  
  90331037.76908      -436.775          45.850  
  20446028.980   109295743.62308       428.194          45.450    20446033.320  
  85007822.00206       428.194          41.350  
  22622865.760   120974604.21807       819.904          43.800    22622869.320  
  94091362.72507       819.904          42.650  
  20381388.040   109064941.18608       295.844          48.450    20381389.780  
  84828308.49708       295.845          46.250  
 20 09 27 07 37 55.0000000  0 16G 8G18G20G27G24G10G21G13G15R10R 2R11
                                R18R 1R24R17
  24627964.780   129420824.98806       -84.067          38.900    24627964.820  
 100847395.13844       -84.067          32.250  
  21332161.000   112101255.67109       476.639          49.000    21332157.320  
  87351610.07748       476.639          45.250  
  20046659.240   105345923.30209      -145.736          49.000    20046654.340  
  82087756.80148      -145.736          47.850  
  24100018.220   126646463.45106       264.284          41.000    24100017.520  
  98685541.39146       264.284          38.600  
  21076464.420   110757614.83809      -347.202          48.800    21076463.240  
  86304652.39548      -347.203          46.500  
  22123773.980   116261247.24309      -493.638          49.250    22123772.960  
  90593191.94648      -493.638          46.000  
  24760847.760   130119141.42705      -523.361          36.600    24760845.280  
 101391553.88044      -523.360          34.100  
  23762166.180   124871030.11708       661.104          44.550    23762161.060  
  97302087.01944       661.105          32.950  
  21204433.900   111430060.62509       467.674          49.150    21204429.960  
  86828606.71848       467.674          46.000  
  22142075.520   118029719.65906       319.444          40.550                  
                                                
  19965344.620   106538946.44209      -329.913          48.950    19965348.160  
  82863649.00208      -329.913          46.650  
  21495534.920   114865652.64008      -466.342          47.150    21495538.060  
  89339972.92208      -466.342          45.850  
  21754732.220   116128237.46507      -436.055          43.700    21754736.140  
  90321978.55308      -436.055          45.750  
  20448170.680   109307192.56108       428.484          45.350    20448175.080  
  85016726.72907       428.484          41.500  
  22626965.800   120996528.93407       820.066          43.450    22626969.340  
  94108415.27607       820.067          42.650  
  20382869.320   109072867.94509       296.646          48.550    20382871.080  
  84834473.75208       296.646          46.200  
 20 09 27 07 38  0.0000000  0 16G 8G18G20G27G24G10G21G13G15R10R 2R11
                                R18R 1R24R17
  24627546.200   129418625.14005       -83.468          37.900    24627545.920  
 100845680.97844       -83.469          33.750  
  21334545.560   112113786.69809       477.120          48.950    21334541.900  
  87361374.51148       477.120          44.700  
  20045931.920   105342101.18609      -145.270          49.000    20045927.020  
  82084778.52948      -145.270          47.850  
  24101341.480   126653417.00306       264.860          40.750    24101340.700  
  98690959.74345       264.860          38.150  
  21074730.140   110748501.23509      -346.578          48.850    21074728.980  
  86297550.88948      -346.578          46.800  
  22121306.540   116248280.90509      -493.397          49.250    22121305.540  
  90583088.31148      -493.397          46.100  
  24758231.800   130105394.63805      -523.124          36.700    24758229.320  
 101380842.19543      -523.125          28.300  
  23765472.320   124888403.84208       661.226          44.800    23765467.220  
  97315624.99944       661.225          32.150  
  21206773.360   111442354.57809       468.059          49.250    21206769.440  
  86838186.41648       468.059          46.100  
  22143675.020   118038246.24606       320.291          40.600                  
                                                
  19963696.120   106530149.75209      -329.547          48.800    19963699.660  
  82856807.13208      -329.547          46.600  
  21493205.000   114853202.16308      -465.686          46.950    21493208.160  
  89330289.22208      -465.686          46.000  
  21752553.900   116116609.75507      -435.259          43.050    21752557.900  
  90312934.78708      -435.259          45.600  
  20450314.060   109318650.07208       428.789          45.400    20450318.420  
  85025638.12006       428.790          41.400  
  22631067.060   121018460.04907       820.325          44.050    22631070.540  
  94125472.79907       820.325          42.700  
  20384354.860   109080817.36209       297.505          48.600    20384356.620  
  84840656.62608       297.505          46.100  
 20 09 27 07 38  5.0000000  0 16G 8G18G20G27G24G10G21G13G15R10R 2R11
                                R18R 1R24R17
  24627130.640   129416441.78405       -82.786          38.000    24627130.320  
 100843979.65044       -82.785          33.850  
  21336932.700   112126331.21109       477.697          48.950    21336929.040  
  87371149.45548       477.697          44.900  
  20045207.100   105338292.20209      -144.701          49.200    20045202.200  
  82081810.49448      -144.701          47.750  
  24102667.600   126660385.67906       265.503          41.150    24102666.880  
  98696389.88146       265.504          39.300  
  21072998.980   110739404.11009      -345.895          48.850    21072997.860  
  86290462.22148      -345.895          46.850  
  22118840.340   116235321.19509      -493.103          49.400    22118839.380  
  90572989.83948      -493.103          46.350  
  24755617.200   130091654.86705      -522.849          36.850    24755614.740  
 101370135.86144      -522.848          34.100  
  23768779.220   124905781.39608       661.459          44.850    23768774.040  
  97329165.94644       661.459          34.100  
  21209114.720   111454658.30809       468.450          49.400    21209110.780  
  86847773.74248       468.450          46.200  
  22145278.600   118046794.40006       321.096          40.050                  
                                                
  19962049.620   106521363.73109      -329.097          48.800    19962053.160  
  82849973.56008      -329.097          46.450  
  21490878.540   114840770.17608      -464.938          46.400    21490881.740  
  89320619.91008      -464.938          45.750  
  21750379.320   116105002.38007      -434.502          42.250    21750383.460  
  90303906.83208      -434.503          45.100  
  20452459.100   109330116.64708       429.172          44.950    20452463.480  
  85034556.56306       429.172          41.300  
  22635169.580   121040397.99207       820.629          44.050    22635173.040  
  94142535.63507       820.630          42.700  
  20385844.740   109088789.86409       298.398          48.700    20385846.460  
  84846857.46208       298.398          46.050  
 20 09 27 07 38 10.0000000  0 16G 8G18G20G27G24G10G21G13G15R10R 2R11
                                R18R 1R24R17
  24626718.280   129414275.37705       -82.172          37.650    24626718.120  
 100842291.52145       -82.172          36.150  
  21339322.480   112138889.70209       478.169          48.900    21339318.840  
  87380935.29248       478.169          44.900  
  20044484.880   105334496.89809      -144.237          49.200    20044479.980  
  82078853.11848      -144.237          48.100  
  24103996.740   126667370.03707       266.041          41.500    24103996.060  
  98701832.25345       266.040          36.550  
  21071271.120   110730324.24109      -345.309          48.750    21071270.040  
  86283387.00748      -345.309          47.150  
  22116375.540   116222368.65709      -492.854          49.600    22116374.600  
  90562896.95448      -492.854          46.100  
  24753004.000   130077922.68405      -522.537          37.250    24753001.560  
 101359435.49845      -522.539          35.950  
  23772086.900   124923163.24008       661.562          44.650    23772081.780  
  97342710.22844       661.563          34.900  
  21211458.020   111466972.36709       468.799          49.350    21211454.080  
  86857369.11948       468.799          45.850  
  22146886.340   118055364.71406       321.883          40.550                  
                                                
  19960405.140   106512588.59109      -328.734          48.750    19960408.700  
  82843148.45508      -328.734          46.450  
  21488555.620   114828357.24108      -464.294          46.650    21488558.820  
  89310965.41208      -464.294          45.550  
  21748208.620   116093415.84707      -433.775          42.250    21748212.880  
  90294895.10108      -433.775          45.100  
  20454605.880   109341592.54008       429.485          45.000    20454610.280  
  85043482.26006       429.485          41.400  
  22639273.480   121062343.27207       820.900          44.100    22639276.960  
  94159604.17207       820.901          42.800  
  20387339.060   109096786.01809       299.246          48.750    20387340.700  
  84853076.70208       299.246          46.150  
 20 09 27 07 38 15.0000000  0 16G 8G18G20G27G24G10G21G13G15R10R 2R11
                                R18R 1R24R17
  24626308.500   129412122.50705       -81.721          36.600    24626308.300  
 100840613.99345       -81.722          35.800  
  21341714.280   112151458.77809       478.485          48.900    21341710.640  
  87390729.36948       478.485          44.700  
  20043764.600   105330711.84509      -143.922          49.150    20043759.700  
  82075903.72248      -143.922          47.900  
  24105328.200   126674366.63306       266.412          41.050    24105327.480  
  98707284.12845       266.412          36.050  
  21069545.880   110721258.20709      -344.838          48.700    21069544.840  
  86276322.57748      -344.839          46.700  
  22113911.460   116209419.85809      -492.794          49.550    22113910.520  
  90552806.98948      -492.794          46.150  
  24750391.580   130064194.65505      -522.398          36.700    24750389.280  
 101348738.28344      -522.399          31.950  
  23775394.740   124940545.95908       661.460          44.900    23775389.640  
  97356255.22244       661.459          33.450  
  21213802.660   111479293.30809       468.996          49.400    21213798.700  
  86866969.85248       468.996          46.000  
  22148497.640   118063953.81506       322.573          40.700                  
                                                
  19958762.120   106503821.30009      -328.511          48.800    19958765.700  
  82836329.44708      -328.511          46.550  
  21486235.580   114815959.80008      -463.755          46.800    21486238.800  
  89301322.95408      -463.755          45.600  
  21746041.220   116081846.65807      -433.184          42.950    21746045.540  
  90285896.83508      -433.184          45.350  
  20456753.760   109353074.42408       429.631          44.950    20456758.200  
  85052412.60606       429.631          41.250  
  22643378.040   121084292.26607       820.938          43.850    22643381.540  
  94176675.59707       820.938          42.700  
  20388837.080   109104802.24109       299.918          48.900    20388838.720  
  84859311.53408       299.919          46.150  
 20 09 27 07 38 20.0000000  0 16G 8G18G20G27G24G10G21G13G15R10R 2R11
                                R18R 1R24R17
  24625901.700   129409985.17905       -81.055          36.600    24625901.480  
 100838948.50144       -81.054          34.350  
  21344108.440   112164040.34909       479.160          48.900    21344104.840  
  87400533.18948       479.160          45.350  
  20043046.640   105326938.99509      -143.266          49.200    20043041.760  
  82072963.83548      -143.266          48.100  
  24106662.340   126681377.44206       267.135          41.300    24106661.600  
  98712747.09845       267.135          36.600  
  21067823.660   110712207.97109      -344.059          48.800    21067822.640  
  86269270.44648      -344.059          46.900  
  22111448.480   116196476.78709      -492.388          49.700    22111447.540  
  90542721.48348      -492.388          45.950  
  24747780.340   130050472.68305      -522.067          36.900    24747777.380  
 101338045.88544      -522.068          31.550  
  23778703.180   124957931.52108       661.813          45.250    23778698.000  
  97369802.39744       661.813          34.500  
  21216148.960   111491623.07409       469.515          49.500    21216145.000  
  86876577.46448       469.515          46.050  
  22150112.840   118072563.48406       323.518          40.350                  
                                                
  19957120.840   106495063.24909      -327.984          48.750    19957124.440  
  82829517.63508      -327.984          46.550  
  21483918.820   114803579.89708      -462.934          46.750    21483922.060  
  89291694.14308      -462.934          45.550  
  21743877.500   116070296.88107      -432.255          43.150    21743881.880  
  90276913.67308      -432.255          45.350  
  20458903.140   109364564.26308       430.137          45.250    20458907.620  
  85061349.14706       430.136          41.050  
  22647483.680   121106247.07807       821.364          43.100    22647487.220  
  94193751.54507       821.365          42.300  
  20390339.260   109112840.50909       300.927          48.800    20390340.840  
  84865563.51608       300.927          46.200  
 20 09 27 07 38 25.0000000  0 16G 8G18G20G27G24G10G21G13G15R10R 2R11
                                R18R 1R24R17
  24625498.060   129407864.86705       -80.412          36.900    24625497.960  
 100837296.32244       -80.411          34.650  
  21346505.300   112176635.99909       479.542          48.950    21346501.720  
  87410347.97548       479.542          44.750  
  20042331.300   105323179.91909      -142.888          49.300    20042326.440  
  82070034.68248      -142.888          48.300  
  24107999.480   126688404.01507       267.654          41.950    24107998.720  
  98718222.32144       267.655          35.250  
  21066104.740   110703175.02309      -343.544          49.000    21066103.740  
  86262231.78448      -343.544          46.750  
  22108986.900   116183541.02309      -492.280          49.850    22108985.940  
  90532641.66148      -492.280          46.200  
  24745170.540   130036758.42005      -521.914          37.500    24745167.680  
 101327359.43345      -521.914          36.250  
  23782012.380   124975321.45108       661.794          45.250    23782007.200  
  97383352.98344       661.794          34.150  
  21218497.240   111503963.22709       469.769          49.550    21218493.260  
  86886193.16348       469.769          46.450  
  22151732.180   118081195.43206       324.250          40.150                  
                                                
  19955481.680   106486316.52409      -327.699          48.600    19955485.320  
  82822714.63108      -327.699          46.400  
  21481605.680   114791219.15708      -462.338          46.250    21481608.900  
  89282080.24208      -462.339          45.300  
  21741717.720   116058768.06307      -431.596          43.000    21741722.160  
  90267946.81908      -431.597          45.350  
  20461054.340   109376063.66808       430.326          45.100    20461058.800  
  85070293.12906       430.326          41.100  
  22651590.660   121128209.25807       821.485          42.950    22651594.240  
  94210833.22407       821.486          41.600  
  20391845.880   109120902.49409       301.667          48.800    20391847.420  
  84871833.94408       301.667          46.100  
 20 09 27 07 38 30.0000000  0 16G 8G18G20G27G24G10G21G13G15R10R 2R11
                                R18R 1R24R17
  24625097.340   129405759.25005       -79.831          36.700    24625097.380  
 100835655.62744       -79.833          33.700  
  21348904.340   112189243.25009       480.081          48.950    21348900.800  
  87420171.81148       480.081          45.100  
  20041618.140   105319432.17709      -142.354          49.250    20041613.280  
  82067114.37448      -142.354          48.450  
  24109339.160   126695443.89406       268.298          40.900    24109338.380  
  98723707.95444       268.299          35.150  
  21064388.620   110694157.01409      -342.898          48.950    21064387.660  
  86255204.77348      -342.898          46.550  
  22106526.240   116170610.08609      -491.990          49.800    22106525.260  
  90522565.61548      -491.990          46.000  
  24742561.840   130023049.41205      -521.549          37.150    24742558.760  
 101316677.08744      -521.550          33.300  
  23785321.980   124992713.31108       662.022          44.800    23785316.760  
  97396905.06644       662.023          34.400  
  21220847.020   111516311.24609       470.155          49.550    21220843.040  
  86895815.00148       470.155          46.150  
  22153355.200   118089847.15406       324.997          39.900                  
                                                
  19953844.140   106477578.57108      -327.287          48.450    19953847.840  
  82815918.45808      -327.288          46.500  
  21479295.640   114778875.06808      -461.627          47.150    21479298.860  
  89272479.30208      -461.628          45.400  
  21739561.440   116047257.87307      -430.821          43.050    21739565.960  
  90258994.45708      -430.821          45.250  
  20463206.820   109387570.08108       430.709          45.050    20463211.300  
  85079242.57206       430.709          41.200  
  22655698.640   121150176.31307       821.749          43.950    22655702.180  
  94227918.71807       821.748          42.000  
  20393356.420   109128985.55109       302.586          48.800    20393357.940  
  84878120.77308       302.586          46.300  
 20 09 27 07 38 35.0000000  0 16G 8G18G20G27G24G10G21G13G15R10R 2R11
                                R18R 1R24R17
  24624699.680   129403669.95105       -79.338          37.200    24624699.920  
 100834027.54244       -79.336          32.900  
  21351305.920   112201863.79309       480.474          48.900    21351302.420  
  87430005.99448       480.474          44.600  
  20040907.440   105315697.49409      -141.994          49.300    20040902.600  
  82064204.22848      -141.994          48.000  
  24110681.660   126702498.70106       268.674          41.100    24110680.860  
  98729205.20644       268.675          35.450  
  21062675.660   110685155.40609      -342.380          49.000    21062674.720  
  86248190.53348      -342.380          46.150  
  22104066.820   116157685.69709      -491.853          49.750    22104065.840  
  90512494.67048      -491.853          45.700  
  24739954.380   130009347.25105      -521.573          37.750    24739951.420  
 101306000.11244      -521.574          32.250  
  23788632.240   125010108.73708       661.984          45.050    23788627.040  
  97410459.94744       661.984          34.500  
  21223198.620   111528668.90109       470.408          49.400    21223194.640  
  86905444.33848       470.408          45.750  
  22154982.200   118098520.27006       325.735          39.550                  
                                                
  19952208.580   106468850.95209      -327.026          48.550    19952212.300  
  82809130.31208      -327.026          46.350  
  21476989.060   114766549.38008      -461.085          46.950    21476992.280  
  89262892.65008      -461.085          45.400  
  21737408.940   116035767.86307      -430.245          43.000    21737413.520  
  90250057.77408      -430.244          45.000  
  20465360.960   109399085.23908       430.896          45.200    20465365.460  
  85088198.80206       430.896          41.350  
  22659807.800   121172149.85407       821.849          43.300    22659811.360  
  94245009.24807       821.849          42.050  
  20394871.240   109137091.47409       303.282          48.850    20394872.760  
  84884425.37108       303.283          46.250  
 20 09 27 07 38 40.0000000  0 16G 8G18G20G27G24G10G21G13G15R10R 2R11
                                R18R 1R24R17
  24624305.020   129401595.95405       -78.478          37.150    24624305.380  
 100832411.46945       -78.479          36.700  
  21353709.840   112214496.52309       481.113          49.000    21353706.360  
  87439849.67548       481.113          44.800  
  20040199.040   105311974.78809      -141.363          49.400    20040194.220  
  82061303.41648      -141.363          47.900  
  24112026.780   126709567.39107       269.426          41.700    24112025.960  
  98734713.27845       269.426          36.650  
  21060965.640   110676169.28209      -341.609          49.150    21060964.720  
  86241188.36548      -341.609          46.300  
  22101608.440   116144766.75209      -491.513          49.900    22101607.440  
  90502427.95248      -491.513          45.400  
  24737348.120   129995651.10205      -520.990          38.250    24737344.780  
 101295327.78845      -520.991          35.750  
  23791942.940   125027506.62508       662.247          45.500    23791937.780  
  97424016.73744       662.248          33.000  
  21225551.840   111541035.04509       470.892          49.550    21225547.840  
  86915080.29048       470.892          45.800  
  22156613.040   118107213.74106       326.656          39.700                  
                                                
  19950574.740   106460132.64009      -326.494          48.600    19950578.480  
  82802349.40708      -326.494          46.700  
  21474685.680   114754241.04808      -460.251          46.350    21474688.960  
  89253319.50708      -460.251          45.350  
  21735260.040   116024296.96907      -429.310          43.000    21735264.660  
  90241135.97608      -429.310          45.250  
  20467516.560   109410608.14108       431.351          45.100    20467521.060  
  85097161.05207       431.351          41.650  
  22663917.980   121194128.79408       822.220          44.650    22663921.560  
  94262103.95807       822.221          42.250  
  20396390.140   109145219.20609       304.261          48.700    20396391.660  
  84890746.94308       304.261          46.550  
 20 09 27 07 38 45.0000000  0 16G 8G18G20G27G24G10G21G13G15R10R 2R11
                                R18R 1R24R17
  24623913.500   129399538.48605       -78.066          36.800    24623913.900  
 100830808.24845       -78.067          35.550  
  21356116.300   112227142.73109       481.497          48.900    21356112.880  
  87449703.86248       481.497          44.600  
  20039493.140   105308265.34009      -140.982          49.300    20039488.360  
  82058412.94348      -140.982          47.750  
  24113374.760   126716651.25206       269.878          40.900    24113374.000  
  98740233.15645       269.878          36.300  
  21059258.840   110667199.95909      -341.106          49.100    21059257.900  
  86234199.29048      -341.106          46.350  
  22099151.380   116131854.60109      -491.335          49.900    22099150.320  
  90492366.54448      -491.335          45.500  
  24734743.260   129981962.00505      -520.942          38.000    24734739.920  
 101284661.01744      -520.943          33.800  
  23795254.380   125044908.34108       662.315          45.000    23795249.180  
  97437576.51644       662.316          33.300  
  21227906.880   111553410.97709       471.139          49.550    21227902.920  
  86924723.87348       471.139          45.800  
  22158247.820   118115928.81106       327.347          39.250                  
                                                
  19948942.900   106451424.83709      -326.211          48.600    19948946.640  
  82795576.67708      -326.211          46.700  
  21472385.780   114741951.30108      -459.666          46.750    21472389.100  
  89243760.83008      -459.667          45.450  
  21733114.940   116012846.63207      -428.670          42.750    21733119.660  
  90232230.16708      -428.670          45.100  
  20469673.800   109422139.94508       431.576          45.050    20469678.340  
  85106130.23507       431.577          41.550  
  22668029.420   121216114.51107       822.357          43.000    22668033.060  
  94279203.94707       822.358          42.850  
  20397913.320   109153370.01609       305.032          48.650    20397914.860  
  84897086.46708       305.032          46.700  
 20 09 27 07 38 50.0000000  0 16G 8G18G20G27G24G10G21G13G15R10R 2R11
                                R18R 1R24R17
  24623524.620   129397495.07905       -77.561          36.800    24623525.260  
 100829215.98444       -77.560          34.250  
  21358524.880   112239799.95509       481.838          48.800    21358521.480  
  87459566.63148       481.838          44.800  
  20038789.300   105304566.70109      -140.646          49.200    20038784.540  
  82055530.88748      -140.646          48.250  
  24114725.160   126723747.79906       270.240          40.950    24114724.440  
  98745762.95145       270.241          35.900  
  21057554.760   110658245.06609      -340.590          48.950    21057553.820  
  86227221.45348      -340.590          46.550  
  22096695.120   116118946.75809      -491.253          49.800    22096694.020  
  90482308.48248      -491.253          46.050  
  24732139.240   129968277.63505      -520.825          38.300    24732136.100  
 101273997.85144      -520.825          32.550  
  23798566.100   125062311.37408       662.249          44.750    23798560.800  
  97451137.33344       662.248          32.650  
  21230263.360   111565794.26109       471.344          49.550    21230259.380  
  86934373.18148       471.344          45.850  
  22159886.220   118124663.08705       328.003          38.400                  
                                                
  19947312.620   106442725.37409      -325.996          48.750    19947316.380  
  82788810.43108      -325.996          46.600  
  21470088.940   114729677.81308      -459.141          46.450    21470092.280  
  89234214.78508      -459.142          45.400  
  21730973.200   116001414.40407      -428.102          42.500    21730978.040  
  90223338.43808      -428.102          44.850  
  20471832.240   109433678.19908       431.719          45.150    20471836.840  
  85115104.42707       431.719          41.750  
  22672141.640   121238104.26308       822.438          44.550    22672145.340  
  94296307.06307       822.439          42.950  
  20399440.340   109161541.36309       305.716          48.650    20399441.900  
  84903441.95108       305.716          46.400  
 20 09 27 07 38 55.0000000  0 16G 8G18G20G27G24G10G21G13G15R10R 2R11
                                R18R 1R24R17
  24623138.880   129395467.89405       -76.814          35.700    24623139.480  
 100827636.36245       -76.815          35.650  
  21360935.940   112252470.20509       482.394          48.900    21360932.560  
  87469439.54948       482.395          44.900  
  20038087.900   105300880.86409      -140.133          49.200    20038083.140  
  82052658.80248      -140.133          48.100  
  24116078.400   126730859.11606       270.968          40.650    24116077.620  
  98751304.24045       270.967          35.600  
  21055853.820   110649306.60309      -339.957          48.950    21055852.880  
  86220256.41748      -339.957          46.300  
  22094240.080   116106045.25409      -490.985          49.850    22094238.920  
  90472255.36648      -490.985          45.600  
  24729536.520   129954600.05205      -520.538          38.500    24729533.140  
 101263340.00244      -520.538          32.850  
  23801878.420   125079717.77008       662.470          44.600    23801873.080  
  97464700.73444       662.471          33.700  
  21232621.580   111578186.88709       471.730          49.350    21232617.600  
  86944029.77448       471.730          45.900  
  22161528.640   118133418.48106       328.802          39.850                  
                                                
  19945684.240   106434035.95209      -325.584          48.800    19945687.980  
  82782051.98708      -325.584          46.700  
  21467795.520   114717422.55508      -458.411          46.800    21467798.880  
  89224682.92208      -458.412          45.350  
  21728835.280   115990002.18907      -427.294          43.050    21728840.120  
  90214462.27708      -427.294          44.750  
  20473992.300   109445224.94208       432.102          45.250    20473996.920  
  85124085.22007       432.102          41.600  
  22676255.040   121260100.37307       822.695          44.150    22676258.800  
  94313415.12807       822.696          42.200  
  20400971.540   109169735.23509       306.594          48.750    20400973.160  
  84909814.96108       306.595          46.500  
 20 09 27 07 39  0.0000000  0 16G 8G18G20G27G24G10G21G13G15R10R 2R11
                                R18R 1R24R17
  24622756.320   129393457.21505       -76.145          36.850    24622757.040  
 100826069.61544       -76.146          33.300  
  21363349.560   112265153.96409       483.050          48.850    21363346.220  
  87479322.99648       483.050          44.800  
  20037389.040   105297208.38209      -139.462          49.200    20037384.300  
  82049797.13048      -139.462          47.800  
  24117434.440   126737985.55906       271.569          40.250    24117433.680  
  98756857.30545       271.569          38.000  
  21054156.060   110640384.86309      -339.173          48.950    21054155.120  
  86213304.41848      -339.173          46.050  
  22091786.340   116093150.60809      -490.571          49.800    22091785.140  
  90462207.59048      -490.571          45.200  
  24726935.200   129940929.74805      -519.994          38.050    24726931.960  
 101252687.83144      -519.996          31.550  
  23805191.440   125097127.96508       662.716          44.550    23805186.160  
  97478267.13044       662.716          32.650  
  21234981.700   111590589.32809       472.264          49.450    21234977.700  
  86953694.01148       472.264          45.600  
  22163175.200   118142195.68406       329.797          39.600                  
                                                
  19944057.860   106425357.32209      -325.020          49.050    19944061.640  
  82775301.95208      -325.020          46.600  
  21465505.620   114705186.09608      -457.597          46.650    21465509.020  
  89215165.67808      -457.597          45.250  
  21726701.260   115978610.59707      -426.351          43.550    21726706.040  
  90205602.15607      -426.352          44.150  
  20476154.040   109456780.71608       432.575          45.650    20476158.680  
  85133073.04007       432.575          41.550  
  22680369.720   121282103.17808       823.087          45.000    22680373.520  
  94330528.41207       823.087          42.400  
  20402507.100   109177952.26309       307.580          48.900    20402508.740  
  84916205.97908       307.580          46.350  
 20 09 27 07 39  5.0000000  0 16G 8G18G20G27G24G10G21G13G15R10R 2R11
                                R18R 1R24R17
  24622376.700   129391461.98605       -75.555          35.950    24622377.380  
 100824514.90144       -75.555          34.700  
  21365765.540   112277850.02209       483.475          48.750    21365762.220  
  87489216.02848       483.475          44.750  
  20036692.480   105293548.03209      -139.016          49.100    20036687.760  
  82046944.91548      -139.016          47.950  
  24118793.140   126745126.03806       272.091          40.200    24118792.500  
  98762421.31245       272.091          35.850  
  21052461.300   110631478.87409      -338.596          48.850    21052460.360  
  86206364.68648      -338.596          46.400  
  22089333.680   116080261.62809      -490.380          49.750    22089332.420  
  90452164.23548      -490.381          45.700  
  24724335.020   129927265.43605      -519.936          37.950    24724331.120  
 101242040.33844      -519.937          33.050  
  23808504.940   125114540.77707       662.805          44.100    23808499.720  
  97491835.53243       662.805          31.300  
  21237343.440   111603000.39509       472.563          49.300    21237339.440  
  86963364.97248       472.563          45.600  
  22164825.600   118150993.35606       330.513          40.050                  
                                                
  19942433.280   106416688.08709      -324.690          49.150    19942437.060  
  82768559.21908      -324.690          46.700  
  21463218.980   114692967.16608      -456.925          46.450    21463222.420  
  89205662.06808      -456.925          45.100  
  21724570.860   115967238.33507      -425.655          43.950    21724575.560  
  90196757.06507      -425.655          44.150  
  20478317.240   109468344.31308       432.843          45.550    20478321.920  
  85142066.94507       432.844          41.700  
  22684485.400   121304111.54207       823.249          44.350    22684489.240  
  94347646.01807       823.250          42.550  
  20404046.740   109186191.13409       308.387          48.950    20404048.400  
  84922613.98508       308.387          46.450  
 20 09 27 07 39 10.0000000  0 16G 8G18G20G27G24G10G21G13G15R10R 2R11
                                R18R 1R24R17
  24622000.460   129389484.53405       -74.830          36.350    24622000.920  
 100822974.02844       -74.830          32.400  
  21368184.300   112290560.67809       484.065          48.650    21368181.000  
  87499120.42948       484.065          45.750  
  20035998.660   105289902.10409      -138.450          49.050    20035993.980  
  82044103.93048      -138.450          48.150  
  24120154.920   126752282.75706       272.739          39.900    24120154.340  
  98767997.96345       272.739          35.550  
  21050769.980   110622590.89809      -337.894          48.800    21050769.040  
  86199438.99348      -337.894          46.550  
  22086882.520   116067380.60809      -490.055          49.600    22086881.220  
  90442127.07548      -490.055          45.850  
  24721736.420   129913609.59905      -519.574          38.300    24721732.380  
 101231399.43044      -519.574          33.600  
  23811819.340   125131958.46607       663.071          43.750    23811814.120  
  97505407.75344       663.072          33.250  
  21239707.280   111615422.40609       473.013          49.150    21239703.260  
  86973044.46148       473.013          45.950  
  22166480.240   118159813.67106       331.418          40.150                  
                                                
  19940810.940   106408030.74309      -324.207          49.050    19940814.680  
  82761825.73208      -324.207          46.550  
  21460936.120   114680768.26308      -456.162          46.750    21460939.520  
  89196174.03408      -456.162          45.150  
  21722444.600   115955887.86707      -424.812          44.100    21722449.160  
  90187928.92207      -424.812          43.900  
  20480482.340   109479917.96208       433.247          45.350    20480487.040  
  85151068.66807       433.247          41.750  
  22688602.500   121326127.55007       823.617          44.000    22688606.420  
  94364769.56807       823.618          42.450  
  20405590.920   109194454.31009       309.325          48.800    20405592.600  
  84929040.89808       309.325          46.250  
 20 09 27 07 39 15.0000000  0 16G 8G18G20G27G24G10G21G13G15R10R 2R11
                                R18R 1R24R17
  24621626.900   129387521.54204       -74.271          35.050    24621627.460  
 100821444.41444       -74.271          32.550  
  21370605.220   112303282.65409       484.493          48.800    21370601.920  
  87509033.65548       484.493          44.900  
  20035306.980   105286267.37509      -138.019          49.000    20035302.340  
  82041271.67848      -138.019          48.050  
  24121519.240   126759452.52806       273.311          39.200    24121518.740  
  98773584.80544       273.311          35.450  
  21049081.440   110613717.62909      -337.345          48.800    21049080.500  
  86192524.76548      -337.345          46.350  
  22084432.280   116054504.29509      -489.876          49.550    22084430.940  
  90432093.59648      -489.876          45.800  
  24719138.800   129899958.86605      -519.299          38.500    24719135.120  
 101220762.50243      -519.302          29.550  
  23815134.100   125149377.77907       663.081          44.100    23815128.900  
  97518981.26044       663.081          33.700  
  21242072.560   111627851.99909       473.282          49.100    21242068.540  
  86982729.86148       473.282          46.100  
  22168138.620   118168653.43906       332.112          39.750                  
                                                
  19939190.180   106399381.94509      -323.901          49.000    19939193.920  
  82755098.89908      -323.901          46.600  
  21458656.340   114668585.85208      -455.543          46.800    21458659.760  
  89186698.83708      -455.544          45.250  
  21720321.780   115944555.89107      -424.162          44.000    21720326.240  
  90179115.16107      -424.162          43.850  
  20482648.680   109491498.39308       433.496          45.200    20482653.420  
  85160075.67007       433.497          41.700  
  22692720.400   121348148.03707       823.790          44.050    22692724.440  
  94381896.59807       823.791          42.450  
  20407139.000   109202738.26509       310.095          48.700    20407140.680  
  84935483.98008       310.094          46.300  
 20 09 27 07 39 20.0000000  0 15G18G20G27G24G10G21G13G15R10R 2R11R18
                                R 1R24R17
  21373028.180   112316015.27609       484.836          48.850    21373024.880  
  87518955.17748       484.836          44.900  
  20034617.300   105282643.15609      -137.692          49.000    20034612.680  
  82038447.61548      -137.692          48.250  
  24122885.920   126766634.56906       273.548          39.650    24122885.360  
  98779181.23445       273.547          35.850  
  21047395.600   110604858.45609      -336.873          48.900    21047394.640  
  86185621.51848      -336.873          46.450  
  22081982.800   116041632.04309      -489.782          49.550    22081981.420  
  90422063.27048      -489.782          45.450  
  24716541.980   129886312.59505      -519.170          38.150    24716538.560  
 101210129.03444      -519.169          31.800  
  23818449.000   125166798.08807       663.082          43.550    23818443.860  
  97532555.50443       663.083          30.800  
  21244439.160   111640288.57909       473.499          49.250    21244435.140  
  86992420.69848       473.499          45.900  
  22169800.400   118177511.88806       332.795          39.850                  
                                                
  19937570.880   106390740.90309      -323.695          49.000    19937574.600  
  82748378.08908      -323.695          46.600  
  21456379.560   114656419.50508      -455.014          46.300    21456383.000  
  89177236.12608      -455.014          45.550  
  21718202.240   115933241.64507      -423.546          44.400    21718206.660  
  90170315.19407      -423.546          43.900  
  20484816.200   109503084.96308       433.662          45.300    20484820.940  
  85169087.44407       433.662          41.950  
  22696839.040   121370172.42407       823.858          44.150    22696843.160  
  94399026.65607       823.859          42.450  
  20408690.860   109211042.35209       310.800          48.700    20408692.520  
  84941942.72008       310.800          46.300  
 20 09 27 07 39 25.0000000  0 15G18G20G27G24G10G21G13G15R10R 2R11R18
                                R 1R24R17
  21375453.420   112328759.76509       485.286          48.900    21375450.080  
  87528885.94148       485.287          45.250  
  20033929.860   105279030.69709      -137.241          48.950    20033925.240  
  82035632.71248      -137.241          48.200  
  24124255.220   126773830.18706       274.115          40.300    24124254.500  
  98784788.20445       274.115          35.650  
  21045712.720   110596014.69709      -336.276          48.950    21045711.720  
  86178730.28348      -336.277          46.700  
  22079534.320   116028765.07809      -489.563          49.350    22079532.900  
  90412037.06648      -489.563          45.600  
  24713946.280   129872671.99205      -519.035          38.100    24713943.040  
 101199500.08045      -519.038          35.650  
  23821764.320   125184220.55907       663.116          43.350    23821759.240  
  97546131.45644       663.116          33.250  
  21246807.320   111652733.34909       473.801          49.150    21246803.300  
  87002117.91948       473.801          46.250  
  22171465.880   118186390.35106       333.538          39.650                  
                                                
  19935953.240   106382108.76709      -323.326          48.900    19935956.920  
  82741664.20608      -323.326          46.600  
  21454106.020   114644270.38308      -454.381          46.850    21454109.460  
  89167786.82008      -454.381          45.450  
  21716086.280   115921946.39807      -422.814          44.300    21716090.600  
  90161530.00707      -422.814          43.850  
  20486985.140   109514678.85808       433.903          45.450    20486989.840  
  85178104.91407       433.903          41.750  
  22700958.680   121392201.68608       824.006          44.800    22700962.820  
  94416160.52907       824.006          42.100  
  20410246.660   109219367.85109       311.576          48.800    20410248.360  
  84948418.10908       311.576          46.250  
 20 09 27 07 39 30.0000000  0 15G18G20G27G24G10G21G13G15R10R 2R11R18
                                R 1R24R17
  21377881.300   112341518.21309       485.858          49.000    21377877.940  
  87538827.58548       485.858          45.450  
  20033245.080   105275432.09909      -136.676          49.000    20033240.480  
  82032828.61548      -136.676          48.300  
  24125627.500   126781041.47006       274.716          40.050    24125626.700  
  98790407.38245       274.716          36.600  
  21044033.160   110587188.39709      -335.593          48.950    21044032.100  
  86171852.64948      -335.593          46.300  
  22077087.220   116015905.49409      -489.271          49.350    22077085.780  
  90402016.61748      -489.271          45.450  
  24711352.100   129859039.18506      -518.791          38.550    24711348.800  
 101188877.08544      -518.790          32.300  
  23825080.460   125201647.30507       663.290          43.250    23825075.420  
  97559710.73444       663.291          33.300  
  21249177.420   111665188.38209       474.216          49.150    21249173.420  
  87011823.13848       474.217          46.350  
  22173135.560   118195290.91606       334.397          39.950                  
                                                
  19934337.760   106373488.16009      -322.905          48.900    19934341.420  
  82734959.29508      -322.905          46.450  
  21451836.140   114632140.64008      -453.598          47.100    21451839.560  
  89158352.58108      -453.598          45.600  
  21713974.360   115910672.52907      -421.969          44.450    21713978.540  
  90152761.44907      -421.969          43.850  
  20489155.800   109526282.31808       434.322          45.400    20489160.500  
  85187129.82707       434.322          41.700  
  22705079.660   121414238.07507       824.364          43.650    22705083.740  
  94433299.94307       824.364          41.600  
  20411806.900   109227716.89809       312.494          48.850    20411808.600  
  84954911.81208       312.495          46.150  
 20 09 27 07 39 35.0000000  0 15G18G20G27G24G10G21G13G15R10R 2R11R18
                                R 1R24R17
  21380311.680   112354289.86709       486.443          49.000    21380308.300  
  87548779.51748       486.444          45.000  
  20032562.780   105271846.61209      -136.116          49.000    20032558.180  
  82030034.72748      -136.116          48.350  
  24127002.600   126788267.68506       275.433          40.550    24127001.660  
  98796038.18245       275.434          38.050  
  21042356.760   110578378.66609      -334.896          49.000    21042355.660  
  86164987.93048      -334.896          46.550  
  22074641.380   116003052.57909      -488.952          49.350    22074639.920  
  90392001.36048      -488.952          45.100  
  24708759.300   129845413.56906      -518.252          39.100    24708755.680  
 101178259.73444      -518.252          31.600  
  23828397.220   125219077.57107       663.558          43.200    23828392.280  
  97573292.76844       663.557          32.350  
  21251549.340   111677652.96409       474.681          49.250    21251545.360  
  87021535.78948       474.681          46.200  
  22174809.240   118204212.89006       335.262          40.600                  
                                                
  19932724.120   106364877.50809      -322.420          49.000    19932727.740  
  82728262.12608      -322.420          46.150  
  21449569.720   114620029.45608      -452.820          47.050    21449573.140  
  89148932.77808      -452.821          45.450  
  21711866.260   115899419.02808      -421.153          44.850    21711870.340  
  90144008.73007      -421.154          43.800  
  20491328.120   109537894.39908       434.715          45.450    20491332.780  
  85196161.44007       434.715          41.600  
  22709201.760   121436280.78107       824.627          43.550    22709205.860  
  94450444.26107       824.627          41.500  
  20413371.380   109236088.68209       313.397          48.800    20413373.080  
  84961423.19108       313.397          45.950  
 20 09 27 07 39 40.0000000  0 15G18G20G27G24G10G21G13G15R10R 2R11R18
                                R 1R24R17
  21382744.240   112367072.95409       486.729          49.150    21382740.860  
  87558740.36248       486.729          44.750  
  20031882.640   105268272.49909      -135.830          49.000    20031878.060  
  82027249.71348      -135.831          48.350  
  24128380.240   126795506.96906       275.743          40.350    24128379.200  
  98801679.16546       275.744          38.800  
  21040683.220   110569583.94709      -334.444          49.050    21040682.060  
  86158134.90548      -334.444          46.400  
  22072196.460   115990204.58409      -488.901          49.400    22072194.980  
  90381989.93848      -488.901          44.700  
  24706167.520   129831793.20806      -518.230          39.450    24706163.600  
 101167646.48644      -518.232          32.000  
  23831714.340   125236509.62807       663.480          43.000    23831709.520  
  97586876.18144       663.480          32.150  
  21253922.740   111690125.29909       474.832          49.200    21253918.760  
  87031254.49648       474.832          46.000  
  22176486.640   118213154.40806       335.804          40.000                  
                                                
  19931112.260   106356276.24209      -322.232          48.950    19931115.840  
  82721572.25608      -322.232          46.150  
  21447306.440   114607935.20108      -452.324          47.000    21447309.900  
  89139526.14908      -452.325          45.350  
  21709761.660   115888184.18308      -420.547          44.850    21709765.640  
  90135270.51907      -420.547          44.150  
  20493501.640   109549513.39208       434.830          45.250    20493506.380  
  85205198.43507       434.830          41.750  
  22713324.700   121458327.94807       824.688          43.400    22713328.820  
  94467592.04707       824.689          41.850  
  20414939.780   109244481.44309       314.055          48.600    20414941.460  
  84967950.89608       314.055          45.900  
 20 09 27 07 39 45.0000000  0 15G18G20G27G24G10G21G13G15R10R 2R11R18
                                R 1R24R17
  21385179.220   112379868.64209       487.100          49.100    21385175.800  
  87568711.02848       487.100          44.850  
  20031204.900   105264710.96509      -135.426          49.050    20031200.320  
  82024474.49748      -135.426          48.000  
  24129760.540   126802760.57906       276.240          39.950    24129759.520  
  98807331.32445       276.241          37.000  
  21039012.720   110560805.35709      -333.903          49.100    21039011.560  
  86151294.44848      -333.903          46.400  
  22069752.720   115977362.68109      -488.750          49.400    22069751.200  
  90371983.26648      -488.751          44.850  
  24703577.020   129818179.40006      -518.104          40.050    24703573.000  
 101157038.28944      -518.104          31.550  
  23835032.020   125253944.58507       663.474          43.050    23835027.280  
  97600461.84944       663.475          34.800  
  21256297.860   111702606.53409       475.075          49.200    21256293.840  
  87040980.13348       475.076          46.050  
  22178167.920   118222116.82106       336.547          40.050                  
                                                
  19929502.140   106347684.36509      -321.953          48.850    19929505.720  
  82714889.68508      -321.953          46.200  
  21445046.540   114595859.10308      -451.741          47.150    21445050.020  
  89130133.63908      -451.741          45.350  
  21707660.760   115876969.25508      -419.914          44.950    21707664.700  
  90126547.80407      -419.914          43.800  
  20495676.740   109561140.57808       435.051          45.250    20495681.480  
  85214241.80107       435.051          41.650  
  22717448.780   121480380.91207       824.779          43.100    22717452.840  
  94484744.34307       824.779          42.250  
  20416512.320   109252896.32809       314.788          48.700    20416513.980  
  84974495.80708       314.788          45.900  
 20 09 27 07 39 50.0000000  0 15G18G20G27G24G10G21G13G15R10R 2R11R18
                                R 1R24R17
  21387616.700   112392677.61009       487.703          49.100    21387613.280  
  87578692.03048       487.703          45.400  
  20030529.700   105261162.70909      -134.808          49.150    20030525.120  
  82021709.62548      -134.808          48.050  
  24131143.700   126810029.16006       276.945          40.150    24131142.600  
  98812995.15545       276.945          38.000  
  21037345.460   110552043.66609      -333.165          49.150    21037344.260  
  86144467.15648      -333.165          46.400  
  22067310.280   115964527.56109      -488.365          49.350    22067308.700  
  90361981.88548      -488.366          44.700  
  24700987.900   129804572.93106      -517.715          40.600    24700984.100  
 101146435.85444      -517.714          33.100  
  23838350.380   125271383.16007       663.812          42.800    23838345.780  
  97614050.33944       663.813          32.900  
  21258674.800   111715097.34909       475.532          49.250    21258670.760  
  87050713.23348       475.532          45.950  
  22179853.180   118231100.51506       337.432          40.550                  
                                                
  19927894.040   106339103.38509      -321.429          48.850    19927897.620  
  82708215.59008      -321.429          46.200  
  21442790.140   114583801.77608      -450.936          46.850    21442793.620  
  89120755.70908      -450.936          45.250  
  21705563.700   115865774.91008      -419.051          44.900    21705567.620  
  90117841.10107      -419.052          44.100  
  20497853.500   109572776.54608       435.499          45.300    20497858.240  
  85223292.00307       435.498          41.750  
  22721574.000   121502440.17307       825.146          44.050    22721578.080  
  94501901.52907       825.146          42.650  
  20418089.120   109261334.12809       315.771          48.650    20418090.760  
  84981058.53808       315.771          45.650  
 20 09 27 07 39 55.0000000  0 15G18G20G27G24G10G21G13G15R10R 2R11R18
                                R 1R24R17
  21390056.360   112405498.02009       488.201          49.100    21390052.920  
  87588681.95848       488.202          44.950  
  20029856.660   105257625.87909      -134.351          49.150    20029852.080  
  82018953.65348      -134.352          48.050  
  24132529.360   126817310.83706       277.429          40.550    24132528.200  
  98818669.17945       277.428          36.250  
  21035681.020   110543296.94009      -332.577          49.100    21035679.800  
  86137651.53648      -332.577          46.750  
  22064868.800   115951697.40009      -488.154          49.450    22064867.160  
  90351984.35248      -488.155          44.550  
  24698399.800   129790971.85606      -517.442          40.750    24698396.180  
 101135837.63042      -517.443          26.850  
  23841669.100   125288823.46407       663.806          43.050    23841664.540  
  97627640.19444       663.806          35.000  
  21261053.220   111727595.94109       475.854          49.200    21261049.140  
  87060452.39448       475.854          46.200  
  22181542.200   118240103.63206       338.199          40.800                  
                                                
  19926287.600   106330531.15109      -321.082          48.800    19926291.180  
  82701548.30008      -321.082          46.150  
  21440536.940   114571761.40308      -450.283          46.900    21440540.400  
  89111390.98208      -450.283          45.100  
  21703470.140   115854599.25708      -418.329          44.750    21703474.020  
  90109148.92607      -418.329          43.850  
  20500031.540   109584419.49008       435.774          45.100    20500036.320  
  85232347.62407       435.773          41.650  
  22725700.060   121524503.98207       825.323          43.850    22725704.160  
  94519062.25207       825.323          42.350  
  20419669.860   109269792.87209       316.585          48.650    20419671.420  
  84987637.55908       316.585          45.450  
 20 09 27 07 40  0.0000000  0 16G 8G18G20G27G24G10G21G13G15R10R 2R11
                                R18R 1R24R17
  24618398.180   129370551.69505       -69.111          35.800    24618397.400  
 100808220.32744       -69.111          34.350  
  21392499.040   112418334.40109       488.668          49.050    21392495.620  
  87598684.32848       488.669          45.200  
  20029186.680   105254105.04409      -133.874          49.150    20029182.080  
  82016210.14248      -133.874          48.000  
  24133918.360   126824610.15206       277.912          40.200    24133917.220  
  98824356.94745       277.912          38.300  
  21034020.320   110534569.73509      -331.935          49.100    21034019.080  
  86130851.12248      -331.936          46.200  
  22062429.140   115938876.75609      -487.920          49.550    22062427.440  
  90341994.23847      -487.920          44.400  
  24695813.600   129777380.67606      -517.200          40.950    24695809.740  
 101125247.06643      -517.199          29.950  
  23844989.040   125306270.08707       663.933          43.200    23844984.540  
  97641234.96644       663.933          33.350  
  21263434.000   111740106.84809       476.227          49.250    21263429.880  
  87070201.14948       476.227          45.850  
  22183235.680   118249130.95106       338.976          41.100                  
                                                
  19924683.580   106321971.94709      -320.702          48.700    19924687.180  
  82694891.14208      -320.702          46.100  
  21438287.800   114559742.65708      -449.579          46.550    21438291.240  
  89102043.07808      -449.579          45.200  
  21701380.960   115843447.10708      -417.604          44.850    21701384.860  
  90100475.03607      -417.604          43.900  
  20502211.780   109596073.99208       436.101          45.300    20502216.540  
  85241412.23207       436.102          41.700  
  22729827.780   121546576.88207       825.540          44.350    22729831.940  
  94536230.05507       825.540          42.250  
  20421255.340   109278277.21309       317.396          48.700    20421256.880  
  84994236.48708       317.397          45.450  
 20 09 27 07 40  5.0000000  0 16G 8G18G20G27G24G10G21G13G15R10R 2R11
                                R18R 1R24R17
  24618054.780   129368745.00905       -68.350          35.700    24618054.680  
 100806812.52144       -68.350          33.300  
  21394943.640   112431180.79709       489.265          48.850    21394940.200  
  87608694.50548       489.265          45.050  
  20028518.620   105250594.22309      -133.273          49.050    20028513.980  
  82013474.44148      -133.273          48.050  
  24135309.680   126831921.20906       278.633          39.900    24135308.380  
  98830053.85846       278.633          38.700  
  21032362.220   110525856.27109      -331.206          49.000    21032360.960  
  86124061.41448      -331.206          46.350  
  22059990.140   115926059.68509      -487.585          49.350    22059988.380  
  90332006.90848      -487.585          44.800  
  24693228.140   129763793.52706      -516.833          41.100    24693224.080  
 101114659.73243      -516.834          28.100  
  23848309.020   125323717.03907       664.229          42.650    23848304.620  
  97654829.98944       664.229          34.700  
  21265815.960   111752624.10609       476.662          49.150    21265811.820  
  87079954.85648       476.662          45.950  
  22184932.620   118258176.43406       339.890          40.950                  
                                                
  19923081.040   106313420.43909      -320.191          48.850    19923084.620  
  82688239.97308      -320.191          46.200  
  21436041.560   114547739.43408      -448.783          46.700    21436044.960  
  89092707.24508      -448.784          45.350  
  21699295.080   115832312.41708      -416.683          44.750    21699298.940  
  90091814.73507      -416.684          44.100  
  20504393.060   109607734.07908       436.509          45.500    20504397.800  
  85250481.18907       436.509          41.650  
  22733956.100   121568652.87707       825.883          43.000    22733960.320  
  94553400.27207       825.883          42.200  
  20422844.480   109286781.03309       318.373          48.700    20422845.980  
  85000850.56708       318.373          45.750  
 20 09 27 07 40 10.0000000  0 16G 8G18G20G27G24G10G21G13G15R10R 2R11
                                R18R 1R24R17
  24617713.600   129366951.18105       -68.019          35.900    24617711.980  
 100805414.70943       -68.018          29.700  
  21397390.120   112444036.91309       489.543          48.650    21397386.640  
  87618712.25248       489.544          45.450  
  20027852.420   105247093.16409      -132.996          49.000    20027847.740  
  82010746.34348      -132.995          48.150  
  24136703.080   126839243.71806       278.907          40.300    24136701.880  
  98835759.70546       278.908          39.050  
  21030706.640   110517156.08209      -330.768          48.950    21030705.360  
  86117282.04848      -330.768          46.750  
  22057551.740   115913245.91209      -487.562          49.100    22057549.960  
  90322022.15948      -487.562          45.300  
  24690643.380   129750210.03306      -516.832          41.100    24690638.920  
 101104075.18543      -516.831          30.850  
  23851629.020   125341164.06107       664.102          42.900    23851624.720  
  97668425.04744       664.103          33.800  
  21268199.080   111765147.41309       476.819          49.150    21268194.940  
  87089713.27548       476.819          46.350  
  22186632.900   118267239.75806       340.491          40.150                  
                                                
  19921479.700   106304875.49409      -320.079          48.900    19921483.280  
  82681593.90908      -320.079          46.250  
  21433798.160   114535751.58308      -448.328          46.850    21433801.560  
  89083383.36208      -448.328          45.500  
  21697212.380   115821194.70008      -416.147          44.750    21697216.220  
  90083167.62007      -416.147          44.100  
  20506575.280   109619399.27708       436.582          45.400    20506580.020  
  85259554.11907       436.582          41.750  
  22738084.860   121590731.53307       825.889          43.400    22738089.140  
  94570572.52807       825.890          42.550  
  20424437.220   109295304.05609       318.979          48.750    20424438.660  
  85007479.57908       318.979          45.950  
 20 09 27 07 40 15.0000000  0 16G 8G18G20G27G24G10G21G13G15R10R 2R11
                                R18R 1R24R17
  24617375.300   129365173.99705       -67.386          35.550    24617375.460  
 100804029.90844       -67.387          32.950  
  21399839.120   112456906.39309       489.999          48.750    21399835.640  
  87628740.42448       489.999          45.350  
  20027188.760   105243605.52009      -132.529          49.100    20027184.040  
  82008028.70548      -132.529          48.000  
  24138099.420   126846581.26106       279.506          40.650    24138098.280  
  98841477.25646       279.506          39.250  
  21029054.300   110508472.88209      -330.180          48.850    21029053.000  
  86110515.92448      -330.181          46.350  
  22055114.680   115900439.09909      -487.355          49.000    22055112.860  
  90312042.83148      -487.355          44.850  
  24688060.000   129736633.98006      -516.656          41.150    24688055.480  
 101093496.44641      -516.658          25.150  
  23854949.760   125358614.75707       664.191          43.100    23854945.560  
  97682023.01444       664.190          33.750  
  21270584.040   111777680.37809       477.146          49.100    21270579.880  
  87099479.22248       477.146          46.200  
  22188337.200   118276324.63006       341.188          39.700                  
                                                
  19919880.460   106296341.64509      -319.691          48.950    19919884.040  
  82674956.47508      -319.691          46.150  
  21431558.340   114523782.64208      -447.664          46.800    21431561.740  
  89074074.18808      -447.664          45.600  
  21695133.620   115810097.92208      -415.415          44.650    21695137.400  
  90074536.80207      -415.416          44.250  
  20508759.160   109631073.41808       436.917          45.500    20508763.900  
  85268634.00807       436.917          41.650  
  22742214.920   121612816.66807       826.089          44.100    22742219.220  
  94587749.85907       826.090          42.800  
  20426034.260   109303850.05909       319.773          48.900    20426035.640  
  85014126.46808       319.773          45.700  
 20 09 27 07 40 20.0000000  0 16G 8G18G20G27G24G10G21G13G15R10R 2R11
                                R18R 1R24R17
  24617040.160   129363415.03404       -66.529          34.100    24617040.300  
 100802659.33344       -66.530          32.150  
  21402290.920   112469790.79909       490.666          48.550    21402287.460  
  87638780.20948       490.667          45.550  
  20026527.940   105240132.84609      -131.854          49.000    20026523.200  
  82005322.71848      -131.854          48.150  
  24139498.880   126853935.37306       280.137          40.300    24139497.780  
  98847207.73346       280.137          38.800  
  21027405.480   110499808.30309      -329.390          48.750    21027404.180  
  86103764.30548      -329.390          46.800  
  22052679.240   115887640.82209      -486.903          48.850    22052677.400  
  90302070.15048      -486.903          45.250  
  24685478.340   129723066.93106      -516.030          41.150    24685473.860  
 101082924.67742      -516.028          25.750  
  23858271.480   125376070.58907       664.449          42.850    23858267.320  
  97695624.93544       664.450          33.250  
  21272971.120   111790224.57909       477.641          48.950    21272966.960  
  87109253.91448       477.642          46.650  
  22190045.760   118285432.60806       342.229          39.400                  
                                                
  19918283.480   106287820.00409      -319.161          48.900    19918287.080  
  82668328.53008      -319.161          46.250  
  21429322.380   114511834.33408      -446.804          46.400    21429325.800  
  89064781.06208      -446.805          45.850  
  21693059.080   115799023.55307      -414.494          44.400    21693062.760  
  90065923.40407      -414.494          44.400  
  20510945.020   109642758.09008       437.386          45.600    20510949.740  
  85277722.07807       437.386          41.650  
  22746346.460   121634909.69207       826.478          43.600    22746350.800  
  94604933.29607       826.479          42.750  
  20427635.880   109312420.52309       320.805          48.750    20427637.220  
  85020792.36808       320.806          45.900  
 20 09 27 07 40 25.0000000  0 16G 8G18G20G27G24G10G21G13G15R10R 2R11
                                R18R 1R24R17
  24616708.060   129361672.56404       -66.035          34.250    24616708.520  
 100801301.48244       -66.033          31.800  
  21404745.260   112482688.38509       491.069          48.650    21404741.820  
  87648830.27648       491.069          45.450  
  20025869.660   105236673.40609      -131.460          49.000    20025864.860  
  82002627.05548      -131.461          47.900  
  24140901.180   126861304.42006       280.687          40.400    24140900.080  
  98852949.83646       280.687          38.950  
  21025759.900   110491160.64309      -328.838          48.750    21025758.600  
  86097025.87248      -328.838          46.450  
  22050245.100   115874849.35109      -486.755          49.050    22050243.260  
  90292102.77848      -486.755          45.150  
  24682897.980   129709507.09306      -515.929          41.000    24682893.380  
 101072358.56543      -515.927          30.200  
  23861593.880   125393529.96107       664.512          43.050    23861589.780  
  97709229.64844       664.512          34.550  
  21275360.020   111802778.29909       477.914          49.000    21275355.860  
  87119036.03748       477.914          46.550  
  22191758.360   118294561.79706       342.877          39.800                  
                                                
  19916688.500   106279308.84509      -318.839          49.000    19916692.100  
  82661708.74408      -318.839          46.300  
  21427089.940   114499904.99008      -446.175          46.650    21427093.420  
  89055502.69208      -446.175          45.800  
  21690988.400   115787969.82607      -413.802          44.100    21690992.020  
  90057326.07208      -413.803          44.700  
  20513132.580   109654451.50108       437.620          45.750    20513137.200  
  85286816.95607       437.620          41.850  
  22750479.100   121657008.96007       826.617          43.100    22750483.500  
  94622121.60707       826.617          42.550  
  20429241.740   109321013.76709       321.518          48.750    20429243.060  
  85027476.00008       321.518          45.850  
 20 09 27 07 40 30.0000000  0 16G 8G18G20G27G24G10G21G13G15R10R 2R11
                                R18R 1R24R17
  24616378.840   129359943.64704       -65.470          34.750    24616379.180  
 100799954.28744       -65.470          32.250  
  21407201.540   112495596.28409       491.521          48.700    21407198.100  
  87658888.37548       491.520          45.100  
  20025213.360   105233224.38709      -130.987          49.050    20025208.500  
  81999939.50848      -130.987          48.050  
  24142305.820   126868685.41606       281.149          40.250    24142304.640  
  98858701.26245       281.149          37.650  
  21024116.960   110482526.94509      -328.266          48.800    21024115.660  
  86090298.32048      -328.267          46.400  
  22047811.720   115862061.84209      -486.515          49.100    22047809.860  
  90282138.48848      -486.515          44.700  
  24680318.480   129695951.65806      -515.764          41.100    24680314.080  
 101061795.92543      -515.766          30.200  
  23864916.400   125410989.99507       664.568          43.350    23864912.340  
  97722834.86645       664.568          35.950  
  21277750.180   111815338.61409       478.226          49.150    21277746.000  
  87128823.29048       478.226          46.050  
  22193474.460   118303709.43906       343.647          40.550                  
                                                
  19915095.000   106270805.56709      -318.494          48.900    19915098.580  
  82655095.08608      -318.494          46.200  
  21424860.480   114487991.53608      -445.515          46.700    21424863.980  
  89046236.67808      -445.515          45.650  
  21688921.000   115776933.95008      -413.094          44.600    21688924.640  
  90048742.62108      -413.095          44.900  
  20515321.220   109666150.73708       437.918          45.400    20515325.760  
  85295916.35707       437.918          41.800  
  22754612.380   121679111.59907       826.750          43.900    22754616.840  
  94639312.52207       826.751          42.300  
  20430851.300   109329626.74309       322.349          48.750    20430852.600  
  85034174.98308       322.349          46.050  
 20 09 27 07 40 35.0000000  0 16G 8G18G20G27G24G10G21G13G15R10R 2R11
                                R18R 1R24R17
  24616053.060   129358232.27605       -64.983          36.050    24616053.440  
 100798620.74143       -64.983          28.150  
  21409660.540   112508518.32109       491.917          48.650    21409657.100  
  87668957.49148       491.918          45.700  
  20024559.780   105229789.61709      -130.634          49.100    20024554.860  
  81997263.06648      -130.634          47.900  
  24143713.420   126876082.28106       281.613          40.650    24143712.280  
  98864465.05646       281.612          38.700  
  21022477.420   110473911.05709      -327.709          48.900    21022476.100  
  86083584.64748      -327.710          46.650  
  22045379.860   115849282.13009      -486.387          49.250    22045377.940  
  90272180.27048      -486.387          44.950  
  24677740.560   129682404.51806      -515.533          40.400    24677736.360  
 101051239.66743      -515.532          30.850  
  23868239.800   125428454.53607       664.596          43.300    23868235.800  
  97736443.59644       664.596          34.050  
  21280142.340   111827909.41309       478.464          49.300    21280138.160  
  87138618.71348       478.464          46.100  
  22195194.740   118312879.24906       344.311          41.250                  
                                                
  19913503.620   106262313.72009      -318.218          48.950    19913507.180  
  82648490.31808      -318.218          46.100  
  21422634.760   114476098.02708      -444.933          46.850    21422638.280  
  89036986.17508      -444.933          45.650  
  21686857.700   115765919.74707      -412.441          44.400    21686861.340  
  90040176.02408      -412.441          44.900  
  20517511.660   109677859.75008       438.103          45.550    20517516.140  
  85305023.36107       438.104          41.550  
  22758747.060   121701221.38007       826.924          43.900    22758751.500  
  94656509.01407       826.925          42.650  
  20432465.300   109338263.48909       323.073          48.700    20432466.600  
  85040892.45708       323.073          46.000  
 20 09 27 07 40 40.0000000  0 16G 8G18G20G27G24G10G21G13G15R10R 2R11
                                R18R 1R24R17
  24615729.840   129356534.24305       -64.231          36.450    24615730.060  
 100797297.58644       -64.229          32.800  
  21412121.420   112521450.46508       492.504          48.450    21412118.000  
  87679034.47948       492.504          45.300  
  20023908.140   105226365.08109      -129.997          49.050    20023903.180  
  81994594.59648      -129.997          47.950  
  24145123.260   126883490.94006       282.372          40.600    24145122.100  
  98870238.02746       282.372          38.800  
  21020840.520   110465309.05009      -326.975          48.900    21020839.180  
  86076881.78448      -326.975          46.700  
  22042948.700   115836506.20809      -486.031          49.250    22042946.740  
  90262225.01748      -486.031          45.000  
  24675163.400   129668861.58206      -515.126          40.400    24675159.180  
 101040686.76143      -515.126          27.900  
  23871563.260   125445919.50907       664.883          43.250    23871559.320  
  97750052.67344       664.884          34.000  
  21282535.740   111840486.66709       478.968          49.350    21282531.540  
  87148419.17248       478.968          46.200  
  22196918.480   118322067.31406       345.206          41.300                  
                                                
  19911913.620   106253829.35909      -317.689          49.000    19911917.200  
  82641891.37508      -317.689          46.150  
  21420412.000   114464220.39208      -444.084          46.750    21420415.560  
  89027748.02308      -444.085          45.450  
  21684797.680   115754923.14308      -411.506          44.550    21684801.320  
  90031623.12208      -411.507          44.950  
  20519703.200   109689574.36208       438.519          45.400    20519707.580  
  85314134.72807       438.519          41.650  
  22762882.280   121723334.16907       827.270          44.450    22762886.720  
  94673707.83707       827.271          42.550  
  20434082.960   109346919.82909       324.054          48.650    20434084.240  
  85047625.16108       324.054          45.750  
 20 09 27 07 40 45.0000000  0 16G 8G18G20G27G24G10G21G13G15R10R 2R11
                                R18R 1R24R17
  24615410.440   129354854.59705       -63.638          36.850    24615410.020  
 100795988.78744       -63.638          35.150  
  21414585.220   112534397.73708       492.984          48.350    21414581.780  
  87689123.26148       492.984          45.650  
  20023259.400   105222955.84009      -129.511          49.000    20023254.400  
  81991938.04148      -129.511          47.800  
  24146536.320   126890916.42906       282.892          40.750    24146535.180  
  98876024.11845       282.893          37.650  
  21019207.220   110456726.01109      -326.328          48.850    21019205.860  
  86070193.70248      -326.328          46.400  
  22040519.220   115823739.10009      -485.793          49.100    22040517.220  
  90252276.62048      -485.793          45.350  
  24672588.000   129655327.93406      -514.926          40.250    24672583.820  
 101030141.08443      -514.927          27.600  
  23874887.800   125463389.98007       664.968          43.000    23874883.800  
  97763666.01644       664.968          35.100  
  21284931.300   111853075.38909       479.285          49.250    21284927.080  
  87158228.56148       479.285          46.200  
  22198646.620   118331278.65907       345.974          42.200                  
                                                
  19910326.040   106245357.72309      -317.334          49.050    19910329.600  
  82635302.32408      -317.334          46.200  
  21418193.120   114452363.72008      -443.405          46.800    21418196.740  
  89018526.17308      -443.405          45.400  
  21682741.920   115743949.32708      -410.783          44.550    21682745.580  
  90023087.94108      -410.784          45.050  
  20521896.740   109701299.79908       438.855          45.750    20521901.060  
  85323254.50807       438.855          41.600  
  22767019.040   121745455.11808       827.409          44.650    22767023.500  
  94690913.00107       827.410          43.000  
  20435705.240   109355600.91809       324.852          48.650    20435706.500  
  85054377.11508       324.852          45.700  
 20 09 27 07 40 50.0000000  0 16G 8G18G20G27G24G10G21G13G15R10R 2R11
                                R18R 1R24R17
  24615093.740   129353189.95405       -63.098          36.750    24615094.040  
 100794691.64243       -63.097          31.050  
  21417051.240   112547356.69108       493.368          48.400    21417047.800  
  87699221.14948       493.368          45.100  
  20022612.920   105219558.43109      -129.116          49.050    20022607.880  
  81989290.71348      -129.116          47.800  
  24147951.920   126898355.23906       283.274          40.850    24147950.780  
  98881820.58645       283.275          37.150  
  21017576.820   110448158.30409      -325.840          48.800    21017575.460  
  86063517.57748      -325.841          46.700  
  22038090.760   115810977.38809      -485.661          49.150    22038088.740  
  90242332.42748      -485.661          45.350  
  24670013.700   129641800.14406      -514.813          40.250    24670009.320  
 101019599.90843      -514.813          27.900  
  23878212.700   125480862.50207       664.976          43.150    23878208.740  
  97777280.97344       664.976          34.750  
  21287328.420   111865672.15309       479.520          49.250    21287324.160  
  87168044.22148       479.520          45.900  
  22200378.480   118340509.82107       346.665          42.300                  
                                                
  19908740.120   106236895.07309      -317.050          49.100    19908743.700  
  82628720.26508      -317.050          46.200  
  21415977.540   114440524.54408      -442.815          46.900    21415981.200  
  89009317.92708      -442.815          45.300  
  21680689.760   115732994.80308      -410.123          44.700    21680693.420  
  90014567.76508      -410.123          44.950  
  20524091.600   109713032.44808       439.068          45.750    20524095.880  
  85332379.90107       439.068          41.500  
  22771156.660   121767580.69508       827.540          44.700    22771161.140  
  94708121.76907       827.541          42.650  
  20437331.460   109364303.14709       325.595          48.700    20437332.680  
  85061145.51408       325.595          45.400  
 20 09 27 07 40 55.0000000  0 17G 8G18G20G27G24G10G21G13G15R10R 2R11
                                R18R12R 1R24R17
  24614779.760   129351539.11105       -62.535          37.200    24614779.340  
 100793405.32844       -62.538          31.700  
  21419519.240   112560326.13709       493.891          48.600    21419515.820  
  87709327.21148       493.891          44.850  
  20021968.440   105216171.64409      -128.626          49.150    20021963.380  
  81986651.66148      -128.626          47.850  
  24149369.840   126905806.27806       283.949          40.700    24149368.700  
  98887626.60845       283.949          38.100  
  21015949.160   110439604.87509      -325.187          48.800    21015947.800  
  86056852.57348      -325.188          46.750  
  22035663.120   115798219.89909      -485.390          49.100    22035661.080  
  90232391.53548      -485.390          45.000  
  24667440.320   129628277.03206      -514.483          40.400    24667436.040  
 101009062.37744      -514.482          32.350  
  23881537.780   125498335.82907       665.088          43.000    23881533.840  
  97790896.55044       665.088          34.850  
  21289726.820   111878275.77709       479.877          49.250    21289722.560  
  87177865.22348       479.877          46.250  
  22202113.760   118349759.57907       347.484          42.300                  
                                                
  19907155.740   106228440.51809      -316.661          49.200    19907159.320  
  82622144.50808      -316.661          46.300  
  21413765.020   114428701.66508      -442.117          47.050    21413768.700  
  89000122.35708      -442.117          45.250  
  21678641.020   115722058.42008      -409.326          45.050    21678644.660  
  90006061.70508      -409.327          44.950  
  23545688.300   125776842.89407      -822.239          42.550                  
                                                
  20526287.620   109724771.13408       439.373          45.850    20526291.860  
  85341509.98606       439.373          41.400  
  22775294.960   121789709.68407       827.800          44.400    22775299.400  
  94725333.19607       827.801          42.350  
  20438961.400   109373025.34409       326.447          48.750    20438962.600  
  85067929.44508       326.447          45.250  
 20 09 27 07 41  0.0000000  0 17G 8G18G20G27G24G10G21G13G15R10R 2R11
                                R18R12R 1R24R17
  24614468.940   129349904.80305       -61.945          37.900    24614467.960  
 100792131.82344       -61.946          32.700  
  21421989.740   112573308.71009       494.244          48.750    21421986.320  
  87719443.49548       494.244          44.900  
  20021326.520   105212798.16909      -128.231          49.200    20021321.400  
  81984022.97748      -128.231          47.650  
  24150790.580   126913272.10906       284.336          39.900    24150789.460  
  98893444.12146       284.337          39.350  
  21014324.700   110431068.36609      -324.644          48.800    21014323.340  
  86050200.74848      -324.644          46.300  
  22033236.780   115785469.28309      -485.246          49.100    22033234.740  
  90222455.99248      -485.246          44.900  
  24664868.280   129614761.34406      -514.259          40.200    24664863.920  
 100998530.74642      -514.257          27.350  
  23884863.480   125515812.46107       665.095          42.750    23884859.540  
  97804514.69744       665.094          33.850  
  21292127.020   111890888.82909       480.117          49.300    21292122.720  
  87187693.57748       480.117          45.900  
  22203853.040   118359030.46707       348.141          42.400                  
                                                
  19905573.320   106219996.46409      -316.398          49.150    19905576.900  
  82615576.91108      -316.398          46.250  
  21411556.040   114416897.83708      -441.533          47.250    21411559.760  
  88990941.61008      -441.534          45.350  
  21676596.140   115711142.71708      -408.697          45.050    21676599.800  
  89997571.72008      -408.697          44.800  
  23541576.840   125754883.19907      -822.208          41.900    23541581.900  
                      -822.208          40.000  
  20528485.300   109736518.56308       439.600          45.850    20528489.460  
  85350646.87506       439.600          41.350  
  22779434.320   121811844.82507       827.919          44.400    22779438.800  
  94742549.39807       827.920          41.950  
  20440595.560   109381770.24109       327.163          48.800    20440596.740  
  85074731.02908       327.163          45.300  
 20 09 27 07 41  5.0000000  0 17G 8G18G20G27G24G10G21G13G15R10R 2R11
                                R18R12R 1R24R17
  24614161.160   129348286.59605       -61.332          37.850    24614160.080  
 100790870.87944       -61.332          33.550  
  21424462.680   112586304.05009       494.821          48.800    21424459.260  
  87729569.73748       494.821          44.900  
  20020687.060   105209437.66909      -127.663          49.150    20020681.920  
  81981404.40948      -127.664          47.250  
  24152214.060   126920752.39706       284.962          40.600    24152212.960  
  98899272.92745       284.962          36.100  
  21012703.440   110422548.60909      -323.963          48.850    21012702.080  
  86043561.98448      -323.964          46.150  
  22030811.680   115772725.19909      -484.904          49.250    22030809.620  
  90212525.54948      -484.905          44.800  
  24662297.580   129601252.59706      -513.998          40.000    24662293.100  
 100988004.44643      -513.996          28.150  
  23888189.740   125533292.22507       665.320          42.700    23888185.820  
  97818135.28644       665.320          33.500  
  21294528.980   111903510.97309       480.522          49.350    21294524.640  
  87197529.01848       480.522          45.800  
  22205596.220   118368322.28007       349.021          42.650                  
                                                
  19903992.820   106211562.64809      -315.911          49.050    19903996.400  
  82609017.28408      -315.911          46.250  
  21409350.560   114405112.62408      -440.772          46.900    21409354.300  
  88981775.33908      -440.772          45.450  
  21674555.140   115700247.57908      -407.843          45.050    21674558.780  
  89989097.72108      -407.843          44.850  
  23537466.120   125732925.92907      -822.014          43.550    23537471.300  
  97792292.40206      -822.016          40.250  
  20530684.480   109748274.31708       439.969          45.850    20530688.620  
  85359790.24007       439.969          41.700  
  22783574.740   121833985.63008       828.142          45.250    22783579.240  
  94759770.02207       828.143          42.250  
  20442233.900   109390537.36709       328.074          48.750    20442235.060  
  85081549.90708       328.074          45.600  
 20 09 27 07 41 10.0000000  0 17G 8G18G20G27G24G10G21G13G15R10R 2R11
                                R18R12R 1R24R17
  24613856.480   129346684.29305       -60.771          37.800    24613854.900  
 100789622.30145       -60.770          37.250  
  21426937.980   112599311.81109       495.249          48.750    21426934.560  
  87739705.65048       495.249          44.750  
  20020050.000   105206089.82209      -127.212          49.150    20020044.840  
  81978795.69148      -127.212          47.800  
  24153640.220   126928246.80806       285.423          40.300    24153639.160  
  98905112.72445       285.423          38.250  
  21011085.240   110414045.11809      -323.383          48.900    21011083.880  
  86036935.88348      -323.383          46.550  
  22028387.760   115759987.31409      -484.742          49.250    22028385.700  
  90202599.92248      -484.742          45.000  
  24659728.140   129587750.52706      -513.704          39.850    24659723.400  
 100977483.31143      -513.704          29.150  
  23891516.580   125550774.81107       665.372          42.400    23891512.640  
  97831758.06845       665.373          37.250  
  21296932.580   111916141.89709       480.839          49.350    21296928.220  
  87207371.29448       480.839          45.750  
  22207343.220   118377634.59507       349.728          42.700                  
                                                
  19902414.180   106203138.90409      -315.598          49.100    19902417.800  
  82602465.48308      -315.598          46.550  
  21407148.540   114393345.79508      -440.120          47.150    21407152.300  
  88972623.36508      -440.120          45.550  
  21672517.900   115689372.58408      -407.080          44.900    21672521.520  
  89980639.39008      -407.080          44.900  
  23533356.040   125710970.83006      -821.977          40.950    23533361.060  
  97775216.21406      -821.977          40.050  
  20532885.160   109760038.14608       440.239          46.000    20532889.280  
  85368939.88707       440.239          41.800  
  22787716.180   121856131.74408       828.337          44.850    22787720.680  
  94776994.76207       828.338          42.600  
  20443876.360   109399326.51609       328.871          48.750    20443877.520  
  85088385.90908       328.871          45.650  
 20 09 27 07 41 15.0000000  0 17G 8G18G20G27G24G10G21G13G15R10R 2R11
                                R18R12R 1R24R17
  24613554.600   129345096.59505       -60.147          38.100    24613552.580  
 100788385.15544       -60.147          35.150  
  21429415.400   112612330.81109       495.685          48.850    21429411.980  
  87749850.32448       495.685          44.750  
  20019415.140   105202753.49209      -126.770          49.200    20019409.940  
  81976195.95748      -126.770          47.550  
  24155068.880   126935754.16206       285.877          40.400    24155067.760  
  98910962.60445       285.878          38.500  
  21009469.960   110405556.69809      -322.785          49.000    21009468.580  
  86030321.53548      -322.785          46.200  
  22025964.800   115747254.46809      -484.525          49.250    22025962.720  
  90192678.22648      -484.525          44.800  
  24657159.760   129574253.96706      -513.566          39.300    24657154.920  
 100966966.47042      -513.562          26.950  
  23894843.680   125568259.00807       665.433          42.550    23894839.900  
  97845382.11744       665.433          33.750  
  21299337.620   111928780.36509       481.126          49.450    21299333.240  
  87217219.44948       481.126          45.600  
  22209093.880   118386966.33907       350.462          42.700                  
                                                
  19900837.140   106194723.66309      -315.251          49.000    19900840.800  
  82595920.30208      -315.251          46.450  
  21404949.720   114381596.13608      -439.440          47.250    21404953.500  
  88963484.74808      -439.440          45.500  
  21670484.180   115678516.45708      -406.398          45.000    21670487.800  
  89972195.73908      -406.398          44.650  
  23529246.320   125689016.83505      -822.113          38.000    23529250.880  
  97758140.89206      -822.113          39.900  
  20535087.100   109771808.64608       440.486          45.950    20535091.200  
  85378094.71407       440.486          41.650  
  22791858.500   121878282.13007       828.497          44.050    22791862.940  
  94794222.83507       828.497          42.450  
  20445522.660   109408136.34709       329.651          48.800    20445523.820  
  85095237.99608       329.651          45.600  
 20 09 27 07 41 20.0000000  0 17G 8G18G20G27G24G10G21G13G15R10R 2R11
                                R18R12R 1R24R17
  24613255.800   129343525.07705       -59.439          38.500    24613253.940  
 100787160.60044       -59.439          34.700  
  21431895.280   112625362.62709       496.289          48.950    21431891.860  
  87760004.97748       496.289          44.600  
  20018782.740   105199430.21509      -126.145          49.300    20018777.520  
  81973606.39148      -126.145          47.400  
  24156500.280   126943276.04206       286.653          41.300    24156499.180  
  98916823.80045       286.654          36.600  
  21007857.800   110397084.93009      -322.021          49.150    21007856.420  
  86023720.16748      -322.021          46.050  
  22023543.080   115734528.25609      -484.132          49.400    22023540.980  
  90182761.70048      -484.132          44.800  
  24654592.740   129560764.49906      -513.224          39.750    24654587.780  
 100956455.28843      -513.226          30.250  
  23898171.400   125585746.34407       665.665          42.450    23898167.680  
  97859008.62244       665.665          34.300  
  21301744.380   111941427.99509       481.613          49.450    21301739.980  
  87227074.74348       481.613          45.400  
  22210848.540   118396318.99507       351.387          42.950                  
                                                
  19899262.080   106186318.99609      -314.748          48.800    19899265.760  
  82589383.33908      -314.748          46.400  
  21402754.480   114369865.27408      -438.626          47.250    21402758.220  
  88954360.75408      -438.627          45.400  
  21668454.280   115667680.97407      -405.503          44.400    21668457.940  
  89963768.13108      -405.503          44.600  
  23525137.060   125667065.47307      -821.716          43.700    23525141.180  
  97741067.62906      -821.717          40.100  
  20537290.640   109783587.73708       440.930          45.800    20537294.720  
  85387256.22307       440.930          41.650  
  22796001.800   121900438.22307       828.834          43.800    22796006.240  
  94811455.33907       828.834          42.550  
  20447173.160   109416968.53009       330.602          48.650    20447174.320  
  85102107.46908       330.602          45.550  
 20 09 27 07 41 25.0000000  0 17G 8G18G20G27G24G10G21G13G15R10R 2R11
                                R18R12R 1R24R17
  24612959.940   129341969.27305       -58.967          38.300    24612958.380  
 100785948.28144       -58.967          34.200  
  21434377.520   112638406.81809       496.644          48.900    21434374.100  
  87770169.27348       496.644          45.050  
  20018152.760   105196119.55909      -125.813          49.250    20018147.520  
  81971026.65948      -125.813          47.650  
  24157934.320   126950811.99106       287.028          41.000    24157933.240  
  98922695.96246       287.029          39.850  
  21006248.740   110388629.28909      -321.542          49.050    21006247.360  
  86017131.36448      -321.543          46.600  
  22021122.560   115721808.24909      -484.031          49.300    22021120.420  
  90172850.00448      -484.031          44.550  
  24652026.960   129547281.71706      -513.178          39.400    24652022.160  
 100945949.20444      -513.178          32.900  
  23901499.660   125603236.43707       665.651          42.100    23901495.980  
  97872637.23344       665.652          34.750  
  21304152.820   111954084.37009       481.806          49.450    21304148.400  
  87236936.84948       481.806          45.600  
  22212607.000   118405692.02507       352.014          43.350                  
                                                
  19897688.840   106177923.99209      -314.512          48.750    19897692.560  
  82582853.88908      -314.512          46.550  
  21400562.640   114358152.84408      -438.060          47.200    21400566.400  
  88945251.08908      -438.060          45.300  
  21666428.140   115656865.55707      -404.858          44.100    21666431.820  
  89955356.14308      -404.857          44.550  
  23521027.980   125645116.19408      -821.779          44.650    23521031.980  
  97723995.98306      -821.781          39.600  
  20539495.660   109795374.79808       441.105          45.700    20539499.740  
  85396423.93707       441.105          41.550  
  22800146.160   121922599.56907       828.919          44.250    22800150.560  
  94828691.92707       828.919          42.650  
  20448827.760   109425822.61009       331.285          48.600    20448828.920  
  85108993.98008       331.284          45.400  
 20 09 27 07 41 30.0000000  0 17G 8G18G20G27G24G10G21G13G15R10R 2R11
                                R18R12R 1R24R17
  24612666.940   129340428.98305       -58.182          38.100    24612665.480  
 100784748.06144       -58.182          35.050  
  21436862.040   112651463.01109       497.222          48.850    21436858.600  
  87780342.92848       497.222          45.000  
  20017525.100   105192821.17509      -125.191          49.150    20017519.840  
  81968456.48648      -125.191          47.650  
  24159371.020   126958361.60906       287.709          40.800    24159369.840  
  98928578.77546       287.709          39.250  
  21004642.720   110380189.66009      -320.811          48.950    21004641.320  
  86010555.02748      -320.812          46.000  
  22018703.140   115709094.09809      -483.649          49.300    22018700.980  
  90162942.87348      -483.649          44.900  
  24649462.340   129533805.30506      -512.721          39.300    24649457.480  
 100935448.04444      -512.720          32.300  
  23904828.420   125620728.95507       665.864          41.750    23904824.720  
  97886267.77445       665.863          36.550  
  21306562.820   111966749.06809       482.246          49.450    21306558.380  
  87246805.43748       482.246          45.750  
  22214369.240   118415085.29507       352.921          43.250                  
                                                
  19896117.420   106169538.80509      -314.020          48.900    19896121.200  
  82576332.07708      -314.020          46.600  
  21398374.220   114346458.42808      -437.259          47.200    21398377.940  
  88936155.43608      -437.260          45.250  
  21664405.620   115646070.08907      -404.035          43.950    21664409.460  
  89946959.67008      -404.035          44.550  
  23516919.340   125623168.75007      -821.598          43.750    23516923.220  
  97706925.74206      -821.599          39.750  
  20541702.120   109807169.46008       441.513          45.750    20541706.180  
  85405597.55907       441.513          41.600  
  22804291.420   121944765.81907       829.232          43.300    22804295.780  
  94845932.32707       829.233          42.300  
  20450486.400   109434698.28209       332.236          48.700    20450487.540  
  85115897.27908       332.236          45.450  
 20 09 27 07 41 35.0000000  0 17G 8G18G20G27G24G10G21G13G15R10R 2R11
                                R18R12R 1R24R17
  24612376.920   129338904.32905       -57.750          37.950    24612375.760  
 100783560.03644       -57.751          33.850  
  21439348.900   112664531.48809       497.579          48.850    21439345.460  
  87790526.15348       497.579          44.750  
  20016899.840   105189535.33309      -124.860          49.100    20016894.560  
  81965896.08748      -124.860          47.800  
  24160810.360   126965925.20506       288.063          40.700    24160809.100  
  98934472.47446       288.063          38.950  
  21003039.800   110371766.41109      -320.291          48.850    21003038.420  
  86003991.46548      -320.291          46.450  
  22016284.880   115696386.10009      -483.563          49.300    22016282.700  
  90153040.54148      -483.563          45.000  
  24646899.020   129520335.46406      -512.577          39.000    24646894.280  
 100924952.05244      -512.578          31.550  
  23908157.600   125638224.09807       665.893          42.400    23908153.960  
  97899900.34345       665.893          36.650  
  21308974.500   111979422.40909       482.468          49.550    21308970.000  
  87256680.76448       482.468          45.650  
  22216135.440   118424499.01507       353.571          43.750                  
                                                
  19894547.820   106161163.25409      -313.748          49.050    19894551.620  
  82569817.76608      -313.748          46.600  
  21396189.160   114334782.29608      -436.700          46.900    21396192.900  
  88927074.00608      -436.700          45.050  
  21662386.900   115635294.63307      -403.386          43.650    21662390.860  
  89938578.75908      -403.386          44.550  
  23512810.980   125601223.52607      -821.621          42.450    23512815.060  
  97689857.24306      -821.621          39.750  
  20543910.040   109818972.03108       441.695          45.600    20543914.100  
  85414777.33607       441.695          41.500  
  22808437.520   121966937.22908       829.285          44.900    22808441.940  
  94863176.74207       829.286          41.950  
  20452149.080   109443595.67509       332.921          48.650    20452150.220  
  85122817.47708       332.921          45.450  
 20 09 27 07 41 40.0000000  0 17G 8G18G20G27G24G10G21G13G15R10R 2R11
                                R18R12R 1R24R17
  24612089.960   129337396.06605       -57.034          38.100    24612088.960  
 100782384.75744       -57.034          31.800  
  21441838.180   112677612.77709       498.161          48.750    21441834.740  
  87800719.36948       498.161          44.700  
  20016277.060   105186262.61509      -124.234          49.150    20016271.780  
  81963345.92648      -124.234          47.600  
  24162252.460   126973503.32606       288.773          40.250    24162251.140  
  98940377.48545       288.774          37.700  
  21001440.060   110363359.82009      -319.561          48.750    21001438.680  
  85997440.88148      -319.561          46.650  
  22013867.880   115683684.78509      -483.201          49.200    22013865.720  
  90143143.41248      -483.201          45.000  
  24644337.120   129506872.84906      -512.195          38.750    24644332.340  
 100914461.73542      -512.196          26.800  
  23911487.380   125655722.42007       666.109          41.900    23911483.800  
  97913535.38745       666.110          36.550  
  21311387.920   111992104.91409       482.930          49.400    21311383.380  
  87266563.23948       482.930          45.700  
  22217905.460   118433933.57307       354.419          43.650                  
                                                
  19892980.220   106152798.30409      -313.258          49.200    19892984.040  
  82563311.69608      -313.258          46.450  
  21394007.680   114323125.16008      -435.865          47.400    21394011.420  
  88918007.35708      -435.866          45.000  
  21660372.020   115624539.80107      -402.488          43.650    21660376.120  
  89930213.90208      -402.489          44.550  
  23508703.100   125579281.06107      -821.435          41.600    23508707.560  
  97672790.91406      -821.436          40.250  
  20546119.520   109830783.00808       442.109          45.750    20546123.620  
  85423963.65207       442.109          41.500  
  22812584.720   121989114.30808       829.607          44.850    22812589.140  
  94880425.57706       829.608          41.400  
  20453815.960   109452515.43509       333.866          48.700    20453817.100  
  85129755.07108       333.866          45.700  
 20 09 27 07 41 45.0000000  0 17G 8G18G20G27G24G10G21G13G15R10R 2R11
                                R18R12R 1R24R17
  24611805.960   129335903.29105       -56.453          37.350    24611805.000  
 100781221.56344       -56.453          35.150  
  21444329.780   112690706.14709       498.601          48.750    21444326.320  
  87810921.99148       498.601          44.900  
  20015656.640   105183002.32809      -123.793          48.950    20015651.360  
  81960805.44448      -123.793          47.950  
  24163697.080   126981095.22306       289.301          40.100    24163695.760  
  98946293.26245       289.301          38.350  
  20999843.380   110354969.26009      -318.973          48.800    20999842.000  
  85990902.79048      -318.973          46.750  
  22011452.020   115670989.46809      -482.988          49.300    22011449.880  
  90133250.96848      -482.988          45.350  
  24641776.400   129493416.67906      -511.949          39.000    24641771.960  
 100903976.41443      -511.949          31.200  
  23914817.660   125673223.16207       666.126          42.550    23914814.120  
  97927172.33144       666.126          34.350  
  21313802.920   112004795.82709       483.221          49.350    21313798.380  
  87276452.26348       483.221          45.400  
  22219679.220   118443388.18707       355.163          43.750                  
                                                
  19891414.400   106144442.67409      -312.935          49.150    19891418.200  
  82556812.87708      -312.935          46.650  
  21391829.620   114311486.20908      -435.211          47.150    21391833.340  
  88908954.84208      -435.212          45.100  
  21658361.020   115613805.07407      -401.765          44.500    21658365.140  
  89921864.67708      -401.765          44.650  
  23504595.800   125557340.58807      -821.384          42.350    23504600.440  
  97655726.10406      -821.384          40.550  
  20548330.440   109842601.69608       442.372          45.500    20548334.560  
  85433155.96307       442.373          41.650  
  22816732.900   122011296.30107       829.761          43.700    22816737.240  
  94897678.24206       829.760          41.350  
  20455486.840   109461456.78609       334.643          48.700    20455488.020  
  85136709.45908       334.643          45.700  
 20 09 27 07 41 50.0000000  0 17G 8G18G20G27G24G10G21G13G15R10R 2R11
                                R18R12R 1R24R17
  24611525.080   129334427.70605       -55.956          36.700    24611524.180  
 100780071.77043       -55.956          31.300  
  21446824.020   112703813.33809       499.047          48.600    21446820.540  
  87821135.38348       499.047          44.550  
  20015038.900   105179756.19609      -123.339          49.000    20015033.620  
  81958275.98648      -123.339          47.350  
  24165144.680   126988702.61006       289.811          39.700    24165143.420  
  98952221.09546       289.811          39.550  
  20998250.100   110346596.54809      -318.359          48.750    20998248.720  
  85984378.59848      -318.360          46.350  
  22009037.640   115658301.88609      -482.774          49.150    22009035.540  
  90123364.54148      -482.774          44.800  
  24639217.300   129479968.72806      -511.707          39.050    24639212.960  
 100893497.44844      -511.708          33.550  
  23918148.720   125690728.03507       666.291          42.800    23918145.240  
  97940812.50044       666.290          33.850  
  21316219.860   112017496.94809       483.535          49.200    21316215.300  
  87286349.23848       483.535          45.450  
  22221457.080   118452864.73807       355.938          43.350                  
                                                
  19889850.760   106136098.72209      -312.581          49.250    19889854.560  
  82550323.13808      -312.581          46.700  
  21389655.300   114299867.24108      -434.549          46.900    21389659.020  
  88899917.87508      -434.550          45.100  
  21656354.080   115603092.07408      -401.011          44.650    21656358.260  
  89913532.33908      -401.011          44.750  
  23500489.120   125535403.94807      -821.280          41.900    23500493.820  
  97638664.27506      -821.281          40.050  
  20550543.120   109854429.90408       442.663          45.400    20550547.280  
  85442355.67607       442.664          41.650  
  22820882.340   122033485.07908       829.918          44.700    22820886.620  
  94914936.17507       829.918          41.950  
  20457162.100   109470421.44309       335.431          48.600    20457163.300  
  85143681.96208       335.432          45.800  
 20 09 27 07 41 55.0000000  0 17G 8G18G20G27G24G10G21G13G15R10R 2R11
                                R18R12R 1R24R17
  24611246.800   129332965.40105       -55.370          37.000    24611245.680  
 100778932.29943       -55.370          30.200  
  21449320.140   112716930.41409       499.430          48.700    21449316.640  
  87831356.47948       499.430          45.000  
  20014423.100   105176520.33409      -122.933          49.000    20014417.840  
  81955754.53848      -122.933          47.550  
  24166594.460   126996321.55206       290.204          39.850    24166593.280  
  98958157.94445       290.203          38.300  
  20996659.460   110338237.73409      -317.827          49.100    20996658.080  
  85977865.24248      -317.827          46.400  
  22006624.000   115645618.11409      -482.626          49.150    22006621.920  
  90113481.09248      -482.626          45.600  
  24636659.040   129466525.11206      -511.495          39.300    24636654.760  
 100883021.96744      -511.496          32.550  
  23921479.880   125708233.15207       666.240          42.600    23921476.420  
  97954452.82045       666.241          36.700  
  21318637.980   112030204.28609       483.731          49.200    21318633.420  
  87296251.06048       483.731          45.400  
  22223238.280   118462359.28107       356.626          43.450                  
                                                
  19888288.540   106127762.19309      -312.280          49.350    19888292.300  
  82543839.17108      -312.280          46.800  
  21387483.920   114288264.23408      -433.962          47.400    21387487.680  
  88890893.32508      -433.962          45.000  
  21654350.460   115592396.80408      -400.347          44.700    21654354.680  
  89905213.80008      -400.348          44.700  
  23496382.500   125513467.16106      -821.287          41.300    23496387.160  
  97621602.35306      -821.288          40.400  
  20552756.840   109866263.54908       442.864          45.500    20552761.020  
  85451559.62607       442.864          41.650  
  22825032.220   122055676.44108       830.058          44.700    22825036.540  
  94932196.10407       830.059          42.150  
  20458840.940   109479405.41509       336.152          48.600    20458842.180  
  85150669.49208       336.153          45.850  
 20 09 27 07 42  0.0000000  0 17G 8G18G20G27G24G10G21G13G15R10R 2R11
                                R18R12R 1R24R17
  24610971.780   129331520.05305       -54.688          36.900    24610970.460  
 100777806.06944       -54.688          32.600  
  21451818.780   112730060.82409       499.944          48.700    21451815.260  
  87841587.96148       499.944          44.750  
  20013809.920   105173298.20609      -122.393          48.900    20013804.680  
  81953243.79148      -122.393          47.550  
  24168047.120   127003955.57306       290.791          40.200    24168045.920  
  98964106.50545       290.791          37.550  
  20995072.160   110329896.34509      -317.139          49.100    20995070.760  
  85971365.46348      -317.140          46.400  
  22004211.720   115632941.65009      -482.327          49.200    22004209.680  
  90103603.32848      -482.327          45.350  
  24634102.260   129453089.24706      -511.155          39.400    24634098.060  
 100872552.43844      -511.155          32.550  
  23924811.720   125725742.01107       666.450          43.150    23924808.320  
  97968096.08445       666.451          36.750  
  21321057.920   112042921.29409       484.145          49.200    21321053.360  
  87306160.41048       484.146          45.050  
  22225023.480   118471875.33207       357.404          43.800                  
                                                
  19886728.340   106119436.56309      -311.858          49.550    19886732.100  
  82537363.68508      -311.858          46.850  
  21385316.200   114276680.75008      -433.193          47.600    21385319.960  
  88881883.94608      -433.193          45.100  
  21652350.880   115581722.85408      -399.519          44.850    21652355.080  
  89896911.84108      -399.519          44.650  
  23492276.600   125491533.75007      -821.181          42.700    23492281.380  
  97604543.04806      -821.182          40.150  
  20554972.240   109878106.16908       443.222          45.650    20554976.420  
  85460770.54907       443.222          41.750  
  22829183.340   122077874.12307       830.309          44.100    22829187.620  
  94949460.96207       830.309          42.550  
  20460524.100   109488412.32309       337.044          48.750    20460525.380  
  85157674.86208       337.044          45.950  
 20 09 27 07 42  5.0000000  0 17G 8G18G20G27G24G10G21G13G15R10R 2R11
                                R18R12R 1R24R17
  24610699.520   129330089.43805       -54.171          36.400    24610698.000  
 100776691.30843       -54.171          31.150  
  21454319.560   112743202.40709       500.344          48.600    21454316.020  
  87851828.14348       500.345          44.800  
  20013198.940   105170087.56909      -121.982          48.750    20013193.720  
  81950741.99548      -121.982          48.050  
  24169502.220   127011602.47506       291.337          40.150    24169501.100  
  98970065.14645       291.337          37.300  
  20993487.760   110321570.22509      -316.600          49.050    20993486.340  
  85964877.58148      -316.600          46.650  
  22001800.420   115620270.30409      -482.199          49.150    22001798.400  
  90093729.55248      -482.199          45.450  
  24631546.560   129439659.03506      -510.973          39.700    24631542.300  
 100862087.37043      -510.975          30.900  
  23928143.860   125743252.32207       666.408          42.650    23928140.480  
  97981740.45645       666.408          36.300  
  21323479.300   112055645.82309       484.428          49.100    21323474.720  
  87316075.62648       484.428          45.600  
  22226812.280   118481410.53607       358.097          44.050                  
                                                
  19885169.840   106111119.86009      -311.582          49.450    19885173.560  
  82530895.14108      -311.582          46.950  
  21383151.780   114265114.77008      -432.574          47.150    21383155.520  
  88872888.18208      -432.574          45.300  
  21650354.860   115571067.99308      -398.870          44.850    21650359.040  
  89888624.72008      -398.870          44.850  
  23488170.900   125469601.51207      -821.176          42.400    23488175.600  
  97587484.63806      -821.177          40.250  
  20557188.880   109889955.61608       443.429          45.550    20557193.080  
  85469986.77707       443.429          41.850  
  22833335.140   122100075.69007       830.454          43.350    22833339.480  
  94966728.81807       830.455          42.400  
  20462211.140   109497439.88609       337.774          48.750    20462212.440  
  85164696.29808       337.774          46.050  
 20 09 27 07 42 10.0000000  0 17G 8G18G20G27G24G10G21G13G15R10R 2R11
                                R18R12R 1R24R17
  24610430.300   129328675.27905       -53.447          35.750    24610428.460  
 100775589.35844       -53.447          33.700  
  21456822.780   112756356.96409       500.919          48.700    21456819.260  
  87862078.44947       500.919          44.500  
  20012590.480   105166890.31109      -121.429          48.800    20012585.300  
  81948250.62548      -121.429          47.650  
  24170960.140   127019263.98306       291.870          40.750    24170959.040  
  98976035.16346       291.869          38.550  
  20991906.560   110313261.02909      -315.885          49.100    20991905.160  
  85958402.88648      -315.885          46.250  
  21999390.440   115607605.93309      -481.838          49.100    21999388.460  
  90083861.21748      -481.839          45.650  
  24628992.300   129426236.31606      -510.676          39.750    24628988.180  
 100851628.07744      -510.675          34.050  
  23931476.580   125760765.99707       666.633          42.800    23931473.260  
  97995387.46744       666.634          33.850  
  21325902.440   112068379.69409       484.829          49.150    21325897.880  
  87325998.12248       484.829          45.500  
  22228605.020   118490966.75607       358.965          43.400                  
                                                
  19883613.300   106102813.72309      -311.092          49.350    19883616.980  
  82524434.81608      -311.093          46.850  
  21380990.940   114253567.93108      -431.785          47.250    21380994.680  
  88863907.32008      -431.785          45.250  
  21648362.820   115560434.08408      -397.991          44.900    21648366.940  
  89880353.90808      -397.991          44.750  
  23484065.660   125447672.37707      -820.947          42.100    23484070.400  
  97570428.65306      -820.948          40.650  
  20559407.140   109901813.81808       443.857          45.150    20559411.400  
  85479209.82307       443.857          41.850  
  22837487.960   122122283.10007       830.685          43.050    22837492.360  
  94984001.24407       830.685          41.850  
  20463902.360   109506489.86608       338.702          48.500    20463903.680  
  85171735.17508       338.702          45.950  
 20 09 27 07 42 15.0000000  0 17G 8G18G20G27G24G10G21G13G15R10R 2R11
                                R18R12R 1R24R17
  24610164.180   129327277.96305       -52.905          35.550    24610162.440  
 100774500.49643       -52.903          30.700  
  21459328.560   112769524.87909       501.355          48.700    21459325.020  
  87872339.15648       501.355          44.900  
  20011984.660   105163706.80809      -120.975          48.850    20011979.500  
  81945769.98048      -120.975          47.900  
  24172420.980   127026940.57306       292.345          41.250    24172419.780  
  98982016.92545       292.344          37.900  
  20990328.680   110304969.22909      -315.320          49.050    20990327.280  
  85951941.75048      -315.320          46.600  
  21996981.860   115594948.92009      -481.653          49.100    21996979.920  
  90073998.62048      -481.653          45.600  
  24626439.560   129412821.39506      -510.466          39.950    24626435.400  
 100841174.93644      -510.466          31.800  
  23934810.080   125778283.41307       666.662          43.250    23934806.720  
  98009037.38044       666.663          35.200  
  21328327.480   112081123.30509       485.131          49.100    21328322.880  
  87335928.20948       485.131          45.600  
  22230401.780   118500544.58607       359.693          42.800                  
                                                
  19882058.860   106094518.80009      -310.755          49.150    19882062.520  
  82517983.21708      -310.755          46.900  
  21378833.780   114242040.74608      -431.116          47.200    21378837.520  
  88854941.74408      -431.116          45.200  
  21646374.840   115549821.68508      -397.276          45.000    21646378.900  
  89872099.82808      -397.276          44.900  
  23479961.260   125425746.69906      -820.907          40.400    23479965.900  
  97553375.33306      -820.907          40.550  
  20561627.120   109913680.97708       444.081          45.100    20561631.400  
  85488439.83507       444.081          41.800  
  22841642.000   122144496.72507       830.879          43.100    22841646.400  
  95001278.48307       830.880          41.800  
  20465597.860   109515562.77009       339.450          48.550    20465599.200  
  85178791.87908       339.450          45.900  
 20 09 27 07 42 20.0000000  0 17G 8G18G20G27G24G10G21G13G15R10R 2R11
                                R18R12R 1R24R17
  24609901.140   129325896.74504       -52.173          34.550    24609899.140  
 100773424.27844       -52.173          33.600  
  21461836.720   112782705.39109       501.971          48.800    21461833.200  
  87882609.68147       501.971          44.500  
  20011381.300   105160536.30309      -120.329          49.000    20011376.200  
  81943299.45748      -120.329          48.350  
  24173884.520   127034631.47807       293.060          41.750    24173883.300  
  98988009.83646       293.060          39.550  
  20988754.000   110296694.19809      -314.522          49.150    20988752.600  
  85945493.67848      -314.522          46.200  
  21994574.540   115582298.52909      -481.241          49.250    21994572.640  
  90064141.17448      -481.241          45.650  
  24623888.140   129399413.59306      -510.022          40.350    24623884.100  
 100830727.27544      -510.021          34.500  
  23938144.120   125795803.84307       666.937          43.200    23938140.820  
  98022689.66745       666.938          36.700  
  21330754.200   112093875.87509       485.611          49.350    21330749.600  
  87345865.27748       485.611          45.700  
  22232202.420   118510143.07707       360.617          42.800                  
                                                
  19880506.340   106086234.11909      -310.208          49.050    19880509.980  
  82511539.58308      -310.209          46.850  
  21376680.160   114230532.43808      -430.307          47.250    21376683.880  
  88845990.83708      -430.307          45.050  
  21644390.680   115539229.82408      -396.367          45.050    21644394.680  
  89863861.71208      -396.367          44.800  
  23475857.340   125403823.85106      -820.688          39.800    23475861.920  
  97536324.22906      -820.688          40.300  
  20563848.620   109925556.37108       444.569          45.100    20563852.940  
  85497676.25507       444.568          41.650  
  22845797.080   122166715.64807       831.256          43.300    22845801.480  
  95018559.86507       831.256          41.800  
  20467297.480   109524657.73208       340.449          48.500    20467298.820  
  85185865.73408       340.450          45.750  
 20 09 27 07 42 25.0000000  0 17G 8G18G20G27G24G10G21G13G15R10R 2R11
                                R18R12R 1R24R17
  24609640.840   129324530.39604       -51.689          33.800    24609639.080  
 100772358.65543       -51.692          28.250  
  21464347.040   112795897.28509       502.317          48.900    21464343.540  
  87892889.07547       502.317          44.250  
  20010780.200   105157377.60909      -119.963          48.950    20010775.140  
  81940838.13948      -119.963          47.700  
  24175350.600   127042335.41507       293.460          41.700    24175349.260  
  98994012.90046       293.460          38.650  
  20987182.300   110288434.71209      -314.001          49.250    20987180.860  
  85939057.71948      -314.001          46.400  
  21992168.260   115569653.55209      -481.098          49.350    21992166.380  
  90054287.95248      -481.098          45.200  
  24621337.880   129386011.71506      -509.984          40.700    24621333.820  
 100820284.28044      -509.985          32.900  
  23941478.560   125813326.05207       666.945          43.250    23941475.240  
  98036343.33045       666.945          36.700  
  21333182.400   112106636.19409       485.815          49.400    21333177.800  
  87355808.38148       485.815          45.100  
  22234006.680   118519761.01907       361.229          42.850                  
                                                
  19878955.480   106077958.32109      -309.976          49.050    19878959.120  
  82505102.85808      -309.976          46.750  
  21374529.860   114219041.81508      -429.719          47.050    21374533.540  
  88837053.68808      -429.720          44.900  
  21642410.160   115528657.44608      -395.730          45.050    21642414.100  
  89855638.75608      -395.731          44.800  
  23471753.560   125381902.63307      -820.684          42.000    23471758.220  
  97519274.41406      -820.685          40.050  
  20566071.440   109937438.90908       444.743          45.350    20566075.800  
  85506918.22907       444.743          41.600  
  22849952.920   122188938.69507       831.251          44.400    22849957.280  
  95035844.46607       831.251          41.750  
  20469000.980   109533773.58708       341.095          48.450    20469002.340  
  85192955.84108       341.096          45.600  
 20 09 27 07 42 30.0000000  0 17G 8G18G20G27G24G10G21G13G15R10R 2R11
                                R18R12R 1R24R17
  24609383.760   129323180.75304       -51.162          33.550    24609382.340  
 100771306.90843       -51.160          27.800  
  21466859.880   112809102.37209       502.929          48.800    21466856.380  
  87903178.74547       502.930          44.400  
  20010181.680   105154232.55409      -119.351          49.000    20010176.680  
  81938387.44948      -119.351          47.900  
  24176819.500   127050054.29007       294.175          42.600    24176818.140  
  99000027.59945       294.175          38.250  
  20985613.880   110280192.56409      -313.262          49.250    20985612.420  
  85932635.26848      -313.262          46.250  
  21989763.340   115557015.81209      -480.727          49.250    21989761.500  
  90044440.36848      -480.728          45.350  
  24618789.080   129372617.63306      -509.483          41.100    24618784.980  
 100809847.36644      -509.485          34.750  
  23944813.640   125830851.78507       667.166          43.550    23944810.300  
  98049999.73744       667.166          34.900  
  21335612.420   112119406.00909       486.268          49.550    21335607.820  
  87365758.88848       486.268          45.400  
  22235814.940   118529400.22807       362.140          42.850                  
                                                
  19877406.680   106069693.60609      -309.447          49.100    19877410.320  
  82498674.74608      -309.447          46.850  
  21372383.240   114207570.75408      -428.892          47.100    21372386.900  
  88828131.76308      -428.892          45.100  
  21640433.660   115518106.35808      -394.805          45.300    21640437.520  
  89847432.36008      -394.805          44.900  
  23467650.480   125359984.69207      -820.450          43.250    23467655.140  
  97502227.13306      -820.451          40.250  
  20568295.920   109949330.15208       445.158          45.450    20568300.300  
  85516166.97207       445.158          41.550  
  22854109.820   122211167.85307       831.635          43.100    22854114.300  
  95053133.80907       831.636          42.300  
  20470708.740   109542912.17508       342.073          48.450    20470710.120  
  85200063.63008       342.073          45.650  
 20 09 27 07 42 35.0000000  0 16G18G20G27G24G10G21G13G15R10R 2R11R18
                                R12R 1R24R17
  21469374.540   112822317.06809       503.040          48.750    21469371.040  
  87913475.90048       503.041          44.600  
  20009585.080   105151097.57909      -119.211          48.900    20009580.140  
  81935944.61548      -119.211          47.700  
  24178290.580   127057784.42307       294.274          41.900    24178289.120  
  99006051.08645       294.274          36.050  
  20984048.080   110271964.17209      -312.965          49.150    20984046.620  
  85926223.54048      -312.966          46.150  
  21987359.100   115544381.77709      -480.843          49.200    21987357.320  
  90034595.66948      -480.843          45.050  
  24616241.100   129359227.77906      -509.594          40.950    24616237.000  
 100799413.71944      -509.595          33.200  
  23948148.740   125848377.57307       666.916          43.250    23948145.400  
  98063656.18045       666.917          36.400  
  21338043.580   112132181.81009       486.271          49.400    21338038.980  
  87375714.05748       486.271          45.400  
  22237626.560   118539057.09407       362.576          42.550                  
                                                
  19875859.280   106061436.26309      -309.430          49.250    19875862.900  
  82492252.37408      -309.430          46.800  
  21370239.560   114196115.51708      -428.512          47.000    21370243.240  
  88819222.13808      -428.512          45.000  
  21638460.480   115507572.92708      -394.419          45.550    21638464.260  
  89839239.69608      -394.419          44.750  
  23463547.360   125338066.55607      -820.701          42.350    23463552.080  
  97485179.69106      -820.701          40.250  
  20570521.380   109961226.66908       445.115          45.750    20570525.800  
  85525419.81406       445.115          41.400  
  22858267.160   122233399.35207       831.482          42.000    22858271.760  
  95070424.94207       831.483          41.900  
  20472420.040   109552069.76508       342.533          48.400    20472421.420  
  85207186.19908       342.533          45.450  
 20 09 27 07 42 40.0000000  0 16G18G20G27G24G10G21G13G15R10R 2R11R18
                                R12R 1R24R17
  21471891.420   112835543.34609       503.673          48.800    21471887.940  
  87923782.08347       503.674          44.200  
  20008990.780   105147974.67609      -118.560          48.900    20008985.880  
  81933511.18048      -118.560          47.950  
  24179764.160   127065527.85207       294.982          41.900    24179762.680  
  99012084.92046       294.983          38.550  
  20982485.300   110263751.68409      -312.183          49.200    20982483.820  
  85919824.19748      -312.183          46.700  
  21984955.960   115531753.41109      -480.418          49.250    21984954.220  
  90024755.38148      -480.418          45.250  
  24613694.300   129345844.08206      -509.184          41.000    24613690.180  
 100788984.83744      -509.183          33.650  
  23951484.200   125865905.25507       667.188          43.550    23951480.840  
  98077314.11045       667.188          36.200  
  21340476.260   112144965.53209       486.769          49.400    21340471.640  
  87385675.39548       486.769          45.250  
  22239441.800   118548733.56307       363.502          42.950                  
                                                
  19874313.600   106053187.99509      -308.896          49.450    19874317.180  
  82485837.05408      -308.896          46.750  
  21368099.220   114184678.35208      -427.640          46.950    21368102.920  
  88810326.56108      -427.640          44.850  
  21636490.940   115497059.39908      -393.443          45.600    21636494.720  
  89831062.50408      -393.443          44.850  
  23459444.580   125316150.41007      -820.413          43.750    23459449.420  
  97468133.80406      -820.413          40.350  
  20572748.220   109973130.48008       445.578          45.900    20572752.640  
  85534678.32306       445.578          41.400  
  22862425.280   122255635.15107       831.786          42.650    22862430.000  
  95087719.41707       831.787          41.700  
  20474135.280   109561248.42708       343.505          48.400    20474136.680  
  85214325.14708       343.505          45.700  
 20 09 27 07 42 45.0000000  0 16G18G20G27G24G10G21G13G15R10R 2R11R18
                                R12R 1R24R17
  21474411.020   112848783.91509       504.335          48.750    21474407.560  
  87934099.39948       504.335          44.800  
  20008399.320   105144866.69609      -117.862          48.900    20008394.480  
  81931089.38248      -117.862          48.000  
  24181240.700   127073287.31106       295.782          41.400    24181239.280  
  99018131.23845       295.782          36.950  
  20980926.020   110255557.52809      -311.340          49.100    20980924.540  
  85913439.14448      -311.340          46.450  
  21982554.420   115519133.43909      -479.976          49.150    21982552.700  
  90014921.64448      -479.977          45.400  
  24611149.180   129332469.36206      -508.671          40.850    24611145.120  
 100778562.99743      -508.672          31.300  
  23954820.560   125883437.64807       667.533          43.250    23954817.180  
  98090975.71145       667.533          36.700  
  21342910.960   112157759.89609       487.279          49.300    21342906.300  
  87395645.03148       487.278          45.150  
  22241261.220   118558432.36707       364.465          42.650                  
                                                
  19872770.160   106044951.93509      -308.290          49.400    19872773.760  
  82479431.23208      -308.290          46.750  
  21365962.800   114173261.95008      -426.748          47.100    21365966.460  
  88801447.13508      -426.748          44.750  
  21634525.620   115486568.18008      -392.475          45.550    21634529.380  
  89822902.67408      -392.475          44.850  
  23455342.740   125294238.76707      -820.151          43.350    23455347.600  
  97451091.42606      -820.151          40.200  
  20574976.940   109985044.38608       446.095          45.800    20574981.400  
  85543944.69207       446.095          41.550  
  22866584.780   122277877.99307       832.184          44.350    22866589.540  
  95105019.38607       832.185          41.550  
  20475854.960   109570450.91908       344.515          48.400    20475856.400  
  85221482.63808       344.515          45.700  
 20 09 27 07 42 50.0000000  0 16G18G20G27G24G10G21G13G15R10R 2R11R18
                                R12R 1R24R17
  21476933.080   112862037.49509       504.579          48.800    21476929.640  
  87944426.86448       504.579          44.600  
  20007810.440   105141772.20509      -117.605          48.850    20007805.640  
  81928678.09648      -117.605          47.900  
  24182720.040   127081061.44007       296.059          41.700    24182718.640  
  99024189.01545       296.059          36.600  
  20979370.020   110247380.62209      -310.974          49.000    20979368.520  
  85907067.53348      -310.975          46.700  
  21980154.260   115506520.59909      -479.996          49.250    21980152.540  
  90005093.46148      -479.997          45.850  
  24608605.520   129319102.28106      -508.665          40.650    24608601.460  
 100768147.10744      -508.665          33.000  
  23958157.540   125900973.43807       667.394          43.000    23958154.120  
  98104639.95844       667.394          35.350  
  21345347.460   112170563.65909       487.403          49.200    21345342.780  
  87405621.99148       487.403          45.300  
  22243084.580   118568152.45107       364.979          42.000                  
                                                
  19871228.740   106036726.68709      -308.180          49.200    19871232.340  
  82473033.81908      -308.180          46.750  
  21363830.000   114161864.99108      -426.273          47.150    21363833.660  
  88792582.84808      -426.273          44.950  
  21632564.300   115476098.21108      -391.970          45.550    21632568.020  
  89814759.36908      -391.970          45.050  
  23451241.500   125272330.46006      -820.296          41.000    23451246.380  
  97434051.63306      -820.296          40.550  
  20577207.280   109996966.93808       446.152          45.700    20577211.780  
  85553217.78907       446.151          41.800  
  22870745.460   122300126.56107       832.107          43.550    22870750.140  
  95122323.82006       832.107          41.100  
  20477578.860   109579675.89908       345.099          48.350    20477580.340  
  85228657.62908       345.099          45.950  
 20 09 27 07 42 55.0000000  0 16G18G20G27G24G10G21G13G15R10R 2R11R18
                                R12R 1R24R17
  21479457.300   112875302.38709       505.041          48.850    21479453.880  
  87954763.14248       505.041          44.600  
  20007223.800   105138689.52809      -117.096          48.850    20007219.040  
  81926276.01248      -117.096          48.400  
  24184201.900   127088848.58007       296.599          41.900    24184200.500  
  99030256.90646       296.599          39.450  
  20977816.980   110239219.15009      -310.303          49.050    20977815.440  
  85900707.95548      -310.304          46.600  
  21977755.120   115493913.23609      -479.736          49.350    21977753.420  
  89995269.54648      -479.736          45.750  
  24606062.980   129305741.14006      -508.415          40.700    24606058.940  
 100757735.84344      -508.415          33.600  
  23961494.820   125918510.93707       667.495          43.050    23961491.420  
  98118305.53545       667.495          37.350  
  21347785.420   112183375.11209       487.723          49.100    21347780.720  
  87415604.93648       487.723          45.700  
  22244911.600   118577891.89007       365.772          41.950                  
                                                
  19869688.980   106028510.34409      -307.774          49.200    19869692.580  
  82466643.33508      -307.774          46.800  
  21361700.540   114150485.89008      -425.570          47.350    21361704.220  
  88783732.44308      -425.571          45.250  
  21630606.660   115465647.71808      -391.163          45.650    21630610.300  
  89806631.21608      -391.164          45.050  
  23447140.620   125250423.82806      -820.147          40.800    23447145.540  
  97417013.14606      -820.147          40.850  
  20579438.940   110008896.51008       446.466          45.700    20579443.460  
  85562496.34207       446.466          41.800  
  22874906.860   122322379.18007       832.328          42.300    22874911.460  
  95139631.44406       832.327          41.300  
  20479306.620   109588921.67108       345.940          48.500    20479308.160  
  85235848.78008       345.941          45.950  
 20 09 27 07 43  0.0000000  0 16G18G20G27G24G10G21G13G15R10R 2R11R18
                                R12R 1R24R17
  21481983.480   112888577.40609       505.577          48.750    21481980.040  
  87965107.30847       505.577          44.450  
  20006639.180   105135617.50509      -116.547          48.750    20006634.480  
  81923882.23648      -116.548          47.900  
  24185685.980   127096647.52607       297.165          42.100    24185684.600  
  99036334.02345       297.165          35.650  
  20976266.660   110231072.07909      -309.623          48.950    20976265.100  
  85894359.59248      -309.623          46.450  
  21975356.820   115481310.15009      -479.413          49.450    21975355.120  
  89985448.96648      -479.413          45.250  
  24603521.400   129292384.82706      -508.023          40.650    24603517.280  
 100747328.33044      -508.025          33.700  
  23964832.180   125936048.88707       667.651          42.850    23964828.760  
  98131971.47245       667.651          36.450  
  21350224.600   112196193.01609       488.125          49.200    21350219.880  
  87425592.91948       488.125          45.400  
  22246741.920   118587649.32307       366.610          41.950                  
                                                
  19868150.700   106020301.89709      -307.327          49.150    19868154.320  
  82460258.99908      -307.327          46.800  
  21359574.180   114139123.31008      -424.788          47.000    21359577.860  
  88774894.89308      -424.788          45.200  
  21628652.380   115455215.64108      -390.360          45.850    21628656.040  
  89798517.38308      -390.360          44.950  
  23443039.740   125228517.63906      -820.062          40.200    23443044.780  
  97399975.00506      -820.062          40.800  
  20581671.720   110020831.86508       446.833          45.850    20581676.240  
  85571779.39407       446.834          41.750  
  22879068.720   122344634.69507       832.594          43.400    22879073.380  
  95156941.27807       832.594          41.600  
  20481038.020   109598186.96408       346.813          48.400    20481039.620  
  85243055.12608       346.813          46.000  
 20 09 27 07 43  5.0000000  0 16G18G20G27G24G10G21G13G15R10R 2R11R18
                                R12R 1R24R17
  21484512.200   112901865.94309       506.120          48.650    21484508.780  
  87975462.00647       506.121          44.300  
  20006057.260   105132559.53409      -115.998          48.650    20006052.580  
  81921499.39848      -115.998          48.350  
  24187172.980   127104461.70307       297.778          42.000    24187171.600  
  99042422.99645       297.778          37.500  
  20974719.740   110222942.83909      -308.939          48.900    20974718.160  
  85888025.11948      -308.939          46.450  
  21972960.000   115468714.76509      -479.092          49.550    21972958.300  
  89975634.38048      -479.092          45.550  
  24600981.400   129279036.71306      -507.757          40.750    24600977.220  
 100736927.20544      -507.757          34.850  
  23968170.260   125953590.76307       667.840          42.500    23968166.880  
  98145640.44845       667.840          35.900  
  21352665.700   112209020.91809       488.525          49.100    21352660.960  
  87435588.67448       488.525          45.700  
  22248576.340   118597428.53307       367.448          41.500                  
                                                
  19866614.640   106012105.13609      -306.889          49.000    19866618.260  
  82453883.73808      -306.889          46.800  
  21357451.580   114127780.84308      -424.024          47.250    21357455.240  
  88766072.97608      -424.024          45.100  
  21626702.180   115444805.32208      -389.507          45.300    21626705.840  
  89790420.46708      -389.507          45.050  
  23438939.640   125206615.45706      -819.835          40.050    23438944.780  
  97382939.96606      -819.835          40.750  
  20583906.200   110032776.48108       447.189          45.750    20583910.740  
  85581069.63807       447.190          41.800  
  22883231.720   122366896.41907       832.844          41.600    22883236.460  
  95174255.92707       832.845          42.000  
  20482773.720   109607475.30208       347.686          48.300    20482775.380  
  85250279.38108       347.687          46.150  
 20 09 27 07 43 10.0000000  0 16G18G20G27G24G10G21G13G15R10R 2R11R18
                                R12R 1R24R17
  21487043.260   112915166.71608       506.354          48.500    21487039.860  
  87985826.23847       506.354          44.350  
  20005477.760   105129514.36009      -115.767          48.750    20005473.140  
  81919126.54048      -115.767          48.300  
  24188662.640   127112289.81707       298.114          42.150    24188661.260  
  99048522.83345       298.114          38.100  
  20973175.940   110214830.15009      -308.528          48.950    20973174.380  
  85881703.54948      -308.528          46.350  
  21970564.420   115456125.81309      -479.088          49.700    21970562.700  
  89965824.81548      -479.089          45.450  
  24598442.640   129265695.57306      -507.720          40.900    24598438.460  
 100726531.53244      -507.720          34.400  
  23971508.860   125971135.26707       667.677          42.450    23971505.520  
  98159311.48144       667.677          35.150  
  21355108.420   112221857.41409       488.603          49.200    21355103.660  
  87445591.14548       488.603          45.700  
  22250414.540   118607227.90906       367.925          41.200                  
                                                
  19865080.360   106003917.93909      -306.771          48.800    19865084.000  
  82447515.92708      -306.771          47.000  
  21355332.480   114116457.08708      -423.552          47.200    21355336.140  
  88757265.61308      -423.552          45.100  
  21624755.820   115434415.54708      -388.952          45.100    21624759.480  
  89782339.53408      -388.952          45.200  
  23434840.000   125184715.95306      -819.993          41.400    23434845.300  
  97365907.04206      -819.994          41.150  
  20586142.180   110044729.05408       447.258          45.700    20586146.720  
  85590366.08407       447.258          41.950  
  22887395.680   122389163.05907       832.767          43.200    22887400.480  
  95191574.39607       832.768          42.600  
  20484513.440   109616785.33408       348.269          48.100    20484515.200  
  85257520.51908       348.269          45.950  
 20 09 27 07 43 15.0000000  0 16G18G20G27G24G10G21G13G15R10R 2R11R18
                                R12R 1R24R17
  21489576.580   112928479.32309       506.925          48.550    21489573.180  
  87996199.69348       506.925          44.900  
  20004900.660   105126481.66009      -115.128          48.700    20004896.060  
  81916763.39648      -115.128          48.250  
  24190154.900   127120131.47007       298.768          42.250    24190153.480  
  99054633.20445       298.768          35.550  
  20971635.200   110206733.58009      -307.799          48.850    20971633.660  
  85875394.53448      -307.800          46.400  
  21968170.000   115443542.91209      -478.724          49.900    21968168.260  
  89956019.95348      -478.724          45.700  
  24595905.180   129252361.07106      -507.344          40.550    24595900.940  
 100716140.99845      -507.344          37.050  
  23974847.860   125988682.00107       667.916          41.750    23974844.580  
  98172984.28045       667.916          36.700  
  21357552.700   112234702.06009       489.043          49.200    21357547.920  
  87455599.95648       489.043          45.450  
  22252256.520   118617047.14406       368.837          40.850                  
                                                
  19863547.960   105995740.93309      -306.255          48.700    19863551.640  
  82441156.03108      -306.255          47.000  
  21353216.860   114105151.85808      -422.735          46.700    21353220.480  
  88748472.65708      -422.736          45.450  
  21622813.220   115424045.93608      -388.111          44.600    21622816.900  
  89774274.27808      -388.111          45.200  
  23430740.680   125162818.75407      -819.721          42.100    23430746.240  
  97348875.89306      -819.722          41.100  
  20588379.620   110056689.29008       447.656          45.400    20588384.160  
  85599668.48207       447.657          42.100  
  22891560.520   122411434.23107       833.127          43.600    22891565.380  
  95208896.40607       833.128          42.650  
  20486257.200   109626116.73608       349.168          47.950    20486259.000  
  85264778.26508       349.168          46.150  
 20 09 27 07 43 20.0000000  0 16G18G20G27G24G10G21G13G15R10R 2R11R18
                                R12R 1R24R17
  21492112.280   112941804.59309       507.499          48.600    21492108.900  
  88006583.01847       507.500          44.200  
  20004326.080   105123462.20909      -114.556          48.700    20004321.500  
  81914410.57748      -114.556          48.250  
  24191649.880   127127987.43807       299.391          42.250    24191648.440  
  99060754.74245       299.390          35.950  
  20970097.660   110198653.86809      -307.063          48.850    20970096.160  
  85869098.65748      -307.063          46.650  
  21965776.920   115430966.90009      -478.383          50.050    21965775.100  
  89946220.46748      -478.382          45.700  
  24593369.120   129239033.96706      -506.909          40.700    24593364.880  
 100705756.24844      -506.909          33.100  
  23978187.460   126006231.83307       668.078          41.900    23978184.240  
  98186659.44345       668.079          37.850  
  21359998.680   112247555.73009       489.489          49.200    21359993.880  
  87465615.80148       489.489          45.750  
  22254102.420   118626887.21106       369.746          40.600                  
                                                
  19862017.440   105987573.96609      -305.778          48.700    19862021.180  
  82434803.95008      -305.778          47.000  
  21351104.840   114093865.88308      -421.941          46.850    21351108.440  
  88739694.68608      -421.942          45.350  
  21620874.520   115413697.28308      -387.213          44.750    21620878.240  
  89766225.32908      -387.213          45.100  
  23426642.100   125140924.67006      -819.604          40.850    23426647.720  
  97331847.16706      -819.604          41.150  
  20590618.580   110068657.92108       448.073          45.400    20590623.160  
  85608977.41707       448.073          41.950  
  22895726.380   122433710.78807       833.365          43.000    22895731.240  
  95226222.60307       833.366          42.050  
  20488005.100   109635470.27008       350.105          48.100    20488006.920  
  85272053.23208       350.106          46.100  
 20 09 27 07 43 25.0000000  0 16G18G20G27G24G10G21G13G15R10R 2R11R18
                                R12R 1R24R17
  21494650.360   112955142.37509       507.713          48.700    21494647.000  
  88016976.08847       507.713          44.450  
  20003754.000   105120455.89209      -114.273          48.750    20003749.440  
  81912067.99548      -114.274          48.200  
  24193147.520   127135857.65007       299.701          42.250    24193146.140  
  99066887.37045       299.701          37.050  
  20968563.320   110190590.96209      -306.670          48.800    20968561.840  
  85862815.87548      -306.670          46.850  
  21963385.140   115418397.64809      -478.372          50.150    21963383.240  
  89936426.24548      -478.372          45.500  
  24590834.460   129225714.14406      -506.938          40.150    24590830.180  
 100695377.19045      -506.938          37.000  
  23981527.600   126023784.56907       667.991          42.050    23981524.380  
  98200336.90745       667.991          36.350  
  21362446.340   112260418.26209       489.568          49.400    21362441.540  
  87475638.54548       489.569          45.450  
  22255952.160   118636747.87506       370.223          40.750                  
                                                
  19860488.880   105979417.46908      -305.636          48.450    19860492.660  
  82428460.01408      -305.636          47.050  
  21348996.420   114082599.01008      -421.450          47.100    21348999.980  
  88730931.56908      -421.450          45.450  
  21618939.780   115403369.53607      -386.701          44.400    21618943.500  
  89758192.63908      -386.701          45.100  
  23422544.060   125119033.67906      -819.645          38.650    23422549.720  
  97314820.83806      -819.644          41.250  
  20592859.100   110080634.69908       448.144          45.550    20592863.660  
  85618292.68307       448.144          42.000  
  22899893.160   122455992.43107       833.330          43.850    22899898.020  
  95243552.76307       833.330          41.700  
  20489757.120   109644845.71508       350.697          48.100    20489758.960  
  85279345.24308       350.697          46.200  
 20 09 27 07 43 30.0000000  0 16G18G20G27G24G10G21G13G15R10R 2R11R18
                                R12R 1R24R17
  21497190.520   112968491.06608       508.310          48.500    21497187.180  
  88027377.66447       508.310          44.350  
  20003184.080   105117461.09209      -113.666          48.800    20003179.560  
  81909734.38448      -113.666          48.400  
  24194647.580   127143740.43407       300.332          42.300    24194646.200  
  99073029.79445       300.332          38.350  
  20967031.900   110182543.38209      -305.947          48.750    20967030.440  
  85856545.03348      -305.947          46.300  
  21960994.320   115405833.55709      -478.010          50.150    21960992.360  
  89926636.04348      -478.010          45.600  
  24588300.800   129212400.06806      -506.533          40.100    24588296.680  
 100685002.59544      -506.532          31.950  
  23984867.980   126041338.56307       668.156          42.350    23984864.800  
  98214015.30944       668.158          32.900  
  21364895.400   112273288.05709       490.002          49.200    21364890.580  
  87485666.95448       490.002          45.600  
  22257805.480   118646627.45506       371.135          41.200                  
                                                
  19858961.940   105971269.60108      -305.139          48.350    19858965.760  
  82422122.78408      -305.139          46.850  
  21346891.300   114071349.69008      -420.650          47.650    21346894.800  
  88722182.08908      -420.650          45.300  
  21617008.620   115393061.01708      -385.780          44.600    21617012.380  
  89750174.90008      -385.780          45.100  
  23418446.280   125097144.15906      -819.434          38.550    23418452.020  
  97297795.65406      -819.434          40.900  
  20595100.860   110092618.04408       448.553          45.600    20595105.420  
  85627613.06007       448.554          41.750  
  22904060.680   122478277.78707       833.623          43.700    22904065.460  
  95260885.79706       833.624          41.400  
  20491512.960   109654241.55708       351.635          48.250    20491514.820  
  85286653.11708       351.636          46.150  
 20 09 27 07 43 35.0000000  0 17G 8G18G20G27G24G10G21G13G15R10R 2R11
                                R18R12R 1R24R17
  24606313.980   129307051.45204       -43.400          35.200    24606311.580  
 100758728.48244       -43.397          33.350  
  21499733.180   112981852.92908       508.754          48.400    21499729.880  
  88037789.49748       508.755          45.300  
  20002616.820   105114480.11809      -113.232          48.800    20002612.300  
  81907411.54748      -113.232          48.350  
  24196150.500   127151638.09007       300.742          41.900    24196149.060  
  99079183.83645       300.742          36.950  
  20965503.840   110174513.48109      -305.320          48.800    20965502.400  
  85850287.97348      -305.320          46.550  
  21958604.940   115393276.94409      -477.781          50.100    21958602.900  
  89916851.67148      -477.782          45.850  
  24585768.760   129199093.97106      -506.316          39.550    24585764.620  
 100674634.19444      -506.316          33.350  
  23988209.060   126058896.18507       668.253          42.650    23988205.920  
  98227696.58045       668.253          35.900  
  21367346.240   112286167.38709       490.344          49.100    21367341.440  
  87495702.79248       490.344          45.700  
  22259662.840   118656528.26406       371.858          41.150                  
                                                
  19857437.080   105963132.94108      -304.780          48.400    19857440.940  
  82415794.27508      -304.780          46.650  
  21344789.900   114060120.22908      -419.935          47.650    21344793.340  
  88713448.07208      -419.935          45.300  
  21615081.460   115382774.13808      -385.029          44.800    21615085.320  
  89742174.00708      -385.030          44.800  
  23414349.280   125075258.49606      -819.356          39.750    23414355.020  
  97280773.48006      -819.356          40.950  
  20597344.320   110104610.40708       448.822          46.000    20597348.860  
  85636940.44907       448.822          41.850  
  22908229.260   122500569.01207       833.776          44.000    22908234.000  
  95278223.41006       833.777          41.150  
  20493273.020   109663660.06308       352.413          48.300    20493274.900  
  85293978.62008       352.413          45.950  
 20 09 27 07 43 40.0000000  0 17G 8G18G20G27G24G10G21G13G15R10R 2R11
                                R18R12R 1R24R17
  24606098.240   129305919.68504       -42.739          34.550    24606097.780  
 100757846.59643       -42.739          27.750  
  21502277.820   112995225.13708       509.327          48.400    21502274.520  
  88048209.39748       509.327          45.250  
  20002051.640   105111510.14009      -112.640          48.750    20002047.140  
  81905097.27948      -112.639          48.100  
  24197655.740   127159547.83307       301.475          41.850    24197654.220  
  99085347.26845       301.476          38.500  
  20963978.560   110166498.31709      -304.577          48.900    20963977.180  
  85844042.39548      -304.577          46.350  
  21956216.400   115380724.96609      -477.437          50.100    21956214.300  
  89907070.90948      -477.437          46.250  
  24583237.620   129185793.04806      -505.906          39.300    24583233.500  
 100664269.86745      -505.907          35.500  
  23991550.260   126076454.52307       668.467          42.650    23991547.140  
  98241378.39345       668.467          36.400  
  21369798.380   112299053.41209       490.753          49.100    21369793.560  
  87505743.84648       490.753          45.850  
  22261523.560   118666447.46307       372.692          41.800                  
                                                
  19855913.740   105955004.41108      -304.321          48.400    19855917.640  
  82409472.08908      -304.321          46.550  
  21342691.660   114048907.72908      -419.155          47.550    21342695.060  
  88704727.25008      -419.155          45.400  
  21613157.860   115372505.97508      -384.181          44.700    21613161.760  
  89734187.65408      -384.181          45.050  
  23410252.400   125053373.69006      -819.143          39.000    23410258.200  
  97263751.96906      -819.142          40.750  
  20599588.900   110116608.81908       449.227          45.850    20599593.420  
  85646272.54507       449.227          41.800  
  22912398.400   122522863.18707       834.075          42.850    22912403.120  
  95295563.31707       834.075          41.800  
  20495036.800   109673098.31508       353.316          48.250    20495038.700  
  85301319.48308       353.316          45.950  
 20 09 27 07 43 45.0000000  0 17G 8G18G20G27G24G10G21G13G15R10R 2R11
                                R18R12R 1R24R17
  24605885.460   129304803.65504       -42.042          34.500    24605886.320  
 100756977.04044       -42.044          32.750  
  21504824.760   113008609.47908       509.744          48.100    21504821.480  
  88058638.75648       509.744          44.750  
  20001488.900   105108553.00609      -112.157          48.650    20001484.420  
  81902793.02248      -112.157          48.150  
  24199163.640   127167471.33307       301.913          42.000    24199161.920  
  99091521.43045       301.913          36.000  
  20962456.440   110158499.73009      -303.988          48.750    20962455.120  
  85837809.73248      -303.988          46.600  
  21953829.120   115368179.43109      -477.223          49.950    21953826.940  
  89897295.17148      -477.223          46.150  
  24580707.840   129172499.12706      -505.729          38.700    24580703.760  
 100653910.96644      -505.729          35.250  
  23994891.980   126094015.36707       668.518          42.350    23994888.820  
  98255062.16645       668.518          37.050  
  21372252.120   112311947.97309       491.013          48.850    21372247.320  
  87515791.55648       491.013          46.100  
  22263388.160   118676386.84007       373.432          41.750                  
                                                
  19854392.320   105946885.94608      -303.964          48.500    19854396.220  
  82403157.73108      -303.964          46.600  
  21340596.940   114037714.19408      -418.477          47.200    21340600.340  
  88696021.16908      -418.477          45.100  
  21611238.100   115362258.38708      -383.446          44.900    21611242.080  
  89726217.31008      -383.446          45.150  
  23406156.000   125031491.72406      -819.090          40.150    23406161.920  
  97246732.67006      -819.090          41.100  
  20601834.920   110128615.08508       449.479          45.550    20601839.440  
  85655610.75207       449.479          41.800  
  22916568.500   122545162.07707       834.276          43.650    22916573.160  
  95312906.87607       834.276          41.800  
  20496804.580   109682558.17508       354.087          48.150    20496806.520  
  85308677.14808       354.087          46.050  
 20 09 27 07 43 50.0000000  0 16G18G20G27G24G10G21G13G15R10R 2R11R18
                                R12R 1R24R17
  21507374.360   113022007.71708       510.029          48.350    21507371.080  
  88069078.93248       510.029          44.900  
  20000928.940   105105610.45109      -111.871          48.850    20000924.460  
  81900500.11848      -111.871          48.150  
  24200674.500   127175410.48106       302.276          41.250    24200672.600  
  99097707.77244       302.276          34.400  
  20960937.820   110150519.38509      -303.550          48.800    20960936.520  
  85831591.28448      -303.550          46.800  
  21951443.400   115355642.13609      -477.176          50.100    21951441.140  
  89887525.85448      -477.177          45.900  
  24578179.700   129159213.98505      -505.656          38.300    24578175.660  
 100643558.93045      -505.657          37.050  
  23998234.540   126111580.49107       668.468          42.800    23998231.340  
  98268749.26345       668.469          36.250  
  21374707.820   112324852.80609       491.162          48.950    21374703.040  
  87525847.26648       491.162          45.550  
  22265256.840   118686348.14307       374.013          42.000                  
                                                
  19852873.120   105938779.39809      -303.802          48.650    19852877.040  
  82396852.63808      -303.802          46.550  
  21338506.120   114026541.29308      -417.959          47.600    21338509.460  
  88687331.13708      -417.959          45.150  
  21609322.560   115352033.29208      -382.840          45.000    21609326.620  
  89718264.46808      -382.841          45.250  
  23402060.460   125009614.30606      -819.156          40.750    23402066.460  
  97229716.90306      -819.156          41.000  
  20604082.780   110140631.03008       449.575          45.650    20604087.280  
  85664956.49207       449.576          41.850  
  22920739.800   122567467.50307       834.196          43.800    22920744.440  
  95330255.53607       834.197          41.850  
  20498576.780   109692041.40908       354.688          48.150    20498578.700  
  85316052.99708       354.688          45.850  
 20 09 27 07 43 55.0000000  0 16G18G20G27G24G10G21G13G15R10R 2R11R18
                                R12R 1R24R17
  21509926.120   113035417.30608       510.533          48.500    21509922.840  
  88079527.95848       510.533          44.650  
  20000371.300   105102680.05209      -111.289          48.800    20000366.840  
  81898216.69448      -111.289          48.100  
  24202187.800   127183362.66007       302.836          41.500    24202185.780  
  99103904.27845       302.836          37.750  
  20959422.180   110142554.83809      -302.911          48.700    20959420.920  
  85825385.14948      -302.911          46.600  
  21949058.780   115343110.61809      -476.849          50.150    21949056.440  
  89877761.03548      -476.849          45.800  
  24575652.740   129145935.12505      -505.265          38.400    24575648.800  
 100633211.76844      -505.266          34.850  
  24001577.440   126129147.37307       668.591          42.650    24001574.220  
  98282437.74345       668.592          36.500  
  21377164.980   112337765.37709       491.579          48.900    21377160.220  
  87535909.00948       491.579          45.600  
  22267129.260   118696328.97907       374.788          42.750                  
                                                
  19851355.660   105930682.03709      -303.323          48.650    19851359.580  
  82390554.69208      -303.324          46.650  
  21336418.660   114015386.58208      -417.170          47.600    21336422.020  
  88678655.25908      -417.170          45.250  
  21607410.800   115341828.03808      -381.999          45.250    21607414.860  
  89710327.05208      -381.999          45.250  
  23397965.320   124987739.02707      -818.996          41.700    23397971.440  
  97212702.81406      -818.996          41.100  
  20606331.980   110152654.08808       449.937          45.700    20606336.460  
  85674307.75407       449.936          41.750  
  22924911.840   122589776.92507       834.438          43.900    22924916.440  
  95347607.29707       834.438          41.950  
  20500352.840   109701545.40108       355.574          48.350    20500354.740  
  85323444.98208       355.574          45.700  
 20 09 27 07 44  0.0000000  0 16G18G20G27G24G10G21G13G15R10R 2R11R18
                                R12R 1R24R17
  21512479.840   113048837.22709       511.007          48.550    21512476.560  
  88089985.03348       511.007          44.800  
  19999815.740   105099760.71909      -110.824          48.700    19999811.300  
  81895941.89048      -110.824          48.000  
  24203703.340   127191326.86406       303.351          40.650    24203701.300  
  99110110.16345       303.351          37.300  
  20957909.380   110134605.12009      -302.223          48.700    20957908.140  
  85819190.57248      -302.224          46.300  
  21946675.040   115330583.73309      -476.620          50.200    21946672.600  
  89867999.82448      -476.620          46.050  
  24573126.820   129132661.43105      -505.028          38.500    24573122.840  
 100622868.63445      -505.028          35.500  
  24004920.420   126146714.95907       668.639          42.700    24004917.200  
  98296126.76744       668.639          34.250  
  21379623.400   112350684.64009       491.883          48.950    21379618.660  
  87545975.96348       491.883          45.400  
  22269005.180   118706328.04907       375.554          42.950                  
                                                
  19849839.780   105922593.05109      -302.972          48.850    19849843.700  
  82384263.26508      -302.972          46.850  
  21334334.420   114004248.94508      -416.486          47.750    21334337.780  
  88669992.65708      -416.487          45.350  
  21605502.520   115331641.54908      -381.242          45.350    21605506.620  
  89702404.23208      -381.242          45.150  
  23393870.380   124965864.87107      -818.880          43.100    23393876.640  
  97195689.58306      -818.880          41.250  
  20608582.300   110164683.19908       450.228          45.850    20608586.760  
  85683663.72507       450.228          41.850  
  22929084.260   122612089.31607       834.648          42.850    22929089.000  
  95364961.35106       834.649          41.400  
  20502132.600   109711069.16308       356.386          48.300    20502134.480  
  85330852.35208       356.386          45.750  
 20 09 27 07 44  5.0000000  0 16G18G20G27G24G10G21G13G15R10R 2R11R18
                                R12R 1R24R17
  21515036.280   113062271.33409       511.565          48.650    21515033.000  
  88100453.16447       511.565          44.400  
  19999263.040   105096856.28509      -110.238          48.750    19999258.600  
  81893678.69648      -110.238          48.050  
  24205221.880   127199306.99206       304.122          40.050    24205219.820  
  99116328.44745       304.123          36.550  
  20956400.120   110126674.04209      -301.470          48.700    20956398.920  
  85813010.50948      -301.470          46.150  
  21944292.920   115318065.43709      -476.236          50.350    21944290.420  
  89858245.31248      -476.236          46.100  
  24570602.560   129119396.93106      -504.630          38.800    24570598.640  
 100612532.68045      -504.630          35.600  
  24008264.320   126164287.19607       668.915          42.300    24008261.000  
  98309819.40045       668.915          36.850  
  21382083.840   112363614.47809       492.322          49.000    21382079.140  
  87556051.15848       492.322          45.300  
  22270885.260   118716349.31807       376.419          43.550                  
                                                
  19848326.180   105914515.98009      -302.474          48.950    19848330.060  
  82377981.09708      -302.474          46.950  
  21332254.100   113993132.35108      -415.667          47.650    21332257.460  
  88661346.42308      -415.667          45.250  
  21603598.520   115321477.86008      -380.346          45.350    21603602.640  
  89694499.14008      -380.346          45.050  
  23389776.380   124943995.59107      -818.683          42.950    23389782.760  
  97178680.16206      -818.685          41.200  
  20610834.500   110176722.33808       450.662          45.750    20610838.960  
  85693027.50407       450.662          41.950  
  22933258.120   122634408.49407       834.880          43.250    22933262.800  
  95382320.69006       834.881          41.400  
  20503916.780   109720616.67808       357.308          48.100    20503918.640  
  85338278.19508       357.308          45.700  
 20 09 27 07 44 10.0000000  0 16G18G20G27G24G10G21G13G15R10R 2R11R18
                                R12R 1R24R17
  21517594.960   113075717.31909       511.963          48.700    21517591.680  
  88110930.55647       511.963          44.300  
  19998712.740   105093964.46209      -109.806          48.750    19998708.320  
  81891425.33248      -109.806          48.150  
  24206742.920   127207300.62706       304.479          39.750    24206740.980  
  99122557.27644       304.479          35.300  
  20954893.960   110118759.26209      -300.930          48.800    20954892.800  
  85806843.15648      -300.930          46.750  
  21941912.000   115305553.42109      -476.055          50.250    21941909.460  
  89848495.68948      -476.054          46.250  
  24568079.740   129106139.24406      -504.447          38.750    24568075.860  
 100602202.05044      -504.448          32.650  
  24011608.600   126181861.70607       668.915          42.600    24011605.280  
  98323513.84044       668.915          35.250  
  21384545.860   112376552.58609       492.562          49.050    21384541.180  
  87566132.79748       492.562          45.400  
  22272769.060   118726390.51707       377.117          43.400                  
                                                
  19846814.500   105906449.28609      -302.160          49.050    19846818.380  
  82371707.00408      -302.161          46.900  
  21330177.280   113982034.50308      -415.033          47.700    21330180.620  
  88652714.77408      -415.033          45.300  
  21601698.380   115311334.68808      -379.659          44.900    21601702.460  
  89686610.00608      -379.659          44.950  
  23385682.860   124922129.03307      -818.606          43.000    23385689.300  
  97161672.85206      -818.607          41.100  
  20613088.120   110188769.18008       450.867          45.750    20613092.580  
  85702397.26907       450.867          42.000  
  22937432.800   122656732.05307       835.002          43.900    22937437.420  
  95399683.44707       835.003          41.800  
  20505704.920   109730185.50208       358.043          48.050    20505706.780  
  85345720.61408       358.043          45.600  
 20 09 27 07 44 15.0000000  0 16G18G20G27G24G10G21G13G15R10R 2R11R18
                                R12R 1R24R17
  21520155.660   113089173.79909       512.401          48.700    21520152.360  
  88121416.11848       512.402          44.800  
  19998164.580   105091083.89909      -109.380          48.800    19998160.160  
  81889180.73548      -109.380          48.400  
  24208266.300   127215306.47306       304.934          39.000    24208264.480  
  99128795.58045       304.935          36.800  
  20953390.640   110110859.35409      -300.314          48.800    20953389.520  
  85800687.38448      -300.314          46.500  
  21939532.020   115293046.29709      -475.852          50.100    21939529.420  
  89838749.87848      -475.852          46.550  
  24565557.860   129092887.06606      -504.162          38.600    24565554.060  
 100591875.68044      -504.163          33.400  
  24014953.080   126199437.11707       668.965          42.300    24014949.760  
  98337208.93745       668.966          37.850  
  21387009.180   112389497.55109       492.865          48.900    21387004.540  
  87576219.77848       492.866          45.450  
  22274656.280   118736450.23807       377.804          43.300                  
                                                
  19845304.340   105898390.57709      -301.829          49.150    19845308.200  
  82365439.12108      -301.829          46.950  
  21328103.700   113970954.04808      -414.327          47.600    21328107.040  
  88644096.63808      -414.327          45.250  
  21599801.760   115301210.45508      -378.901          45.000    21599805.840  
  89678735.59708      -378.901          44.700  
  23381589.580   124900263.77907      -818.597          41.600    23381596.080  
  97144666.54006      -818.598          40.950  
  20615342.900   110200822.20208       451.142          45.700    20615347.380  
  85711771.83507       451.142          42.000  
  22941608.020   122679058.65408       835.154          44.950    22941612.600  
  95417048.56006       835.155          41.350  
  20507496.800   109739774.14708       358.779          48.050    20507498.640  
  85353178.44908       358.779          45.450  
 20 09 27 07 44 20.0000000  0 16G18G20G27G24G10G21G13G15R10R 2R11R18
                                R12R 1R24R17
  21522718.540   113102641.71709       512.869          48.650    21522715.220  
  88131910.59548       512.869          44.550  
  19997618.780   105088215.55109      -108.893          49.000    19997614.340  
  81886945.66348      -108.893          47.850  
  24209792.260   127223325.47606       305.532          39.450    24209790.480  
  99135044.14343       305.532          30.000  
  20951890.400   110102975.55309      -299.668          48.950    20951889.280  
  85794544.16848      -299.668          46.650  
  21937153.100   115280545.06709      -475.590          50.000    21937150.520  
  89829008.67248      -475.591          46.650  
  24563037.260   129079641.30506      -503.924          38.900    24563033.440  
 100581554.31045      -503.925          36.550  
  24018297.880   126217014.38507       669.101          42.250    24018294.600  
  98350905.50645       669.102          36.750  
  21389473.960   112402450.35509       493.201          48.850    21389469.380  
  87586312.87248       493.201          45.900  
  22276547.240   118746529.49507       378.615          43.250                  
                                                
  19843795.980   105890341.61309      -301.436          49.100    19843799.860  
  82359178.82208      -301.436          46.850  
  21326033.580   113959891.91408      -413.589          47.350    21326036.920  
  88635492.76308      -413.589          45.050  
  21597908.820   115291106.26908      -378.127          44.900    21597912.980  
  89670876.78908      -378.127          44.550  
  23377496.740   124878400.83406      -818.476          41.250    23377503.240  
  97127662.03706      -818.477          41.150  
  20617599.000   110212882.47508       451.420          45.650    20617603.540  
  85721152.04907       451.420          41.900  
  22945784.080   122701389.38908       835.331          44.550    22945788.540  
  95434416.91406       835.332          41.150  
  20509292.560   109749383.72608       359.608          48.100    20509294.420  
  85360652.56608       359.608          45.400  
 20 09 27 07 44 25.0000000  0 16G18G20G27G24G10G21G13G15R10R 2R11R18
                                R12R 1R24R17
  21525283.980   113116123.01409       513.405          48.750    21525280.620  
  88142415.50048       513.405          44.650  
  19997075.660   105085361.44409      -108.297          48.950    19997071.220  
  81884721.68148      -108.297          48.300  
  24211321.000   127231359.55606       306.183          39.050    24211319.320  
  99141304.46545       306.183          37.900  
  20950393.600   110095109.85009      -298.979          49.000    20950392.500  
  85788415.05148      -298.979          47.000  
  21934775.660   115268051.66709      -475.279          50.050    21934773.140  
  89819273.55748      -475.279          46.400  
  24560518.380   129066403.98406      -503.556          39.300    24560514.520  
 100571239.53044      -503.557          34.850  
  24021643.420   126234595.45607       669.255          41.750    24021640.180  
  98364605.03145       669.255          35.900  
  21391940.580   112415412.90809       493.578          48.750    21391936.080  
  87596413.56148       493.578          45.700  
  22278442.100   118756630.06707       379.440          43.050                  
                                                
  19842289.720   105882303.75309      -301.004          48.950    19842293.560  
  82352927.15508      -301.004          46.750  
  21323967.240   113948850.09208      -412.806          47.300    21323970.560  
  88626904.68708      -412.807          45.000  
  21596020.020   115281024.17408      -377.284          44.650    21596024.240  
  89663035.16107      -377.284          44.500  
  23373404.700   124856542.17206      -818.246          40.350    23373411.200  
  97110660.85206      -818.246          41.050  
  20619856.840   110224951.88108       451.806          45.350    20619861.420  
  85730539.36107       451.806          41.900  
  22949961.200   122723726.05107       835.548          44.100    22949965.620  
  95451789.85906       835.548          41.300  
  20511092.560   109759016.01808       360.490          48.100    20511094.440  
  85368144.34708       360.490          45.250  
 20 09 27 07 44 30.0000000  0 17G 8G18G20G27G24G10G21G13G15R10R 2R11
                                R18R12R 1R24R17
  24604109.780   129295469.60104       -36.704          32.850    24604110.360  
 100749716.14644       -36.705          33.850  
  21527851.820   113129617.07309       513.709          48.850    21527848.440  
  88152930.34548       513.709          44.750  
  19996535.140   105082520.92409      -107.935          49.100    19996530.660  
  81882508.28948      -107.935          48.050  
  24212852.580   127239408.07906       306.467          38.950    24212850.820  
  99147576.05345       306.467          35.750  
  20948900.080   110087261.48109      -298.446          49.000    20948899.020  
  85782299.44348      -298.446          46.650  
  21932399.600   115255565.52109      -475.155          49.900    21932397.120  
  89809544.09948      -475.155          46.550  
  24558000.940   129053174.45106      -503.425          40.250    24557997.000  
 100560930.83845      -503.426          37.150  
  24024989.520   126252179.77107       669.242          41.650    24024986.380  
  98378307.09944       669.242          34.400  
  21394408.980   112428384.61909       493.782          48.800    21394404.520  
  87606521.38248       493.782          45.800  
  22280340.940   118766751.52907       380.068          43.300                  
                                                
  19840785.540   105874277.09909      -300.715          48.850    19840789.360  
  82346684.20408      -300.715          46.550  
  21321904.620   113937828.15408      -412.236          47.400    21321907.940  
  88618332.07608      -412.236          44.900  
  21594135.240   115270963.47007      -376.630          44.250    21594139.520  
  89655210.17207      -376.630          44.350  
  23369313.340   124834687.23206      -818.251          40.350    23369319.860  
  97093662.58106      -818.252          40.750  
  20622116.300   110237029.92308       451.977          45.350    20622120.900  
  85739933.39107       451.978          41.800  
  22954139.340   122746067.97007       835.620          43.400    22954143.660  
  95469166.88406       835.620          40.900  
  20512896.760   109768670.67808       361.172          48.000    20512898.640  
  85375653.52208       361.172          45.350  
 20 09 27 07 44 35.0000000  0 16G18G20G27G24G10G21G13G15R10R 2R11R18
                                R12R 1R24R17
  21530421.600   113143121.34409       514.185          48.700    21530418.220  
  88163453.15648       514.185          44.550  
  19995996.720   105079691.41009      -107.438          48.950    19995992.220  
  81880303.48048      -107.438          47.900  
  24214386.420   127247468.51506       307.059          39.650    24214384.700  
  99153856.93344       307.058          34.100  
  20947409.380   110079427.81809      -297.838          49.000    20947408.320  
  85776195.29848      -297.838          46.700  
  21930024.440   115243084.07909      -474.910          49.850    21930022.000  
  89799818.31048      -474.911          46.650  
  24555484.540   129039950.20106      -503.161          40.800    24555480.460  
 100550626.21344      -503.161          34.850  
  24028335.780   126269764.69407       669.291          41.600    24028332.640  
  98392009.62045       669.292          36.950  
  21396878.620   112441362.93309       494.107          48.850    21396874.220  
  87616634.35848       494.106          45.250  
  22282243.140   118776891.18907       380.790          43.550                  
                                                
  19839282.840   105866258.30709      -300.364          48.900    19839286.640  
  82340447.37208      -300.365          46.700  
  21319845.180   113926823.27208      -411.521          47.550    21319848.480  
  88609772.72608      -411.521          45.050  
  21592254.020   115260921.69907      -375.828          44.100    21592258.360  
  89647399.92508      -375.828          44.750  
  23365222.180   124812833.39306      -818.116          39.250    23365228.720  
  97076665.15406      -818.115          40.800  
  20624376.840   110249113.88508       452.264          45.400    20624381.480  
  85749332.02907       452.264          41.850  
  22958317.900   122768412.68107       835.776          44.400    22958322.140  
  95486546.10806       835.776          40.350  
  20514704.620   109778344.91608       361.984          47.950    20514706.520  
  85383177.93308       361.984          45.450  
 20 09 27 07 44 40.0000000  0 16G18G20G27G24G10G21G13G15R10R 2R11R18
                                R12R 1R24R17
  21532993.760   113156638.08409       514.525          48.800    21532990.360  
  88173985.67047       514.525          44.250  
  19995460.840   105076875.21109      -107.072          48.950    19995456.300  
  81878109.03448      -107.072          48.050  
  24215922.920   127255543.09506       307.455          39.950    24215921.180  
  99160148.80344       307.455          33.950  
  20945921.960   110071611.33609      -297.297          49.000    20945920.900  
  85770104.53548      -297.297          46.250  
  21927650.620   115230609.61309      -474.757          49.850    21927648.200  
  89790097.95148      -474.757          46.600  
  24552969.580   129026733.49806      -503.001          40.550    24552965.420  
 100540327.50044      -503.002          34.550  
  24031682.600   126287352.50207       669.298          42.050    24031679.440  
  98405714.38644       669.299          34.750  
  21399349.940   112454350.10409       494.315          48.550    21399345.600  
  87626754.22548       494.315          45.550  
  22284149.180   118787051.36107       381.442          43.750                  
                                                
  19837782.160   105858250.34609      -300.062          49.000    19837785.920  
  82334218.95608      -300.062          46.700  
  21317789.420   113915837.89808      -410.931          47.550    21317792.700  
  88601228.54608      -410.931          45.050  
  21590376.780   115250901.04107      -375.181          44.500    21590381.160  
  89639606.08208      -375.182          45.100  
  23361131.780   124790983.10106      -818.202          40.800    23361138.260  
  97059670.49506      -818.202          40.800  
  20626638.960   110261206.12708       452.415          45.600    20626643.600  
  85758737.10006       452.415          41.350  
  22962497.380   122790762.44707       835.813          44.250    22962501.640  
  95503929.23606       835.815          41.350  
  20516516.560   109788041.04508       362.655          48.300    20516518.480  
  85390719.36708       362.655          45.150  
 20 09 27 07 44 45.0000000  0 16G18G20G27G24G10G21G13G15R10R 2R11R18
                                R12R 1R24R17
  21535568.300   113170167.42009       515.207          48.700    21535564.900  
  88184528.01448       515.207          44.950  
  19994927.500   105074072.48209      -106.352          49.000    19994922.960  
  81875925.09248      -106.352          48.000  
  24217462.180   127263632.00006       308.192          39.600    24217460.340  
  99166451.81245       308.194          37.600  
  20944437.800   110063811.99109      -296.430          49.000    20944436.740  
  85764027.12848      -296.430          46.700  
  21925278.140   115218142.28009      -474.301          49.900    21925275.740  
  89780383.15048      -474.301          46.450  
  24550456.060   129013524.51206      -502.544          40.500    24550451.820  
 100530034.79444      -502.544          34.600  
  24035030.040   126304943.32807       669.601          42.250    24035026.820  
  98419421.52444       669.601          35.050  
  21401822.980   112467346.29309       494.850          48.600    21401818.720  
  87636881.13048       494.850          45.550  
  22286059.120   118797232.22507       382.461          43.250                  
                                                
  19836283.420   105850252.80409      -299.486          49.150    19836287.180  
  82327998.65308      -299.487          46.700  
  21315737.360   113904872.19408      -409.996          47.650    21315740.600  
  88592699.68208      -409.997          44.950  
  21588503.540   115240901.81707      -374.149          44.350    21588508.000  
  89631828.91608      -374.150          45.350  
  23357042.020   124769136.36107      -817.812          41.650    23357048.440  
  97042678.59906      -817.812          40.750  
  20628902.660   110273306.80508       452.979          45.600    20628907.280  
  85768148.74406       452.979          41.400  
  22966677.860   122813117.32307       836.312          42.600    22966682.100  
  95521316.34706       836.312          41.150  
  20518332.660   109797759.16508       363.698          48.250    20518334.560  
  85398277.90708       363.698          45.150  
 20 09 27 07 44 50.0000000  0 16G18G20G27G24G10G21G13G15R10R 2R11R18
                                R12R 1R24R17
  21538145.060   113183708.27509       515.560          48.850    21538141.640  
  88195079.32548       515.560          44.600  
  19994396.540   105071282.14009      -105.945          49.150    19994391.960  
  81873750.80348      -105.945          47.800  
  24219004.020   127271734.07506       308.533          39.700    24219002.080  
  99172765.13544       308.532          34.100  
  20942956.700   110056028.76609      -295.906          49.200    20942955.660  
  85757962.28148      -295.907          46.600  
  21922906.800   115205681.01709      -474.118          49.800    21922904.440  
  89770673.07348      -474.118          46.350  
  24547943.840   129000322.14706      -502.310          41.100    24547939.480  
 100519747.22845      -502.310          36.500  
  24038377.820   126322536.07807       669.626          41.650    24038374.540  
  98433130.17343       669.626          31.400  
  21404297.540   112480350.40409       495.085          48.750    21404293.320  
  87647014.19748       495.085          45.400  
  22287972.700   118807432.64007       383.109          42.900                  
                                                
  19834786.520   105842264.94409      -299.187          49.250    19834790.260  
  82321785.88008      -299.187          46.700  
  21313688.800   113893925.00908      -409.354          47.900    21313691.940  
  88584185.20908      -409.354          44.850  
  21586634.100   115230922.84707      -373.523          44.300    21586638.640  
  89624067.50508      -373.523          45.350  
  23352952.780   124747292.25807      -817.792          41.700    23352959.140  
  97025688.75506      -817.793          41.050  
  20631167.680   110285414.85408       453.140          45.750    20631172.320  
  85777566.11406       453.140          41.400  
  22970859.120   122835476.20107       836.338          43.200    22970863.300  
  95538706.57606       836.338          41.300  
  20520152.680   109807498.25108       364.399          48.050    20520154.520  
  85405852.75008       364.399          45.250  
 20 09 27 07 44 55.0000000  0 16G18G20G27G24G10G21G13G15R10R 2R11R18
                                R12R 1R24R17
  21540723.720   113197259.27709       515.947          48.700    21540720.320  
  88205638.54247       515.947          44.400  
  19993867.660   105068502.83609      -105.547          49.000    19993863.060  
  81871585.11448      -105.547          47.700  
  24220548.060   127279848.03106       309.055          39.750    24220546.100  
  99179087.69445       309.056          35.550  
  20941478.400   110048260.25509      -295.367          49.150    20941477.380  
  85751908.90248      -295.367          46.600  
  21920536.360   115193224.45209      -473.986          49.550    21920534.060  
  89760966.66148      -473.986          46.400  
  24545432.640   128987125.06106      -502.132          41.100    24545428.140  
 100509463.79545      -502.133          36.350  
  24041725.720   126340129.40107       669.608          41.750    24041722.420  
  98446839.22945       669.609          36.450  
  21406773.360   112493361.03908       495.304          48.500    21406769.200  
  87657152.35648       495.304          45.450  
  22289889.700   118817651.12407       383.786          43.150                  
                                                
  19833291.120   105834285.20509      -298.914          49.150    19833294.860  
  82315579.42108      -298.914          46.900  
  21311643.420   113882995.07308      -408.745          47.600    21311646.500  
  88575684.15408      -408.746          44.850  
  21584768.200   115220962.79107      -372.781          44.350    21584772.840  
  89616320.80508      -372.782          45.700  
  23348863.720   124725449.31307      -817.749          43.400    23348870.100  
  97008699.82506      -817.750          41.100  
  20633433.840   110297528.80208       453.328          45.700    20633438.480  
  85786988.07306       453.328          41.200  
  22975040.840   122857837.75607       836.361          42.750    22975045.020  
  95556098.87807       836.362          41.850  
  20521976.360   109817256.87108       365.096          48.000    20521978.140  
  85413442.79008       365.096          45.400  
 20 09 27 07 45  0.0000000  0 16G18G20G27G24G10G21G13G15R10R 2R11R18
                                R12R 1R24R17
  21543304.860   113210823.13309       516.394          48.700    21543301.440  
  88216207.77848       516.394          44.600  
  19993341.440   105065737.28909      -105.050          49.150    19993336.800  
  81869430.13848      -105.050          47.800  
  24222094.860   127287976.55106       309.577          38.900    24222092.860  
  99185421.60244       309.577          35.000  
  20940003.460   110040509.35609      -294.723          49.200    20940002.440  
  85745869.24548      -294.723          46.550  
  21918167.300   115180775.33409      -473.737          49.550    21918165.100  
  89751266.04948      -473.737          46.650  
  24542922.920   128973935.97306      -501.896          41.150    24542918.420  
 100499186.58544      -501.896          34.300  
  24045074.260   126357726.07407       669.756          41.900    24045070.980  
  98460550.92044       669.756          33.950  
  21409250.920   112506380.93809       495.647          48.700    21409246.840  
  87667297.72848       495.648          45.300  
  22291810.560   118827890.45807       384.497          43.000                  
                                                
  19831797.840   105826316.65409      -298.523          49.100    19831801.540  
  82309381.65908      -298.523          47.050  
  21309601.800   113872085.12208      -408.027          47.750    21309604.820  
  88567198.63408      -408.027          45.200  
  21582906.380   115211024.34208      -372.001          44.550    21582911.100  
  89608590.91508      -372.002          45.800  
  23344775.420   124703610.19107      -817.687          43.100    23344781.780  
  96991713.86007      -817.688          41.650  
  20635701.640   110309651.49308       453.652          45.750    20635706.260  
  85796416.82007       453.652          41.750  
  22979223.560   122880204.58407       836.607          43.250    22979227.760  
  95573495.25907       836.609          41.650  
  20523804.180   109827037.76308       365.914          48.050    20523805.900  
  85421050.14808       365.914          45.600  
 20 09 27 07 45  5.0000000  0 16G18G20G27G24G10G21G13G15R10R 2R11R18
                                R12R 1R24R17
  21545888.180   113224398.63409       516.889          48.850    21545884.780  
  88226786.08548       516.889          44.800  
  19992817.580   105062984.29209      -104.524          49.100    19992812.920  
  81867284.94748      -104.524          48.000  
  24223644.140   127296118.38506       310.130          38.600    24223642.140  
  99191765.84744       310.131          34.000  
  20938531.640   110032774.80609      -294.031          49.150    20938530.620  
  85739842.32048      -294.031          46.800  
  21915799.420   115168332.46309      -473.410          49.300    21915797.320  
  89741570.31648      -473.410          46.750  
  24540414.480   128960753.70606      -501.590          41.150    24540410.000  
 100488914.72644      -501.591          31.750  
  24048423.200   126375324.76707       669.815          42.000    24048419.860  
  98474264.18145       669.815          35.750  
  21411730.040   112519408.85209       495.984          48.650    21411726.000  
  87677449.34948       495.984          46.250  
  22293735.080   118838149.41307       385.282          42.800                  
                                                
  19830306.300   105818357.53509      -298.116          49.200    19830310.000  
  82303191.24108      -298.116          47.000  
  21307563.660   113861193.92808      -407.274          47.900    21307566.700  
  88558727.71608      -407.274          45.250  
  21581048.400   115201106.41408      -371.178          44.900    21581053.180  
  89600876.98608      -371.179          45.350  
  23340687.600   124681774.00606      -817.445          40.850    23340694.020  
  96974730.15306      -817.445          41.400  
  20637970.820   110321781.63008       453.994          45.600    20637975.440  
  85805851.36906       453.994          41.300  
  22983407.080   122902575.66807       836.802          43.550    22983411.240  
  95590894.98506       836.802          41.350  
  20525635.940   109836839.73908       366.756          48.250    20525637.620  
  85428673.90308       366.756          45.650  
 20 09 27 07 45 10.0000000  0 17G 8G18G20G27G24G10G21G13G15R10R 2R11
                                R18R12R 1R24R17
  24602736.720   129288249.66305       -32.069          36.850    24602736.620  
 100744091.36943       -32.068          31.050  
  21548473.940   113237986.96309       517.234          48.700    21548470.580  
  88237374.39348       517.234          44.600  
  19992296.340   105060245.05709      -104.153          49.100    19992291.640  
  81865150.47548      -104.153          48.350  
  24225196.180   127304274.76305       310.588          38.300    24225194.300  
  99198121.51944       310.587          34.800  
  20937063.200   110025057.96509      -293.528          49.100    20937062.160  
  85733829.20448      -293.528          46.850  
  21913432.940   115155897.02609      -473.306          49.250    21913430.980  
  89731880.36748      -473.306          46.750  
  24537907.600   128947579.47906      -501.366          41.300    24537903.100  
 100478649.06844      -501.366          34.800  
  24051772.740   126392926.67607       669.858          41.750    24051769.400  
  98487979.96945       669.858          36.000  
  21414210.880   112532446.01909       496.187          48.700    21414206.920  
  87687608.18148       496.187          45.600  
  22295663.500   118848429.26207       385.897          43.050                  
                                                
  19828816.920   105810409.65109      -297.835          49.150    19828820.580  
  82297009.55408      -297.835          46.850  
  21305529.280   113850322.77008      -406.677          47.800    21305532.300  
  88550272.37708      -406.677          44.850  
  21579194.500   115191210.12208      -370.545          44.600    21579199.260  
  89593179.87008      -370.545          45.000  
  23336600.600   124659941.69506      -817.555          39.400    23336606.980  
  96957749.47806      -817.555          41.300  
  20640241.640   110333920.48308       454.188          45.450    20640246.260  
  85815292.69706       454.188          41.100  
  22987591.540   122924952.07507       836.799          42.550    22987595.720  
  95608298.83906       836.800          41.200  
  20527471.840   109846663.92508       367.429          48.100    20527473.500  
  85436314.93508       367.429          45.550  
