     2.11           OBSERVATION DATA    M                   RINEX VERSION / TYPE
LEICA GEO OFFICE 8.4                    1-10-20 21:39       PGM / RUN BY / DATE
                                                            OBSERVER / AGENCY
BOL1                                                        MARKER NAME
BOL1                                                        MARKER NUMBER
352348              LEICA GX1220GG      4.10                REC # / TYPE / VERS
                    LEIAX1202GG                             ANT # / TYPE
 -1239708.0866  3756482.0273  4987630.9024                  APPROX POSITION XYZ
        1.5900        0.0000        0.0000                  ANTENNA: DELTA H/E/N
L1PhaOff:   0.0644  L2PhaOff:   0.0640                      COMMENT
     1     1                                                WAVELENGTH FACT L1/2
     6    C1    L1    D1    P2    L2    D2                  # / TYPES OF OBSERV
  2020    10     1     7    25    5.0000000     GPS         TIME OF FIRST OBS
  2020    10     1     9     1   20.0000000     GPS         TIME OF LAST OBS
    18                                                      LEAP SECONDS
    21                                                      # OF SATELLITES
          C1    L1    D1    P2    L2    D2                  COMMENT
   G 1     0     0     0     0     0     0                  PRN / # OF OBS
   G 2     0     0     0     0     0     0                  PRN / # OF OBS
   G 3     0     0     0     0     0     0                  PRN / # OF OBS
   G 4     0     0     0     0     0     0                  PRN / # OF OBS
   G 5     0     0     0     0     0     0                  PRN / # OF OBS
   G 6     0     0     0     0     0     0                  PRN / # OF OBS
   G 7     0     0     0     0     0     0                  PRN / # OF OBS
   G 8   246   246   246   244   244   244                  PRN / # OF OBS
   G 9     0     0     0     0     0     0                  PRN / # OF OBS
   G10  1156  1156  1156  1156  1156  1156                  PRN / # OF OBS
   G11   282   282   282   221   221   221                  PRN / # OF OBS
   G12   195   195   195   190   190   190                  PRN / # OF OBS
   G13   146   146   146   117   117   117                  PRN / # OF OBS
   G14     0     0     0     0     0     0                  PRN / # OF OBS
   G15  1017  1017  1017  1008  1008  1008                  PRN / # OF OBS
   G16     0     0     0     0     0     0                  PRN / # OF OBS
   G17     0     0     0     0     0     0                  PRN / # OF OBS
   G18   897   897   897   897   897   897                  PRN / # OF OBS
   G19     0     0     0     0     0     0                  PRN / # OF OBS
   G20  1156  1156  1156  1156  1156  1156                  PRN / # OF OBS
   G21  1079  1079  1079  1071  1071  1071                  PRN / # OF OBS
   G22     0     0     0     0     0     0                  PRN / # OF OBS
   G23     0     0     0     0     0     0                  PRN / # OF OBS
   G24  1156  1156  1156  1156  1156  1156                  PRN / # OF OBS
   G25     0     0     0     0     0     0                  PRN / # OF OBS
   G26     0     0     0     0     0     0                  PRN / # OF OBS
   G27   335   335   335   335   335   335                  PRN / # OF OBS
   G28     0     0     0     0     0     0                  PRN / # OF OBS
   G29     0     0     0     0     0     0                  PRN / # OF OBS
   G30     0     0     0     0     0     0                  PRN / # OF OBS
   G31     0     0     0     0     0     0                  PRN / # OF OBS
   G32  1022  1022  1022  1022  1022  1022                  PRN / # OF OBS
   R 1     0     0     0     0     0     0                  PRN / # OF OBS
   R 2     0     0     0     0     0     0                  PRN / # OF OBS
   R 3     0     0     0     0     0     0                  PRN / # OF OBS
   R 4     0     0     0     0     0     0                  PRN / # OF OBS
   R 5  1146  1146  1146  1140  1140  1140                  PRN / # OF OBS
   R 6  1156  1156  1156     0     0     0                  PRN / # OF OBS
   R 7   863   863   863   857   857   857                  PRN / # OF OBS
   R 8     0     0     0     0     0     0                  PRN / # OF OBS
   R 9     0     0     0     0     0     0                  PRN / # OF OBS
   R10     0     0     0     0     0     0                  PRN / # OF OBS
   R11     0     0     0     0     0     0                  PRN / # OF OBS
   R12     0     0     0     0     0     0                  PRN / # OF OBS
   R13     0     0     0     0     0     0                  PRN / # OF OBS
   R14   588   588   588   588   588   588                  PRN / # OF OBS
   R15  1156  1156  1156  1156  1156  1156                  PRN / # OF OBS
   R16  1007  1007  1007  1007  1007  1007                  PRN / # OF OBS
   R17     0     0     0     0     0     0                  PRN / # OF OBS
   R18     0     0     0     0     0     0                  PRN / # OF OBS
   R19     0     0     0     0     0     0                  PRN / # OF OBS
   R20     0     0     0     0     0     0                  PRN / # OF OBS
   R21   901   901   901   902   902   902                  PRN / # OF OBS
   R22  1091  1091  1091  1010  1010  1010                  PRN / # OF OBS
   R23   252   252   252   178   178   178                  PRN / # OF OBS
   R24     0     0     0     0     0     0                  PRN / # OF OBS
                                                            END OF HEADER
 20 10 01 07 25  5.0000000  0 15G 8G27G15G18G21G24G20G10G13R14R 6R21
                                R15R22R 5
  24614953.632   129352446.95545       202.477    24614962.909   100794139.63654
       157.772  
  24257689.733   127475003.96446     -1611.293    24257691.579    99331189.29849
     -1255.550  
  21175481.254   111277939.33849     -2434.809    21175480.687    86710081.68849
     -1897.258  
  21529036.602   113135859.00849     -2653.101    21529035.835    88157821.29146
     -2067.355  
  24848781.389   130581239.11345      2719.285    24848782.055   101751607.92245
      2118.921  
  20990859.466   110307715.91849      1774.465    20990860.504    85954090.81049
      1382.694  
  20042459.496   105323837.21549       702.905    20042458.551    82070542.94748
       547.719  
  22092168.041   116095151.76049      2611.144    22092170.647    90463764.20849
      2034.656  
  23719232.087   124645397.62246     -3464.729    23719230.878    97126282.23944
     -2699.788  
  21955145.136   117033280.42908     -1651.137    21955151.973    91025931.34907
     -1284.227  
  20170418.739   107633229.74307      2077.562           0.000           0.0000 
         0.000  
  20670223.924   110610543.63708     -1660.780    20670229.171    86030451.09608
     -1291.718  
  21179921.402   113179082.10808      2228.488    21179925.917    88028216.35908
      1733.265  
  21846667.062   116618989.21605      2267.550    21846671.234    90703684.73603
      1763.651  
  20010987.488   106970221.16809     -1837.957    20010991.576    83199100.20408
     -1429.527  
 20 10 01 07 25 10.0000000  0 15G 8G27G15G18G21G24G20G10G13R14R 6R21
                                R15R22R 5
  24614763.501   129351443.71845       198.688    24614771.629   100793383.97152
       154.819  
  24259224.030   127483066.84346     -1614.007    24259226.006    99337472.05149
     -1257.672  
  21177798.876   111290118.70849     -2436.964    21177798.452    86719572.11249
     -1898.934  
  21531562.183   113149131.56048     -2655.883    21531561.438    88168163.52746
     -2069.523  
  24846194.641   130567645.63045      2718.492    24846195.560   101741015.53543
      2118.026  
  20989172.860   110298852.77049      1770.805    20989173.879    85947184.45649
      1379.848  
  20041792.141   105320330.70949       699.847    20041791.362    82067810.60848
       545.335  
  22089684.337   116082099.21349      2609.699    22089686.781    90453593.38149
      2033.527  
  23722529.034   124662722.97946     -3465.973    23722527.941    97139782.53843
     -2700.754  
  21956696.075   117041547.62208     -1655.772    21956702.723    91032361.37307
     -1287.831  
  20168473.179   107622847.57807      2075.219           0.000           0.0000 
         0.000  
  20671778.193   110618860.66008     -1665.789    20671783.224    86036919.88508
     -1295.612  
  21177838.157   113167950.06608      2224.375    21177842.801    88019558.12108
      1730.069  
  21844544.536   116607659.06205      2263.449    21844549.012    90694872.41303
      1760.460  
  20012707.609   106979416.63809     -1840.194    20012711.757    83206252.24108
     -1431.262  
 20 10 01 07 25 15.0000000  0 15G 8G27G15G18G21G24G20G10G13R14R 6R21
                                R15R22R 5
  24614576.381   129350456.58246       195.719    24614589.247   100792614.61545
       152.500  
  24260760.930   127491143.80445     -1616.910    24260762.886    99343765.75449
     -1259.937  
  21180118.405   111302307.60349     -2438.641    21180117.683    86729069.94649
     -1900.242  
  21534090.266   113162416.69548     -2658.171    21534089.568    88178515.57746
     -2071.305  
  24843609.134   130554058.97845      2717.078    24843610.051   101730428.52444
      2117.206  
  20987489.488   110290006.15549      1767.813    20987490.474    85940291.00549
      1377.515  
  20041127.420   105316837.51449       697.250    20041126.644    82065088.63348
       543.308  
  22087201.759   116069053.36349      2608.637    22087204.135    90443427.79949
      2032.702  
  23725826.674   124680051.75745     -3466.117    23725825.401    97153285.45843
     -2700.871  
  21958250.960   117049835.97008     -1659.715    21958257.465    91038807.88507
     -1290.890  
  20166529.468   107612475.34607      2073.621           0.000           0.0000 
         0.000  
  20673336.702   110627200.27208     -1670.058    20673341.790    86043406.23907
     -1298.937  
  21175758.456   113156837.71508      2220.632    21175763.341    88010915.20108
      1727.159  
  21842425.781   116596349.31305      2259.953    21842430.287    90686075.94903
      1757.742  
  20014429.779   106988622.28409     -1842.042    20014433.877    83213412.18108
     -1432.766  
 20 10 01 07 25 20.0000000  0 15G 8G27G15G18G21G24G20G10G13R14R 6R21
                                R15R22R 5
  24614391.738   129349485.99745       192.094    24614406.304   100791858.27644
       149.663  
  24262300.737   127499235.23746     -1619.336    24262302.675    99350070.77749
     -1261.820  
  21182439.838   111314506.38049     -2440.589    21182439.139    86738575.48149
     -1901.761  
  21536620.826   113175714.75149     -2660.656    21536620.134    88188877.69946
     -2073.241  
  24841025.129   130540479.72144      2715.617    24841026.087   101719847.34144
      2116.070  
  20985809.148   110281176.34849      1764.394    20985810.019    85933410.63549
      1374.847  
  20040465.360   105313358.05649       694.679    20040464.603    82062377.37448
       541.308  
  22084720.524   116056014.60649      2607.202    22084722.980    90433267.72849
      2031.582  
  23729124.976   124697384.48145     -3466.968    23729123.946    97166791.38841
     -2701.559  
  21959810.009   117058145.98408     -1663.941    21959816.526    91045271.21107
     -1294.179  
  20164587.605   107602113.31607      2071.538           0.000           0.0000 
         0.000  
  20674899.380   110635562.91708     -1674.585    20674904.431    86049910.52207
     -1302.457  
  21173682.733   113145745.45908      2216.499    21173687.476    88002287.87808
      1723.941  
  21840311.104   116585060.30505      2255.641    21840315.565    90677295.60903
      1754.383  
  20016153.830   106997838.48009     -1844.086    20016157.936    83220580.34208
     -1434.289  
 20 10 01 07 25 25.0000000  0 15G 8G27G15G18G21G24G20G10G13R14R 6R21
                                R15R22R 5
  24614210.408   129348532.03845       187.589    24614224.222   100791114.93045
       146.180  
  24263843.214   127507341.19446     -1623.905    24263845.373    99356387.11849
     -1265.383  
  21184763.181   111326715.00649     -2444.054    21184762.287    86748088.69749
     -1904.457  
  21539153.877   113189025.74149     -2664.852    21539153.117    88199249.90446
     -2076.508  
  24838442.452   130526907.81845      2711.999    24838443.340   101709271.86444
      2113.246  
  20984132.045   110272363.48849      1759.441    20984132.995    85926543.47249
      1370.987  
  20039805.786   105309892.31149       690.343    20039805.017    82059676.79548
       537.929  
  22082240.620   116042982.93549      2604.129    22082243.250    90423113.17749
      2029.190  
  23732423.994   124714720.90545     -3468.879    23732422.766    97180300.37641
     -2703.015  
  21961373.213   117066477.64608     -1670.042    21961379.403    91051751.38907
     -1298.925  
  20162647.617   107591761.66807      2067.901           0.000           0.0000 
         0.000  
  20676466.583   110643948.46008     -1680.823    20676471.395    86056432.61408
     -1307.313  
  21171610.751   113134673.35508      2211.062    21171615.678    87993676.24008
      1719.714  
  21838200.109   116573791.95305      2250.136    21838204.811    90668531.33303
      1750.102  
  20017879.937   107007065.22709     -1847.862    20017883.869    83227756.69708
     -1437.227  
 20 10 01 07 25 30.0000000  0 15G 8G27G15G18G21G24G20G10G13R14R 6R21
                                R15R22R 5
  24614033.952   129347605.37945       184.434    24614048.590   100790392.81245
       143.711  
  24265390.474   127515472.37946     -1626.972    24265392.738    99362723.10049
     -1267.769  
  21187090.315   111338944.24049     -2445.987    21187089.340    86757617.96449
     -1905.968  
  21541691.487   113202360.37949     -2667.339    21541690.804    88209640.52646
     -2078.448  
  24835863.380   130513354.01845      2710.964    24835864.135   101698710.42041
      2112.613  
  20982460.271   110263578.13049      1756.211    20982461.108    85919697.75049
      1368.476  
  20039150.963   105306451.03949       687.612    20039150.296    82056995.28948
       535.800  
  22079764.326   116029969.07949      2602.895    22079766.705    90412972.51749
      2028.230  
  23735725.736   124732071.83345     -3470.059    23735724.837    97193820.49644
     -2703.952  
  21962942.359   117074841.76608     -1674.125    21962948.332    91058256.81407
     -1302.102  
  20160711.578   107581430.96907      2066.063           0.000           0.0000 
         0.000  
  20678039.910   110652367.93208     -1685.366    20678044.856    86062981.08807
     -1310.840  
  21169544.584   113123632.38208      2207.124    21169549.428    87985088.81808
      1716.652  
  21836095.204   116562555.36205      2245.866    21836099.868    90659791.78103
      1746.785  
  20019609.993   107016313.46109     -1849.776    20019613.905    83234949.76808
     -1438.718  
 20 10 01 07 25 35.0000000  0 15G 8G27G15G18G21G24G20G10G13R14R 6R21
                                R15R22R 5
  24613858.704   129346684.82245       183.558    24613873.928   100789675.47246
       143.020  
  24266938.512   127523607.50046     -1627.262    24266940.792    99369062.15449
     -1267.999  
  21189417.269   111351172.80749     -2445.581    21189416.398    86767146.72249
     -1905.648  
  21544229.481   113215697.41149     -2667.675    21544228.954    88220033.01146
     -2078.711  
  24833283.572   130499797.06645      2711.508    24833284.304   101688146.59943
      2112.862  
  20980789.654   110254799.07149      1755.229    20980790.464    85912856.92949
      1367.710  
  20038496.522   105303012.98949       687.266    20038496.040    82054316.28448
       535.527  
  22077287.102   116016951.83549      2603.651    22077289.673    90402829.20549
      2028.820  
  23739026.151   124749415.97545     -3468.800    23739024.980    97207335.53042
     -2702.952  
  21964513.616   117083216.85608     -1676.132    21964519.473    91064770.75607
     -1303.663  
  20158775.571   107571099.91107      2066.132           0.000           0.0000 
         0.000  
  20679615.646   110660799.48508     -1687.629    20679620.276    86069538.96207
     -1312.605  
  21167480.057   113112600.83508      2205.383    21167485.034    87976508.73508
      1715.296  
  21833992.012   116551328.75405      2244.362    21833996.730    90651059.97003
      1745.617  
  20021340.053   107025561.56409     -1849.680    20021343.939    83242142.73708
     -1438.644  
 20 10 01 07 25 40.0000000  0 15G 8G27G15G18G21G24G20G10G13R14R 6R21
                                R15R22R 5
  24613685.711   129345775.95345       180.550    24613701.218   100788967.25445
       140.679  
  24268488.443   127531752.25646     -1630.108    24268490.583    99375408.72648
     -1270.214  
  21191745.362   111363406.39649     -2447.573    21191744.442    86776679.39149
     -1907.199  
  21546768.971   113229042.52148     -2670.129    21546768.290    88230431.79646
     -2080.624  
  24830704.172   130486242.63105      2710.034           0.000           0.0000 
         0.000  
  20979121.326   110246032.13749      1751.805    20979122.256    85906025.55049
      1365.042  
  20037843.959   105299583.87749       684.554    20037843.509    82051644.24748
       533.414  
  22074810.453   116003936.89149      2602.472    22074812.891    90392687.69449
      2027.898  
  23742326.656   124766759.06046     -3468.988    23742325.814    97220849.51841
     -2703.117  
  21966087.979   117091608.65908     -1680.331    21966093.753    91071297.70807
     -1306.929  
  20156840.721   107560774.33607      2064.116           0.000           0.0000 
         0.000  
  20681194.781   110669249.19308     -1692.000    20681199.318    86076110.94407
     -1316.004  
  21165418.572   113101584.53608      2201.395    21165423.499    87967940.50308
      1712.190  
  21831892.080   116540118.10905      2240.495    21831896.760    90642340.59303
      1742.609  
  20023071.191   107034815.20709     -1851.621    20023075.189    83249340.01208
     -1440.137  
 20 10 01 07 25 45.0000000  0 14G 8G27G15G18G24G20G10G13R14R 6R21R15
                                R22R 5
  24613515.597   129344883.06045       176.918    24613531.901   100788271.58845
       137.870  
  24270040.896   127539910.85846     -1633.215    24270043.302    99381766.07149
     -1272.641  
  21194075.152   111375649.24049     -2449.730    21194074.193    86786219.26949
     -1908.887  
  21549310.773   113242399.93748     -2672.917    21549310.318    88240840.16246
     -2082.796  
  20977456.014   110237281.42849      1748.605    20977457.006    85899206.82049
      1362.550  
  20037193.885   105296167.93049       681.733    20037193.408    82048982.47348
       531.222  
  22072335.138   115990928.46349      2600.980    22072337.568    90382551.25549
      2026.734  
  23745627.600   124784105.29345     -3470.098    23745626.864    97234366.14043
     -2703.969  
  21967666.231   117100021.41307     -1684.863    21967671.912    91077840.96207
     -1310.453  
  20154907.522   107550458.32407      2062.164           0.000           0.0000 
         0.000  
  20682778.048   110677721.16708     -1696.730    20682782.686    86082700.24607
     -1319.683  
  21163360.602   113090587.87008      2197.379    21163365.577    87959387.54008
      1709.070  
  21829795.628   116528927.60505      2235.848    21829800.449    90633636.87703
      1738.991  
  20024804.025   107044078.82109     -1853.835    20024808.103    83256545.04908
     -1441.812  
 20 10 01 07 25 50.0000000  0 15G 8G27G15G18G21G24G20G10G13R14R 6R21
                                R15R22R 5
  24613348.701   129344007.36145       174.680    24613365.153   100787589.18844
       136.098  
  24271596.375   127548084.51845     -1634.983    24271598.692    99388135.16349
     -1274.019  
  21196406.877   111387902.53849     -2450.801    21196405.885    86795767.28549
     -1909.719  
  21551855.219   113255770.80848     -2674.534    21551854.756    88251259.02346
     -2084.059  
  24825549.603   130459143.47455      2708.289    24825550.073   101656475.87054
      2110.379  
  20975794.132   110228548.30049      1745.801    20975795.177    85892401.78449
      1360.359  
  20036546.678   105292766.33549       679.914    20036546.006    82046331.87448
       529.801  
  22069861.167   115977927.78149      2600.293    22069863.483    90372420.85349
      2026.198  
  23748929.092   124801455.99845     -3470.003    23748928.316    97247886.09844
     -2703.906  
  21969248.616   117108456.32108     -1688.054    21969254.437    91084401.44407
     -1312.934  
  20152976.337   107540153.17807      2060.773           0.000           0.0000 
         0.000  
  20684365.610   110686216.72108     -1700.573    20684370.107    86089307.88507
     -1322.672  
  21161306.581   113079611.96408      2193.938    21161311.515    87950850.74208
      1706.395  
  21827703.311   116517758.55205      2232.546    21827708.108    90624949.83103
      1736.421  
  20026539.079   107053353.52409     -1854.968    20026542.947    83263758.70508
     -1442.758  
 20 10 01 07 25 55.0000000  0 15G 8G27G15G18G21G24G20G10G13R14R 6R21
                                R15R22R 5
  24613184.491   129343144.21445       170.171    24613200.660   100786916.49345
       132.594  
  24273153.674   127556268.58445     -1638.863    24273156.007    99394512.35749
     -1277.034  
  21198739.714   111400161.64949     -2453.249    21198738.550    86805319.84549
     -1911.624  
  21554401.348   113269150.52448     -2677.683    21554400.680    88261684.77946
     -2086.507  
  24822973.715   130445607.18245      2706.011    24822974.557   101645928.03143
      2108.581  
  20974134.744   110219828.06649      1741.832    20974135.825    85885606.79349
      1357.272  
  20035901.178   105289374.49349       676.543    20035900.596    82043688.87448
       527.171  
  22067387.912   115964930.21049      2598.281    22067390.158    90362292.87449
      2024.629  
  23752230.869   124818806.39545     -3471.327    23752229.743    97261405.88741
     -2704.925  
  21970834.182   117116908.77707     -1693.055    21970840.035    91090975.57507
     -1316.823  
  20151046.266   107529854.32807      2058.258           0.000           0.0000 
         0.000  
  20685956.873   110694731.07408     -1705.707    20685961.353    86095930.16307
     -1326.660  
  21159255.733   113068652.22708      2189.335    21159260.601    87942326.49708
      1702.816  
  21825614.173   116506606.21605      2227.934    21825618.938    90616275.79703
      1732.835  
  20028275.266   107062634.75109     -1857.890    20028279.245    83270977.43608
     -1445.030  
 20 10 01 07 26  0.0000000  0 14G 8G27G15G18G24G20G10G13R14R 6R21R15
                                R22R 5
  24613024.120   129342302.30145       167.633    24613040.240   100786260.56644
       130.616  
  24274714.627   127564471.69745     -1641.917    24274716.965    99400904.37549
     -1279.421  
  21201075.413   111412435.23749     -2455.652    21201074.157    86814883.67149
     -1913.499  
  21556950.676   113282547.77348     -2680.663    21556950.212    88272124.18846
     -2088.871  
  20972479.340   110211129.29849      1738.270    20972480.628    85878828.53949
      1354.495  
  20035259.294   105286001.08649       673.417    20035258.834    82041060.24848
       524.738  
  22064916.751   115951944.45049      2596.383    22064919.264    90352174.10149
      2023.151  
  23755534.161   124836165.24745     -3473.250    23755533.369    97274932.30743
     -2706.426  
  21972424.809   117125387.43707     -1697.742    21972430.777    91097570.09307
     -1320.464  
  20149119.095   107519570.54307      2055.852           0.000           0.0000 
         0.000  
  20687553.013   110703272.99808     -1710.688    20687557.413    86102573.87907
     -1330.534  
  21157209.370   113057717.49108      2185.026    21157214.250    87933821.71608
      1699.465  
  21823529.731   116495479.48105      2222.707    21823534.538    90607621.68903
      1728.772  
  20030014.430   107071931.14309     -1860.155    20030018.176    83278207.96008
     -1446.792  
 20 10 01 07 26  5.0000000  0 14G 8G27G15G18G24G20G10G13R14R 6R21R15
                                R22R 5
  24612866.519   129341474.50945       164.254    24612883.267   100785615.44544
       127.996  
  24276277.842   127572686.85745     -1644.409    24276280.178    99407305.84749
     -1281.355  
  21203412.440   111424716.27249     -2456.996    21203411.252    86824453.30949
     -1914.547  
  21559502.132   113295955.45348     -2682.645    21559501.516    88282571.72646
     -2090.375  
  20970826.779   110202445.02749      1735.203    20970828.137    85872061.58549
      1352.105  
  20034619.526   105282639.05149       671.137    20034619.035    82038440.47248
       522.961  
  22062446.508   115938963.42449      2595.531    22062449.132    90342059.01049
      2022.487  
  23758837.538   124853525.33146     -3472.105    23758837.476    97288459.57341
     -2705.543  
  21974019.021   117133885.23007     -1701.660    21974024.766    91104179.47907
     -1323.515  
  20147193.417   107509294.63107      2054.171           0.000           0.0000 
         0.000  
  20689153.268   110711835.32108     -1714.511    20689157.518    86109233.46707
     -1333.512  
  21155166.361   113046800.48608      2181.410    21155171.207    87925330.71508
      1696.652  
  21821448.784   116484371.15205      2219.445    21821453.485    90598981.88403
      1726.234  
  20031754.932   107081235.65609     -1861.770    20031758.848    83285444.81308
     -1448.065  
 20 10 01 07 26 10.0000000  0 14G 8G27G15G18G24G20G10G13R14R 6R21R15
                                R22R 5
  24612711.460   129340661.20245       161.160    24612728.437   100784981.87942
       125.586  
  24277843.565   127580914.12746     -1646.367    24277845.746    99413716.68149
     -1282.886  
  21205750.795   111437004.91149     -2458.647    21205749.572    86834028.87049
     -1915.832  
  21562055.462   113309373.75748     -2684.858    21562054.993    88293027.53946
     -2092.147  
  20969176.890   110193775.55449      1732.285    20969178.598    85865306.15449
      1349.831  
  20033981.842   105279288.62649       668.824    20033981.457    82035829.75748
       521.156  
  22059977.276   115925987.36549      2594.492    22059979.695    90331947.80049
      2021.684  
  23762141.520   124870887.02846     -3472.520    23762142.618    97301988.17341
     -2705.862  
  21975616.812   117142402.29707     -1705.562    21975622.452    91110803.87907
     -1326.546  
  20145269.197   107499026.71507      2052.586           0.000           0.0000 
         0.000  
  20690757.222   110720418.24708     -1718.753    20690761.441    86115909.06707
     -1336.813  
  21153126.672   113035901.47708      2177.813    21153131.504    87916853.72008
      1693.855  
  21819371.090   116473281.49705      2215.769    21819376.229    90590356.59503
      1723.375  
  20033497.121   107090548.46709     -1863.456    20033501.203    83292688.10208
     -1449.359  
 20 10 01 07 26 15.0000000  0 14G 8G27G15G18G24G20G10G13R14R 6R21R15
                                R22R 5
  24612559.386   129339863.57545       158.147    24612577.616   100784360.26443
       123.219  
  24279411.793   127589155.03245     -1649.242    24279414.055    99420138.17549
     -1285.129  
  21208091.042   111449302.48849     -2460.160    21208089.836    86843611.39249
     -1917.011  
  21564611.276   113322804.02848     -2686.992    21564610.617    88303492.67146
     -2093.765  
  20967530.268   110185122.06049      1729.351    20967531.994    85858563.17849
      1347.547  
  20033346.821   105275951.13249       666.445    20033346.536    82033229.11248
       519.305  
  22057509.183   115913017.60649      2593.707    22057511.762    90321841.49649
      2021.069  
  23765445.746   124888251.57345     -3472.738    23765447.002    97315518.98041
     -2706.039  
  21977218.297   117150939.95407     -1709.449    21977224.221    91117444.27207
     -1329.574  
  20143346.889   107488768.25807      2051.226           0.000           0.0000 
         0.000  
  20692365.317   110729023.14008     -1722.730    20692369.247    86122601.76507
     -1339.905  
  21151090.552   113025021.87908      2174.124    21151095.472    87908391.82808
      1690.984  
  21817297.223   116462211.83605      2211.840    21817302.532    90581746.86203
      1720.316  
  20035240.986   107099870.82809     -1865.332    20035244.971    83299938.83208
     -1450.812  
 20 10 01 07 26 20.0000000  0 15G 8G27G15G18G21G24G20G10G13R14R 6R21
                                R15R22R 5
  24612410.629   129339081.10145       154.695    24612428.700   100783750.35344
       120.526  
  24280982.400   127597408.75746     -1651.734    24280984.549    99426569.64748
     -1287.065  
  21210432.802   111461608.36849     -2462.120    21210431.577    86853200.39849
     -1918.538  
  21567168.997   113336245.66148     -2689.531    21567168.456    88313966.68746
     -2095.737  
  24810116.256   130378040.59455      2698.929    24810118.526   101593286.48451
      2103.242  
  20965886.499   110176484.18249      1725.854    20965888.336    85851832.36349
      1344.823  
  20032713.917   105272625.98049       663.629    20032713.818    82030638.08348
       517.109  
  22055042.216   115900053.57649      2592.062    22055044.806    90311739.65949
      2019.785  
  23768750.596   124905618.33145     -3473.671    23768751.476    97329051.52743
     -2706.762  
  21978823.847   117159497.66007     -1713.558    21978829.604    91124100.27307
     -1332.769  
  20141426.007   107478518.74807      2048.909           0.000           0.0000 
         0.000  
  20693977.245   110737649.42408     -1727.608    20693981.354    86129311.08607
     -1343.698  
  21149058.166   113014161.11708      2170.207    21149063.063    87899944.55708
      1687.938  
  21815227.019   116451161.50704      2208.042    21815232.571    90573152.17303
      1717.367  
  20036986.741   107109202.20009     -1867.168    20036990.673    83307196.56608
     -1452.241  
 20 10 01 07 26 25.0000000  0 14G 8G27G15G18G24G20G10G13R14R 6R21R15
                                R22R 5
  24612262.377   129338303.06404       157.480           0.000           0.0000 
         0.000  
  24282553.583   127605664.87846     -1649.199    24282555.785    99433003.00149
     -1285.089  
  21212774.158   111473912.02449     -2458.207    21212772.813    86862787.64749
     -1915.487  
  21569727.092   113349688.07448     -2686.469    21569726.488    88324441.27946
     -2093.354  
  20964243.659   110167851.21949      1728.261    20964245.638    85845105.38249
      1346.699  
  20032081.605   105269302.59549       666.500    20032081.354    82028048.43548
       519.351  
  22052574.269   115887084.70849      2596.378    22052577.101    90301634.04049
      2023.148  
  23772053.711   124922976.84745     -3468.972    23772054.301    97342577.63941
     -2703.098  
  21980431.034   117168064.68007     -1712.336    21980436.617    91130763.50107
     -1331.820  
  20139504.966   107468267.30207      2052.746           0.000           0.0000 
         0.000  
  20695591.277   110746286.25208     -1726.320    20695595.175    86136028.60107
     -1342.698  
  21147027.115   113003308.45308      2172.011    21147032.103    87891503.61808
      1689.344  
  21813158.676   116440120.02105      2209.144    21813164.018    90564564.35903
      1718.222  
  20038731.883   107118531.86209     -1863.613    20038735.857    83314452.96308
     -1449.479  
 20 10 01 07 26 30.0000000  0 14G 8G27G15G18G24G20G10G13R14R 6R21R15
                                R22R 5
  24612116.146   129337535.42705       150.082           0.000           0.0000 
         0.000  
  24284126.437   127613929.09245     -1656.882    24284128.178    99439442.65748
     -1291.074  
  21215116.096   111486219.21249     -2464.707    21215114.787    86872377.67349
     -1920.551  
  21572286.317   113363137.04448     -2693.367    21572285.529    88334920.99746
     -2098.730  
  20962602.706   110159228.98649      1720.327    20962604.903    85838386.75449
      1340.511  
  20031450.621   105265986.75049       659.503    20031450.322    82025464.65048
       513.894  
  22050106.543   115874116.81449      2590.628    22050109.362    90291529.18549
      2018.668  
  23775356.385   124940332.82945     -3473.555    23775357.068    97356101.82643
     -2706.671  
  21982041.015   117176646.88107     -1721.030    21982046.518    91137438.54507
     -1338.581  
  20137584.499   107458019.91307      2046.266           0.000           0.0000 
         0.000  
  20697208.305   110754939.54408     -1735.332    20697212.109    86142758.94907
     -1349.706  
  21144998.638   112992469.79008      2163.313    21145003.806    87883073.53107
      1682.574  
  21811092.930   116429093.02205      2200.582    21811098.094    90555987.80703
      1711.562  
  20040477.926   107127865.74208     -1870.004    20040482.049    83321712.64508
     -1454.452  
 20 10 01 07 26 35.0000000  0 14G 8G27G15G18G24G20G10G13R14R 6R21R15
                                R22R 5
  24611976.211   129336800.81345       144.968    24611976.139   100781898.97053
       112.956  
  24285704.964   127622224.21746     -1660.925    24285706.545    99445906.36948
     -1294.233  
  21217463.002   111498552.66149     -2468.148    21217461.863    86881988.14949
     -1923.238  
  21574851.061   113376615.39948     -2697.258    21574850.413    88345423.61345
     -2101.758  
  20960968.390   110150640.15948      1715.851    20960970.733    85831694.16049
      1337.027  
  20030825.547   105262701.27849       655.265    20030825.160    82022904.56048
       510.597  
  22047643.397   115861172.64249      2587.831    22047645.996    90281442.83149
      2016.492  
  23778662.932   124957708.97745     -3475.652    23778663.595    97369641.59243
     -2708.301  
  21983658.249   117185267.30507     -1726.515    21983663.683    91144143.30107
     -1342.848  
  20135669.253   107447799.38707      2042.694           0.000           0.0000 
         0.000  
  20698832.776   110763632.44508     -1741.253    20698836.729    86149520.09807
     -1354.312  
  21142977.294   112981668.31107      2157.890    21142982.472    87874672.44507
      1678.367  
  21809034.047   116418103.84904      2195.515    21809039.528    90547440.67303
      1707.624  
  20042229.085   107137226.78708     -1873.578    20042233.287    83328993.46008
     -1457.227  
 20 10 01 07 26 40.0000000  0 14G 8G27G15G18G24G20G10G13R14R 6R21R15
                                R22R 5
  24611840.127   129336085.59845       142.062    24611840.418   100781341.65445
       110.699  
  24287286.799   127630536.46846     -1663.784    24287288.243    99452383.40748
     -1296.464  
  21219812.405   111510898.63649     -2469.901    21219811.124    86891608.38649
     -1924.601  
  21577418.835   113390109.23548     -2699.793    21577418.186    88355938.27746
     -2103.741  
  20959337.506   110142070.99248      1712.516    20959339.970    85825016.89849
      1334.429  
  20030203.499   105259432.36349       652.554    20030203.189    82020357.35148
       508.480  
  22045182.176   115848238.43349      2586.406    22045184.818    90271364.21849
      2015.379  
  23781970.853   124975091.56445     -3476.785    23781971.284    97383197.43552
     -2709.183  
  21985279.938   117193912.00507     -1730.792    21985285.246    91150866.94707
     -1346.175  
  20133756.416   107437592.18807      2040.668           0.000           0.0000 
         0.000  
  20700462.112   110772351.00808     -1745.788    20700465.927    86156301.17907
     -1357.844  
  21140960.060   112970889.97908      2154.164    21140965.454    87866289.29907
      1675.461  
  21806979.798   116407138.47205      2191.422    21806985.419    90538912.01803
      1704.430  
  20043982.853   107146601.11908     -1875.589    20043986.958    83336284.61208
     -1458.797  
 20 10 01 07 26 45.0000000  0 14G 8G27G15G18G24G20G10G13R14R 6R21R15
                                R22R 5
  24611706.338   129335383.81344       139.132    24611709.806   100780794.78844
       108.398  
  24288870.674   127638859.60345     -1665.605    24288872.011    99458868.95248
     -1297.879  
  21222162.902   111523250.99049     -2470.929    21222161.617    86901233.60849
     -1925.398  
  21579988.324   113403612.45948     -2701.468    21579987.763    88366460.26546
     -2105.043  
  20957709.491   110133515.61948      1709.983    20957712.154    85818350.38749
      1332.457  
  20029583.375   105256173.90249       650.956    20029583.145    82017818.28048
       507.234  
  22042721.693   115835308.10149      2585.944    22042724.127    90261288.63349
      2015.019  
  23785278.661   124992474.52546     -3476.120    23785279.319    97396742.72043
     -2708.667  
  21986904.901   117202574.75507     -1733.862    21986910.411    91157604.64907
     -1348.558  
  20131844.947   107427392.03307      2039.702           0.000           0.0000 
         0.000  
  20702094.787   110781088.90608     -1749.227    20702098.739    86163097.32907
     -1360.507  
  21138946.233   112960128.63308      2150.789    21138951.545    87857919.32107
      1672.827  
  21804928.937   116396190.61605      2187.375    21804934.526    90530397.02803
      1701.289  
  20045737.753   107155982.62408     -1876.733    20045742.095    83343581.32608
     -1459.687  
 20 10 01 07 26 50.0000000  0 13G27G15G18G24G20G10G13R14R 6R21R15R22
                                R 5
  24290456.447   127647192.58445     -1668.034    24290457.894    99465362.22448
     -1299.769  
  21224514.553   111535608.56149     -2472.211    21224513.082    86910862.87049
     -1926.401  
  21582559.326   113417123.88548     -2703.339    21582558.681    88376988.65145
     -2106.503  
  20956083.777   110124972.78348      1707.191    20956086.495    85811693.61649
      1330.273  
  20028965.157   105252924.73649       648.612    20028964.788    82015286.46348
       505.410  
  22040261.594   115822380.44749      2585.074    22040264.186    90251215.14749
      2014.343  
  23788586.276   125009856.66045     -3476.648    23788587.307    97410287.19144
     -2709.077  
  21988533.232   117211254.39307     -1737.824    21988538.742    91164355.48007
     -1351.645  
  20129934.393   107417197.51307      2038.147           0.000           0.0000 
         0.000  
  20703731.026   110789844.94108     -1753.426    20703734.932    86169907.58207
     -1363.776  
  21136935.430   112949383.07908      2147.199    21136940.402    87849561.68707
      1670.042  
  21802881.362   116385259.14705      2184.019    21802886.502    90521894.79003
      1698.683  
  20047493.946   107165370.01708     -1878.184    20047498.185    83350882.62608
     -1460.813  
 20 10 01 07 26 55.0000000  0 13G27G15G18G24G20G10G13R14R 6R21R15R22
                                R 5
  24292046.534   127655548.13946     -1672.917    24292047.699    99471872.99148
     -1303.582  
  21226869.634   111547984.15649     -2476.273    21226868.178    86920506.18949
     -1929.565  
  21585134.500   113430656.32848     -2707.988    21585133.753    88387533.39045
     -2110.125  
  20954463.029   110116455.25648      1701.699    20954465.725    85805056.58749
      1325.995  
  20028351.140   105249697.67949       643.797    20028350.554    82012771.86948
       501.656  
  22037804.544   115809468.30849      2581.409    22037806.955    90241153.73049
      2011.484  
  23791896.154   125027250.77745     -3479.516    23791897.384    97423843.06051
     -2711.312  
  21990166.943   117219963.80707     -1744.187    21990172.600    91171129.47607
     -1356.590  
  20128027.464   107407021.84107      2033.597           0.000           0.0000 
         0.000  
  20705373.204   110798632.13208     -1760.085    20705377.170    86176742.05807
     -1368.960  
  21134929.922   112938666.31108      2140.843    21134934.797    87841226.44207
      1665.102  
  21800838.911   116374357.06105      2178.687    21800844.163    90513415.37803
      1694.530  
  20049253.536   107174776.25308     -1882.594    20049257.890    83358198.58408
     -1464.206  
 20 10 01 07 27  0.0000000  0 13G27G15G18G24G20G10G13R14R 6R21R15R22
                                R 5
  24293638.564   127663914.93746     -1673.792    24293639.921    99478392.59248
     -1304.253  
  21229225.825   111560366.49349     -2477.022    21229224.264    86930154.74549
     -1930.151  
  21587711.402   113444198.54148     -2709.331    21587710.500    88398085.77046
     -2111.168  
  20952844.745   110107951.64648      1699.402    20952847.634    85798430.39949
      1324.207  
  20027739.231   105246481.48349       642.383    20027738.526    82010265.74848
       500.555  
  22035348.264   115796560.43849      2581.242    22035350.689    90231095.66949
      2011.358  
  23795206.078   125044645.51745     -3478.394    23795206.768    97437397.52941
     -2710.394  
  21991804.306   117228691.68307     -1747.261    21991809.874    91177917.82407
     -1358.984  
  20126122.061   107396853.27507      2033.030           0.000           0.0000 
         0.000  
  20707019.001   110807439.08908     -1763.097    20707022.818    86183591.91407
     -1371.301  
  21132927.572   112927966.92108      2138.328    21132932.336    87832904.66907
      1663.136  
  21798799.891   116363473.07005      2175.276    21798805.280    90504950.03003
      1691.878  
  20051014.431   107184189.86908     -1883.176    20051019.021    83365520.28208
     -1464.733  
 20 10 01 07 27  5.0000000  0 13G27G15G18G24G20G10G13R14R 6R21R15R22
                                R 5
  24295232.639   127672291.20645     -1676.543    24295233.818    99484919.55248
     -1306.402  
  21231582.979   111572753.67249     -2478.444    21231581.574    86939807.10049
     -1931.257  
  21590289.883   113457748.55048     -2711.147    21590288.993    88408644.20546
     -2112.585  
  20951228.968   110099460.21248      1696.644    20951231.761    85791813.70149
      1322.063  
  20027129.018   105243274.22949       640.171    20027128.145    82007766.59048
       498.832  
  22032892.364   115783654.90949      2580.448    22032894.902    90221039.41349
      2010.733  
  23798515.837   125062039.10645     -3479.250    23798515.835    97450945.91551
     -2711.105  
  21993444.616   117237435.95907     -1750.281    21993450.342    91184718.91207
     -1361.331  
  20124217.524   107386690.29807      2031.440           0.000           0.0000 
         0.000  
  20708667.995   110816263.75208     -1767.292    20708672.091    86190455.54507
     -1374.565  
  21130928.425   112917283.02808      2134.703    21130932.694    87824594.99207
      1660.323  
  21796763.969   116352605.05705      2171.594    21796769.392    90496497.15103
      1689.019  
  20052776.422   107193608.97008     -1884.879    20052781.098    83372846.25508
     -1466.015  
 20 10 01 07 27 10.0000000  0 13G27G15G18G24G20G10G13R14R 6R21R15R22
                                R 5
  24296829.334   127680682.27045     -1680.194    24296830.639    99491458.05148
     -1309.242  
  21233942.021   111585150.98848     -2480.512    21233940.668    86949467.35149
     -1932.870  
  21592870.802   113471311.87248     -2714.195    21592870.030    88419213.02545
     -2114.960  
  20949616.437   110090986.49449      1692.933    20949619.262    85785210.78449
      1319.164  
  20026521.461   105240081.33949       637.120    20026520.456    82005278.61147
       496.452  
  22030438.136   115770757.13849      2578.598    22030440.612    90210989.19249
      2009.292  
  23801826.336   125079436.73845     -3480.367    23801826.381    97464502.58142
     -2711.984  
  21995089.309   117246202.09807     -1755.523    21995095.108    91191537.03607
     -1365.406  
  20122314.856   107376537.98507      2028.999           0.000           0.0000 
         0.000  
  20710321.472   110825111.59408     -1771.921    20710325.688    86197337.17507
     -1378.164  
  21128933.001   112906620.08206      2130.507    21128937.303    87816301.60406
      1657.062  
  21794731.858   116341758.53905      2166.905    21794737.207    90488060.98503
      1685.371  
  20054540.463   107203038.96808     -1887.187    20054545.084    83380180.70107
     -1467.816  
 20 10 01 07 27 15.0000000  0 13G27G15G18G24G20G10G13R14R 6R21R15R22
                                R 5
  24298428.655   127689087.13045     -1682.844    24298429.887    99498007.26648
     -1311.315  
  21236302.999   111597557.63648     -2482.328    21236301.372    86959134.88548
     -1934.281  
  21595454.196   113484887.38348     -2716.508    21595453.280    88429791.31645
     -2116.761  
  20948007.191   110082529.12949      1689.733    20948009.965    85778620.63849
      1316.676  
  20025916.407   105236901.85249       634.444    20025915.533    82002801.11448
       494.370  
  22027985.079   115757866.20249      2577.315    22027987.509    90200944.33449
      2008.296  
  23805137.411   125096837.52345     -3480.543    23805137.886    97478060.45251
     -2712.112  
  21996737.491   117254989.27306     -1759.456    21996743.573    91198371.50007
     -1368.469  
  20120414.331   107366395.82807      2027.414           0.000           0.0000 
         0.000  
  20711979.060   110833981.71008     -1776.515    20711983.300    86204236.20307
     -1381.733  
  21126941.434   112895977.16005      2126.374    21126945.490    87808023.84105
      1653.851  
  21792703.899   116330932.78505      2162.741    21792709.139    90479640.94903
      1682.129  
  20056306.561   107212479.05808     -1889.175    20056311.279    83387523.04607
     -1469.355  
 20 10 01 07 27 20.0000000  0 13G27G15G18G24G20G10G13R14R 6R21R15R22
                                R 5
  24300030.325   127697504.80845     -1684.640    24300031.718    99504566.46348
     -1312.711  
  21238665.505   111609972.62649     -2483.925    21238663.733    86968808.88949
     -1935.535  
  21598039.706   113498474.11448     -2718.483    21598038.658    88440378.38046
     -2118.305  
  20946400.793   110074087.26349      1686.668    20946403.599    85772042.55749
      1314.281  
  20025313.812   105233734.82149       632.065    20025312.812    82000333.29248
       492.519  
  22025533.150   115744981.13749      2576.460    22025535.641    90190904.03249
      2007.632  
  23808449.015   125114240.61845     -3480.867    23808449.607    97491621.27244
     -2712.354  
  21998389.418   117263796.37906     -1763.663    21998395.869    91205221.47107
     -1371.741  
  20118515.438   107356262.44007      2025.855           0.000           0.0000 
         0.000  
  20713640.742   110842873.17708     -1780.531    20713644.747    86211151.78107
     -1384.862  
  21124953.544   112885353.16508      2122.894    21124957.241    87799760.70107
      1651.136  
  21790679.531   116320126.66204      2159.218    21790684.891    90471236.17703
      1679.387  
  20058074.133   107221928.30408     -1890.726    20058078.860    83394872.43508
     -1470.569  
 20 10 01 07 27 25.0000000  0 13G27G15G18G24G20G10G13R14R 6R21R15R22
                                R 5
  24301634.364   127705933.71345     -1687.218    24301635.584    99511134.49548
     -1314.715  
  21241029.328   111622394.16449     -2484.980    21241027.499    86978487.98849
     -1936.352  
  21600626.966   113512070.59848     -2720.512    21600626.113    88450973.04346
     -2119.882  
  20944797.040   110065659.51649      1683.819    20944799.905    85765475.48249
      1312.063  
  20024713.263   105230578.60349       629.913    20024711.985    81997873.88048
       490.840  
  22023081.958   115732100.31749      2575.749    22023084.257    90180866.99249
      2007.069  
  23811760.821   125131644.21644     -3482.270    23811761.767    97505182.73043
     -2713.438  
  22000044.794   117272621.84406     -1767.051    22000051.519    91212085.72008
     -1374.374  
  20116617.844   107346136.48407      2024.539           0.000           0.0000 
         0.000  
  20715305.998   110851784.20408     -1784.304    20715310.122    86218082.52407
     -1387.800  
  21122968.577   112874746.66608      2119.413    21122972.412    87791511.14807
      1648.425  
  21788658.639   116309338.47005      2156.012    21788663.843    90462845.37703
      1676.897  
  20059843.058   107231384.81509     -1891.988    20059847.888    83402227.43508
     -1471.555  
 20 10 01 07 27 30.0000000  0 13G27G15G18G24G20G10G13R14R 6R21R15R22
                                R 5
  24303240.806   127714375.62345     -1689.891    24303241.821    99517712.57947
     -1316.801  
  21243394.684   111634824.25648     -2487.090    21243392.826    86988173.76649
     -1937.996  
  21603216.543   113525678.54348     -2723.109    21603215.400    88461576.61845
     -2121.905  
  20943196.355   110057247.67048      1680.398    20943199.162    85758920.80149
      1309.402  
  20024115.166   105227435.07948       627.133    20024113.884    81995424.41547
       488.679  
  22020631.920   115719225.56149      2574.098    22020634.332    90170834.77149
      2005.793  
  23815072.941   125149050.33545     -3482.124    23815075.413    97518745.65142
     -2713.371  
  22001704.070   117281467.37406     -1771.253    22001711.078    91218965.52307
     -1377.648  
  20114721.953   107336019.76707      2022.062           0.000           0.0000 
         0.000  
  20716975.093   110860716.64908     -1788.961    20716979.567    86225030.05007
     -1391.410  
  21120987.434   112864159.57207      2115.405    21120990.939    87783276.82705
      1645.323  
  21786641.465   116298570.22504      2150.965    21786646.670    90454470.07203
      1672.968  
  20061613.847   107240850.54308     -1894.206    20061618.580    83409589.72907
     -1473.270  
 20 10 01 07 27 35.0000000  0 13G27G15G18G24G20G10G13R14R 6R21R15R22
                                R 5
  24304850.328   127722833.65945     -1692.581    24304851.253    99524303.24747
     -1318.898  
  21245762.153   111647265.79848     -2488.425    21245760.288    86997868.50048
     -1939.031  
  21605808.761   113539300.99248     -2725.074    21605807.627    88472191.50946
     -2123.433  
  20941599.277   110048854.71949      1677.609    20941602.077    85752380.84849
      1307.226  
  20023519.938   105224307.29248       624.883    20023518.696    81992987.18647
       486.921  
  22018183.611   115706359.98549      2573.016    22018186.106    90160809.66349
      2004.944  
  23818385.971   125166461.83005     -3481.133           0.000           0.0000 
         0.000  
  22003367.588   117290336.07706     -1775.003    22003374.966    91225863.39707
     -1380.563  
  20112828.525   107325915.10407      2020.652           0.000           0.0000 
         0.000  
  20718648.895   110869673.69008     -1792.969    20718653.333    86231996.62407
     -1394.534  
  21119010.573   112853594.79407      2111.257    21119013.892    87775059.80805
      1642.094  
  21784628.355   116287824.98004      2147.234    21784633.542    90446112.65503
      1670.065  
  20063386.910   107250328.61308     -1895.836    20063391.662    83416961.55307
     -1474.542  
 20 10 01 07 27 40.0000000  0 13G27G15G18G24G20G10G13R14R 6R21R15R22
                                R 5
  24306461.957   127731303.26345     -1695.968    24306462.628    99530902.93447
     -1321.539  
  21248131.128   111659714.34548     -2490.781    21248129.060    87007568.66248
     -1940.870  
  21608403.042   113552933.40248     -2727.633    21608401.852    88482814.17645
     -2125.429  
  20940005.052   110040476.10549      1673.999    20940007.918    85745852.06249
      1304.414  
  20022926.792   105221190.72748       621.983    20022925.449    81990558.69147
       484.660  
  22015736.433   115693499.07449      2571.437    22015738.869    90150788.16949
      2003.718  
  23821699.477   125183874.29805     -3483.147           0.000           0.0000 
         0.000  
  22005034.493   117299223.43406     -1779.823    22005042.222    91232775.79507
     -1384.308  
  20110936.401   107315818.21407      2018.198           0.000           0.0000 
         0.000  
  20720326.441   110878650.64008     -1797.815    20720330.911    86238978.68707
     -1398.305  
  21117036.932   112843047.94306      2107.358    21117040.215    87766856.67005
      1639.054  
  21782618.928   116277098.14904      2143.375    21782624.016    90437769.56902
      1667.065  
  20065161.454   107259814.41208     -1898.132    20065166.195    83424339.37907
     -1476.328  
 20 10 01 07 27 45.0000000  0 13G27G15G18G24G20G10G13R14R 6R21R15R22
                                R 5
  24308076.464   127739787.80145     -1698.163    24308077.238    99537514.30448
     -1323.242  
  21250501.944   111672173.31449     -2492.827    21250499.943    87017276.93949
     -1942.468  
  21610999.831   113566579.18348     -2730.347    21610998.632    88493447.24746
     -2127.546  
  20938414.057   110032115.40149      1670.417    20938416.918    85739337.21649
      1301.621  
  20022336.446   105218088.84649       618.918    20022335.109    81988141.59748
       482.266  
  22013290.586   115680646.27649      2569.934    22013292.804    90140772.93949
      2002.539  
  23825013.895   125201291.18145     -3483.605    23825017.685    97559452.90651
     -2714.495  
  22006705.811   117308133.03206     -1783.984    22006713.720    91239705.56707
     -1387.534  
  20109046.221   107305732.66207      2015.729           0.000           0.0000 
         0.000  
  20722008.312   110887650.98608     -1802.397    20722012.861    86245978.88407
     -1401.879  
  21115067.283   112832522.32908      2103.261    21115070.621    87758670.00307
      1635.858  
  21780613.534   116266393.31005      2139.015    21780618.578    90429443.61103
      1663.679  
  20066938.053   107269311.41308     -1900.460    20066942.682    83431725.89108
     -1478.144  
 20 10 01 07 27 50.0000000  0 13G27G15G18G24G20G10G13R14R 6R21R15R22
                                R 5
  24309693.383   127748284.98845     -1700.851    24309694.188    99544135.47548
     -1325.343  
  21252874.265   111684640.35249     -2493.992    21252872.542    87026991.52249
     -1943.370  
  21613598.670   113580236.08248     -2732.281    21613597.382    88504088.97446
     -2129.054  
  20936826.105   110023770.34549      1667.632    20936828.860    85732834.57349
      1299.449  
  20021748.589   105214999.29049       616.897    20021747.213    81985734.16748
       480.699  
  22010845.896   115667799.19049      2569.094    22010848.202    90130762.23749
      2001.891  
  23828328.556   125218710.18544     -3483.565    23828330.318    97573031.21054
     -2714.469  
  22008380.815   117317062.33807     -1787.604    22008388.837    91246650.52807
     -1390.371  
  20107157.693   107295655.77107      2014.698           0.000           0.0000 
         0.000  
  20723694.365   110896672.36208     -1806.101    20723698.933    86252995.51907
     -1404.749  
  21113101.012   112822015.73408      2099.508    21113104.488    87750498.24708
      1632.949  
  21778612.042   116255708.02305      2135.112    21778616.894    90421132.83403
      1660.641  
  20068716.376   107278817.16209     -1901.703    20068721.083    83439119.26308
     -1479.105  
 20 10 01 07 27 55.0000000  0 13G27G15G18G24G20G10G13R14R 6R21R15R22
                                R 5
  24311312.969   127756795.78244     -1703.598    24311313.854    99550767.23548
     -1327.487  
  21255248.312   111697116.42749     -2496.219    21255246.821    87036713.14349
     -1945.108  
  21616199.796   113593905.03048     -2735.164    21616198.806    88514740.11947
     -2131.296  
  20935241.188   110015441.85849      1664.050    20935243.950    85726344.84749
      1296.663  
  20021163.220   105211923.00249       613.809    20021161.755    81983337.06448
       478.293  
  22008402.340   115654958.84049      2567.289    22008404.600    90120756.78249
      2000.484  
  23831644.037   125236132.15646     -3484.785    23831649.009    97586606.81941
     -2715.418  
  22010059.797   117326012.25707     -1792.211    22010067.811    91253611.57407
     -1393.941  
  20105271.075   107285588.63507      2012.348           0.000           0.0000 
         0.000  
  20725384.275   110905715.72508     -1810.909    20725389.044    86260029.24207
     -1408.488  
  21111138.621   112811529.09208      2095.145    21111142.007    87742341.98708
      1629.558  
  21776614.238   116245043.29805      2130.574    21776619.347    90412838.04503
      1657.113  
  20070496.391   107288332.83209     -1904.108    20070501.162    83446520.33608
     -1480.977  
 20 10 01 07 28  0.0000000  0 13G27G15G18G24G20G10G13R14R 6R21R15R22
                                R 5
  24312935.320   127765320.29645     -1705.754    24312935.938    99557409.71448
     -1329.159  
  21257624.091   111709601.79349     -2497.558    21257622.554    87046441.99849
     -1946.152  
  21618803.170   113607586.19748     -2736.929    21618802.128    88525400.75846
     -2132.676  
  20933659.696   110007130.00249      1661.187    20933662.463    85719868.08049
      1294.433  
  20020580.310   105208860.28549       611.676    20020578.796    81980950.54048
       476.628  
  22005960.285   115642125.47649      2566.375    22005962.514    90110756.75349
      1999.773  
  23834959.996   125253557.26405     -3485.140           0.000           0.0000 
         0.000  
  22011742.787   117334983.10407     -1795.738    22011750.574    91260588.92407
     -1396.684  
  20103386.337   107275531.71707      2011.218           0.000           0.0000 
         0.000  
  20727078.392   110914781.38208     -1814.891    20727083.165    86267080.31407
     -1411.581  
  21109179.744   112801062.73208      2091.808    21109183.548    87734201.44008
      1626.953  
  21774620.238   116234399.40805      2127.180    21774625.294    90404559.47903
      1654.472  
  20072278.443   107297858.45209     -1905.601    20072283.135    83453929.15708
     -1482.132  
 20 10 01 07 28  5.0000000  0 13G27G15G18G24G20G10G13R14R 6R21R15R22
                                R 5
  24314559.600   127773856.47845     -1709.141    24314560.355    99564061.27248
     -1331.800  
  21260001.392   111722094.22149     -2499.434    21259999.995    87056176.34749
     -1947.612  
  21621408.463   113621277.44648     -2739.426    21621407.682    88536069.25247
     -2134.620  
  20932080.690   109998832.61549      1657.878    20932083.406    85713402.57549
      1291.851  
  20019999.487   105205808.94748       608.956    20019998.007    81978572.86948
       474.507  
  22003518.981   115629296.93149      2565.026    22003521.331    90100760.48749
      1998.719  
  23838276.124   125270983.35205     -3485.296           0.000           0.0000 
         0.000  
  22013429.018   117343972.75407     -1800.055    22013436.903    91267580.87007
     -1400.042  
  20101503.055   107265482.48007      2009.257           0.000           0.0000 
         0.000  
  20728776.350   110923867.03108     -1819.245    20728780.940    86274146.94007
     -1414.969  
  21107224.454   112790614.34608      2087.585    21107228.216    87726074.95408
      1623.680  
  21772630.060   116223774.26404      2122.648    21772634.800    90396295.47503
      1650.945  
  20074061.828   107307391.91509     -1907.804    20074066.605    83461344.07508
     -1483.852  
 20 10 01 07 28 10.0000000  0 13G27G15G18G24G20G10G13R14R 6R21R15R22
                                R 5
  24316186.832   127782407.13944     -1711.563    24316187.586    99570724.10648
     -1333.690  
  21262380.396   111734596.50149     -2501.172    21262379.155    87065918.39149
     -1948.965  
  21624016.202   113634981.52248     -2742.011    21624015.520    88546747.75746
     -2136.637  
  20930505.093   109990552.67249      1654.563    20930507.726    85706950.68049
      1289.269  
  20019421.543   105202771.76749       606.179    20019420.164    81976206.22748
       472.343  
  22001079.214   115616475.99349      2563.616    22001081.640    90090770.14149
      1997.621  
  23841593.058   125288413.17606     -3486.332           0.000           0.0000 
         0.000  
  22015119.508   117352983.76607     -1803.851    22015127.333    91274589.44307
     -1402.996  
  20099621.665   107255443.98907      2006.952           0.000           0.0000 
         0.000  
  20730478.377   110932975.57708     -1823.816    20730483.207    86281231.35107
     -1418.527  
  21105272.894   112780186.86708      2083.773    21105276.932    87717964.66908
      1620.706  
  21770643.604   116213170.33405      2119.297    21770648.265    90388047.96603
      1648.339  
  20075847.399   107316936.06609     -1909.722    20075852.043    83468767.30208
     -1485.344  
 20 10 01 07 28 15.0000000  0 13G27G15G18G24G20G10G13R14R 6R21R15R22
                                R 5
  24317816.307   127790970.71245     -1713.496    24317817.057    99577397.04948
     -1335.188  
  21264761.083   111747107.25549     -2502.918    21264759.977    87075667.02049
     -1950.327  
  21626626.229   113648697.05748     -2744.207    21626625.682    88557435.15446
     -2138.348  
  20928932.537   109982288.64649      1651.133    20928935.236    85700511.18749
      1286.597  
  20018846.047   105199747.36249       603.538    20018844.534    81973849.55948
       470.289  
  21998640.807   115603661.26249      2562.468    21998642.891    90080784.65349
      1996.730  
  23844910.332   125305845.38345     -3486.184    23844902.577    97640877.74754
     -2716.507  
  22016813.899   117362015.04407     -1808.308    22016821.401    91281613.75807
     -1406.464  
  20097742.230   107245414.84007      2005.093           0.000           0.0000 
         0.000  
  20732184.548   110942105.48708     -1828.038    20732189.376    86288332.38207
     -1421.812  
  21103325.143   112769778.86308      2079.577    21103329.195    87709869.56208
      1617.445  
  21768660.917   116202586.77505      2115.147    21768665.751    90379816.31203
      1645.116  
  20077634.484   107326489.43309     -1911.660    20077639.150    83476197.69008
     -1486.852  
 20 10 01 07 28 20.0000000  0 13G27G15G18G24G20G10G13R14R 6R21R15R22
                                R 5
  24319449.162   127799551.42244     -1718.089    24319449.658    99584083.30748
     -1338.772  
  21267144.071   111759630.50349     -2505.218    21267143.011    87085425.39449
     -1952.117  
  21629239.143   113662428.07148     -2747.108    21629238.557    88568134.65747
     -2140.608  
  20927363.778   109974044.79049      1647.437    20927366.412    85694087.39749
      1283.715  
  20018273.613   105196739.79149       600.495    20018272.096    81971505.98948
       467.914  
  21996204.110   115590856.83749      2560.554    21996206.304    90070807.17249
      1995.234  
  23848228.876   125323284.10746     -3486.945    23848228.803    97654493.36451
     -2717.101  
  22018512.493   117371070.41406     -1812.745    22018519.984    91288656.82107
     -1409.914  
  20095865.438   107235399.07507      2002.663           0.000           0.0000 
         0.000  
  20733895.426   110951260.89208     -1833.012    20733900.336    86295453.25807
     -1425.680  
  21101381.967   112759394.49108      2075.179    21101385.818    87701792.82407
      1614.023  
  21766682.804   116192027.28704      2110.156    21766687.620    90371603.38403
      1641.229  
  20079424.170   107336056.20409     -1914.042    20079428.913    83483638.52208
     -1488.699  
 20 10 01 07 28 25.0000000  0 13G27G15G18G24G20G10G13R14R 6R21R15R22
                                R 5
  24321083.739   127808141.68145     -1718.319    24321084.201    99590777.01647
     -1338.952  
  21269528.030   111772158.88249     -2505.979    21269527.023    87095187.77749
     -1952.710  
  21631853.525   113676167.17848     -2748.469    21631853.149    88578840.44246
     -2141.668  
  20925797.483   109965813.63649      1644.973    20925800.024    85687673.51849
      1281.797  
  20017703.088   105193741.66649       598.813    20017701.636    81969169.79948
       466.605  
  21993768.207   115578055.33049      2559.987    21993769.970    90060831.98249
      1994.797  
  23851547.137   125340721.90505     -3488.378           0.000           0.0000 
         0.000  
  22020214.177   117380142.59606     -1816.065    22020221.711    91295712.98007
     -1412.495  
  20093989.538   107225389.12907      2001.487           0.000           0.0000 
         0.000  
  20735609.834   110960434.25708     -1836.421    20735614.629    86302588.10007
     -1428.327  
  21099441.735   112749026.29408      2072.132    21099445.616    87693728.69108
      1611.659  
  21764707.730   116181484.64305      2106.852    21764712.673    90363403.55104
      1638.659  
  20081214.832   107345628.78709     -1915.008    20081219.656    83491083.86808
     -1489.449  
 20 10 01 07 28 30.0000000  0 13G27G15G18G24G20G10G13R14R 6R21R15R22
                                R 5
  24322720.719   127816744.22446     -1722.191    24322721.030    99597480.31048
     -1341.968  
  21271913.495   111784694.96649     -2508.288    21271912.743    87104956.15049
     -1954.516  
  21634469.847   113689916.95348     -2751.210    21634469.687    88589554.54146
     -2143.805  
  20924234.023   109957597.81949      1641.362    20924236.544    85681271.58149
      1278.979  
  20017134.836   105190755.60549       595.651    20017133.383    81966842.99148
       464.140  
  21991333.264   115565259.30649      2558.367    21991335.067    90050861.05449
      1993.527  
  23854865.905   125358161.24445     -3488.788    23854862.521    97681672.42451
     -2718.534  
  22021919.541   117389233.98707     -1820.636    22021927.261    91302784.05506
     -1416.055  
  20092115.155   107215387.84407      1999.066           0.000           0.0000 
         0.000  
  20737328.040   110969628.25708     -1841.190    20737332.538    86309738.98807
     -1432.038  
  21097504.870   112738676.83608      2067.667    21097508.983    87685679.10908
      1608.187  
  21762736.502   116170961.34304      2103.180    21762741.324    90355218.78203
      1635.800  
  20083007.173   107355209.88009     -1917.359    20083012.070    83498535.82108
     -1491.284  
 20 10 01 07 28 35.0000000  0 13G27G15G18G24G20G10G13R14R 6R21R15R22
                                R 5
  24324360.464   127825361.23645     -1725.147    24324360.690    99604194.88247
     -1344.273  
  21274300.888   111797240.98749     -2510.031    21274300.210    87114732.27449
     -1955.866  
  21637088.800   113703679.64548     -2753.550    21637088.687    88600278.72347
     -2145.629  
  20922674.002   109949399.51249      1638.104    20922676.506    85674883.29749
      1276.444  
  20016569.275   105187783.87649       593.046    20016568.089    81964527.36248
       462.113  
  21988899.840   115552471.07749      2556.952    21988901.425    90040896.19549
      1992.430  
  23858185.288   125375604.52705     -3488.698           0.000           0.0000 
         0.000  
  22023629.351   117398347.02007     -1824.722    22023636.464    91309871.93107
     -1419.237  
  20090243.037   107205397.42907      1996.992           0.000           0.0000 
         0.000  
  20739050.479   110978845.12608     -1845.598    20739055.005    86316907.66207
     -1435.469  
  21095572.094   112728348.51108      2063.534    21095576.012    87677645.96308
      1604.969  
  21760769.116   116160459.61705      2098.242    21760774.027    90347050.80303
      1631.969  
  20084801.605   107364801.77509     -1919.484    20084806.569    83505996.18808
     -1492.933  
 20 10 01 07 28 40.0000000  0 13G27G15G18G24G20G10G13R14R 6R21R15R22
                                R 5
  24326002.700   127833991.40645     -1727.523    24326002.956    99610919.68647
     -1346.120  
  21276689.992   111809795.59249     -2511.616    21276689.379    87124515.08349
     -1957.104  
  21639709.866   113717453.90548     -2755.918    21639709.883    88611011.89346
     -2147.472  
  20921116.986   109941217.36549      1634.925    20921119.388    85668507.59749
      1273.969  
  20016006.380   105184825.12349       590.694    20016005.020    81962221.84748
       460.280  
  21986467.507   115539689.29949      2555.922    21986468.985    90030936.38849
      1991.629  
  23861505.251   125393050.27045     -3489.539    23861501.145    97708858.48353
     -2719.121  
  22025342.749   117407480.30206     -1827.871    22025349.868    91316975.59607
     -1421.679  
  20088372.594   107195416.32407      1995.418           0.000           0.0000 
         0.000  
  20740776.827   110988083.57008     -1849.602    20740781.467    86324093.12007
     -1438.582  
  21093642.889   112718039.92308      2059.878    21093647.152    87669628.18808
      1602.129  
  21758805.733   116149978.22704      2094.309    21758810.605    90338898.63203
      1628.910  
  20086597.686   107374402.94809     -1921.015    20086602.546    83513463.76308
     -1494.129  
 20 10 01 07 28 45.0000000  0 13G27G15G18G24G20G10G13R14R 6R21R15R22
                                R 5
  24327647.412   127842634.57745     -1729.184    24327647.714    99617654.63347
     -1347.414  
  21279080.623   111822358.72549     -2513.706    21279080.010    87134304.53649
     -1958.738  
  21642333.248   113731239.62148     -2758.477    21642333.476    88621754.00546
     -2149.464  
  20919562.993   109933051.45149      1631.530    20919565.436    85662144.54949
      1271.324  
  20015445.766   105181879.32749       587.598    20015444.613    81959926.41848
       457.862  
  21984036.330   115526913.87349      2554.355    21984037.775    90020981.51949
      1990.406  
  23864825.599   125410498.50605     -3489.984           0.000           0.0000 
         0.000  
  22027059.863   117416633.73607     -1832.813    22027066.833    91324094.93406
     -1425.523  
  20086503.822   107185444.69607      1993.211           0.000           0.0000 
         0.000  
  20742507.256   110997343.41308     -1854.241    20742511.768    86331295.21307
     -1442.190  
  21091717.452   112707750.97608      2055.687    21091721.646    87661625.66408
      1598.862  
  21756846.182   116139517.23204      2089.543    21756850.993    90330762.31404
      1625.202  
  20088395.709   107384013.57009     -1923.266    20088400.443    83520938.69508
     -1495.874  
 20 10 01 07 28 50.0000000  0 13G27G15G18G24G20G10G13R14R 6R21R15R22
                                R 5
  24329294.896   127851292.69745     -1733.113    24329295.320    99624401.21147
     -1350.479  
  21281473.355   111834932.27449     -2515.476    21281472.860    87144102.10849
     -1960.113  
  21644959.118   113745038.72648     -2760.956    21644959.265    88632506.54646
     -2151.398  
  20918012.394   109924903.59349      1627.922    20918014.897    85655795.57049
      1268.511  
  20014887.993   105178948.36549       584.929    20014886.916    81957642.55348
       455.784  
  21981606.850   115514146.74549      2552.699    21981608.285    90011033.10349
      1989.113  
  23868146.911   125427951.08646     -3490.785    23868143.494    97736066.91451
     -2720.093  
  22028781.266   117425809.22107     -1837.155    22028788.221    91331231.42307
     -1428.902  
  20084637.342   107175484.42607      1991.129           0.000           0.0000 
         0.000  
  20744242.040   111006626.65308     -1858.827    20744246.410    86338515.49907
     -1445.758  
  21089796.129   112697483.72708      2051.437    21089800.468    87653640.03407
      1595.558  
  21754890.706   116129078.36104      2085.581    21754895.475    90322643.20603
      1622.120  
  20090195.760   107393635.46409     -1925.238    20090200.498    83528422.38408
     -1497.409  
 20 10 01 07 28 55.0000000  0 14G 8G27G15G18G24G20G10G13R14R 6R21R15
                                R22R 5
  24609289.648   129322688.48655        56.984    24609286.653   100770913.78756
        44.405  
  24330945.082   127859964.10845     -1735.937    24330945.443    99631158.15646
     -1352.676  
  21283867.595   111847514.52549     -2517.253    21283867.174    87153906.45449
     -1961.500  
  21647587.267   113758849.49148     -2763.312    21647587.483    88643268.19046
     -2153.233  
  20916464.860   109916771.99949      1624.762    20916467.516    85649459.27049
      1266.047  
  20014332.698   105176030.49049       582.233    20014331.662    81955368.88348
       453.687  
  21979178.681   115501386.22949      2551.473    21979179.767    90001089.85249
      1988.160  
  23871468.606   125445406.27745     -3491.250    23871468.711    97749668.43643
     -2720.440  
  22030506.506   117435005.12507     -1841.128    22030513.229    91338383.76507
     -1431.992  
  20082772.516   107165533.79507      1989.226           0.000           0.0000 
         0.000  
  20745980.843   111015931.49708     -1863.184    20745985.162    86345752.61007
     -1449.147  
  21087878.536   112687236.40608      2047.527    21087882.710    87645669.90208
      1592.519  
  21752939.134   116118660.01704      2081.422    21752943.722    90314540.04904
      1618.883  
  20091997.476   107403266.79509     -1927.187    20092002.208    83535913.42308
     -1498.926  
 20 10 01 07 29  0.0000000  0 13G27G15G18G24G20G10G13R14R 6R21R15R22
                                R 5
  24332592.050   127868619.01546     -1731.515    24332592.339    99637902.23248
     -1349.241  
  21286257.850   111860075.80849     -2511.996    21286257.612    87163694.46249
     -1957.401  
  21650212.019   113772642.24948     -2758.526    21650212.020    88654015.79346
     -2149.500  
  20914915.016   109908627.22948      1628.437    20914917.457    85643112.69349
      1268.910  
  20013774.362   105173096.10349       586.516    20013773.457    81953082.34548
       457.020  
  21976745.911   115488602.65549      2557.179    21976747.108    89991128.61549
      1992.604  
  23874785.227   125462834.54606     -3484.878           0.000           0.0000 
         0.000  
  22032229.879   117444191.17607     -1838.141    22032236.617    91345528.48007
     -1429.667  
  20080903.970   107155562.78207      1994.285           0.000           0.0000 
         0.000  
  20747717.951   111025227.76808     -1860.241    20747722.460    86352983.04207
     -1446.855  
  21085958.885   112676978.84508      2050.691    21085963.272    87637691.78708
      1594.976  
  21750985.690   116108232.11804      2084.996    21750990.179    90306429.48803
      1621.663  
  20093795.400   107412877.54208     -1922.015    20093800.074    83543388.44408
     -1494.901  
 20 10 01 07 29  5.0000000  0 13G27G15G18G24G20G10G13R14R 6R21R15R22
                                R 5
  24334249.503   127877329.11546     -1746.577    24334249.622    99644689.30847
     -1360.968  
  21288657.832   111872687.76549     -2526.312    21288657.558    87173521.96249
     -1968.559  
  21652846.822   113786488.60848     -2773.512    21652846.976    88664805.15546
     -2161.183  
  20913376.015   109900540.69349      1612.522    20913378.619    85636811.50649
      1256.512  
  20013226.296   105170216.77449       571.457    20013225.494    81950838.71548
       445.293  
  21974322.483   115475867.60949      2543.191    21974323.756    89981205.20249
      1981.706  
  23878110.340   125480307.32305     -3498.003           0.000           0.0000 
         0.000  
  22033965.045   117453440.11507     -1854.964    22033971.837    91352722.09707
     -1442.753  
  20079045.166   107145643.91007      1979.515           0.000           0.0000 
         0.000  
  20749467.205   111034588.35008     -1877.249    20749471.521    86360263.49507
     -1460.086  
  21084050.996   112666783.81808      2033.906    21084055.593    87629762.32608
      1581.925  
  21749044.085   116097867.38805      2067.980    21749048.573    90298368.01603
      1608.429  
  20095603.061   107422540.46509     -1936.726    20095607.754    83550904.05208
     -1506.348  
 20 10 01 07 29 10.0000000  0 13G27G15G18G24G20G10G13R14R 6R21R15R22
                                R 5
  24335910.323   127886057.62545     -1745.597    24335910.549    99651490.77947
     -1360.207  
  21291060.480   111885313.64049     -2524.242    21291060.430    87183360.29249
     -1966.945  
  21655484.859   113800351.83448     -2772.007    21655484.897    88675607.65846
     -2160.012  
  20911841.214   109892475.82648      1613.203    20911843.952    85630527.20449
      1257.042  
  20012681.847   105167355.86549       572.863    20012681.196    81948609.43948
       446.382  
  21971901.317   115463144.48449      2545.647    21971902.600    89971291.10149
      1983.621  
  23881436.755   125497787.93906     -3494.253           0.000           0.0000 
         0.000  
  22035704.852   117462714.61307     -1855.019    22035711.649    91359935.59507
     -1442.797  
  20077189.210   107135739.86107      1981.597           0.000           0.0000 
         0.000  
  20751221.261   111043975.87608     -1877.644    20751225.651    86367564.89007
     -1460.394  
  21082148.019   112656614.10908      2033.797    21082152.527    87621852.56808
      1581.843  
  21747107.310   116087528.50205      2067.679    21747111.567    90290326.67804
      1608.194  
  20097413.519   107432218.21409     -1934.758    20097418.115    83558431.18508
     -1504.816  
 20 10 01 07 29 15.0000000  0 13G27G15G18G24G20G10G13R14R 6R21R15R22
                                R 5
  24337570.786   127894783.79245     -1745.694    24337570.958    99658290.31247
     -1360.288  
  21293461.826   111897932.61049     -2523.836    21293461.847    87193193.25349
     -1966.629  
  21658122.326   113814211.13248     -2772.133    21658122.358    88686407.11746
     -2160.105  
  20910306.633   109884411.79748      1611.969    20910309.287    85624243.54049
      1256.074  
  20012137.014   105164492.56149       572.164    20012136.362    81946378.27748
       445.840  
  21969478.456   115450412.39049      2546.602    21969479.470    89961369.97549
      1984.362  
  23884760.937   125515255.72746     -3492.542    23884751.593    97804064.58453
     -2721.430  
  22037445.717   117471993.71307     -1856.995    22037452.481    91367152.63807
     -1444.339  
  20075332.101   107125829.81607      1981.780           0.000           0.0000 
         0.000  
  20752976.752   111053369.14108     -1879.820    20752980.974    86374870.77907
     -1462.081  
  21080245.586   112646448.61308      2032.069    21080250.427    87613946.04108
      1580.492  
  21745171.546   116077194.44705      2065.530    21745175.739    90282289.07503
      1606.522  
  20099222.638   107441889.61409     -1934.437    20099227.274    83565953.37808
     -1504.565  
 20 10 01 07 29 20.0000000  0 13G27G15G18G24G20G10G13R14R 6R21R15R22
                                R 5
  24339233.182   127903519.27345     -1748.625    24339233.272    99665097.21347
     -1362.562  
  21295864.147   111910556.39649     -2525.762    21295863.974    87203029.97149
     -1968.128  
  21660761.121   113828078.21948     -2774.854    21660761.047    88697212.64146
     -2162.226  
  20908774.519   109876360.29849      1608.437    20908777.080    85617969.65949
      1253.328  
  20011593.910   105161638.56149       569.280    20011593.237    81944154.39448
       443.597  
  21967056.145   115437683.12149      2544.922    21967057.358    89951451.08149
      1983.054  
  23888084.839   125532722.26246     -3493.672    23888081.769    97817693.88052
     -2722.339  
  22039189.646   117481289.27507     -1861.452    22039196.390    91374382.52607
     -1447.801  
  20073476.135   107115925.58607      1979.823           0.000           0.0000 
         0.000  
  20754735.428   111062780.04708     -1884.421    20754739.712    86382190.35607
     -1465.664  
  21078346.356   112636299.17408      2027.647    21078351.216    87606052.05608
      1577.058  
  21743238.725   116066876.98004      2061.604    21743242.809    90274264.37503
      1603.469  
  20101032.898   107451566.64609     -1936.465    20101037.405    83573479.95808
     -1506.145  
 20 10 01 07 29 25.0000000  0 14G 8G27G15G18G24G20G10G13R14R 6R21R15
                                R22R 5
  24609016.986   129321256.92254        46.386    24609012.400   100769791.89257
        36.137  
  24340892.918   127912241.27745     -1742.598    24340892.932    99671893.58647
     -1357.870  
  21298263.031   111923162.17749     -2518.613    21298262.890    87212852.66249
     -1962.555  
  21663397.049   113841930.26848     -2768.414    21663397.074    88708006.44846
     -2157.210  
  20907240.347   109868298.60349      1613.938    20907242.928    85611687.81149
      1257.609  
  20011048.339   105158771.06849       575.390    20011047.425    81941919.98048
       448.351  
  21964629.881   115424933.86149      2552.573    21964631.108    89941516.58849
      1989.015  
  23891404.063   125550164.74646     -3485.749    23891399.186    97831285.36843
     -2716.207  
  22040932.021   117490577.98607     -1856.383    22040939.073    91381607.08407
     -1443.852  
  20071616.806   107106003.79107      1986.628           0.000           0.0000 
         0.000  
  20756493.011   111072185.32208     -1879.890    20756497.211    86389505.55407
     -1462.141  
  21076445.627   112626142.68808      2032.512    21076450.588    87598152.55608
      1580.839  
  21741304.712   116056553.02505      2065.820    21741308.717    90266234.66303
      1606.753  
  20102839.973   107461226.12208     -1929.457    20102844.445    83580992.87308
     -1500.690  
 20 10 01 07 29 30.0000000  0 13G27G15G18G24G20G10G13R14R 6R21R15R22
                                R 5
  24342559.437   127920999.33045     -1762.828    24342559.157    99678717.96847
     -1373.640  
  21300667.810   111935799.44049     -2537.694    21300667.680    87222699.87249
     -1977.430  
  21666039.492   113855816.74348     -2787.812    21666039.692    88718827.05946
     -2172.401  
  20905713.787   109860276.28848      1593.574    20905716.355    85605436.65949
      1241.745  
  20010509.429   105155939.60549       555.602    20010508.653    81939713.64148
       432.934  
  21962209.546   115412214.10149      2533.890    21962210.701    89931605.08049
      1974.457  
  23894728.161   125567632.65206     -3503.328           0.000           0.0000 
         0.000  
  22042683.051   117499910.15307     -1878.058    22042689.748    91388865.43507
     -1460.711  
  20069763.661   107096114.86307      1967.113           0.000           0.0000 
         0.000  
  20758258.978   111081635.43108     -1901.831    20758263.148    86396855.65007
     -1479.202  
  21074553.061   112616029.42208      2011.230    21074558.097    87590286.68808
      1564.289  
  21739378.706   116046272.93905      2044.565    21739383.010    90258239.01803
      1590.214  
  20104653.048   107470918.20708     -1948.956    20104657.768    83588531.16208
     -1515.859  
 20 10 01 07 29 35.0000000  0 13G27G15G18G24G20G10G13R14R 6R21R15R22
                                R 5
  24344235.795   127929808.02545     -1759.940    24344235.427    99685581.91847
     -1371.378  
  21303081.326   111948482.92949     -2534.144    21303081.510    87232583.10649
     -1974.659  
  21668691.397   113869752.34848     -2784.668    21668691.419    88729685.97146
     -2169.855  
  20904197.475   109852308.01749      1595.387    20904200.031    85599227.62649
      1243.160  
  20009980.217   105153158.86149       558.297    20009979.412    81937546.83248
       435.035  
  21959797.386   115399538.55449      2537.780    21959798.633    89921728.03649
      1977.492  
  23898059.788   125585140.69146     -3498.331    23898053.504    97858537.34251
     -2725.987  
  22044444.664   117509300.63207     -1876.487    22044451.487    91396169.15307
     -1459.492  
  20067919.483   107086273.75907      1970.664           0.000           0.0000 
         0.000  
  20760036.191   111091145.34508     -1900.562    20760040.380    86404252.23007
     -1478.218  
  21072671.378   112605974.37108      2012.336    21072676.676    87582466.10708
      1565.147  
  21737464.026   116036051.55704      2045.530    21737468.149    90250289.05903
      1590.965  
  20106474.924   107480657.99208     -1945.323    20106479.721    83596106.55108
     -1513.031  
 20 10 01 07 29 40.0000000  0 13G27G15G18G24G20G10G13R14R 6R21R15R22
                                R 5
  24345909.264   127938602.13445     -1758.804    24345909.047    99692434.45845
     -1370.503  
  21305491.383   111961147.26949     -2532.534    21305491.401    87242451.42549
     -1973.406  
  21671340.077   113883671.78848     -2783.897    21671340.445    88740532.28846
     -2169.272  
  20902678.906   109844328.44449      1595.539    20902681.508    85593009.77849
      1243.277  
  20009448.367   105150363.56249       558.922    20009447.502    81935368.68648
       435.522  
  21957381.249   115386841.91549      2539.871    21957382.399    89911834.55349
      1979.121  
  23901386.785   125602623.55106     -3495.085           0.000           0.0000 
         0.000  
  22046204.956   117518683.19607     -1877.250    22046211.524    91403466.69407
     -1460.085  
  20066071.952   107076414.16507      1971.988           0.000           0.0000 
         0.000  
  20761812.133   111100648.45808     -1901.476    20761816.202    86411643.53107
     -1478.930  
  21070788.199   112595911.14408      2011.840    21070793.550    87574639.16208
      1564.765  
  21735547.708   116025822.71704      2045.155    21735551.809    90242333.30203
      1590.671  
  20108293.558   107490379.07108     -1944.046    20108298.295    83603667.39108
     -1512.039  
 20 10 01 07 29 45.0000000  0 13G27G15G18G24G20G10G13R14R 6R21R15R22
                                R 5
  24347583.895   127947402.63245     -1761.594    24347583.381    99699291.95046
     -1372.680  
  21307901.648   111973813.51449     -2533.789    21307901.754    87252321.22849
     -1974.387  
  21673989.896   113897596.02348     -2785.500    21673990.193    88751382.34246
     -2170.520  
  20901162.244   109836358.33349      1592.718    20901164.927    85586799.29249
      1241.074  
  20008917.653   105147574.70349       556.628    20008916.829    81933195.54548
       433.737  
  21954965.307   115374145.21449      2539.055    21954966.411    89901941.01949
      1978.483  
  23904713.049   125620102.18846     -3495.379    23904713.649    97885794.05653
     -2723.672  
  22047967.716   117528079.17207     -1880.754    22047974.143    91410774.69007
     -1462.809  
  20064224.786   107066557.52307      1970.781           0.000           0.0000 
         0.000  
  20763590.869   111110166.18008     -1905.183    20763594.882    86419046.19907
     -1481.812  
  21068907.482   112585861.06608      2008.367    21068912.760    87566822.42708
      1562.059  
  21733634.071   116015607.62104      2041.176    21733638.158    90234388.24203
      1587.577  
  20110112.376   107500102.81708     -1945.327    20110117.329    83611230.29708
     -1513.102  
 20 10 01 07 29 50.0000000  0 13G27G15G18G24G20G10G13R14R 6R21R15R22
                                R 5
  24349260.047   127956210.61645     -1761.151    24349259.553    99706155.34247
     -1372.332  
  21310312.488   111986482.84449     -2532.667    21310312.578    87262193.43149
     -1973.512  
  21676640.685   113911526.29348     -2785.148    21676641.159    88762237.07646
     -2170.249  
  20899647.700   109828399.28749      1592.133    20899650.305    85580597.44649
      1240.621  
  20008388.470   105144793.48649       556.934    20008387.605    81931028.36848
       433.968  
  21952549.386   115361449.68149      2540.453    21952550.439    89892048.39449
      1979.569  
  23908038.545   125637577.91446     -3493.254    23908038.684    97899415.61351
     -2722.016  
  22049733.153   117537489.66208     -1882.090    22049739.408    91418093.96607
     -1463.848  
  20062378.373   107056704.77007      1971.645           0.000           0.0000 
         0.000  
  20765372.415   111119699.80808     -1906.961    20765376.392    86426461.23607
     -1483.194  
  21067029.365   112575825.48108      2007.219    21067034.585    87559016.96208
      1561.168  
  21731723.271   116005407.61305      2040.219    21731727.126    90226454.86703
      1586.828  
  20111932.130   107509830.38308     -1944.343    20111937.093    83618796.18008
     -1512.301  
 20 10 01 07 29 55.0000000  0 13G27G15G18G24G20G10G13R14R 6R21R15R22
                                R 5
  24350940.177   127965039.16445     -1767.542    24350939.226    99713034.69847
     -1377.308  
  21312726.586   111999168.17249     -2538.898    21312726.575    87272078.09549
     -1978.367  
  21679295.044   113925475.51448     -2792.031    21679295.519    88773106.58146
     -2175.613  
  20898137.722   109820464.11249      1584.339    20898140.352    85574414.19149
      1234.550  
  20007863.085   105142032.88149       549.809    20007862.294    81928877.24748
       428.418  
  21950136.309   115348768.25049      2534.566    21950137.167    89882166.75949
      1974.988  
  23911366.131   125655063.61946     -3498.397    23911366.675    97913040.74141
     -2726.019  
  22051503.855   117546927.84208     -1890.570    22051509.964    91425434.77207
     -1470.445  
  20060535.354   107046869.22707      1965.156           0.000           0.0000 
         0.000  
  20767159.531   111129262.46308     -1915.648    20767163.151    86433898.84307
     -1489.953  
  21065156.494   112565817.54908      1998.632    21065161.954    87551233.01108
      1554.488  
  21729817.771   115995235.73705      2031.538    21729821.660    90218543.41403
      1580.082  
  20113754.889   107519574.91608     -1950.866    20113759.950    83626375.26208
     -1517.344  
 20 10 01 07 30  0.0000000  0 13G27G15G18G24G20G10G13R14R 6R21R15R22
                                R 5
  24352623.412   127973884.34445     -1770.102    24352622.517    99719927.05547
     -1379.305  
  21315142.746   112011865.58649     -2539.987    21315142.766    87281972.18049
     -1979.215  
  21681952.240   113939439.76648     -2793.480    21681952.804    88783987.81247
     -2176.793  
  20896631.359   109812548.77549      1581.780    20896634.075    85568246.39649
      1232.554  
  20007341.148   105139289.02249       547.788    20007340.172    81926739.18048
       426.843  
  21947725.148   115336097.04449      2533.839    21947726.116    89872293.09749
      1974.421  
  23914694.842   125672555.33346     -3498.202    23914690.527    97926670.54841
     -2725.882  
  22053279.071   117556389.86908     -1894.152    22053285.115    91432794.12907
     -1473.230  
  20058694.549   107037046.93407      1963.737           0.000           0.0000 
         0.000  
  20768951.293   111138850.10608     -1919.425    20768954.710    86441355.89407
     -1492.891  
  21063288.136   112555833.29708      1995.292    21063293.420    87543467.49508
      1551.894  
  21727916.878   115985088.20105      2028.324    21727920.461    90210650.86303
      1577.577  
  20115580.291   107529332.49008     -1952.180    20115585.193    83633964.48608
     -1518.362  
 20 10 01 07 30  5.0000000  0 13G27G15G18G24G20G10G13R14R 6R21R15R22
                                R 5
  24354308.258   127982737.48945     -1769.354    24354307.258    99726825.60147
     -1378.726  
  21317559.674   112024566.53249     -2538.237    21317559.689    87291869.01549
     -1977.852  
  21684610.812   113953410.47248     -2792.402    21684611.508    88794874.07146
     -2175.901  
  20895127.276   109804644.82949      1581.887    20895130.019    85562087.47749
      1232.636  
  20006820.518   105136553.28049       548.539    20006819.517    81924607.43548
       427.434  
  21945314.147   115323427.46049      2536.082    21945315.075    89862420.69449
      1976.168  
  23918022.940   125690044.57646     -3495.512    23918018.125    97940298.69141
     -2723.761  
  22055057.074   117565866.87508     -1894.621    22055062.896    91440165.14407
     -1473.593  
  20056854.910   107027229.23607      1965.184           0.000           0.0000 
         0.000  
  20770746.048   111148454.08008     -1920.144    20770749.412    86448825.64807
     -1493.449  
  21061422.595   112545864.00708      1994.645    21061427.797    87535713.60808
      1551.390  
  21726018.716   115974956.18705      2027.679    21726022.401    90202770.40703
      1577.082  
  20117406.445   107539094.42208     -1950.555    20117411.417    83641557.09908
     -1517.094  
 20 10 01 07 30 10.0000000  0 14G27G15G18G21G24G20G10G13R14R 6R21R15
                                R22R 5
  24355991.342   127991581.18846     -1771.023    24355990.285    99733716.78447
     -1380.022  
  21319973.944   112037253.54549     -2539.523    21319973.673    87301754.99949
     -1978.852  
  21687267.279   113967370.14448     -2794.386    21687267.739    88805751.73746
     -2177.448  
  24693334.704   129764349.33255      2639.793    24693332.293   101115066.91654
      2056.968  
  20893622.088   109796734.82449      1579.016    20893624.751    85555923.84149
      1230.401  
  20006298.193   105133808.19449       546.305    20006297.169    81922468.41448
       425.691  
  21942900.301   115310742.05549      2535.043    21942901.124    89852535.96549
      1975.358  
  23921347.266   125707513.86946     -3495.405    23921343.143    97953911.08643
     -2723.690  
  22056834.690   117575341.13108     -1898.081    22056840.193    91447534.02007
     -1476.284  
  20055012.594   107017398.34607      1963.949           0.000           0.0000 
         0.000  
  20772540.457   111158056.47908     -1923.922    20772543.930    86456294.17107
     -1496.387  
  21059556.301   112535891.93908      1991.108    21059561.690    87527957.55308
      1548.636  
  21724119.883   115964821.93004      2023.706    21724123.897    90194888.20503
      1573.992  
  20119229.989   107548842.90508     -1952.117    20119234.990    83649139.25708
     -1518.313  
 20 10 01 07 30 15.0000000  0 14G27G15G18G21G24G20G10G13R14R 6R21R15
                                R22R 5
  24357680.378   128000456.16446     -1778.128    24357679.518    99740632.34947
     -1385.558  
  21322393.343   112049967.32549     -2545.453    21322393.031    87311661.83649
     -1983.472  
  21689929.265   113981359.50548     -2800.773    21689929.861    88816652.52546
     -2182.468  
  24690826.259   129751166.89704      2634.237           0.000           0.0000 
         0.000  
  20892123.564   109788859.56049      1571.574    20892126.307    85549787.27649
      1224.602  
  20005781.756   105131094.51949       539.655    20005780.690    81920353.86048
       420.507  
  21940491.041   115298081.58949      2529.563    21940492.055    89842670.67149
      1971.085  
  23924675.648   125725003.85346     -3499.574    23924671.576    97967539.58541
     -2726.949  
  22058619.420   117584854.11908     -1906.491    22058624.760    91454933.01207
     -1482.832  
  20053175.462   107007595.61907      1957.820           0.000           0.0000 
         0.000  
  20774342.298   111167698.87208     -1932.394    20774345.667    86463793.80507
     -1502.977  
  21057697.466   112525958.48108      1982.843    21057702.825    87520231.53408
      1542.211  
  21722228.800   115954727.01104      2014.796    21722232.583    90187036.60303
      1567.062  
  20121058.986   107558619.31508     -1958.038    20121063.885    83656743.13208
     -1522.922  
 20 10 01 07 30 20.0000000  0 14G27G15G18G21G24G20G10G13R14R 6R21R15
                                R22R 5
  24359373.691   128009354.17646     -1780.949    24359372.797    99747565.85748
     -1387.758  
  21324816.176   112062699.67649     -2547.120    21324816.060    87321583.14249
     -1984.772  
  21692595.419   113995370.36348     -2803.086    21692596.143    88827570.07046
     -2184.227  
  24688321.079   129738001.55545      2632.487    24688322.812   101094554.27354
      2051.288  
  20890629.996   109781010.87349      1568.390    20890632.766    85543671.41649
      1222.116  
  20005269.909   105128404.08649       537.140    20005268.847    81918257.41948
       418.551  
  21938085.014   115285437.86149      2528.147    21938086.163    89832818.41249
      1969.980  
  23928006.483   125742506.41546     -3500.969    23928002.644    97981177.84743
     -2728.030  
  22060409.862   117594397.40508     -1910.484    22060414.882    91462355.56507
     -1485.937  
  20051342.106   106997812.76407      1955.754           0.000           0.0000 
         0.000  
  20776150.109   111177372.86308     -1936.648    20776153.703    86471318.02708
     -1506.281  
  21055844.231   112516055.38708      1978.854    21055849.719    87512529.14008
      1539.109  
  21720342.996   115944662.93204      2011.116    21720347.172    90179208.97603
      1564.199  
  20122891.564   107568415.40308     -1959.863    20122896.416    83664362.31308
     -1524.339  
 20 10 01 07 30 25.0000000  0 14G27G15G18G21G24G20G10G13R14R 6R21R15
                                R22R 5
  24361068.742   128018261.91946     -1782.226    24361068.047    99754506.93447
     -1388.750  
  21327240.171   112075437.23149     -2547.897    21327239.829    87331508.50549
     -1985.378  
  21695263.106   114009389.37348     -2804.773    21695263.648    88838493.96346
     -2185.546  
  24685816.763   129724840.03745      2631.688    24685816.745   101084298.50343
      2050.659  
  20889139.111   109773175.28249      1565.883    20889141.644    85537565.76749
      1220.167  
  20004759.756   105125723.55849       535.152    20004758.692    81916168.70148
       416.999  
  21935679.754   115272797.54049      2527.827    21935680.737    89822968.81549
      1969.734  
  23931337.115   125760008.22546     -3499.875    23931336.581    97994815.76243
     -2727.175  
  22062203.473   117603957.45208     -1913.624    22062208.423    91469791.16607
     -1488.374  
  20049510.040   106988036.44407      1954.726           0.000           0.0000 
         0.000  
  20777961.280   111187064.86708     -1939.863    20777964.898    86478856.24308
     -1508.784  
  21053994.177   112506169.07308      1975.601    21053999.480    87504839.78708
      1536.577  
  21718460.819   115934616.24204      2007.437    21718465.079    90171394.87503
      1561.335  
  20124725.254   107578217.58808     -1960.941    20124730.163    83671986.23408
     -1525.180  
 20 10 01 07 30 30.0000000  0 14G27G15G18G21G24G20G10G13R14R 6R21R15
                                R22R 5
  24362766.181   128027181.98645     -1785.563    24362765.680    99761457.64348
     -1391.348  
  21329665.454   112088182.62049     -2549.995    21329665.067    87341439.98149
     -1987.012  
  21697932.897   114023419.15548     -2807.105    21697933.625    88849426.25946
     -2187.332  
  24683313.395   129711684.90545      2630.289    24683312.060   101074047.73743
      2049.563  
  20887651.070   109765355.47849      1562.270    20887653.716    85531472.42049
      1217.351  
  20004252.066   105123055.56549       532.246    20004250.972    81914089.73748
       414.734  
  21933275.620   115260163.29249      2526.159    21933276.543    89813123.94649
      1968.433  
  23934667.938   125777511.78846     -3501.207    23934666.828    98008454.84542
     -2728.215  
  22064000.643   117613536.84808     -1918.097    22064005.333    91477241.79807
     -1491.859  
  20047679.475   106978268.88707      1952.488           0.000           0.0000 
         0.000  
  20779776.365   111196777.50408     -1944.785    20779779.914    86486410.51408
     -1512.612  
  21052147.648   112496302.25408      1971.159    21052153.132    87497165.60508
      1533.124  
  21716582.197   115924589.56104      2003.460    21716586.845    90163596.35803
      1558.246  
  20126560.606   107588028.41008     -1963.266    20126565.316    83679616.87808
     -1526.984  
 20 10 01 07 30 35.0000000  0 14G27G15G18G21G24G20G10G13R14R 6R21R15
                                R22R 5
  24364466.205   128036115.89346     -1788.445    24364466.150    99768419.12948
     -1393.594  
  21332092.662   112100937.52549     -2552.379    21332092.235    87351378.86049
     -1988.871  
  21700604.970   114037461.27348     -2810.102    21700605.732    88860368.15445
     -2189.695  
  24680811.762   129698537.76245      2627.801    24680809.867   101063803.26845
      2047.637  
  20886166.472   109757553.11149      1558.129    20886168.937    85525392.65749
      1214.120  
  20003747.030   105120401.70749       528.852    20003745.954    81912021.80348
       412.094  
  21930872.803   115247536.68849      2524.086    21930874.099    89803285.02949
      1966.815  
  23937999.470   125795018.69846     -3502.371    23937999.784    98022096.55642
     -2729.136  
  22065801.897   117623137.26608     -1922.480    22065806.334    91484708.80007
     -1495.262  
  20045851.149   106968512.02507      1949.925           0.000           0.0000 
         0.000  
  20781595.557   111206512.43308     -1949.776    20781599.239    86493982.13108
     -1516.491  
  21050305.044   112486456.53008      1966.601    21050310.582    87489507.83108
      1529.577  
  21714707.873   115914584.60704      1999.027    21714712.550    90155814.70003
      1554.793  
  20128397.795   107597849.64308     -1965.815    20128402.624    83687255.61008
     -1528.972  
 20 10 01 07 30 40.0000000  0 14G27G15G18G21G24G20G10G13R14R 6R21R15
                                R22R 5
  24366169.178   128045064.51446     -1790.679    24366169.295    99775392.06648
     -1395.340  
  21334521.758   112113702.63949     -2553.640    21334521.347    87361325.70049
     -1989.854  
  21703279.533   114051516.47948     -2812.113    21703280.255    88871320.25346
     -2191.261  
  24678311.805   129685399.40445      2626.940    24678308.556   101053565.53443
      2046.964  
  20884685.106   109749768.95349      1555.171    20884687.821    85519327.07649
      1211.816  
  20003244.826   105117762.76549       526.473    20003243.879    81909965.48348
       410.238  
  21928471.669   115234918.48849      2522.999    21928472.906    89793452.66749
      1965.972  
  23941331.751   125812529.73446     -3502.683    23941332.639    98035741.44943
     -2729.367  
  22067607.118   117632759.48308     -1926.617    22067611.476    91492192.75007
     -1498.479  
  20044024.665   106958766.71407      1947.835           0.000           0.0000 
         0.000  
  20783419.092   111216270.37808     -1953.640    20783422.632    86501571.64508
     -1519.500  
  21048466.601   112476632.82008      1962.758    21048472.374    87481867.16808
      1526.586  
  21712837.826   115904602.22905      1994.632    21712842.544    90148050.62703
      1551.379  
  20130237.201   107607682.00908     -1967.351    20130242.085    83694903.00608
     -1530.168  
 20 10 01 07 30 45.0000000  0 14G27G15G18G21G24G20G10G13R14R 6R21R15
                                R22R 5
  24367874.431   128054025.83546     -1793.438    24367874.565    99782374.89148
     -1397.488  
  21336952.394   112126475.90149     -2555.504    21336951.928    87371278.89549
     -1991.301  
  21705956.172   114065582.81448     -2814.387    21705956.951    88882281.03246
     -2193.030  
  24675812.945   129672267.92745      2625.894    24675810.085   101043333.27843
      2046.152  
  20883207.165   109742001.03849      1551.925    20883209.622    85513274.16049
      1209.292  
  20002745.093   105115136.74749       524.069    20002744.209    81907919.22948
       408.363  
  21926071.675   115222306.77549      2521.687    21926073.145    89783625.36049
      1964.948  
  23944664.537   125830042.89246     -3502.605    23944665.124    98049388.04343
     -2729.313  
  22069416.030   117642401.37708     -1930.327    22069420.179    91499691.99707
     -1501.371  
  20042200.164   106949030.73507      1946.319           0.000           0.0000 
         0.000  
  20785246.507   111226049.37008     -1957.906    20785250.100    86509177.52308
     -1522.815  
  21046631.881   112466828.91608      1958.718    21046637.533    87474241.90408
      1523.444  
  21710971.645   115894640.27105      1990.339    21710976.410    90140302.44103
      1548.042  
  20132078.155   107617523.40308     -1969.188    20132082.970    83702557.42108
     -1531.594  
 20 10 01 07 30 50.0000000  0 14G27G15G18G21G24G20G10G13R14R 6R21R15
                                R22R 5
  24369581.674   128062997.27246     -1795.585    24369581.925    99789365.62148
     -1399.160  
  21339384.145   112139254.80849     -2556.555    21339383.749    87381236.48449
     -1992.120  
  21708634.562   114079657.75348     -2815.991    21708635.132    88893248.51546
     -2194.281  
  24673315.010   129659140.75445      2624.636    24673312.405   101033104.32245
      2045.156  
  20881731.498   109734246.79449      1549.324    20881733.856    85507231.89649
      1207.266  
  20002247.452   105112521.18749       521.980    20002246.483    81905881.12748
       406.734  
  21923672.612   115209699.02349      2521.034    21923674.153    89773801.13849
      1964.441  
  23947997.275   125847555.73846     -3502.828    23947998.275    98063034.51943
     -2729.464  
  22071228.103   117652060.58908     -1933.582    22071232.267    91507204.71207
     -1503.902  
  20040376.911   106939301.66307      1944.921           0.000           0.0000 
         0.000  
  20787077.345   111235846.77108     -1961.555    20787080.932    86516797.72008
     -1525.655  
  21044800.527   112457042.40108      1955.242    21044806.337    87466630.16408
      1520.737  
  21709108.891   115884696.17105      1987.163    21709113.666    90132568.14103
      1545.566  
  20133920.426   107627371.39508     -1970.491    20133925.044    83710216.96808
     -1532.608  
 20 10 01 07 30 55.0000000  0 14G27G15G18G21G24G20G10G13R14R 6R21R15
                                R22R 5
  24371291.246   128071981.06746     -1797.745    24371291.457    99796365.99648
     -1400.839  
  21341817.414   112152041.63049     -2558.246    21341817.038    87391200.24049
     -1993.441  
  21711315.043   114093743.49548     -2818.542    21711315.544    88904224.41946
     -2196.266  
  24670818.363   129646020.22645      2622.769    24670815.884   101022880.54841
      2043.706  
  20880259.060   109726508.45549      1545.874    20880261.506    85501202.02449
      1204.578  
  20001752.090   105109918.26249       519.191    20001750.935    81903852.87548
       404.562  
  21921274.485   115197097.46849      2519.535    21921276.118    89763981.74449
      1963.272  
  23951330.483   125865070.45946     -3503.457    23951330.878    98076682.25441
     -2729.979  
  22073043.899   117661739.24508     -1937.827    22073047.935    91514732.55307
     -1507.202  
  20038555.339   106929581.68307      1942.745           0.000           0.0000 
         0.000  
  20788912.107   111245664.95608     -1965.925    20788915.807    86524434.08208
     -1529.058  
  21042972.723   112447275.54808      1951.374    21042978.497    87459033.72008
      1517.729  
  21707249.739   115874772.45705      1982.879    21707254.573    90124849.69103
      1542.233  
  20135764.354   107637228.15308     -1972.284    20135769.028    83717883.32908
     -1534.003  
 20 10 01 07 31  0.0000000  0 14G27G15G18G21G24G20G10G13R14R 6R21R15
                                R22R 5
  24373003.414   128080979.29146     -1801.042    24373003.877    99803377.60148
     -1403.409  
  21344252.571   112164838.34349     -2560.085    21344252.064    87401171.70149
     -1994.875  
  21713998.012   114107842.05948     -2820.789    21713998.351    88915210.31246
     -2198.016  
  24668323.301   129632908.21245      2621.738    24668321.240   101012663.33444
      2042.905  
  20878790.035   109718788.30049      1542.370    20878792.342    85495186.32549
      1201.848  
  20001259.581   105107330.01649       516.437    20001258.560    81901836.05848
       402.413  
  21918878.069   115184504.12049      2518.062    21918879.792    89754168.75249
      1962.124  
  23954664.451   125882589.07646     -3504.237    23954664.871    98090333.11541
     -2730.569  
  22074863.627   117671439.35208     -1942.081    22074867.748    91522277.07907
     -1510.511  
  20036735.859   106919872.81107      1940.745           0.000           0.0000 
         0.000  
  20790751.188   111255505.87708     -1970.315    20790754.824    86532088.12508
     -1532.472  
  21041149.084   112437530.41508      1947.081    21041154.965    87451454.17608
      1514.398  
  21705394.982   115864871.01305      1978.120    21705399.818    90117148.56403
      1538.534  
  20137610.207   107647095.82609     -1974.483    20137614.951    83725558.18508
     -1535.715  
 20 10 01 07 31  5.0000000  0 14G27G15G18G21G24G20G10G13R14R 6R21R15
                                R22R 5
  24374717.829   128089989.28846     -1803.413    24374718.477    99810398.38048
     -1405.258  
  21346689.049   112177642.40249     -2561.495    21346688.542    87411148.89349
     -1995.977  
  21716682.687   114121950.87348     -2822.730    21716683.236    88926204.18646
     -2199.534  
  24665829.333   129619802.29045      2621.269    24665827.524   101002451.01542
      2042.554  
  20877323.847   109711083.33449      1539.371    20877326.098    85489182.45649
      1199.512  
  20000769.166   105104753.89549       514.179    20000768.164    81899828.68848
       400.655  
  21916482.593   115171916.46749      2516.898    21916484.698    89744360.18249
      1961.218  
  23957998.420   125900108.98346     -3504.184    23957998.309    98103985.04841
     -2730.527  
  22076686.904   117681158.35108     -1945.612    22076690.924    91529836.29907
     -1513.258  
  20034918.074   106910172.66807      1939.234           0.000           0.0000 
         0.000  
  20792594.006   111265366.91608     -1974.214    20792597.429    86539757.82008
     -1535.503  
  21039328.992   112427804.46008      1943.188    21039334.802    87443889.54208
      1511.362  
  21703543.574   115854989.32004      1974.668    21703548.653    90109462.80803
      1535.851  
  20139457.755   107656971.74809     -1976.199    20139462.341    83733239.46008
     -1537.042  
 20 10 01 07 31 10.0000000  0 14G27G15G18G21G24G20G10G13R14R 6R21R15
                                R22R 5
  24376434.882   128099013.68546     -1806.043    24376435.776    99817430.37349
     -1407.309  
  21349127.434   112190456.41849     -2563.699    21349127.005    87421133.83449
     -1997.691  
  21719370.033   114136072.53548     -2825.608    21719370.619    88937208.07046
     -2201.777  
  24663337.033   129606705.06945      2618.480    24663334.931   100992245.35642
      2040.375  
  20875861.083   109703396.48949      1535.777    20875863.273    85483192.71549
      1196.710  
  20000281.782   105102192.48949       510.921    20000280.683    81897832.78548
       398.116  
  21914088.844   115159337.07249      2515.008    21914091.072    89734558.05649
      1959.746  
  23961333.288   125917632.77446     -3505.465    23961332.430    98117639.93642
     -2731.527  
  22078514.136   117690898.80908     -1950.098    22078518.170    91537412.20607
     -1516.745  
  20033102.305   106900483.65607      1936.597           0.000           0.0000 
         0.000  
  20794441.108   111275250.69508     -1979.012    20794444.606    86547445.19908
     -1539.234  
  21037512.997   112418100.20908      1938.878    21037518.716    87436341.79208
      1508.015  
  21701696.322   115845129.93905      1969.710    21701701.790    90101794.41203
      1531.995  
  20141307.365   107666858.50309     -1978.464    20141311.932    83740929.16108
     -1538.800  
 20 10 01 07 31 15.0000000  0 14G27G15G18G21G24G20G10G13R14R 6R21R15
                                R22R 5
  24378154.413   128108050.69246     -1808.656    24378155.531    99824472.19749
     -1409.344  
  21351567.317   112203278.53149     -2564.917    21351567.170    87431125.08949
     -1998.640  
  21722059.473   114150205.19948     -2827.563    21722059.935    88948220.52946
     -2203.300  
  24660845.948   129593614.67145      2617.367    24660842.871   100982045.10044
      2039.535  
  20874401.354   109695725.84349      1532.558    20874403.637    85477215.59549
      1194.202  
  19999796.877   105099644.01849       508.527    19999795.626    81895846.96548
       396.249  
  21911696.242   115146764.14649      2514.171    21911698.417    89724760.97149
      1959.089  
  23964668.574   125935158.59846     -3505.632    23964667.502    98131296.34242
     -2731.664  
  22080345.166   117700658.98208     -1953.930    22080349.028    91545003.43207
     -1519.729  
  20031288.454   106890804.03707      1935.172           0.000           0.0000 
         0.000  
  20796292.162   111285155.40408     -1982.617    20796295.382    86555148.87007
     -1542.034  
  21035700.748   112408416.00208      1935.163    21035706.479    87428809.63108
      1505.125  
  21699853.237   115835291.11204      1965.414    21699858.481    90094141.99403
      1528.656  
  20143158.646   107676754.34909     -1979.699    20143162.973    83748625.92808
     -1539.780  
 20 10 01 07 31 20.0000000  0 14G27G15G18G21G24G20G10G13R14R 6R21R15
                                R22R 5
  24379876.499   128117100.88046     -1813.956    24379877.753    99831524.28449
     -1413.477  
  21354008.926   112216109.42649     -2569.472    21354008.800    87441123.18549
     -2002.191  
  21724751.002   114164349.52848     -2832.425    21724751.746    88959242.07646
     -2207.102  
  24658356.295   129580531.74245      2613.672    24658353.361   100971850.59745
      2036.624  
  20872945.040   109688072.23549      1526.616    20872947.158    85471251.74549
      1189.569  
  19999314.447   105097109.14249       503.312    19999313.239    81893871.73248
       392.187  
  21909304.952   115134198.36549      2510.027    21909307.486    89714969.44749
      1955.862  
  23968004.382   125952687.10745     -3508.328    23968003.222    98144965.90051
     -2733.762  
  22082180.061   117710439.37908     -1960.461    22082183.746    91552610.40807
     -1524.808  
  20029476.306   106881134.60307      1930.601           0.000           0.0000 
         0.000  
  20798147.147   111295081.67808     -1989.879    20798150.508    86562869.30408
     -1547.684  
  21033892.222   112398752.47908      1928.313    21033898.083    87421293.56208
      1499.796  
  21698013.835   115825473.47704      1958.625    21698019.551    90086506.06803
      1523.375  
  20145011.588   107686659.95309     -1984.531    20145016.223    83756330.28208
     -1543.527  
 20 10 01 07 31 25.0000000  0 14G27G15G18G21G24G20G10G13R14R 6R21R15
                                R22R 5
  24381605.465   128126186.06147     -1817.340    24381606.607    99838603.65249
     -1416.112  
  21356456.231   112228970.82149     -2571.784    21356456.277    87451145.04149
     -2003.991  
  21727449.028   114178527.25448     -2835.297    21727449.622    88970289.64646
     -2209.324  
  24655872.310   129567478.15445      2611.241    24655869.537   100961678.97445
      2034.737  
  20871495.954   109680457.26849      1522.547    20871498.256    85465318.01249
      1186.398  
  19998838.700   105094609.60449       499.668    19998837.685    81891924.04348
       389.347  
  21906919.198   115121661.45649      2508.027    21906921.908    89705200.43549
      1954.308  
  23971344.652   125970240.12646     -3509.147    23971343.606    98158643.65241
     -2734.386  
  22084022.828   117720262.20408     -1965.483    22084026.450    91560250.40207
     -1528.710  
  20027670.318   106871497.28107      1927.723           0.000           0.0000 
         0.000  
  20800010.333   111305051.64608     -1994.921    20800013.604    86570623.71708
     -1551.609  
  21032091.764   112389131.59608      1923.547    21032097.608    87413810.66308
      1496.093  
  21696182.768   115815699.18204      1954.843    21696188.298    90078903.83003
      1520.434  
  20146870.752   107696597.18609     -1987.276    20146875.262    83764059.23608
     -1545.590  
 20 10 01 07 31 30.0000000  0 14G27G15G18G21G24G20G10G13R14R 6R21R15
                                R22R 5
  24383333.903   128135269.22247     -1816.733    24383335.165    99845681.43349
     -1415.640  
  21358902.432   112241825.78549     -2571.022    21358902.289    87461161.89549
     -2003.398  
  21730146.291   114192701.46748     -2835.180    21730146.946    88981334.48446
     -2209.233  
  24653386.630   129554416.91245      2612.223    24653385.509   100951492.32653
      2035.499  
  20870047.063   109672843.98349      1521.854    20870049.329    85459385.58549
      1185.862  
  19998362.764   105092108.48449       499.695    19998361.654    81889975.12048
       389.366  
  21904531.888   115109116.55849      2509.098    21904534.854    89695425.19149
      1955.137  
  23974682.489   125987780.70406     -3506.964           0.000           0.0000 
         0.000  
  22085866.343   117730089.90008     -1966.715    22085870.132    91567894.17207
     -1529.668  
  20025863.226   106861854.70007      1928.452           0.000           0.0000 
         0.000  
  20801874.604   111315027.64608     -1996.320    20801877.901    86578382.82208
     -1552.699  
  21030292.443   112379516.00708      1922.094    21030298.065    87406331.88308
      1494.960  
  21694352.435   115805930.70704      1952.805    21694358.450    90071306.14303
      1518.847  
  20148728.585   107706528.89609     -1986.395    20148733.089    83771783.89908
     -1544.973  
 20 10 01 07 31 35.0000000  0 14G27G15G18G21G24G20G10G13R14R 6R21R15
                                R22R 5
  24385063.680   128144359.26046     -1819.069    24385065.016    99852764.57249
     -1417.461  
  21361349.169   112254683.16649     -2572.035    21361349.035    87471180.62949
     -2004.187  
  21732844.513   114206880.93848     -2836.652    21732845.260    88992383.40946
     -2210.410  
  24650901.357   129541356.86845      2611.750    24650899.600   100941315.85143
      2035.160  
  20868600.445   109665241.26949      1519.179    20868602.595    85453461.38949
      1183.773  
  19997888.139   105089614.59449       497.871    19997886.869    81888031.82948
       387.949  
  21902144.759   115096572.45449      2508.319    21902147.781    89685650.55849
      1954.531  
  23978019.864   126005317.59945     -3506.636    23978016.948    98185970.71954
     -2732.445  
  22087712.634   117739931.41908     -1970.141    22087716.195    91575548.68407
     -1532.331  
  20024056.903   106852215.87507      1927.077           0.000           0.0000 
         0.000  
  20803741.695   111325018.79408     -2000.077    20803745.069    86586153.71907
     -1555.616  
  21028495.577   112369914.62808      1918.582    21028501.421    87398864.15708
      1492.230  
  21692525.112   115796177.02004      1948.897    21692531.103    90063719.93103
      1515.804  
  20150587.187   107716463.75309     -1987.616    20150591.849    83779511.00908
     -1545.871  
 20 10 01 07 31 40.0000000  0 15G 8G27G15G18G21G24G20G10G13R14R 6R21
                                R15R22R 5
  24609131.430   129321859.76854       -43.613    24609134.522   100770293.61857
       -33.984  
  24386795.227   128153458.57147     -1819.460    24386796.580    99859854.94549
     -1417.766  
  21363796.665   112267545.40549     -2571.511    21363796.714    87481203.15349
     -2003.777  
  21735544.455   114221068.13348     -2836.745    21735545.036    89003438.35646
     -2210.456  
  24648416.718   129528300.53345      2612.254    24648414.090   100931142.00845
      2035.520  
  20867156.131   109657651.56449      1518.004    20867158.277    85447547.33849
      1182.858  
  19997415.466   105087130.39849       497.241    19997414.295    81886096.09048
       387.460  
  21899758.252   115084031.62049      2509.233    21899761.434    89675878.48949
      1955.245  
  23981356.915   126022853.39345     -3506.093    23981353.863    98199635.01244
     -2732.023  
  22089561.902   117749789.24507     -1971.906    22089565.372    91583215.89107
     -1533.703  
  20022251.896   106842583.10907      1927.237           0.000           0.0000 
         0.000  
  20805612.119   111335027.46908     -2002.237    20805615.587    86593938.24408
     -1557.300  
  21026702.107   112360330.02408      1916.609    21026707.614    87391409.47308
      1490.694  
  21690700.802   115786440.57504      1947.063    21690707.318    90056147.16703
      1514.383  
  20152446.906   107726404.33009     -1987.387    20152451.282    83787242.57008
     -1545.749  
 20 10 01 07 31 45.0000000  0 15G 8G27G15G18G21G24G20G10G13R14R 6R21
                                R15R22R 5
  24609175.144   129322088.23445       -48.270    24609177.815   100770471.64447
       -37.617  
  24388526.947   128162558.57047     -1821.909    24388528.296    99866945.84349
     -1419.675  
  21366243.427   112280403.91449     -2573.456    21366243.430    87491222.76349
     -2005.297  
  21738244.026   114235254.47648     -2839.289    21738244.570    89014492.65246
     -2212.437  
  24645931.283   129515239.29845      2610.257    24645928.617   100920964.37843
      2033.965  
  20865712.743   109650066.38649      1514.491    20865714.707    85441636.81549
      1180.124  
  19996942.979   105084647.33849       494.409    19996941.724    81884161.24348
       385.254  
  21897370.756   115071485.49249      2507.617    21897374.092    89666102.28849
      1953.984  
  23984692.122   126040379.33545     -3505.960    23984689.919    98213291.57343
     -2731.918  
  22091412.435   117759654.72108     -1975.925    22091416.208    91590889.03907
     -1536.831  
  20020446.099   106832947.68507      1925.266           0.000           0.0000 
         0.000  
  20807484.098   111345044.96208     -2006.598    20807487.547    86601729.61308
     -1560.691  
  21024909.982   112350753.42408      1912.270    21024915.472    87383961.01708
      1487.319  
  21688878.265   115776712.77704      1942.421    21688884.990    90048581.13903
      1510.777  
  20154305.883   107736341.81309     -1989.323    20154310.232    83794971.71708
     -1547.258  
 20 10 01 07 31 50.0000000  0 14G 8G27G15G18G21G24G20G10R14R 6R21R15
                                R22R 5
  24609223.904   129322341.78045       -52.858    24609225.797   100770669.18847
       -41.195  
  24390262.869   128171680.83847     -1826.527    24390264.417    99874054.09548
     -1423.270  
  21368693.801   112293280.21749     -2576.848    21368693.786    87501256.25049
     -2007.933  
  21740947.609   114249461.49149     -2843.098    21740948.255    89025563.04046
     -2215.406  
  24643448.816   129502194.78345      2607.417    24643446.042   100910799.83643
      2031.757  
  20864274.304   109642507.27749      1509.484    20864276.271    85435746.59849
      1176.218  
  19996474.682   105082186.97949       489.933    19996473.541    81882244.07948
       381.765  
  21894986.321   115058955.63649      2504.640    21894989.686    89656338.76049
      1951.664  
  22093268.592   117769549.64107     -1981.729    22093272.317    91598585.04806
     -1541.358  
  20018643.974   106823331.54607      1921.617           0.000           0.0000 
         0.000  
  20809361.993   111355093.11208     -2012.526    20809365.261    86609544.84208
     -1565.304  
  21023123.437   112341206.82408      1906.617    21023128.631    87376535.87907
      1482.922  
  21687061.630   115767015.55103      1936.598    21687068.194    90041038.85903
      1506.241  
  20156168.605   107746298.38209     -1993.101    20156172.770    83802715.71708
     -1550.194  
 20 10 01 07 31 55.0000000  0 14G 8G27G15G18G21G24G20G10R14R 6R21R15
                                R22R 5
  24609276.652   129322615.63245       -56.608    24609278.182   100770882.62946
       -44.104  
  24392002.184   128180820.53347     -1829.367    24392003.379    99881175.91548
     -1425.483  
  21371146.446   112306169.51649     -2579.043    21371146.323    87511299.85549
     -2009.647  
  21743654.235   114263684.40848     -2846.073    21743654.578    89036645.82646
     -2217.722  
  24640968.756   129489162.13545      2605.469    24640966.257   100900644.53144
      2030.233  
  20862839.867   109634969.41549      1505.625    20862841.720    85429872.94649
      1173.214  
  19996010.006   105079744.50049       486.816    19996008.581    81880340.83648
       379.332  
  21892604.211   115046437.28649      2502.562    21892607.670    89646584.21349
      1950.047  
  22095129.475   117779469.10307     -1986.292    22095132.977    91606300.17706
     -1544.898  
  20016844.749   106813730.00707      1919.030           0.000           0.0000 
         0.000  
  20811244.588   111365167.22608     -2017.284    20811248.008    86617380.26508
     -1569.000  
  21021341.710   112331685.31408      1901.941    21021346.876    87369130.28307
      1479.288  
  21685249.778   115757344.01404      1931.938    21685256.406    90033516.52903
      1502.612  
  20158033.746   107756268.94109     -1995.418    20158037.984    83810470.59408
     -1551.991  
 20 10 01 07 32  0.0000000  0 14G 8G27G15G18G21G24G20G10R14R 6R21R15
                                R22R 5
  24609332.281   129322906.62246       -58.858    24609333.664   100771109.35246
       -45.867  
  24393744.217   128189974.41347     -1831.297    24393745.288    99888308.80448
     -1426.987  
  21373601.026   112319068.54449     -2580.258    21373601.072    87521351.04849
     -2010.589  
  21746363.174   114277919.94749     -2847.819    21746363.617    89047738.44846
     -2219.086  
  24638490.180   129476138.16145      2604.598    24638487.783   100890495.94044
      2029.554  
  20861408.868   109627449.46349      1502.757    20861410.859    85424013.24449
      1170.980  
  19995547.978   105077316.68249       484.730    19995546.822    81878449.03848
       377.710  
  21890223.635   115033927.18149      2501.733    21890227.117    89636836.08749
      1949.402  
  22096994.156   117789409.87008     -1989.507    22096997.464    91614031.89106
     -1547.397  
  20015047.322   106804139.58907      1917.602           0.000           0.0000 
         0.000  
  20813131.247   111375263.77608     -2020.973    20813134.845    86625233.11508
     -1571.870  
  21019563.954   112322185.56008      1898.363    21019568.960    87361741.58107
      1476.500  
  21683442.269   115747694.84404      1928.448    21683448.804    90026011.64103
      1499.906  
  20159901.141   107766250.33309     -1996.633    20159905.113    83818233.90308
     -1552.937  
 20 10 01 07 32  5.0000000  0 14G 8G27G15G18G21G24G20G10R14R 6R21R15
                                R22R 5
  24609390.660   129323210.78045       -62.581    24609391.130   100771346.35346
       -48.770  
  24395488.040   128199138.73446     -1834.207    24395489.131    99895449.83248
     -1429.258  
  21376056.747   112331973.56949     -2581.965    21376056.556    87531406.90649
     -2011.926  
  21749074.016   114292164.32949     -2849.944    21749074.123    89058837.95746
     -2220.742  
  24636012.626   129463119.03145      2602.960    24636010.137   100880351.27042
      2028.293  
  20859980.548   109619943.77749      1499.410    20859982.454    85418164.66549
      1168.371  
  19995088.038   105074899.80349       481.909    19995086.761    81876565.76048
       375.515  
  21887843.785   115021421.57949      2500.340    21887847.280    89627091.45849
      1948.313  
  22098862.428   117799368.12608     -1993.668    22098865.549    91621777.20606
     -1550.629  
  20013251.444   106794556.50407      1915.542           0.000           0.0000 
         0.000  
  20815021.641   111385379.03608     -2025.237    20815024.996    86633100.54408
     -1575.187  
  21017789.570   112312703.84908      1894.305    21017794.399    87354366.91607
      1473.347  
  21681638.347   115738064.29305      1924.137    21681644.747    90018521.22003
      1496.551  
  20161769.659   107776238.50409     -1998.598    20161773.710    83826002.47508
     -1554.469  
 20 10 01 07 32 10.0000000  0 14G 8G27G15G18G21G24G20G10R14R 6R21R15
                                R22R 5
  24609451.877   129323531.16645       -65.383    24609451.686   100771595.97447
       -50.953  
  24397234.554   128208316.23047     -1837.280    24397235.639    99902601.11449
     -1431.651  
  21378514.199   112344887.35049     -2583.878    21378514.020    87541469.59149
     -2013.418  
  21751786.942   114306420.35248     -2852.409    21751787.074    89069946.56646
     -2222.655  
  24633536.363   129450107.68144      2601.188    24633534.219   100870212.51543
      2026.891  
  20858555.633   109612455.20749      1495.933    20858557.473    85412329.42049
      1165.664  
  19994630.783   105072496.66548       479.074    19994629.628    81874693.19048
       373.305  
  21885465.491   115008923.27649      2498.852    21885468.866    89617352.53249
      1947.155  
  22100734.284   117809346.60708     -1997.816    22100737.399    91629538.25807
     -1553.855  
  20011457.520   106784983.56007      1913.550           0.000           0.0000 
         0.000  
  20816915.781   111395515.83608     -2029.746    20816919.244    86640984.70808
     -1578.695  
  21016019.271   112303243.03609      1890.183    21016023.986    87347008.52207
      1470.145  
  21679838.469   115728455.04805      1919.164    21679844.569    90011047.37303
      1492.683  
  20163640.070   107786236.48809     -2000.694    20163643.979    83833778.68208
     -1556.101  
 20 10 01 07 32 15.0000000  0 14G 8G27G15G18G21G24G20G10R14R 6R21R15
                                R22R 5
  24609516.318   129323869.05246       -69.207    24609516.247   100771859.25046
       -53.929  
  24398983.646   128217508.33146     -1839.512    24398984.665    99909763.80349
     -1433.386  
  21380973.567   112357811.35249     -2585.535    21380973.446    87551540.24749
     -2014.702  
  21754502.311   114320689.46549     -2854.726    21754502.491    89081065.34147
     -2224.468  
  24631062.086   129437105.45145      2599.858    24631059.799   100860080.87045
      2025.854  
  20857134.153   109604985.12349      1492.418    20857135.948    85406508.57449
      1162.918  
  19994176.364   105070108.77348       476.168    19994175.195    81872832.48648
       371.034  
  21883088.733   114996433.73549      2497.531    21883092.140    89607620.42449
      1946.125  
  22102610.250   117819346.84108     -2001.855    22102613.392    91637316.20706
     -1557.004  
  20009665.827   106775422.49207      1911.327           0.000           0.0000 
         0.000  
  20818814.392   111405675.55908     -2034.050    20818817.847    86648886.71708
     -1582.043  
  21014252.973   112293804.56809      1885.812    21014257.648    87339667.50307
      1466.741  
  21678042.612   115718868.86005      1915.479    21678048.753    90003591.41703
      1489.808  
  20165512.502   107796245.74209     -2002.616    20165516.393    83841563.64808
     -1557.594  
 20 10 01 07 32 20.0000000  0 14G 8G27G15G18G21G24G20G10R14R 6R21R15
                                R22R 5
  24609583.613   129324221.63046       -71.804    24609582.886   100772134.03046
       -55.949  
  24400734.976   128226712.41446     -1842.352    24400736.069    99916935.78949
     -1435.601  
  21383434.238   112370742.83149     -2587.184    21383434.100    87561616.71549
     -2015.992  
  21757219.591   114334968.89748     -2856.979    21757219.826    89092192.15246
     -2226.266  
  24628588.923   129424109.67545      2598.835    24628587.257   100849954.34844
      2025.069  
  20855715.554   109597530.83249      1489.066    20855717.603    85400700.03549
      1160.313  
  19993724.389   105067733.31248       473.594    19993723.228    81870981.47948
       369.031  
  21880713.329   114983950.24449      2496.090    21880716.641    89597893.02849
      1944.999  
  22104490.019   117829366.00708     -2005.879    22104492.678    91645108.87206
     -1560.133  
  20007875.709   106765870.36107      1909.391           0.000           0.0000 
         0.000  
  20820716.727   111415855.55508     -2038.214    20820720.253    86656804.49308
     -1585.281  
  21012490.374   112284385.70809      1881.715    21012494.913    87332341.70707
      1463.551  
  21676250.664   115709302.78705      1911.250    21676256.754    89996151.12403
      1486.523  
  20167386.603   107806263.32009     -2004.487    20167390.524    83849355.10208
     -1559.050  
 20 10 01 07 32 25.0000000  0 14G 8G27G15G18G21G24G20G10R14R 6R21R15
                                R22R 5
  24609653.931   129324590.24645       -75.581    24609652.722   100772421.24846
       -58.898  
  24402488.843   128235929.42146     -1845.120    24402489.936    99924117.86449
     -1437.761  
  21385896.624   112383682.84749     -2588.882    21385896.442    87571699.84349
     -2017.315  
  21759939.129   114349259.76048     -2859.362    21759939.132    89103327.88346
     -2228.078  
  24626117.300   129411121.45745      2596.714    24626115.310   100839833.66744
      2023.413  
  20854300.388   109590093.36749      1485.746    20854302.181    85394904.61849
      1157.722  
  19993274.882   105065371.41948       470.980    19993273.937    81869141.05048
       366.995  
  21878339.068   114971473.89149      2494.378    21878342.341    89588171.19949
      1943.671  
  22106373.302   117839405.24907     -2010.007    22106376.030    91652917.17506
     -1563.343  
  20006087.574   106756328.18807      1907.391           0.000           0.0000 
         0.000  
  20822622.908   111426056.70008     -2042.487    20822626.513    86664738.72007
     -1588.605  
  21010731.725   112274987.58309      1877.336    21010736.266    87325032.05907
      1460.145  
  21674462.705   115699758.00805      1906.960    21674468.665    89988727.43403
      1483.191  
  20169262.372   107816290.47909     -2006.551    20169266.070    83857153.99808
     -1560.655  
 20 10 01 07 32 30.0000000  0 14G 8G27G15G18G21G24G20G10R14R 6R21R15
                                R22R 5
  24609727.416   129324976.37945       -78.277    24609726.046   100772722.15445
       -60.999  
  24404245.556   128245161.04246     -1847.370    24404246.761    99931311.33049
     -1439.515  
  21388361.111   112396633.09949     -2590.683    21388360.756    87581790.95249
     -2018.718  
  21762661.113   114363563.72648     -2861.926    21762661.024    89114473.82446
     -2230.073  
  24623647.351   129398142.53945      2595.508    24623645.858   100829720.20644
      2022.469  
  20852888.648   109582674.46549      1482.207    20852890.427    85389123.65649
      1154.964  
  19992828.231   105063024.75348       468.211    19992827.312    81867312.47648
       364.836  
  21875966.729   114959006.38549      2492.827    21875969.728    89578456.24549
      1942.461  
  22108260.775   117849466.25708     -2014.233    22108263.311    91660742.38806
     -1566.629  
  20004301.500   106746797.85407      1905.051           0.000           0.0000 
         0.000  
  20824533.449   111436280.89108     -2046.863    20824537.081    86672690.87007
     -1592.004  
  21008977.171   112265611.96609      1873.070    21008981.469    87317739.91407
      1456.828  
  21672679.009   115690236.23605      1902.593    21672684.879    89981321.61703
      1479.796  
  20171140.203   107826328.96509     -2008.637    20171144.043    83864961.70708
     -1562.277  
 20 10 01 07 32 35.0000000  0 14G 8G27G15G18G21G24G20G10R14R 6R21R15
                                R22R 5
  24609803.472   129325376.43046       -81.469    24609801.731   100773033.88445
       -63.479  
  24406004.148   128254403.60146     -1849.679    24406005.566    99938513.31148
     -1441.313  
  21390826.579   112409589.78049     -2592.222    21390826.536    87591887.06749
     -2019.918  
  21765384.792   114377876.97548     -2863.895    21765384.620    89125626.99546
     -2231.609  
  24621178.547   129385169.01045      2593.796    24621176.889   100819610.97444
      2021.136  
  20851479.751   109575270.31949      1479.120    20851481.579    85383354.19349
      1152.562  
  19992383.888   105060689.55748       465.797    19992382.890    81865492.83148
       362.953  
  21873595.159   114946543.91949      2491.797    21873598.095    89568745.24349
      1941.660  
  22110151.567   117859545.15108     -2017.875    22110153.947    91668581.54906
     -1569.456  
  20002517.054   106737275.27107      1903.378           0.000           0.0000 
         0.000  
  20826447.740   111446524.14908     -2050.722    20826451.338    86680657.84907
     -1595.011  
  21007226.188   112256254.87209      1869.265    21007230.536    87310462.17407
      1453.870  
  21670898.829   115680733.54605      1898.910    21670904.768    89973930.64503
      1476.929  
  20173019.523   107836374.85109     -2010.089    20173023.447    83872775.17508
     -1563.440  
 20 10 01 07 32 40.0000000  0 14G 8G27G15G18G21G24G20G10R14R 6R21R15
                                R22R 5
  24609882.591   129325792.39346       -84.520    24609880.378   100773357.99045
       -65.863  
  24407765.339   128263659.06846     -1851.715    24407766.871    99945725.34349
     -1442.898  
  21393293.950   112422555.02849     -2593.624    21393293.503    87601989.85349
     -2021.011  
  21768110.763   114392201.64548     -2865.723    21768110.630    89136789.08046
     -2233.035  
  24618711.055   129372203.03445      2593.223    24618709.667   100809507.61045
      2020.688  
  20850074.072   109567883.08349      1476.104    20850075.645    85377597.90849
      1150.210  
  19991942.035   105058367.97949       463.015    19991941.133    81863683.81448
       360.793  
  21871225.090   114934088.65049      2490.827    21871227.684    89559039.83649
      1940.906  
  22112046.147   117869644.04608     -2021.465    22112048.570    91676436.23406
     -1572.254  
  20000734.329   106727762.74507      1901.870           0.000           0.0000 
         0.000  
  20828365.730   111456788.75908     -2054.733    20828369.683    86688641.43107
     -1598.128  
  21005479.111   112246918.52309      1865.516    21005483.245    87303200.56807
      1450.953  
  21669122.820   115671252.34205      1894.655    21669128.750    89966556.38703
      1473.621  
  20174900.705   107846430.31709     -2011.722    20174904.522    83880596.09207
     -1564.676  
 20 10 01 07 32 45.0000000  0 14G 8G27G15G18G21G24G20G10R14R 6R21R15
                                R22R 5
  24609964.299   129326222.99046       -87.691    24609962.044   100773693.52445
       -68.335  
  24409528.556   128272926.30446     -1855.062    24409530.358    99952946.55949
     -1445.508  
  21395762.471   112435527.60049     -2595.437    21395762.170    87612098.35049
     -2022.417  
  21770838.665   114406536.51948     -2868.215    21770838.402    89147959.10246
     -2234.976  
  24616244.838   129359243.53845      2591.089    24616243.895   100799409.27943
      2019.031  
  20848671.254   109560511.72649      1472.476    20848672.884    85371853.99349
      1147.379  
  19991502.644   105056058.77949       460.367    19991501.829    81861884.43948
       358.727  
  21868856.172   114921639.37449      2488.988    21868858.750    89549339.10449
      1939.469  
  22113944.061   117879761.71707     -2025.624    22113946.594    91684305.52506
     -1575.488  
  19998953.456   106718259.16607      1899.719           0.000           0.0000 
         0.000  
  20830287.600   111467073.39108     -2059.315    20830291.635    86696640.59107
     -1601.695  
  21003735.577   112237601.73009      1861.261    21003739.805    87295954.18607
      1447.647  
  21667350.500   115661791.23105      1890.159    21667356.333    89959197.73903
      1470.121  
  20176783.409   107856494.10309     -2013.820    20176787.034    83888423.48108
     -1566.289  
 20 10 01 07 32 50.0000000  0 14G 8G27G15G18G21G24G20G10R14R 6R21R15
                                R22R 5
  24610049.672   129326671.59745       -91.163    24610047.270   100774043.10546
       -71.031  
  24411294.655   128282208.65046     -1857.363    24411296.779    99960179.54049
     -1447.305  
  21398233.067   112448510.79749     -2597.563    21398232.830    87622215.13449
     -2024.073  
  21773569.034   114420884.89648     -2870.969    21773568.533    89159139.65846
     -2237.121  
  24613780.467   129346293.80945      2589.027    24613779.612   100789318.61144
      2017.421  
  20847272.202   109553159.44149      1468.586    20847273.800    85366124.94549
      1144.352  
  19991066.307   105053765.28149       457.172    19991065.445    81860097.30248
       356.237  
  21866488.961   114909199.43949      2487.194    21866491.271    89539645.64249
      1938.070  
  22115846.297   117889901.57707     -2030.234    22115849.077    91692192.07806
     -1579.074  
  19997174.686   106708767.81007      1896.969           0.000           0.0000 
         0.000  
  20832213.825   111477381.44708     -2063.843    20832217.921    86704657.94408
     -1605.219  
  21001996.347   112228307.93509      1856.531    21002000.470    87288725.67707
      1443.965  
  21665582.571   115652353.62805      1885.522    21665588.521    89951857.39303
      1466.520  
  20178668.147   107866569.63809     -2016.008    20178671.983    83896260.00508
     -1568.069  
 20 10 01 07 32 55.0000000  0 14G 8G27G15G18G21G24G20G10R14R 6R21R15
                                R22R 5
  24610137.810   129327135.51446       -94.391    24610135.566   100774404.56845
       -73.559  
  24413063.335   128291503.28346     -1860.543    24413065.692    99967422.09949
     -1449.777  
  21400705.206   112461501.91049     -2599.097    21400704.956    87632338.07749
     -2025.273  
  21776301.473   114435243.99148     -2872.934    21776300.967    89170328.54846
     -2238.652  
  24611317.506   129333351.08044      2587.495    24611316.883   100779233.30344
      2016.219  
  20845876.205   109545823.48849      1465.449    20845877.906    85360408.61849
      1141.906  
  19990632.258   105051484.74049       454.679    19990631.509    81858320.24948
       354.293  
  21864123.089   114896766.07449      2485.879    21864125.259    89529957.31249
      1937.047  
  22117752.105   117900060.79407     -2033.761    22117754.948    91700093.68106
     -1581.820  
  19995397.684   106699285.94907      1895.382           0.000           0.0000 
         0.000  
  20834143.961   111487710.05608     -2067.961    20834148.302    86712691.30708
     -1608.418  
  21000261.078   112219034.37208      1852.477    21000265.022    87281512.91707
      1440.816  
  21663818.516   115642936.85605      1881.222    21663824.588    89944533.21803
      1463.167  
  20180554.535   107876653.96609     -2017.960    20180558.375    83904103.37208
     -1569.527  
 20 10 01 07 33  0.0000000  0 14G 8G27G15G18G21G24G20G10R14R 6R21R15
                                R22R 5
  24610229.116   129327615.64545       -97.816    24610226.624   100774778.71945
       -76.223  
  24414834.419   128300811.01745     -1862.879    24414836.829    99974674.89049
     -1451.593  
  21403179.009   112474501.80448     -2600.921    21403178.535    87642467.87449
     -2026.691  
  21779036.182   114449614.73348     -2875.179    21779035.600    89181526.54046
     -2240.397  
  24608856.049   129320416.31544      2585.938    24608855.614   100769154.31841
      2015.019  
  20844483.459   109538504.65249      1462.069    20844485.208    85354705.62849
      1139.277  
  19990201.036   105049218.05949       452.065    19990200.259    81856554.00748
       352.258  
  21861758.546   114884340.18749      2484.477    21861760.532    89520274.80749
      1935.957  
  22119661.772   117910240.30007     -2037.957    22119664.969    91708011.05706
     -1585.082  
  19993622.828   106689814.35507      1893.183           0.000           0.0000 
         0.000  
  20836078.017   111498060.17308     -2072.152    20836082.482    86720741.39407
     -1611.679  
  20998529.493   112209781.84009      1848.242    20998533.681    87274316.50708
      1437.522  
  21662058.459   115633541.70905      1877.203    21662064.377    89937225.90103
      1460.047  
  20182443.037   107886748.09209     -2019.930    20182446.705    83911954.35908
     -1571.054  
 20 10 01 07 33  5.0000000  0 14G 8G27G15G18G21G24G20G10R14R 6R21R15
                                R22R 5
  24610323.299   129328111.70245      -100.655    24610321.461   100775165.24646
       -78.438  
  24416607.731   128310131.67845     -1865.058    24416610.692    99981937.71949
     -1453.300  
  21405654.543   112487510.16349     -2602.429    21405654.115    87652604.24249
     -2027.871  
  21781772.989   114463996.78448     -2877.438    21781772.405    89192733.33046
     -2242.164  
  24606395.837   129307488.97144      2584.805    24606395.614   100759081.09144
      2014.273  
  20843093.942   109531202.75149      1458.702    20843095.688    85349015.84149
      1136.652  
  19989772.112   105046964.92749       449.487    19989771.449    81854798.32148
       350.250  
  21859395.330   114871921.46849      2483.171    21859397.265    89510597.87449
      1934.934  
  22121574.968   117920439.58607     -2041.952    22121578.471    91715943.85907
     -1588.187  
  19991849.577   106680352.85007      1891.047           0.000           0.0000 
         0.000  
  20838016.067   111508431.41308     -2076.265    20838020.535    86728807.91007
     -1614.879  
  20996802.071   112200550.14408      1844.206    20996806.200    87267136.29908
      1434.383  
  21660302.440   115624167.83305      1872.305    21660308.622    89929935.11803
      1456.237  
  20184333.032   107896851.78909     -2021.612    20184336.725    83919812.77908
     -1572.370  
 20 10 01 07 33 10.0000000  0 14G 8G27G15G18G21G24G20G10R14R 6R21R15
                                R22R 5
  24610420.443   129328623.44845      -103.801    24610419.238   100775564.03246
       -80.879  
  24418383.699   128319465.01945     -1867.683    24418387.015    99989210.43249
     -1455.339  
  21408131.414   112500526.83149     -2603.944    21408131.170    87662747.11949
     -2029.047  
  21784511.852   114478389.94948     -2879.559    21784511.169    89203948.76746
     -2243.816  
  24603937.315   129294569.16245      2583.238    24603937.276   100749013.66944
      2012.913  
  20841707.652   109523917.56449      1455.500    20841709.568    85343339.06349
      1134.152  
  19989346.064   105044725.18449       446.859    19989345.325    81853053.07348
       348.203  
  21857033.415   114859509.77049      2481.925    21857035.482    89500926.42149
      1933.965  
  22123491.907   117930658.76307     -2045.457    22123495.955    91723892.07906
     -1590.914  
  19990078.450   106670901.25007      1889.370           0.000           0.0000 
         0.000  
  20839958.028   111518823.64508     -2080.374    20839962.576    86736890.74207
     -1618.074  
  20995078.399   112191339.05108      1840.313    20995082.567    87259972.11508
      1431.352  
  21658550.568   115614815.15806      1868.781    21658556.435    89922660.80503
      1453.492  
  20186224.886   107906964.70809     -2023.440    20186228.642    83927678.39908
     -1573.789  
 20 10 01 07 33 15.0000000  0 14G 8G27G15G18G21G24G20G10R14R 6R21R15
                                R22R 5
  24610520.438   129329150.92845      -106.969    24610519.741   100775975.04745
       -83.358  
  24420162.003   128328811.09945     -1870.640    24420165.744    99996493.09149
     -1457.641  
  21410609.974   112513551.87949     -2605.984    21410609.670    87672896.50449
     -2030.640  
  21787253.011   114492794.33748     -2882.214    21787252.196    89215172.97046
     -2245.886  
  24601479.842   129281656.96345      2581.211    24601480.377   100738952.26644
      2011.336  
  20840324.624   109516649.29749      1451.886    20840326.373    85337675.48749
      1131.340  
  19988922.270   105042498.94549       443.843    19988921.649    81851318.34748
       345.852  
  21854673.045   114847105.19549      2480.195    21854674.934    89491260.53049
      1932.621  
  22125412.545   117940897.78407     -2049.547    22125416.876    91731855.76607
     -1594.097  
  19988309.025   106661459.50507      1887.253           0.000           0.0000 
         0.000  
  20841903.935   111529236.90108     -2084.851    20841908.510    86744989.93407
     -1621.555  
  20993358.457   112182148.70408      1835.887    20993362.853    87252824.06508
      1427.905  
  21656802.318   115605483.88206      1864.108    21656808.532    89915403.14903
      1449.863  
  20188118.625   107917087.11009     -2025.492    20188122.256    83935551.38408
     -1575.383  
 20 10 01 07 33 20.0000000  0 14G 8G27G15G18G21G24G20G10R14R 6R21R15
                                R22R 5
  24610623.885   129329695.04745      -110.125    24610623.508   100776399.01846
       -85.816  
  24421942.774   128338170.92745     -1874.050    24421946.918   100003786.45049
     -1460.304  
  21413090.442   112526586.23349     -2608.125    21413090.158    87683053.12849
     -2032.309  
  21789996.252   114507210.85148     -2884.835    21789995.704    89226406.61546
     -2247.930  
  24599024.293   129268753.24444      2579.395    24599024.901   100728897.41043
      2009.918  
  20838944.788   109509398.73949      1447.964    20838946.613    85332025.69749
      1128.284  
  19988501.527   105040287.14349       440.625    19988500.635    81849594.86148
       343.340  
  21852313.998   114834708.69349      2478.202    21852315.859    89481600.91949
      1931.066  
  22127337.113   117951157.53107     -2054.351    22127341.887    91739835.56606
     -1597.832  
  19986541.651   106652028.80307      1884.796           0.000           0.0000 
         0.000  
  20843854.159   111539672.16108     -2089.504    20843858.750    86753106.23507
     -1625.172  
  20991642.809   112172980.02008      1831.223    20991646.968    87245692.86308
      1424.280  
  21655058.464   115596174.82406      1859.148    21655064.485    89908162.78803
      1446.003  
  20190014.032   107927219.80509     -2028.031    20190017.801    83943432.37008
     -1577.285  
 20 10 01 07 33 25.0000000  0 14G 8G27G15G18G21G24G20G10R14R 6R21R15
                                R22R 5
  24610730.290   129330256.83245      -114.171    24610730.567   100776836.81246
       -88.965  
  24423726.645   128347545.22945     -1876.219    24423730.993   100011091.09949
     -1461.991  
  21415572.631   112539630.75549     -2609.538    21415572.341    87693217.69149
     -2033.410  
  21792742.162   114521640.36148     -2886.859    21792741.623    89237650.38145
     -2249.503  
  24596570.135   129255858.87244      2578.854    24596571.318   100718849.83645
      2009.503  
  20837568.576   109502166.85149      1444.862    20837570.492    85326390.45949
      1125.867  
  19988083.478   105038090.65549       438.089    19988082.802    81847883.31248
       341.363  
  21849956.845   114822321.14349      2476.918    21849958.755    89471948.28549
      1930.062  
  22129265.549   117961438.93307     -2058.203    22129270.962    91747832.18906
     -1600.831  
  19984776.682   106642610.06207      1882.875           0.000           0.0000 
         0.000  
  20845808.515   111550130.25208     -2093.339    20845813.091    86761240.29207
     -1628.155  
  20989931.269   112163834.06408      1827.297    20989935.614    87238579.33708
      1421.226  
  21653318.915   115586888.95906      1855.308    21653324.870    89900940.45103
      1443.019  
  20191911.652   107937363.76609     -2029.586    20191915.520    83951322.10908
     -1578.563  
 20 10 01 07 33 30.0000000  0 14G 8G27G15G18G21G24G20G10R14R 6R21R15
                                R22R 5
  24610839.571   129330832.76545      -116.624    24610840.540   100777285.57046
       -90.879  
  24425512.416   128356930.58646     -1878.538    24425517.002   100018404.38149
     -1463.797  
  21418056.153   112552681.90849     -2610.925    21418056.001    87703387.42349
     -2034.492  
  21795489.809   114536079.34548     -2888.840    21795489.208    89248901.53246
     -2251.042  
  24594117.294   129242970.41744      2576.457    24594118.639   100708806.86744
      2007.625  
  20836195.399   109494950.19749      1441.823    20836197.287    85320767.10149
      1123.500  
  19987667.722   105035905.97149       435.702    19987666.903    81846180.96548
       339.508  
  21847600.630   114809939.02649      2475.722    21847602.380    89462299.88349
      1929.132  
  22131197.569   117971738.27806     -2061.520    22131203.206    91755842.79107
     -1603.405  
  19983013.083   106633199.28507      1881.395           0.000           0.0000 
         0.000  
  20847766.449   111560607.64908     -2097.551    20847770.974    86769389.37007
     -1631.434  
  20988223.286   112154707.06209      1823.444    20988227.615    87231480.56608
      1418.234  
  21651583.097   115577622.73506      1851.266    21651588.918    89893733.38503
      1439.870  
  20193810.783   107947515.36509     -2031.257    20193814.429    83959217.80008
     -1579.870  
 20 10 01 07 33 35.0000000  0 14G 8G27G15G18G21G24G20G10R14R 6R21R15
                                R22R 5
  24610951.558   129331422.94445      -119.578    24610953.340   100777745.43445
       -93.188  
  24427300.515   128366327.13846     -1880.371    24427305.201   100025726.35148
     -1465.227  
  21420541.020   112565739.93949     -2612.602    21420540.861    87713562.51149
     -2035.796  
  21798239.139   114550527.98248     -2890.858    21798238.807    89260160.21146
     -2252.621  
  24591665.700   129230088.04644      2575.504    24591667.342   100698768.68744
      2006.883  
  20834824.867   109487748.93849      1438.402    20834826.759    85315155.73749
      1120.831  
  19987254.441   105033733.28649       433.199    19987253.463    81844487.96448
       337.559  
  21845245.359   114797562.55449      2474.480    21845247.238    89452655.87849
      1928.163  
  22133132.869   117982055.88806     -2065.476    22133139.026    91763867.59206
     -1606.483  
  19981250.963   106623796.99207      1879.425           0.000           0.0000 
         0.000  
  20849728.114   111571104.47308     -2101.688    20849732.398    86777553.56307
     -1634.647  
  20986518.879   112145599.44508      1819.176    20986523.211    87224396.86408
      1414.913  
  21649851.075   115568376.26706      1847.026    21649856.588    89886541.69703
      1436.578  
  20195711.181   107957674.79909     -2032.972    20195715.052    83967119.58508
     -1581.199  
 20 10 01 07 33 40.0000000  0 14G 8G27G15G18G21G24G20G10R14R 6R21R15
                                R22R 5
  24611066.577   129332028.96845      -122.140    24611068.808   100778217.69446
       -95.171  
  24429090.973   128375736.49946     -1882.555    24429095.780   100033058.31448
     -1466.930  
  21423027.624   112578806.35249     -2613.495    21423027.406    87723744.12449
     -2036.496  
  21800990.704   114564987.83948     -2892.585    21800990.325    89271427.62346
     -2253.969  
  24589215.465   129217213.29044      2574.938    24589217.253   100688736.41945
      2006.440  
  20833457.735   109480564.55049      1435.836    20833459.653    85309557.51049
      1118.827  
  19986843.619   105031574.21749       430.734    19986842.674    81842805.57048
       335.632  
  21842891.631   114785193.32149      2473.426    21842893.545    89443017.52549
      1927.344  
  22135072.010   117992393.35206     -2069.031    22135078.392    91771907.84506
     -1609.245  
  19979490.912   106614404.93007      1878.124           0.000           0.0000 
         0.000  
  20851693.676   111581622.34708     -2105.167    20851697.891    86785734.12907
     -1637.355  
  20984818.351   112136512.65508      1815.805    20984822.915    87217329.36308
      1412.293  
  21648122.977   115559151.28206      1843.339    21648128.450    89879366.70003
      1433.706  
  20197613.542   107967843.63509     -2034.301    20197617.357    83975028.67608
     -1582.238  
 20 10 01 07 33 45.0000000  0 14G 8G27G15G18G21G24G20G10R14R 6R21R15
                                R22R 5
  24611184.526   129332649.01345      -125.741    24611186.823   100778700.82247
       -97.987  
  24430883.579   128385156.73746     -1885.688    24430888.314   100040398.75348
     -1469.370  
  21425515.358   112591879.26349     -2615.534    21425514.899    87733930.80449
     -2038.082  
  21803744.174   114579457.01448     -2895.113    21803743.752    89282702.29246
     -2255.937  
  24586766.362   129204344.38444      2573.246    24586768.228   100678708.66645
      2005.121  
  20832093.460   109473395.20549      1431.972    20832095.471    85303971.00849
      1115.820  
  19986434.928   105029426.81449       427.960    19986434.081    81841132.26648
       333.473  
  21840538.820   114772829.40449      2471.992    21840540.825    89433383.30849
      1926.227  
  22137014.402   118002748.70906     -2073.293    22137021.314    91779962.00106
     -1612.566  
  19977732.446   106605020.88507      1875.616           0.000           0.0000 
         0.000  
  20853662.796   111592159.31808     -2109.659    20853666.728    86793929.55207
     -1640.847  
  20983121.344   112127444.73708      1811.363    20983125.995    87210276.54408
      1408.839  
  21646398.423   115549945.80906      1838.918    21646403.856    89872206.88503
      1430.265  
  20199517.324   107978020.09709     -2036.508    20199521.112    83982943.69908
     -1583.926  
 20 10 01 07 33 50.0000000  0 14G 8G27G15G18G21G24G20G10R14R 6R21R15
                                R22R 5
  24611305.394   129333285.83745      -128.925    24611308.491   100779197.06546
      -100.456  
  24432678.912   128394590.74346     -1888.241    24432683.508   100047749.93048
     -1471.362  
  21428004.808   112604961.59849     -2617.539    21428004.324    87744124.83149
     -2039.644  
  21806499.698   114593938.42248     -2897.616    21806499.404    89293986.50645
     -2257.886  
  24584319.062   129191484.14444      2571.601    24584321.140   100668687.68344
      2003.839  
  20830732.429   109466243.99849      1428.363    20830734.460    85298398.64649
      1113.012  
  19986029.283   105027294.03749       425.066    19986028.182    81839470.36248
       331.214  
  21838187.539   114760473.77349      2470.266    21838189.574    89423755.54849
      1924.883  
  22138960.768   118013124.96406     -2077.680    22138967.862    91788032.40706
     -1615.977  
  19975976.127   106595648.20407      1873.284           0.000           0.0000 
         0.000  
  20855635.996   111602718.34008     -2113.922    20855639.942    86802142.12607
     -1644.163  
  20981428.451   112118398.80408      1806.961    20981433.140    87203240.81208
      1405.410  
  21644678.181   115540762.88306      1834.145    21644683.570    89865064.61203
      1426.559  
  20201423.017   107988207.05309     -2038.581    20201426.813    83990866.87908
     -1585.555  
 20 10 01 07 33 55.0000000  0 14G 8G27G15G18G21G24G20G10R14R 6R21R15
                                R22R 5
  24611429.566   129333939.05044      -130.992    24611432.980   100779706.04447
      -102.077  
  24434476.723   128404037.99346     -1890.972    24434481.360   100055111.42748
     -1473.487  
  21430495.967   112618052.91449     -2619.016    21430495.452    87754325.86449
     -2040.797  
  21809257.457   114608431.50948     -2899.601    21809257.279    89305279.82345
     -2259.430  
  24581873.367   129178632.08244      2568.925    24581875.564   100658673.15044
      2001.770  
  20829375.019   109459110.23349      1425.308    20829376.874    85292839.87049
      1110.629  
  19985626.129   105025175.35649       422.555    19985624.963    81837819.43548
       329.257  
  21835837.789   114748125.91349      2468.972    21835839.800    89414133.83649
      1923.875  
  22140911.288   118023521.46207     -2081.289    22140918.297    91796118.58206
     -1618.781  
  19974221.698   106586286.05007      1871.309           0.000           0.0000 
         0.000  
  20857613.129   111613298.90808     -2118.121    20857617.021    86810371.44807
     -1647.430  
  20979739.697   112109374.30008      1802.944    20979744.311    87196221.74808
      1402.284  
  21642962.011   115531601.94906      1830.019    21642967.366    89857939.44103
      1423.347  
  20203330.379   107998403.96808     -2040.210    20203334.419    83998797.81908
     -1586.832  
 20 10 01 07 34  0.0000000  0 14G 8G27G15G18G21G24G20G10R14R 6R21R15
                                R22R 5
  24611556.424   129334607.59944      -135.773    24611559.990   100780226.97147
      -105.800  
  24436277.001   128413497.36046     -1892.913    24436281.462   100062482.32649
     -1475.004  
  21432988.639   112631151.93249     -2620.737    21432988.055    87764532.87749
     -2042.136  
  21812017.348   114622935.21148     -2902.016    21812017.365    89316581.38646
     -2261.319  
  24579429.113   129165787.13045      2568.090    24579431.218   100648664.02244
      2001.102  
  20828020.458   109451992.93349      1421.570    20828022.459    85287293.92249
      1107.715  
  19985225.428   105023069.72349       419.628    19985224.206    81836178.68448
       326.979  
  21833489.361   114735784.71549      2467.366    21833491.494    89404517.32149
      1922.621  
  22142865.293   118033937.21807     -2085.155    22142872.258    91804219.72506
     -1621.793  
  19972468.948   106576933.22807      1869.511           0.000           0.0000 
         0.000  
  20859594.222   111623899.88508     -2122.313    20859597.971    86818616.65707
     -1650.690  
  20978054.615   112100370.17408      1798.550    20978059.318    87189218.53408
      1398.867  
  21641249.788   115522461.85806      1825.691    21641255.107    89850830.49403
      1419.979  
  20205239.641   108008609.66008     -2042.242    20205243.677    84006735.56708
     -1588.413  
 20 10 01 07 34  5.0000000  0 14G 8G27G15G18G21G24G20G10R14R 6R21R15
                                R22R 5
  24611686.639   129335292.32544      -138.664    24611690.514   100780760.53947
      -108.050  
  24438079.636   128422969.86446     -1895.391    24438084.003   100069863.52448
     -1476.929  
  21435483.052   112644259.72549     -2621.983    21435482.342    87774746.75349
     -2043.105  
  21814779.336   114637450.46248     -2903.647    21814779.370    89327891.98946
     -2262.582  
  24576986.423   129152950.36245      2566.867    24576988.592   100638661.37844
      2000.156  
  20826669.530   109444893.00849      1418.851    20826671.466    85281761.52249
      1105.597  
  19984827.600   105020978.12049       417.473    19984826.155    81834548.85748
       325.300  
  21831142.454   114723451.19849      2466.555    21831144.391    89394906.79749
      1921.991  
  22144823.173   118044373.13307     -2088.543    22144830.134    91812336.53306
     -1624.426  
  19970718.197   106567591.04007      1867.804           0.000           0.0000 
         0.000  
  20861579.378   111634522.20408     -2126.160    20861583.047    86826878.44907
     -1653.683  
  20976373.487   112091387.39208      1794.960    20976378.188    87182231.93808
      1396.082  
  21639541.763   115513343.68106      1821.874    21639546.984    89843738.56303
      1417.012  
  20207150.762   108018825.19609     -2043.539    20207154.593    84014680.99008
     -1589.371  
 20 10 01 07 34 10.0000000  0 14G 8G27G15G18G21G24G20G10R14R 6R21R15
                                R22R 5
  24611819.327   129335990.19744      -141.215    24611823.479   100781304.35247
      -110.039  
  24439884.318   128432452.50146     -1898.074    24439888.433   100077252.58248
     -1479.022  
  21437978.574   112657373.25249     -2623.737    21437977.852    87784965.07549
     -2044.476  
  21817543.102   114651974.27848     -2906.129    21817543.355    89339209.23146
     -2264.520  
  24574544.650   129140118.73045      2565.086    24574546.790   100628662.63744
      1998.766  
  20825321.052   109437807.46149      1415.366    20825323.169    85276240.31549
      1102.882  
  19984431.672   105018897.53549       414.226    19984430.310    81832927.62648
       322.769  
  21828796.320   114711122.36949      2464.805    21828798.286    89385299.91749
      1920.629  
  22146784.192   118054826.12407     -2092.878    22146791.079    91820466.63106
     -1627.797  
  19968968.784   106558256.43307      1865.554           0.000           0.0000 
         0.000  
  20863567.732   111645162.88108     -2130.449    20863571.521    86835154.53707
     -1657.015  
  20974695.730   112082422.96508      1790.589    20974700.617    87175259.60307
      1392.676  
  21637837.315   115504244.47206      1817.163    21637842.488    89836661.41103
      1413.351  
  20209063.050   108029047.59809     -2045.698    20209066.939    84022631.73308
     -1591.101  
 20 10 01 07 34 15.0000000  0 14G 8G27G15G18G21G24G20G10R14R 6R21R15
                                R22R 5
  24611955.119   129336704.94445      -144.417    24611959.675   100781861.27246
      -112.542  
  24441691.468   128441948.73147     -1900.362    24441695.565   100084652.23648
     -1480.804  
  21440475.836   112670496.01149     -2625.390    21440474.815    87795190.59749
     -2045.762  
  21820309.194   114666510.12748     -2908.332    21820309.321    89350535.87046
     -2266.293  
  24572104.575   129127295.70645      2563.797    24572106.468   100618670.73745
      1997.770  
  20823976.007   109430739.76349      1411.527    20823978.285    85270733.02149
      1099.890  
  19984038.576   105016831.45949       411.749    19984037.124    81831317.68748
       320.839  
  21826451.715   114698801.72649      2463.214    21826453.868    89375699.42049
      1919.386  
  22148748.881   118065299.71207     -2096.851    22148755.806    91828612.77906
     -1630.883  
  19967221.465   106548932.71207      1863.823           0.000           0.0000 
         0.000  
  20865560.333   111655825.37508     -2134.577    20865564.076    86843447.58007
     -1660.230  
  20973022.268   112073480.36608      1786.359    20973027.123    87168304.24707
      1389.387  
  21636136.983   115495167.63906      1812.952    21636142.070    89829601.65503
      1410.069  
  20210977.378   108039280.27809     -2047.604    20210981.225    84030590.48108
     -1592.585  
 20 10 01 07 34 20.0000000  0 14G 8G27G15G18G21G24G20G10R14R 6R21R15
                                R22R 5
  24612093.964   129337434.86345      -147.558    24612098.647   100782430.02747
      -114.983  
  24443501.071   128451457.00947     -1902.569    24443504.906   100092061.27748
     -1482.526  
  21442974.417   112683626.45649     -2626.909    21442973.509    87805422.11149
     -2046.944  
  21823077.182   114681056.47148     -2910.211    21823077.485    89361870.69446
     -2267.698  
  24569665.884   129114479.79545      2562.589    24569667.759   100608684.22645
      1996.808  
  20822634.195   109423688.46049      1408.702    20822636.347    85265238.50649
      1097.690  
  19983647.973   105014778.35749       409.343    19983646.395    81829717.87448
       318.964  
  21824108.433   114686487.72849      2462.184    21824110.652    89366104.09349
      1918.581  
  22150717.386   118075792.48207     -2100.370    22150724.139    91836773.82106
     -1633.620  
  19965476.006   106539618.39007      1861.972           0.000           0.0000 
         0.000  
  20867556.707   111666508.19108     -2138.391    20867560.489    86851756.43107
     -1663.194  
  20971352.526   112064558.14708      1782.547    20971357.258    87161364.75008
      1386.426  
  21634440.534   115486111.78606      1808.977    21634445.673    89822558.22103
      1406.979  
  20212893.241   108049521.69409     -2049.116    20212897.175    84038556.02308
     -1593.762  
 20 10 01 07 34 25.0000000  0 14G 8G27G15G18G21G24G20G10R14R 6R21R15
                                R22R 5
  24612236.446   129338182.17045      -150.734    24612240.776   100783012.33348
      -117.460  
  24445313.224   128460979.53447     -1905.496    24445316.917   100099481.41248
     -1484.804  
  21445474.919   112696766.80949     -2628.727    21445473.920    87815661.34549
     -2048.362  
  21825847.651   114695615.53548     -2912.980    21825848.027    89373215.41446
     -2269.858  
  24567229.129   129101673.22045      2560.030    24567230.963   100598705.14144
      1994.828  
  20821295.812   109416655.83949      1404.663    20821298.067    85259758.53949
      1094.538  
  19983260.197   105012740.48849       406.272    19983258.609    81828129.92348
       316.574  
  21821766.848   114674182.64649      2460.284    21821768.891    89356515.72149
      1917.104  
  22152689.753   118086306.58907     -2104.813    22152696.501    91844951.46706
     -1637.078  
  19963732.657   106530315.73507      1859.624           0.000           0.0000 
         0.000  
  20869557.194   111677213.57708     -2143.129    20869560.985    86860082.83907
     -1666.882  
  20969686.896   112055658.55608      1778.034    20969691.739    87154442.84907
      1382.918  
  21632748.607   115477079.07106      1804.293    21632753.410    89815532.76203
      1403.335  
  20214811.343   108059774.23709     -2051.414    20214815.082    84046530.22808
     -1595.543  
 20 10 01 07 34 30.0000000  0 14G 8G27G15G18G21G24G20G10R14R 6R21R15
                                R22R 5
  24612381.980   129338946.27245      -154.081    24612386.091   100783607.74847
      -120.062  
  24447128.024   128470515.80647     -1908.163    24447131.670   100106912.26948
     -1486.886  
  21447977.317   112709916.49949     -2630.327    21447976.024    87825907.85349
     -2049.609  
  21828620.404   114710186.76548     -2914.917    21828620.793    89384569.61446
     -2271.332  
  24564793.944   129088875.48645      2559.074    24564795.401   100588732.82741
      1994.077  
  20819961.052   109409641.18749      1401.633    20819963.223    85254292.57449
      1092.176  
  19982875.271   105010717.31449       403.719    19982873.733    81826553.42348
       314.581  
  21819426.783   114661885.90049      2458.973    21819428.830    89346933.84449
      1916.081  
  22154666.039   118096841.40007     -2108.530    22154672.707    91853145.21105
     -1639.968  
  19961991.568   106521024.54707      1857.733           0.000           0.0000 
         0.000  
  20871561.806   111687940.87608     -2147.187    20871565.848    86868426.29207
     -1670.039  
  20968025.606   112046781.00308      1773.855    20968030.548    87147538.09607
      1379.664  
  21631060.641   115468068.90706      1800.367    21631065.475    89808524.86803
      1400.284  
  20216731.302   108070037.14109     -2053.175    20216734.911    84054512.49008
     -1596.917  
 20 10 01 07 34 35.0000000  0 14G 8G27G15G18G21G24G20G10R14R 6R21R15
                                R22R 5
  24612530.026   129339723.09945      -156.394    24612533.977   100784213.03747
      -121.875  
  24448944.719   128480061.47846     -1910.085    24448948.096   100114350.44948
     -1488.382  
  21450480.698   112723071.29149     -2631.609    21450479.351    87836158.34049
     -2050.609  
  21831394.704   114724765.90748     -2916.909    21831395.036    89395929.98946
     -2272.934  
  24562359.766   129076082.29246      2557.901    24562361.163   100578764.12645
      1993.172  
  20818628.752   109402640.40349      1398.563    20818631.095    85248837.41949
      1089.789  
  19982492.218   105008704.57749       401.229    19982490.814    81824985.05948
       312.648  
  21817087.657   114649593.30149      2457.879    21817089.734    89337355.19849
      1915.230  
  22156645.360   118107392.72906     -2112.023    22156651.777    91861351.79705
     -1642.683  
  19960251.799   106511740.11807      1856.101           0.000           0.0000 
         0.000  
  20873569.826   111698685.79108     -2150.983    20873573.829    86876783.44608
     -1672.992  
  20966367.509   112037921.22708      1770.023    20966372.489    87140647.16607
      1376.684  
  21629376.356   115459077.07906      1796.136    21629381.165    89801531.21103
      1396.992  
  20218652.361   108080306.24309     -2054.671    20218655.951    84062499.56908
     -1598.082  
 20 10 01 07 34 40.0000000  0 14G 8G27G15G18G21G24G20G10R14R 6R21R15
                                R22R 5
  24612680.740   129340514.04845      -159.620    24612684.325   100784829.34447
      -124.386  
  24450763.409   128489618.16546     -1912.977    24450766.729   100121797.22948
     -1490.633  
  21452985.203   112736232.74249     -2633.136    21452983.914    87846414.01349
     -2051.797  
  21834170.851   114739354.43848     -2918.645    21834171.316    89407297.67146
     -2274.273  
  24559926.706   129063295.25746      2556.672    24559928.039   100568800.23343
      1992.215  
  20817299.304   109395654.95049      1395.343    20817301.907    85243394.21049
      1087.280  
  19982111.436   105006703.83249       398.793    19982110.101    81823426.03748
       310.741  
  21814749.500   114637306.33149      2456.737    21814751.350    89327780.93949
      1914.340  
  22158628.011   118117961.96807     -2115.563    22158634.473    91869572.32505
     -1645.438  
  19958513.499   106502464.05908      1854.039           0.000           0.0000 
         0.000  
  20875581.410   111709449.90108     -2154.770    20875585.433    86885155.52308
     -1675.937  
  20964712.952   112029080.74508      1766.184    20964718.032    87133771.24107
      1373.699  
  21627695.714   115450105.22706      1792.238    21627700.330    89794553.10503
      1393.960  
  20220574.715   108090582.98209     -2056.276    20220578.433    84070492.58108
     -1599.331  
 20 10 01 07 34 45.0000000  0 14G 8G27G15G18G21G24G20G10R14R 6R21R15
                                R22R 5
  24612834.366   129341320.95245      -163.180    24612837.770   100785458.11347
      -127.151  
  24452584.383   128499187.47846     -1914.894    24452587.507   100129253.82548
     -1492.129  
  21455491.407   112749402.49849     -2634.608    21455489.943    87856676.16149
     -2052.945  
  21836949.127   114753954.12648     -2921.101    21836949.748    89418674.04546
     -2276.187  
  24557495.159   129050516.05146      2555.519    24557496.319   100558842.40443
      1991.304  
  20815973.280   109388686.65149      1392.058    20815975.915    85237964.37149
      1084.723  
  19981733.289   105004716.78149       396.105    19981731.825    81821877.68548
       308.647  
  21812412.676   114625026.76649      2455.387    21812414.679    89318212.44549
      1913.288  
  22160614.443   118128550.95507     -2119.679    22160620.781    91877808.20006
     -1648.645  
  19956777.081   106493198.19808      1852.308           0.000           0.0000 
         0.000  
  20877596.937   111720234.98708     -2159.144    20877600.873    86893543.90808
     -1679.339  
  20963062.513   112020261.42308      1761.887    20963067.427    87126911.76707
      1370.355  
  21626018.931   115441154.94906      1788.120    21626023.472    89787591.76403
      1390.758  
  20222499.098   108100869.25309     -2058.065    20222502.865    84078493.01208
     -1600.722  
 20 10 01 07 34 50.0000000  0 14G 8G27G15G18G21G24G20G10R14R 6R21R15
                                R22R 5
  24612991.192   129342143.04445      -166.063    24612993.929   100786098.68247
      -129.401  
  24454407.663   128508768.81946     -1917.362    24454410.729   100136719.80148
     -1494.054  
  21457998.931   112762579.90249     -2636.230    21457997.428    87866944.26849
     -2054.211  
  21839729.312   114768564.22148     -2922.917    21839729.910    89430058.53146
     -2277.601  
  24555064.748   129037743.99846      2553.862    24555065.950   100548890.13645
      1990.016  
  20814650.314   109381734.75949      1388.714    20814653.113    85232547.31149
      1082.116  
  19981357.628   105002742.73149       393.675    19981356.252    81820339.46448
       306.758  
  21810077.188   114612753.91149      2454.007    21810079.219    89308649.18849
      1912.214  
  22162604.504   118139158.97707     -2123.647    22162610.473    91886058.88406
     -1651.729  
  19955042.395   106483941.95508      1850.207           0.000           0.0000 
         0.000  
  20879616.364   111731040.22708     -2163.020    20879620.143    86901947.98407
     -1682.351  
  20961415.822   112011462.50708      1757.847    20961420.928    87120068.16507
      1367.210  
  21624346.375   115432225.69706      1783.941    21624350.782    89780646.78703
      1387.508  
  20224424.989   108111164.27709     -2059.863    20224428.709    84086500.24908
     -1602.090  
 20 10 01 07 34 55.0000000  0 14G 8G27G15G18G21G24G20G10R14R 6R21R15
                                R22R 5
  24613150.770   129342981.76145      -169.461    24613153.558   100786752.21048
      -132.055  
  24456233.651   128518363.48446     -1920.269    24456236.603   100144196.13848
     -1496.320  
  21460508.308   112775766.33149     -2638.335    21460506.639    87877219.41049
     -2055.847  
  21842511.780   114783186.12648     -2925.723    21842512.518    89441452.21746
     -2279.789  
  24552636.226   129024980.49646      2551.758    24552637.029   100538944.61144
      1988.387  
  20813330.785   109374800.74249      1384.827    20813333.714    85227144.18749
      1079.085  
  19980984.804   105000783.06349       390.382    19980983.369    81818812.44948
       304.191  
  21807743.409   114600489.13649      2452.219    21807745.224    89299092.21349
      1910.815  
  22164598.445   118149787.33506     -2127.707    22164604.315    91894325.37305
     -1654.887  
  19953309.928   106474696.36808      1847.776           0.000           0.0000 
         0.000  
  20881639.711   111741867.06508     -2167.590    20881643.469    86910368.84607
     -1685.906  
  20959773.225   112002685.34408      1753.297    20959778.208    87113241.49007
      1363.676  
  21622677.790   115423318.77505      1778.995    21622682.418    89773719.18203
      1383.659  
  20226352.755   108121469.35409     -2062.058    20226356.480    84094515.31208
     -1603.824  
 20 10 01 07 35  0.0000000  0 14G 8G27G15G18G21G24G20G10R14R 6R21R15
                                R22R 5
  24613313.687   129343836.73845      -172.616    24613316.101   100787418.42247
      -134.516  
  24458062.058   128527971.36046     -1922.391    24458064.578   100151682.79348
     -1497.969  
  21463019.211   112788961.59149     -2639.636    21463017.567    87887501.42849
     -2056.862  
  21845296.351   114797819.61348     -2927.449    21845297.023    89452854.92846
     -2281.132  
  24550209.245   129012225.37345      2550.707    24550209.810   100529005.49144
      1987.555  
  20812014.685   109367884.34349      1381.785    20812017.474    85221754.78049
      1076.711  
  19980614.457   104998837.62449       388.035    19980613.164    81817296.52148
       302.359  
  21805410.968   114588232.29649      2450.988    21805412.727    89289541.43249
      1909.858  
  22166595.948   118160435.99507     -2131.109    22166601.863    91902607.66406
     -1657.535  
  19951579.366   106465461.66608      1846.288           0.000           0.0000 
         0.000  
  20883666.995   111752715.25008     -2171.468    20883670.905    86918806.31707
     -1688.926  
  20958134.571   111993929.84208      1749.230    20958139.580    87106431.66707
      1360.512  
  21621013.488   115414434.11705      1774.687    21621017.842    89766808.89103
      1380.309  
  20228282.373   108131784.45509     -2063.496    20228286.133    84102538.17008
     -1604.945  
 20 10 01 07 35  5.0000000  0 14G 8G27G15G18G21G24G20G10R14R 6R21R15
                                R22R 5
  24613479.410   129344706.86545      -175.461    24613481.536   100788096.44347
      -136.726  
  24459892.756   128537591.21046     -1925.030    24459895.022   100159178.75048
     -1500.030  
  21465531.630   112802164.56749     -2641.430    21465529.985    87897789.45349
     -2058.261  
  21848082.990   114812463.62548     -2929.746    21848083.713    89464265.83247
     -2282.921  
  24547783.574   128999477.54245      2548.530    24547783.919   100519072.12144
      1985.905  
  20810701.637   109360984.38349      1378.180    20810704.631    85216378.18649
      1073.902  
  19980246.748   104996905.26949       385.362    19980245.418    81815790.78848
       300.277  
  21803079.855   114575982.27449      2449.262    21803081.458    89279995.96349
      1908.516  
  22168597.263   118171103.59807     -2135.508    22168603.065    91910904.69406
     -1660.948  
  19949850.688   106456236.60707      1844.051           0.000           0.0000 
         0.000  
  20885698.029   111763583.72608     -2175.960    20885701.926    86927259.58407
     -1692.413  
  20956499.899   111985194.90008      1744.898    20956504.849    87099637.82407
      1357.145  
  21619353.016   115405570.52805      1770.866    21619357.622    89759915.00403
      1377.340  
  20230213.682   108142108.41109     -2065.761    20230217.180    84110567.91508
     -1606.706  
 20 10 01 07 35 10.0000000  0 14G 8G27G15G18G21G24G20G10R14R 6R21R15
                                R22R 5
  24613648.243   129345592.62345      -179.051    24613649.815   100788786.64547
      -139.522  
  24461725.649   128547223.37545     -1927.815    24461727.803   100166684.36848
     -1502.191  
  21468045.571   112815375.50949     -2643.113    21468043.929    87908083.69549
     -2059.573  
  21850871.727   114827118.35148     -2932.065    21850872.550    89475685.09046
     -2284.730  
  24545359.285   128986737.25545      2547.270    24545359.569   100509144.69043
      1984.887  
  20809391.831   109354101.08949      1374.836    20809394.721    85211014.57449
      1071.297  
  19979881.532   104994986.32949       382.453    19979880.358    81814295.51948
       298.015  
  21800750.081   114563739.32549      2447.906    21800751.904    89270456.01949
      1907.460  
  22170602.153   118181790.60307     -2139.469    22170607.875    91919216.80906
     -1664.034  
  19948123.826   106447021.27508      1842.112           0.000           0.0000 
         0.000  
  20887732.931   111774472.61508     -2179.847    20887736.827    86935728.71607
     -1695.438  
  20954869.128   111976480.74308      1740.733    20954874.293    87092860.14107
      1353.902  
  21617696.591   115396728.32706      1766.367    21617701.045    89753037.73703
      1373.839  
  20232146.656   108152441.38909     -2067.651    20232150.135    84118604.65608
     -1608.180  
 20 10 01 07 35 15.0000000  0 14G 8G27G15G18G21G24G20G10R14R 6R21R15
                                R22R 5
  24613820.126   129346495.09445      -182.145    24613821.380   100789489.86148
      -141.929  
  24463561.107   128556868.77546     -1930.362    24463563.276   100174200.26448
     -1504.184  
  21470561.245   112828595.40249     -2644.690    21470559.658    87918384.90449
     -2060.800  
  21853662.594   114841784.83248     -2934.215    21853663.418    89487113.51046
     -2286.406  
  24542936.530   128974005.52945      2545.824    24542936.759   100499223.84544
      1983.754  
  20808085.308   109347235.66949      1371.464    20808088.160    85205664.89649
      1068.672  
  19979518.973   104993081.81949       379.714    19979517.993    81812811.47748
       295.879  
  21798421.790   114551504.50949      2446.229    21798423.606    89260922.40149
      1906.151  
  22172610.859   118192497.88707     -2143.214    22172616.660    91927544.65506
     -1666.953  
  19946398.833   106437816.88007      1839.999           0.000           0.0000 
         0.000  
  20889771.910   111785383.10508     -2184.144    20889775.792    86944214.63807
     -1698.780  
  20953242.567   111967788.55008      1736.434    20953247.562    87086099.54507
      1350.555  
  21616044.267   115387908.54705      1761.581    21616048.737    89746177.91803
      1370.120  
  20234081.475   108162784.51009     -2069.348    20234085.040    84126649.31708
     -1609.491  
 20 10 01 07 35 20.0000000  0 14G 8G27G15G18G21G24G20G10R14R 6R21R15
                                R22R 5
  24613994.876   129347413.40944      -185.258    24613996.224   100790205.44548
      -144.358  
  24465398.827   128566526.93345     -1933.195    24465401.125   100181726.07348
     -1506.394  
  21473078.465   112841823.70449     -2646.503    21473077.012    87928692.67249
     -2062.211  
  21856455.723   114856462.47748     -2936.605    21856456.503    89498550.62946
     -2288.269  
  24540515.339   128961281.86946      2544.090    24540515.578   100489309.38844
      1982.414  
  20806782.192   109340387.59449      1368.063    20806785.000    85200328.73349
      1066.019  
  19979159.273   104991191.17749       376.926    19979158.330    81811338.24748
       293.707  
  21796095.025   114539277.27749      2444.848    21796096.756    89251394.68349
      1905.074  
  22174623.162   118203224.93507     -2147.375    22174629.230    91935887.91506
     -1670.183  
  19944675.892   106428622.87407      1837.711           0.000           0.0000 
         0.000  
  20891814.627   111796314.53508     -2188.359    20891818.572    86952716.87507
     -1702.063  
  20951619.890   111959117.70608      1732.242    20951624.828    87079355.56007
      1347.301  
  21614396.142   115379110.55406      1757.476    21614400.855    89739335.03303
      1366.926  
  20236018.183   108173137.13909     -2071.425    20236021.602    84134701.36608
     -1611.109  
 20 10 01 07 35 25.0000000  0 14G 8G27G15G18G21G24G20G10R14R 6R21R15
                                R22R 5
  24614172.707   129348347.57445      -188.437    24614174.122   100790933.37446
      -146.832  
  24467238.878   128576197.65445     -1935.961    24467241.250   100189261.67048
     -1508.547  
  21475597.366   112855060.17849     -2648.058    21475595.837    87939006.81149
     -2063.425  
  21859250.930   114871151.07848     -2938.815    21859251.710    89509996.28746
     -2289.992  
  24538095.776   128948566.04045      2542.438    24538095.573   100479400.96445
      1981.125  
  20805482.295   109333556.68349      1364.464    20805485.036    85195005.94249
      1063.214  
  19978802.049   104989314.16949       374.066    19978801.096    81809875.65348
       291.480  
  21793769.606   114527057.36549      2443.190    21793771.377    89241872.67549
      1903.780  
  22176639.178   118213971.53307     -2151.242    22176645.665    91944246.38506
     -1673.190  
  19942954.912   106419438.92707      1836.007           0.000           0.0000 
         0.000  
  20893861.234   111807266.65308     -2192.707    20893865.415    86961235.18007
     -1705.437  
  20950001.172   111950467.92308      1727.714    20950005.961    87072627.96307
      1343.776  
  21612752.128   115370334.32006      1753.183    21612756.734    89732509.07903
      1363.586  
  20237956.605   108183499.01809     -2073.339    20237959.882    84142760.59408
     -1612.690  
 20 10 01 07 35 30.0000000  0 14G 8G27G15G18G21G24G20G10R14R 6R21R15
                                R22R 5
  24614353.634   129349297.47845      -191.027    24614354.963   100791673.54746
      -148.854  
  24469081.344   128585880.78246     -1937.659    24469083.706   100196806.97148
     -1509.866  
  21478117.575   112868304.84049     -2649.718    21478116.346    87949327.30849
     -2064.718  
  21862048.001   114885850.60148     -2940.761    21862048.805    89521450.45546
     -2291.472  
  24535677.600   128935858.12846      2540.813    24535677.231   100469498.66644
      1979.851  
  20804185.624   109326742.72249      1361.195    20804188.502    85189696.35549
      1060.667  
  19978447.278   104987450.83548       371.511    19978446.522    81808423.70248
       289.487  
  21791445.547   114514844.88649      2441.921    21791447.464    89232356.45249
      1902.793  
  22178658.867   118224737.67107     -2155.016    22178665.782    91952620.02706
     -1676.172  
  19941235.947   106410265.16708      1833.733           0.000           0.0000 
         0.000  
  20895911.799   111818239.57608     -2196.757    20895915.838    86969769.66607
     -1708.594  
  20948386.569   111941839.25308      1723.785    20948391.171    87065916.77907
      1340.723  
  21611112.087   115361579.67106      1749.241    21611116.511    89725699.89903
      1360.520  
  20239896.682   108193870.28009     -2074.929    20239900.109    84150827.13008
     -1613.862  
 20 10 01 07 35 35.0000000  0 14G 8G27G15G18G21G24G20G10R14R 6R21R15
                                R22R 5
  24614537.864   129350264.83045      -195.757    24614539.249   100792427.29248
      -152.547  
  24470926.735   128595578.03745     -1940.605    24470929.162   100204363.27348
     -1512.159  
  21480639.911   112881559.27549     -2652.284    21480638.575    87959655.44749
     -2066.719  
  21864847.574   114900562.76448     -2943.961    21864848.365    89532914.46846
     -2294.003  
  24533261.092   128923159.60446      2538.972    24533261.044   100459603.75145
      1978.426  
  20802892.572   109319947.53449      1356.844    20802895.384    85184401.40849
      1057.281  
  19978095.576   104985602.78249       367.796    19978094.864    81806983.66048
       286.593  
  21789123.365   114502641.39149      2439.547    21789125.210    89222847.24449
      1900.944  
  22180682.547   118235524.90107     -2159.711    22180689.662    91961010.11206
     -1679.773  
  19939519.066   106401103.22107      1831.085           0.000           0.0000 
         0.000  
  20897966.475   111829234.72008     -2201.694    20897970.606    86978321.42207
     -1712.434  
  20946776.093   111933233.42508      1718.679    20946780.779    87059223.37007
      1336.750  
  21609476.486   115352848.50005      1743.663    21609480.822    89718908.98503
      1356.184  
  20241838.811   108204252.57309     -2077.660    20241842.268    84158902.23108
     -1615.961  
 20 10 01 07 35 40.0000000  0 15G 8G27G15G18G21G32G24G20G10R14R 6R21
                                R15R22R 5
  24614724.694   129351245.53545      -197.480    24614725.938   100793191.53347
      -153.882  
  24472773.886   128605285.50345     -1942.230    24472776.310   100211927.50149
     -1513.434  
  21483163.196   112894819.51049     -2652.211    21483162.043    87969988.09749
     -2066.660  
  21867648.879   114915283.41248     -2944.698    21867649.592    89544385.11746
     -2294.573  
  24530845.766   128910466.76045      2537.659    24530845.642   100449713.21143
      1977.394  
  24685501.161   129723182.31955      3362.848    24685502.572   101083004.54956
      2620.402  
  20801602.351   109313167.03049      1354.695    20801604.962    85179117.90749
      1055.605  
  19977746.149   104983766.00049       366.511    19977745.382    81805552.40048
       285.590  
  21786801.972   114490442.92049      2439.449    21786803.686    89213341.95749
      1900.870  
  22182709.656   118246329.31207     -2162.582    22182716.581    91969413.54906
     -1682.007  
  19937803.617   106391949.03407      1830.437           0.000           0.0000 
         0.000  
  20900024.710   111840248.18708     -2203.945    20900028.780    86986887.45008
     -1714.184  
  20945169.212   111924646.33008      1715.710    20945173.812    87052544.51207
      1334.441  
  21607844.278   115344136.57405      1740.504    21607848.917    89712133.05804
      1353.726  
  20243782.248   108214641.67209     -2078.198    20243785.672    84166982.63508
     -1616.383  
 20 10 01 07 35 45.0000000  0 15G 8G27G15G18G21G32G24G20G10R14R 6R21
                                R15R22R 5
  24614913.872   129352239.70245      -200.398    24614915.375   100793966.18247
      -156.156  
  24474622.952   128615002.94145     -1945.059    24474625.388   100219499.54348
     -1515.633  
  21485687.579   112908085.51249     -2654.339    21485686.495    87980325.24349
     -2068.316  
  21870451.681   114930012.64348     -2947.133    21870452.301    89555862.39946
     -2296.477  
  24528431.530   128897779.20845      2536.183    24528431.376   100439826.78745
      1976.137  
  24682301.158   129706369.27946      3362.352    24682303.134   101069903.47846
      2620.011  
  20800314.807   109306401.22549      1351.207    20800317.447    85173845.84149
      1052.882  
  19977398.639   104981940.51449       363.433    19977397.845    81804129.95148
       283.194  
  21784481.715   114478249.48149      2437.698    21784483.411    89203840.57149
      1899.504  
  22184739.686   118257150.70306     -2166.656    22184746.831    91977830.20206
     -1685.172  
  19936089.487   106382802.67307      1828.285           0.000           0.0000 
         0.000  
  20902086.149   111851279.92608     -2208.820    20902090.297    86995467.70607
     -1717.972  
  20943565.670   111916077.95908      1711.300    20943570.448    87045880.22107
      1331.007  
  21606215.658   115335443.95005      1736.667    21606220.474    89705372.10203
      1350.738  
  20245727.010   108225037.69509     -2080.464    20245730.548    84175068.41108
     -1618.144  
 20 10 01 07 35 50.0000000  0 15G 8G27G15G18G21G32G24G20G10R14R 6R21
                                R15R22R 5
  24615106.428   129353250.65346      -203.648    24615107.538   100794753.96447
      -158.688  
  24476474.441   128624733.96044     -1948.711    24476477.175   100227082.14749
     -1518.479  
  21488213.669   112921360.73549     -2656.004    21488212.678    87990669.57049
     -2069.613  
  21873256.803   114944753.84448     -2949.598    21873257.497    89567349.05146
     -2298.391  
  24526018.837   128885100.67245      2534.039    24526018.912   100429947.43143
      1974.578  
  24679102.761   129689559.78145      3362.258    24679104.662   101056805.17547
      2619.941  
  20799030.661   109299653.58549      1347.723    20799033.347    85168587.95049
      1050.172  
  19977053.990   104980129.71549       360.765    19977053.238    81802718.93648
       281.112  
  21782162.979   114466064.53949      2436.155    21782164.603    89194345.81349
      1898.304  
  22186773.630   118267992.67507     -2170.250    22186780.696    91986262.84006
     -1687.977  
  19934377.564   106373667.52407      1825.836           0.000           0.0000 
         0.000  
  20904151.878   111862333.31308     -2212.792    20904155.869    87004064.77407
     -1721.065  
  20941966.430   111907531.82308      1706.909    20941971.232    87039233.23307
      1327.597  
  21604591.698   115326774.20605      1731.477    21604596.131    89698628.98103
      1346.703  
  20247673.855   108235444.03909     -2082.344    20247677.390    84183162.23108
     -1619.604  
 20 10 01 07 35 55.0000000  0 16G 8G27G15G18G21G32G24G20G10R16R14R 6
                                R21R15R22R 5
  24615302.040   129354277.38445      -206.745    24615303.252   100795554.00647
      -161.105  
  24478328.485   128634477.24444     -1949.867    24478331.238   100234674.28449
     -1519.382  
  21490741.502   112934644.05749     -2657.460    21490740.571    88001020.21249
     -2070.753  
  21876063.997   114959505.80948     -2951.480    21876064.617    89578844.08146
     -2299.859  
  24523607.586   128872429.92945      2533.375    24523608.051   100420074.14144
      1974.051  
  24675904.496   129672752.81445      3361.019    24675906.422   101043708.85347
      2618.973  
  20797749.777   109292922.83949      1344.383    20797752.652    85163343.21849
      1047.569  
  19976711.997   104978332.52849       357.968    19976711.307    81801318.53448
       278.937  
  21779845.561   114453886.89249      2434.613    21779847.282    89184856.74249
      1897.101  
  23112166.369   123461042.93014      4432.354    23112174.249    96025282.64714
      3447.390  
  22188811.320   118278854.05306     -2174.148    22188818.377    91994710.58606
     -1691.003  
  19932667.501   106364542.42607      1824.160           0.000           0.0000 
         0.000  
  20906221.318   111873407.30108     -2216.977    20906225.270    87012677.87007
     -1724.320  
  20940371.097   111899006.84908      1702.784    20940375.870    87032602.70107
      1324.386  
  21602971.289   115318125.97805      1727.129    21602976.022    89691902.59404
      1343.324  
  20249622.186   108245859.67409     -2084.133    20249625.932    84191263.28008
     -1620.995  
 20 10 01 07 36  0.0000000  0 16G 8G27G15G18G21G32G24G20G10R16R14R 6
                                R21R15R22R 5
  24615500.655   129355320.36445      -210.215    24615501.462   100796366.64347
      -163.815  
  24480184.812   128644233.58945     -1952.270    24480187.739   100242276.69249
     -1521.250  
  21493270.856   112947936.12049     -2659.324    21493269.935    88011377.66249
     -2072.202  
  21878873.499   114974269.24948     -2953.992    21878873.970    89590348.06946
     -2301.812  
  24521198.092   128859767.73746      2531.418    24521198.320   100410207.47744
      1972.531  
  24672706.692   129655948.95945      3360.546    24672708.418   101030615.00045
      2618.613  
  20796472.334   109286209.73849      1340.926    20796475.133    85158112.24049
      1044.879  
  19976372.668   104976549.62049       355.078    19976372.046    81799929.25648
       276.684  
  21777529.879   114441717.27849      2433.035    21777531.454    89175373.93949
      1895.871  
  23108016.788   123438881.77004      4431.699    23108025.475    96008046.18704
      3446.879  
  22190852.652   118289735.40606     -2178.284    22190859.720    92003173.85206
     -1694.227  
  19930959.512   106355428.08007      1821.948           0.000           0.0000 
         0.000  
  20908294.668   111884502.43408     -2221.055    20908298.720    87021307.41407
     -1727.492  
  20938779.927   111890503.70808      1698.434    20938784.802    87025989.14208
      1321.004  
  21601355.560   115309500.13305      1723.003    21601360.145    89685193.61903
      1340.112  
  20251572.545   108256285.24109     -2086.214    20251576.462    84199372.06208
     -1622.613  
 20 10 01 07 36  5.0000000  0 16G 8G27G15G18G21G32G24G20G10R16R14R 6
                                R21R15R22R 5
  24615702.177   129356379.14845      -213.527    24615703.197   100797191.74447
      -166.386  
  24482043.815   128654002.27745     -1955.043    24482046.757   100249888.58849
     -1523.413  
  21495801.737   112961236.33749     -2660.813    21495801.002    88021741.45849
     -2073.362  
  21881684.888   114989043.57448     -2956.043    21881685.276    89601860.52146
     -2303.413  
  24518790.044   128847113.51545      2530.086    24518790.181   100400347.05044
      1971.491  
  24669509.247   129639147.67744      3360.632    24669510.695   101017523.11047
      2618.683  
  20795198.128   109279513.77149      1337.539    20795200.800    85152894.59149
      1042.233  
  19976036.033   104974780.43949       352.542    19976035.267    81798550.67048
       274.703  
  21775215.536   114429555.10549      2431.620    21775217.060    89165896.91349
      1894.766  
  23103869.047   123416724.65704      4431.699    23103877.477    95990812.88704
      3446.879  
  22192897.505   118300636.19006     -2182.202    22192904.906    92011652.21406
     -1697.272  
  19929253.458   106346324.05808      1819.976           0.000           0.0000 
         0.000  
  20910371.888   111895618.18707     -2225.070    20910375.761    87029952.96607
     -1730.612  
  20937192.687   111882021.76008      1694.272    20937197.620    87019392.07607
      1317.769  
  21599743.681   115300896.06405      1718.487    21599748.298    89678501.53603
      1336.597  
  20253524.620   108266720.10709     -2087.995    20253528.581    84207488.07208
     -1623.999  
 20 10 01 07 36 10.0000000  0 16G 8G27G15G18G21G32G24G20G10R16R14R 6
                                R21R15R22R 5
  24615906.250   129357450.03145      -214.878    24615907.089   100798026.17947
      -167.437  
  24483904.190   128663779.86645     -1955.273    24483907.528   100257507.51349
     -1523.593  
  21498333.540   112974541.04749     -2660.507    21498332.811    88032108.76049
     -2073.124  
  21884497.817   115003825.11848     -2956.104    21884498.052    89613378.58846
     -2303.465  
  24516382.787   128834463.60945      2530.472    24516382.812   100390490.02545
      1971.800  
  24666311.661   129622345.46845      3362.172    24666313.580   101004430.42544
      2619.867  
  20793926.586   109272831.36649      1335.883    20793929.168    85147687.53449
      1040.949  
  19975701.316   104973021.33349       351.594    19975700.445    81797179.94248
       273.965  
  21772901.751   114417396.73649      2432.121    21772903.487    89156422.87549
      1895.160  
  23099722.084   123394568.32104      4431.632    23099729.857    95973580.19105
      3446.823  
  22194945.103   118311552.66206     -2184.171    22194952.718    92020142.80206
     -1698.804  
  19927548.514   106337226.56208      1819.476           0.000           0.0000 
         0.000  
  20912452.167   111906750.86708     -2227.496    20912456.194    87038611.73207
     -1732.496  
  20935608.829   111873557.32408      1692.047    20935613.517    87012808.61707
      1316.031  
  21598135.240   115292310.09805      1716.222    21598139.894    89671823.59203
      1334.843  
  20255477.630   108277160.53209     -2087.839    20255481.623    84215608.39308
     -1623.879  
 20 10 01 07 36 15.0000000  0 16G 8G27G15G18G21G32G24G20G10R16R14R 6
                                R21R15R22R 5
  24616112.613   129358534.66345      -218.390    24616113.503   100798871.34847
      -170.179  
  24485766.608   128673567.68645     -1959.155    24485770.243   100265134.36049
     -1526.624  
  21500866.322   112987851.75449     -2663.211    21500865.815    88042480.73949
     -2075.233  
  21887312.261   115018615.46248     -2959.633    21887312.567    89624903.52546
     -2306.187  
  24513976.722   128821819.52745      2527.527    24513976.593   100380637.52643
      1969.503  
  24663114.392   129605543.64545      3360.254    24663116.378   100991338.10847
      2618.371  
  20792657.910   109266164.11349      1331.246    20792660.495    85142492.27949
      1037.336  
  19975368.695   104971273.86549       347.836    19975368.070    81795818.26848
       271.034  
  21770589.131   114405243.77649      2429.468    21770591.131    89146953.03749
      1893.090  
  23095575.003   123372414.01504      4429.781    23095582.271    95956349.07504
      3445.386  
  22196996.067   118322486.48605     -2188.651    22197003.933    92028646.87706
     -1702.289  
  19925845.043   106328136.94708      1816.438           0.000           0.0000 
         0.000  
  20914535.988   111917901.99908     -2232.766    20914539.943    87047284.82707
     -1736.598  
  20934028.471   111865112.02908      1686.531    20934033.244    87006240.04807
      1311.742  
  21596530.356   115283743.83805      1710.425    21596535.010    89665160.94603
      1330.331  
  20257432.128   108287608.13209     -2090.772    20257436.102    84223734.31208
     -1626.155  
 20 10 01 07 36 20.0000000  0 16G 8G27G15G18G21G32G24G20G10R16R14R 6
                                R21R15R22R 5
  24616322.982   129359639.18945      -222.991    24616323.878   100799732.01847
      -173.766  
  24487632.361   128683372.12945     -1962.801    24487636.094   100272774.21049
     -1529.453  
  21503401.584   113001174.79949     -2666.167    21503401.251    88052862.33249
     -2077.535  
  21890129.581   115033420.82748     -2962.770    21890129.997    89636440.18146
     -2308.652  
  24511572.992   128809187.62245      2524.847    24511572.704   100370794.40845
      1967.405  
  24659918.318   129588748.72645      3358.105    24659919.814   100978251.21347
      2616.710  
  20791393.227   109259518.31949      1327.063    20791395.736    85137313.74149
      1034.073  
  19975039.702   104969544.30949       344.019    19975038.872    81794470.56748
       268.065  
  21768278.807   114393102.50049      2426.960    21768280.723    89137492.30449
      1891.133  
  23091429.405   123350268.25704      4427.956    23091436.428    95939124.63705
      3443.968  
  22199051.517   118333443.94006     -2193.788    22199059.583    92037169.33605
     -1706.285  
  19924144.612   106319062.05908      1813.164           0.000           0.0000 
         0.000  
  20916624.439   111929077.94008     -2237.645    20916628.508    87055977.21807
     -1740.395  
  20932452.847   111856692.27608      1681.214    20932457.579    86999691.35007
      1307.609  
  21594930.610   115275203.56905      1705.808    21594935.177    89658518.52203
      1326.737  
  20259389.062   108298069.34909     -2093.671    20259392.987    84231870.82608
     -1628.409  
 20 10 01 07 36 25.0000000  0 16G 8G27G15G18G21G32G24G20G10R16R14R 6
                                R21R15R22R 5
  24616536.609   129360761.52745      -225.956    24616537.212   100800606.58347
      -176.070  
  24489500.769   128693191.05444     -1964.523    24489504.759   100280425.33149
     -1530.797  
  21505938.928   113014508.03649     -2667.140    21505938.383    88063251.86849
     -2078.296  
  21892949.576   115048239.09548     -2964.440    21892949.603    89647986.86846
     -2309.957  
  24509171.129   128796565.68045      2524.031    24509171.184   100360959.17644
      1966.781  
  24656723.387   129571958.46845      3357.417    24656724.879   100965167.89346
      2616.171  
  20790132.161   109252891.71449      1323.819    20790134.920    85132150.16149
      1031.546  
  19974713.577   104967830.57049       341.543    19974712.857    81793135.18648
       266.132  
  21765970.202   114380970.76149      2425.773    21765972.284    89128039.00549
      1890.215  
  23087284.538   123328128.90204      4428.065    23087291.875    95921905.08804
      3444.042  
  22201111.089   118344422.89806     -2197.425    22201119.174    92045708.51306
     -1709.112  
  19922446.246   106309999.38108      1811.901           0.000           0.0000 
         0.000  
  20918717.171   111940276.63608     -2241.472    20918721.142    87064687.29807
     -1743.370  
  20930881.486   111848295.96108      1677.496    20930886.219    86993160.88607
      1304.714  
  21593335.189   115266687.22605      1701.199    21593339.685    89651894.71803
      1323.155  
  20261348.029   108308541.86909     -2095.319    20261352.251    84240016.10708
     -1629.699  
 20 10 01 07 36 30.0000000  0 16G 8G27G15G18G21G32G24G20G10R16R14R 6
                                R21R15R22R 5
  24616753.188   129361899.40746      -229.199    24616753.851   100801493.27646
      -178.594  
  24491371.597   128703022.07245     -1967.526    24491375.556   100288085.80749
     -1533.144  
  21508477.615   113027849.05449     -2669.234    21508477.222    88073647.45949
     -2079.925  
  21895771.290   115063067.93048     -2966.902    21895771.467    89659541.80746
     -2311.875  
  24506770.722   128783951.49145      2521.836    24506770.757   100351129.89241
      1965.059  
  24653528.663   129555170.42445      3357.715    24653530.299   100952086.30946
      2616.401  
  20788874.364   109246281.88249      1320.234    20788877.027    85126999.64249
      1028.750  
  19974390.118   104966130.25249       338.676    19974389.296    81791810.25948
       263.897  
  21763663.132   114368846.21649      2424.094    21763665.053    89118591.31149
      1888.902  
  23083140.792   123305993.72404      4426.199    23083147.952    95904688.87604
      3442.598  
  22203174.231   118355420.98506     -2201.543    22203182.344    92054262.58806
     -1712.312  
  19920749.710   106300946.52407      1809.715           0.000           0.0000 
         0.000  
  20920813.633   111951495.51108     -2245.879    20920817.585    87073413.06807
     -1746.797  
  20929314.243   111839920.59208      1672.937    20929318.899    86986646.71507
      1301.172  
  21591743.740   115258192.52405      1696.667    21591748.272    89645287.72003
      1319.629  
  20263308.905   108319023.43909     -2097.300    20263312.929    84248168.45808
     -1631.234  
 20 10 01 07 36 35.0000000  0 16G 8G27G15G18G21G32G24G20G10R16R14R 6
                                R21R15R22R 5
  24616972.561   129363051.65445      -232.159    24616973.210   100802391.10847
      -180.905  
  24493244.264   128712863.97345     -1969.546    24493248.562   100295754.85949
     -1534.707  
  21511017.422   113041196.73848     -2670.129    21511017.287    88084048.25849
     -2080.624  
  21898595.129   115077906.11348     -2968.679    21898595.246    89671104.02346
     -2313.340  
  24504371.439   128771343.79545      2521.327    24504371.212   100341305.74944
      1964.680  
  24650334.209   129538383.73845      3357.191    24650335.913   100939005.74046
      2615.988  
  20787619.611   109239687.73849      1317.124    20787622.304    85121861.35449
      1026.331  
  19974068.931   104964442.21549       336.309    19974067.930    81790494.91148
       262.059  
  21761356.989   114356727.75749      2423.074    21761359.049    89109148.36149
      1888.108  
  23078997.659   123283861.16405      4426.050    23079004.761    95887474.67605
      3442.483  
  22205240.817   118366436.89506     -2204.707    22205248.889    92062830.53406
     -1714.776  
  19919054.846   106291902.46907      1807.836           0.000           0.0000 
         0.000  
  20922913.746   111962733.48108     -2249.757    20922917.428    87082153.71207
     -1749.816  
  20927750.738   111831565.13208      1669.136    20927755.418    86980148.03307
      1298.218  
  21590156.311   115249718.16005      1692.352    21590160.686    89638696.58203
      1316.276  
  20265271.062   108329512.79409     -2098.836    20265275.060    84256326.84708
     -1632.429  
 20 10 01 07 36 40.0000000  0 16G 8G27G15G18G21G32G24G20G10R16R14R 6
                                R21R15R22R 5
  24617194.765   129364218.56445      -234.871    24617195.260   100803300.39747
      -183.020  
  24495119.320   128722717.24245     -1972.492    24495123.709   100303432.70849
     -1537.012  
  21513558.753   113054551.58248     -2672.031    21513558.567    88094454.62349
     -2082.105  
  21901420.660   115092754.13348     -2971.008    21901420.494    89682673.90847
     -2315.073  
  24501973.610   128758743.11845      2518.813    24501973.717   100331487.06542
      1962.714  
  24647140.272   129521598.48445      3357.874    24647141.878   100925926.32345
      2616.523  
  20786367.913   109233109.67449      1313.664    20786370.510    85116735.59149
      1023.632  
  19973750.034   104962766.90249       333.378    19973749.243    81789189.47348
       259.773  
  21759052.184   114344615.80049      2421.242    21759054.221    89099710.47549
      1886.684  
  23074854.974   123261732.25004      4425.172    23074862.249    95870263.29505
      3441.819  
  22207310.910   118377471.21406     -2209.167    22207318.786    92071412.77906
     -1718.242  
  19917361.693   106282867.63407      1805.625           0.000           0.0000 
         0.000  
  20925017.323   111973990.92708     -2253.684    20925021.135    87090909.50007
     -1752.867  
  20926190.812   111823229.92108      1664.742    20926195.570    86973665.10207
      1294.801  
  21588572.528   115241264.78505      1688.246    21588576.924    89632121.72903
      1313.081  
  20267234.918   108340010.41509     -2100.866    20267238.887    84264491.66208
     -1634.012  
 20 10 01 07 36 45.0000000  0 16G 8G27G15G18G21G32G24G20G10R16R14R 6
                                R21R15R22R 5
  24617420.250   129365402.90245      -238.476    24617420.656   100804223.23347
      -185.820  
  24496996.910   128732584.44745     -1975.605    24497001.584   100311121.45148
     -1539.437  
  21516101.997   113067916.07649     -2673.910    21516101.815    88104868.51749
     -2083.570  
  21904248.449   115107614.54548     -2972.953    21904248.492    89694253.46346
     -2316.586  
  24499577.578   128746152.16844      2517.241    24499577.555   100321675.96345
      1961.491  
  24643947.119   129504817.63446      3355.776    24643948.780   100912850.37447
      2614.891  
  20785119.830   109226550.39449      1310.229    20785122.375    85111624.46949
      1020.952  
  19973434.163   104961106.95349       330.727    19973433.479    81787896.00548
       257.706  
  21756749.102   114332512.96049      2419.840    21756751.113    89090279.69749
      1885.589  
  23070713.441   123239609.23505      4423.867    23070720.529    95853056.52205
      3440.784  
  22209384.876   118388526.46506     -2212.855    22209392.913    92080011.31606
     -1721.108  
  19915670.775   106273844.79407      1803.382           0.000           0.0000 
         0.000  
  20927125.225   111985270.48708     -2257.847    20927128.921    87099682.48507
     -1756.108  
  20924635.313   111814917.65208      1660.222    20924640.051    86967200.01107
      1291.285  
  21586993.302   115232834.74205      1684.081    21586997.746    89625565.03103
      1309.839  
  20269200.620   108350518.96709     -2102.676    20269204.638    84272664.97708
     -1635.417  
 20 10 01 07 36 50.0000000  0 16G 8G27G15G18G21G32G24G20G10R16R14R 6
                                R21R15R22R 5
  24617648.600   129366601.29645      -241.362    24617648.833   100805157.07947
      -188.070  
  24498876.612   128742462.22245     -1976.289    24498881.417   100318818.39749
     -1539.969  
  21518646.197   113081286.90849     -2674.741    21518646.268    88115287.34549
     -2084.214  
  21907078.149   115122484.00048     -2974.710    21907078.221    89705840.04146
     -2317.961  
  24497182.695   128733567.37945      2516.258    24497182.835   100311869.58044
      1960.710  
  24640754.062   129488037.57045      3356.179    24640755.898   100899775.02247
      2615.207  
  20783874.580   109220006.68449      1307.253    20783877.125    85106525.47149
      1018.636  
  19973120.778   104959459.01049       328.437    19973119.673    81786611.89348
       255.926  
  21754447.131   114320415.92849      2418.948    21754449.216    89080853.43649
      1884.890  
  23066572.522   123217488.94004      4423.968    23066579.371    95835851.85704
      3440.862  
  22211462.123   118399599.33206     -2216.476    22211470.066    92088623.52206
     -1723.929  
  19913981.579   106264830.26607      1801.977           0.000           0.0000 
         0.000  
  20929236.507   111996568.78908     -2261.410    20929240.346    87108470.05207
     -1758.878  
  20923083.669   111806625.00808      1656.550    20923088.153    86960750.18707
      1288.429  
  21585417.802   115224424.92505      1679.770    21585422.230    89619024.06703
      1306.483  
  20271168.021   108361035.07308     -2103.895    20271172.111    84280844.16908
     -1636.366  
 20 10 01 07 36 55.0000000  0 16G 8G27G15G18G21G32G24G20G10R16R14R 6
                                R21R15R22R 5
  24617879.619   129367814.12045      -244.772    24617879.443   100806102.10647
      -190.733  
  24500758.373   128752351.09845     -1978.894    24500763.454   100326524.02149
     -1541.996  
  21521191.925   113094664.55149     -2676.394    21521191.924    88125711.47749
     -2085.507  
  21909909.336   115137362.98848     -2976.957    21909909.596    89717434.04947
     -2319.711  
  24494789.066   128720989.43045      2514.789    24494789.450   100302068.60242
      1959.582  
  24637561.262   129471258.88445      3355.160    24637562.990   100886700.72345
      2614.413  
  20782632.360   109213478.93149      1303.659    20782634.806    85101438.91549
      1015.836  
  19972809.474   104957823.56849       325.543    19972808.564    81785337.51948
       253.663  
  21752146.509   114308325.17549      2417.366    21752148.567    89071432.07249
      1883.664  
  23062432.379   123195371.60104      4422.433    23062438.896    95818649.50305
      3439.671  
  22213542.913   118410690.17506     -2220.242    22213550.670    92097249.75406
     -1726.854  
  19912293.842   106255824.61107      1800.257           0.000           0.0000 
         0.000  
  20931351.560   112007886.27508     -2265.605    20931355.138    87117272.53607
     -1762.141  
  20921535.513   111798352.38408      1652.254    20921539.895    86954315.92707
      1285.085  
  21583846.326   115216035.62605      1675.358    21583850.612    89612499.06803
      1303.059  
  20273136.712   108371559.10408     -2105.823    20273140.765    84289029.52508
     -1637.866  
 20 10 01 07 37  0.0000000  0 16G 8G27G15G18G21G32G24G20G10R16R14R 6
                                R21R15R22R 5
  24618114.031   129369045.21345      -247.702    24618113.524   100807061.41246
      -193.015  
  24502642.800   128762254.83145     -1981.788    24502648.162   100334241.21149
     -1544.254  
  21523739.562   113108052.75249     -2678.542    21523739.538    88136143.84349
     -2087.180  
  21912743.368   115152255.26848     -2979.574    21912743.493    89729038.41347
     -2321.749  
  24492397.519   128708422.08044      2511.827    24492397.788   100292275.86344
      1957.265  
  24634369.541   129454485.46645      3354.140    24634371.200   100873630.53446
      2613.612  
  20781393.946   109206970.86749      1299.703    20781396.370    85096367.69449
      1012.753  
  19972501.409   104956204.45449       322.430    19972500.382    81784075.87748
       251.241  
  21749847.590   114296244.49249      2415.300    21749849.614    89062018.55449
      1882.047  
  23058293.508   123173261.37004      4421.438    23058299.717    95801452.65805
      3438.895  
  22215627.632   118421802.93007     -2224.312    22215635.398    92105892.99306
     -1730.022  
  19910608.556   106246831.88507      1797.488           0.000           0.0000 
         0.000  
  20933470.726   112019226.85808     -2270.293    20933474.307    87126092.98907
     -1765.788  
  20919991.870   111790103.74708      1647.483    20919996.448    86947900.32107
      1281.375  
  21582279.309   115207670.90505      1670.550    21582283.482    89605993.17103
      1299.315  
  20275107.620   108382095.01908     -2108.273    20275111.823    84297224.12108
     -1639.772  
 20 10 01 07 37  5.0000000  0 16G 8G27G15G18G21G32G24G20G10R16R14R 6
                                R21R15R22R 5
  24618351.208   129370291.52645      -250.707    24618350.566   100808032.56046
      -195.355  
  24504529.667   128772170.23045     -1983.805    24504535.030   100341967.49749
     -1545.819  
  21526288.762   113121448.42049     -2679.961    21526288.872    88146582.03049
     -2088.284  
  21915579.094   115167157.70548     -2981.566    21915579.363    89740650.70346
     -2323.362  
  24490007.348   128695862.11544      2510.948    24490007.360   100282488.86841
      1956.598  
  24631178.076   129437714.04746      3354.223    24631179.966   100860561.93147
      2613.683  
  20780158.759   109200479.44649      1296.522    20780161.117    85091309.44749
      1010.277  
  19972195.809   104954598.51849       319.753    19972194.881    81782824.49748
       249.155  
  21747550.029   114284170.78649      2413.925    21747552.118    89052610.47349
      1880.980  
  23054155.133   123151155.10104      4420.460    23054161.146    95784258.90305
      3438.137  
  22217716.066   118432934.39606     -2228.246    22217723.798    92114550.79706
     -1733.085  
  19908925.168   106237848.90908      1795.707           0.000           0.0000 
         0.000  
  20935593.860   112030587.26908     -2274.112    20935597.376    87134928.86607
     -1768.757  
  20918452.140   111781875.89908      1643.480    20918456.628    86941500.88507
      1278.258  
  21580716.394   115199327.55405      1666.069    21580720.182    89599503.89803
      1295.827  
  20277080.032   108392639.56408     -2109.867    20277084.276    84305425.42608
     -1641.011  
 20 10 01 07 37 10.0000000  0 15G 8G27G15G18G21G32G24G20G10R14R 6R21
                                R15R22R 5
  24618591.397   129371553.88245      -254.027    24618590.721   100809016.26546
      -197.941  
  24506418.868   128782098.11145     -1986.527    24506424.372   100349703.47349
     -1547.948  
  21528839.460   113134852.33549     -2681.272    21528839.397    88157026.62949
     -2089.309  
  21918417.118   115182071.05748     -2983.508    21918417.438    89752271.49047
     -2324.815  
  24487618.809   128683310.41145      2509.547    24487618.348   100272708.29144
      1955.487  
  24627987.116   129420945.43746      3353.930    24627989.483   100847495.46746
      2613.452  
  20778926.797   109194005.53549      1293.227    20778929.019    85086264.83849
      1007.706  
  19971892.881   104953006.52849       317.176    19971891.814    81781583.98548
       247.144  
  21745253.974   114272104.81549      2412.641    21745256.080    89043208.42749
      1879.980  
  22219808.079   118444085.31306     -2231.961    22219815.772    92123223.73306
     -1735.972  
  19907243.782   106228876.36907      1793.367           0.000           0.0000 
         0.000  
  20937720.718   112041968.32708     -2278.051    20937724.313    87143780.80607
     -1771.816  
  20916916.554   111773669.69408      1639.351    20916921.109    86935118.29008
      1275.050  
  21579157.665   115191006.26505      1662.973    21579161.270    89593031.77703
      1293.418  
  20279054.325   108403193.64008     -2111.601    20279058.704    84313634.16208
     -1642.355  
 20 10 01 07 37 15.0000000  0 15G 8G27G15G18G21G32G24G20G10R14R 6R21
                                R15R22R 5
  24618834.435   129372830.90245      -256.116    24618833.548   100810011.35146
      -199.566  
  24508310.133   128792037.21244     -1988.539    24508315.890   100357448.23549
     -1549.511  
  21531391.519   113148263.24349     -2682.766    21531391.378    88167476.69349
     -2090.469  
  21921256.859   115196994.15248     -2985.526    21921257.166    89763899.85747
     -2326.391  
  24485231.406   128670765.80845      2508.163    24485230.944   100262933.36443
      1954.413  
  24624796.346   129404178.51645      3353.586    24624798.949   100834430.39147
      2613.187  
  20777697.868   109187547.81449      1289.988    20777700.095    85081232.84949
      1005.187  
  19971592.421   104951427.31849       314.784    19971591.413    81780353.42548
       245.285  
  21742959.254   114260045.41449      2411.347    21742961.260    89033811.49249
      1878.973  
  22221903.428   118455254.39407     -2235.426    22221911.071    92131910.79306
     -1738.667  
  19905564.096   106219913.02307      1791.656           0.000           0.0000 
         0.000  
  20939851.102   112053368.72608     -2281.992    20939854.901    87152647.78607
     -1774.883  
  20915384.685   111765483.78708      1635.085    20915389.245    86928751.48208
      1271.733  
  21577602.613   115182705.94605      1658.230    21577606.274    89586575.97703
      1289.730  
  20281030.131   108413755.85708     -2113.155    20281034.607    84321849.21708
     -1643.566  
 20 10 01 07 37 20.0000000  0 14G 8G27G15G18G32G24G20G10R14R 6R21R15
                                R22R 5
  24619080.608   129374124.20545      -260.874    24619079.486   100811019.11546
      -203.280  
  24510203.785   128801989.16945     -1991.488    24510209.868   100365203.00749
     -1551.816  
  21533945.120   113161682.72549     -2684.691    21533945.083    88177933.43649
     -2091.973  
  21924098.701   115211928.44448     -2987.988    21924099.109    89775536.98147
     -2328.301  
  24621606.147   129387414.78445      3352.437    24621609.062   100821367.74247
      2612.289  
  20776472.357   109181107.77149      1286.289    20776474.597    85076214.63849
      1002.304  
  19971294.646   104949862.37649       311.667    19971293.470    81779133.99548
       242.854  
  21740666.053   114247994.09449      2409.531    21740667.910    89024420.85649
      1877.558  
  22224002.493   118466443.31007     -2239.792    22224010.187    92140613.28006
     -1742.065  
  19903886.240   106210960.35107      1789.434           0.000           0.0000 
         0.000  
  20941985.627   112064790.00308     -2286.194    20941989.578    87161531.00407
     -1778.152  
  20913856.920   111757319.84408      1630.663    20913861.468    86922401.75308
      1268.293  
  21576052.153   115174428.01805      1653.237    21576055.529    89580137.61103
      1285.852  
  20283007.810   108424327.87408     -2115.421    20283012.225    84330071.90108
     -1645.331  
 20 10 01 07 37 25.0000000  0 14G 8G27G15G18G32G24G20G10R14R 6R21R15
                                R22R 5
  24619329.265   129375431.15845      -263.188    24619328.019   100812037.53345
      -205.081  
  24512099.430   128811951.32045     -1994.340    24512105.495   100372965.68949
     -1554.035  
  21536500.036   113175108.27549     -2685.765    21536499.766    88188394.90549
     -2092.805  
  21926942.255   115226871.42648     -2989.625    21926942.730    89787180.85346
     -2329.581  
  24618416.148   129370651.66145      3352.569    24618419.508   100808305.58547
      2612.391  
  20775249.685   109174682.86749      1283.219    20775252.031    85071208.21649
       999.905  
  19970999.143   104948309.18549       309.418    19970997.945    81777923.71148
       241.101  
  21738373.804   114235948.33849      2408.457    21738375.754    89015034.54749
      1876.714  
  22226104.819   118477649.41807     -2243.363    22226112.493    92149329.14306
     -1744.843  
  19902210.027   106202016.00307      1787.671           0.000           0.0000 
         0.000  
  20944123.311   112076229.55208     -2290.011    20944127.348    87170428.43707
     -1781.120  
  20912332.904   111749175.24608      1626.816    20912337.514    86916067.07007
      1265.296  
  21574505.136   115166170.03105      1649.749    21574508.411    89573714.73903
      1283.140  
  20284987.023   108434907.18508     -2116.680    20284991.552    84338300.25308
     -1646.309  
 20 10 01 07 37 30.0000000  0 14G 8G27G15G18G32G24G20G10R14R 6R21R15
                                R22R 5
  24619581.166   129376755.77945      -267.375    24619580.002   100813069.70745
      -208.344  
  24513997.849   128821927.55045     -1996.921    24514004.056   100380739.38649
     -1556.043  
  21539056.647   113188543.67249     -2688.331    21539056.645    88198864.05249
     -2094.804  
  21929788.109   115241826.98548     -2992.461    21929788.768    89798834.53147
     -2331.792  
  24615226.973   129353893.02945      3351.184    24615230.563   100795246.91846
      2611.312  
  20774030.825   109168277.12149      1279.156    20774032.899    85066216.73049
       996.745  
  19970706.508   104946771.65849       305.652    19970705.364    81776725.64048
       238.168  
  21736083.430   114223912.06249      2406.059    21736085.299    89005655.64149
      1874.852  
  22228210.973   118488876.65606     -2248.215    22228218.655    92158061.43506
     -1748.616  
  19900535.893   106193083.91107      1784.804           0.000           0.0000 
         0.000  
  20946265.290   112087691.46908     -2294.945    20946269.371    87179343.26107
     -1784.960  
  20910813.151   111741054.08408      1621.640    20910817.645    86909750.61608
      1261.276  
  21572962.515   115157935.91605      1644.128    21572965.786    89567310.42703
      1278.761  
  20286968.106   108445497.55009     -2119.421    20286972.789    84346537.20508
     -1648.437  
 20 10 01 07 37 35.0000000  0 14G 8G27G15G18G32G24G20G10R14R 6R21R15
                                R22R 5
  24619836.302   129378096.05944      -270.152    24619834.939   100814114.09845
      -210.507  
  24515898.833   128831916.00845     -1998.902    24515904.813   100388522.57749
     -1557.589  
  21541614.978   113201987.04049     -2689.570    21541614.748    88209339.40249
     -2095.772  
  21932636.269   115256793.23148     -2994.382    21932636.773    89810496.53846
     -2333.289  
  24612038.280   129337137.26945      3350.859    24612042.262   100782190.48347
      2611.058  
  20772815.006   109161888.66849      1275.847    20772817.203    85061238.72149
       994.167  
  19970416.540   104945247.89849       303.270    19970415.464    81775538.29748
       236.309  
  21733794.379   114211883.39349      2404.973    21733796.310    88996282.64749
      1873.999  
  22230320.922   118500123.12007     -2251.195    22230328.545    92166808.67806
     -1750.934  
  19898864.018   106184162.05907      1783.469           0.000           0.0000 
         0.000  
  20948411.000   112099173.75208     -2298.477    20948414.941    87188273.91207
     -1787.706  
  20909297.373   111732954.28608      1617.668    20909301.911    86903450.78308
      1258.188  
  21571424.148   115149723.85006      1640.269    21571427.231    89560923.26603
      1275.766  
  20288951.073   108456097.05409     -2120.835    20288955.727    84354781.25908
     -1649.542  
 20 10 01 07 37 40.0000000  0 15G 8G27G15G18G21G32G24G20G10R14R 6R21
                                R15R22R 5
  24620094.037   129379451.71544      -272.159    24620092.438   100815170.42146
      -212.078  
  24517801.935   128841916.28245     -2001.069    24517807.734   100396314.99849
     -1559.281  
  21544174.644   113215438.01949     -2690.992    21544174.286    88219820.68749
     -2096.878  
  21935486.139   115271769.77248     -2996.469    21935486.758    89822166.56347
     -2334.913  
  24473318.694   128608157.77054      2500.199    24473318.463   100214147.55955
      1948.218  
  24608849.883   129320383.66145      3350.999    24608854.272   100769135.76146
      2611.172  
  20771602.610   109155517.04949      1272.656    20771604.688    85056273.83149
       991.680  
  19970129.227   104943737.55649       300.609    19970127.994    81774361.40648
       234.237  
  21731506.685   114199861.94749      2403.733    21731508.790    88986915.29049
      1873.039  
  22232434.211   118511388.29907     -2254.714    22232442.052    92175570.48406
     -1753.672  
  19897193.781   106175250.07807      1781.480           0.000           0.0000 
         0.000  
  20950560.452   112110675.96608     -2302.500    20950564.553    87197220.06707
     -1790.835  
  20907785.562   111724875.56308      1613.792    20907790.277    86897167.33408
      1255.172  
  21569889.964   115141533.36606      1636.151    21569892.590    89554552.88103
      1272.559  
  20290935.533   108466705.50309     -2122.496    20290940.331    84363032.27008
     -1650.835  
 20 10 01 07 37 45.0000000  0 15G 8G27G15G18G21G32G24G20G10R14R 6R21
                                R15R22R 5
  24620354.868   129380822.64045      -275.827    24620353.212   100816238.74747
      -214.918  
  24519707.398   128851928.40145     -2003.921    24519713.091   100404116.64949
     -1561.495  
  21546735.635   113228896.55849     -2692.449    21546735.314    88230307.85549
     -2098.016  
  21938338.097   115286756.54148     -2998.645    21938338.707    89833844.56847
     -2336.605  
  24470940.789   128595661.29644      2497.940    24470940.109   100204410.00443
      1946.445  
  24605662.100   129303632.37845      3349.862    24605666.631   100756082.80948
      2610.280  
  20770393.258   109149162.23549      1269.160    20770395.598    85051322.03049
       988.957  
  19969844.372   104942240.57349       297.855    19969842.983    81773194.93048
       232.094  
  21729220.479   114187847.69849      2402.097    21729222.489    88977553.55149
      1871.765  
  22234551.145   118522672.30806     -2258.832    22234558.930    92184346.91906
     -1756.874  
  19895525.287   106166347.92007      1779.355           0.000           0.0000 
         0.000  
  20952713.833   112122198.07908     -2306.726    20952717.518    87206181.71607
     -1794.124  
  20906277.654   111716817.88908      1609.289    20906282.493    86890900.26308
      1251.668  
  21568359.509   115133364.44105      1630.991    21568362.328    89548199.27503
      1268.546  
  20292921.683   108477322.70709     -2124.515    20292926.612    84371290.09908
     -1652.406  
 20 10 01 07 37 50.0000000  0 15G 8G27G15G18G21G32G24G20G10R14R 6R21
                                R15R22R 5
  24620618.711   129382209.83744      -278.577    24620616.801   100817319.69248
      -217.063  
  24521615.268   128861953.13745     -2006.156    24521620.838   100411928.08749
     -1563.245  
  21549298.358   113242363.50949     -2694.214    21549298.096    88240801.58349
     -2099.390  
  21941192.152   115301754.38848     -3000.352    21941192.883    89845531.19447
     -2337.940  
  24468564.408   128583173.36344      2497.155    24468563.942   100194679.18441
      1945.820  
  24602474.931   129286884.19145      3349.496    24602479.790   100743032.29146
      2609.995  
  20769187.333   109142825.18249      1265.770    20769189.691    85046384.07249
       986.312  
  19969562.175   104940757.80549       295.422    19969560.913    81772039.52348
       230.194  
  21726935.788   114175841.50149      2400.574    21726937.887    88968198.08149
      1870.577  
  22236671.543   118533975.85106     -2262.309    22236679.601    92193138.58406
     -1759.574  
  19893859.066   106157456.55107      1777.297           0.000           0.0000 
         0.000  
  20954870.750   112133740.89908     -2310.440    20954874.598    87215159.45607
     -1797.015  
  20904774.010   111708782.21108      1605.194    20904778.780    86884650.30108
      1248.483  
  21566833.417   115125218.00005      1627.565    21566836.137    89541863.19603
      1265.891  
  20294909.721   108487949.56509     -2126.179    20294914.516    84379555.42508
     -1653.699  
 20 10 01 07 37 55.0000000  0 15G 8G27G15G18G21G32G24G20G10R14R 6R21
                                R15R22R 5
  24620885.506   129383612.66344      -282.726    24620883.849   100818412.74247
      -220.313  
  24523525.233   128871989.79046     -2008.772    24523530.577   100419748.86649
     -1565.276  
  21551862.578   113255838.25949     -2695.641    21551862.310    88251301.39249
     -2100.503  
  21944048.139   115316762.73248     -3002.586    21944049.013    89857226.00547
     -2339.679  
  24466189.609   128570693.45744      2496.042    24466188.962   100184954.56844
      1944.968  
  24599288.143   129270138.56946      3348.749    24599293.081   100729983.78246
      2609.413  
  20767984.684   109136505.12649      1262.351    20767986.941    85041459.35649
       983.651  
  19969282.637   104939288.69449       292.429    19969281.274    81770894.76348
       227.863  
  21724652.446   114163842.80549      2399.069    21724654.506    88958848.45549
      1869.406  
  22238795.673   118545298.43706     -2266.370    22238803.960    92201945.03406
     -1762.737  
  19892194.693   106148575.35607      1775.172           0.000           0.0000 
         0.000  
  20957031.534   112145303.90808     -2314.683    20957035.317    87224152.90707
     -1800.313  
  20903274.146   111700767.83408      1600.741    20903278.908    86878416.89408
      1245.020  
  21565311.356   115117093.44405      1622.703    21565314.159    89535544.10503
      1262.102  
  20296899.467   108498585.55409     -2128.113    20296904.094    84387827.86808
     -1655.199  
 20 10 01 07 38  0.0000000  0 16G 8G27G15G18G21G32G24G20G10G13R14R 6
                                R21R15R22R 5
  24621155.301   129385030.53844      -285.066    24621153.909   100819517.62246
      -222.124  
  24525437.554   128882038.01245     -2010.190    24525442.793   100427578.66648
     -1566.387  
  21554428.135   113269320.25949     -2696.921    21554427.747    88261806.83549
     -2101.500  
  21946906.182   115331781.00648     -3004.444    21946906.818    89868928.55047
     -2341.129  
  24463816.187   128558221.16445      2494.145    24463815.637   100175235.95145
      1943.491  
  24596101.671   129253394.95145      3348.586    24596106.799   100716936.80246
      2609.288  
  20766785.092   109130201.78749      1259.233    20766787.356    85036547.66449
       981.222  
  19969005.572   104937832.71049       290.151    19969004.318    81769760.23448
       226.093  
  21722370.636   114151851.03149      2397.863    21722372.619    88949504.22649
      1868.464  
  24236233.946   127362265.29454     -3539.472    24236229.162    99243305.59954
     -2758.031  
  22240923.071   118556639.35605     -2270.152    22240931.167    92210765.76605
     -1765.671  
  19890531.994   106139703.65807      1773.641           0.000           0.0000 
         0.000  
  20959196.094   112156886.43408     -2318.195    20959199.847    87233161.52907
     -1803.042  
  20901778.401   111692774.24208      1596.867    20901783.070    86872199.66008
      1242.008  
  21563793.423   115108990.08605      1618.831    21563796.053    89529241.49903
      1259.089  
  20298890.726   108509229.94609     -2129.444    20298895.331    84396106.83208
     -1656.262  
 20 10 01 07 38  5.0000000  0 16G 8G27G15G18G21G32G24G20G10G13R14R 6
                                R21R15R22R 5
  24621427.888   129386463.52544      -288.238    24621426.575   100820634.24046
      -224.604  
  24527351.895   128892097.78146     -2013.246    24527357.061   100435417.39649
     -1568.769  
  21556995.044   113282809.67549     -2698.770    21556994.874    88272318.07149
     -2102.938  
  21949765.954   115346809.33548     -3006.659    21949766.583    89880638.93647
     -2342.854  
  24461444.187   128545756.40845      2491.719    24461443.919   100165523.13045
      1941.589  
  24592915.760   129236653.46944      3347.973    24592920.997   100703891.50446
      2608.812  
  20765588.925   109123915.11049      1255.582    20765590.914    85031648.96649
       978.375  
  19968730.985   104936389.99549       287.155    19968729.810    81768636.04748
       223.758  
  21720089.979   114139866.37449      2396.089    21720091.907    88940165.53349
      1867.082  
  24239602.330   127379966.02144     -3539.737    24239601.056    99257098.34843
     -2758.210  
  22243054.039   118567998.92306     -2273.629    22243062.005    92219600.95505
     -1768.386  
  19888871.189   106130841.87807      1771.258           0.000           0.0000 
         0.000  
  20961364.176   112168488.71808     -2322.460    20961368.049    87242185.53007
     -1806.362  
  20900286.433   111684801.64908      1592.429    20900291.039    86865998.75108
      1238.551  
  21562279.399   115100908.37205      1614.191    21562282.062    89522955.72703
      1255.480  
  20300883.837   108519883.11009     -2131.640    20300888.242    84404392.63008
     -1657.945  
 20 10 01 07 38 10.0000000  0 17G 8G27G15G18G21G32G24G20G10G13R16R14
                                R 6R21R15R22R 5
  24621703.577   129387913.50044      -292.301    24621702.505   100821764.06347
      -227.766  
  24529268.852   128902170.89746     -2016.147    24529273.881   100443266.61249
     -1571.023  
  21559563.864   113296308.29449     -2700.957    21559563.456    88282836.48649
     -2104.640  
  21952628.010   115361849.54048     -3009.538    21952628.702    89892358.55446
     -2345.097  
  24459074.204   128533301.06444      2490.715    24459073.596   100155817.68045
      1940.816  
  24589730.448   129219915.95045      3346.694    24589735.872   100690849.29447
      2607.816  
  20764396.011   109117646.86549      1251.597    20764398.128    85026764.61349
       975.266  
  19968459.409   104934962.35149       283.809    19968458.000    81767523.59348
       221.144  
  21717811.029   114127890.63249      2393.835    21717812.887    88930833.79449
      1865.327  
  24242971.517   127397670.03045     -3541.769    24242972.393    99270915.59954
     -2759.820  
  23000429.392   122864166.27114      4407.769    23000437.094    95561049.24815
      3428.265  
  22245188.855   118579378.82206     -2278.430    22245196.762    92228451.98705
     -1772.112  
  19887212.672   106121991.43407      1768.684           0.000           0.0000 
         0.000  
  20963536.297   112180112.48808     -2327.176    20963540.368    87251226.22507
     -1810.030  
  20898798.763   111676851.86908      1587.402    20898803.309    86859815.58807
      1234.641  
  21560769.751   115092849.98505      1609.386    21560772.691    89516688.10503
      1251.745  
  20302878.625   108530546.54809     -2134.194    20302883.052    84412686.42008
     -1659.929  
 20 10 01 07 38 15.0000000  0 17G 8G27G15G18G21G32G24G20G10G13R16R14
                                R 6R21R15R22R 5
  24621982.630   129389380.27644      -294.257    24621981.544   100822906.99547
      -229.301  
  24531188.498   128912257.42446     -2018.058    24531193.388   100451126.23649
     -1572.516  
  21562134.394   113309816.01849     -2701.972    21562133.750    88293361.97349
     -2105.437  
  21955492.358   115376901.51148     -3011.112    21955493.075    89904087.36747
     -2346.359  
  24456705.811   128520855.04445      2488.581    24456705.449   100146119.54745
      1939.159  
  24586546.041   129203182.36845      3346.425    24586551.457   100677810.14947
      2607.605  
  20763206.899   109111397.13349      1248.625    20763208.737    85021894.69249
       972.949  
  19968190.521   104933549.71049       281.554    19968189.123    81766422.83848
       219.394  
  21715533.776   114115923.74549      2392.952    21715535.611    88921508.94749
      1864.641  
  24246341.001   127415377.19345     -3541.116    24246341.147    99284713.45541
     -2759.316  
  22996303.139   122842124.94204      4408.347    22996310.961    95543906.01205
      3428.719  
  22247327.717   118590779.06606     -2281.745    22247335.310    92237318.82905
     -1774.698  
  19885556.244   106113152.63807      1766.995           0.000           0.0000 
         0.000  
  20965712.402   112191757.67108     -2330.680    20965716.495    87260283.58607
     -1812.754  
  20897315.385   111668924.77009      1583.785    20897319.934    86853650.06307
      1231.828  
  21559264.608   115084814.96405      1605.479    21559267.406    89510438.63503
      1248.706  
  20304875.458   108541220.54709     -2135.319    20304879.771    84420988.42908
     -1660.804  
 20 10 01 07 38 20.0000000  0 17G 8G27G15G18G21G32G24G20G10G13R16R14
                                R 6R21R15R22R 5
  24622264.758   129390863.46344      -298.445    24622264.055   100824062.76547
      -232.550  
  24533110.427   128922356.69746     -2021.323    24533115.083   100458995.78649
     -1575.063  
  21564706.454   113323332.28549     -2703.988    21564705.986    88303894.13049
     -2107.008  
  21958358.792   115391964.69148     -3013.391    21958359.403    89915824.90947
     -2348.101  
  24454338.993   128508417.92744      2486.469    24454338.544   100136428.27744
      1937.515  
  24583362.215   129186452.03144      3345.832    24583367.672   100664773.55047
      2607.147  
  20762021.027   109105165.36249      1244.895    20762022.779    85017038.76849
       970.047  
  19967924.487   104932151.53949       278.512    19967923.190    81765333.35548
       217.020  
  21713258.266   114103965.17149      2391.113    21713260.025    88912190.58449
      1863.207  
  24249711.108   127433086.91544     -3542.086    24249712.480    99298516.37753
     -2760.065  
  22992177.507   122820088.87003      4407.718    22992185.556    95526766.86405
      3428.227  
  22249469.837   118602198.99106     -2285.480    22249477.456    92246200.96605
     -1777.604  
  19883901.874   106104324.91007      1764.844           0.000           0.0000 
         0.000  
  20967892.445   112203423.74308     -2334.918    20967896.691    87269357.19107
     -1816.050  
  20895836.140   111661019.94409      1578.940    20895840.367    86847501.85908
      1228.063  
  21557763.732   115076802.58906      1600.671    21557766.439    89504206.78403
      1244.965  
  20306874.165   108551904.34209     -2137.375    20306878.434    84429298.04808
     -1662.401  
 20 10 01 07 38 25.0000000  0 16G 8G27G15G18G21G32G24G20G10G13R14R 6
                                R21R15R22R 5
  24622549.273   129392358.41445      -300.308    24622548.542   100825227.66347
      -234.008  
  24535033.907   128932463.96646     -2021.827    24535038.470   100466871.57749
     -1575.452  
  21567279.258   113336852.46049     -2704.402    21567278.696    88314429.32349
     -2107.332  
  21961226.523   115407034.43548     -3014.574    21961227.178    89927567.56147
     -2349.023  
  24451973.136   128495984.98045      2486.222    24451972.419   100126740.23343
      1937.301  
  24580178.035   129169720.46145      3346.237    24580183.751   100651735.98547
      2607.461  
  20760837.633   109098946.90149      1242.378    20760839.547    85012193.22349
       968.085  
  19967660.317   104930763.19049       276.855    19967658.973    81764251.52148
       215.726  
  21710983.340   114092010.29249      2390.797    21710985.163    88902875.09449
      1862.952  
  24253080.720   127450794.59345     -3541.530    24253077.211    99312314.41741
     -2759.644  
  22251615.064   118613633.97405     -2288.262    22251622.484    92255094.83005
     -1779.762  
  19882248.802   106095503.42607      1763.570           0.000           0.0000 
         0.000  
  20970075.486   112215105.94508     -2338.022    20970079.765    87278443.34207
     -1818.464  
  20894360.235   111653132.56508      1575.863    20894364.441    86841367.22907
      1225.668  
  21556266.199   115068808.34805      1596.941    21556269.148    89497989.03303
      1242.063  
  20308873.815   108562593.24309     -2138.211    20308877.869    84437611.62908
     -1663.058  
 20 10 01 07 38 30.0000000  0 16G 8G27G15G18G21G32G24G20G10G13R14R 6
                                R21R15R22R 5
  24622836.450   129393867.22544      -303.277    24622835.621   100826403.38947
      -236.316  
  24536959.553   128942581.55446     -2024.722    24536963.717   100474755.39449
     -1577.710  
  21569853.216   113350378.64048     -2706.047    21569852.649    88324969.19849
     -2108.612  
  21964095.837   115422112.88048     -3016.691    21964096.687    89939317.00246
     -2350.672  
  24449608.663   128483558.34045      2484.520    24449607.894   100117057.15241
      1935.988  
  24576994.123   129152989.79645      3345.676    24577000.118   100638699.16647
      2607.019  
  20759657.294   109092743.83149      1238.882    20759659.011    85007359.65949
       965.362  
  19967398.263   104929386.80449       273.925    19967397.224    81763179.01648
       213.445  
  21708709.546   114080061.20449      2389.011    21708711.259    88893564.11949
      1861.565  
  24256450.365   127468502.35545     -3541.520    24256445.824    99326112.66943
     -2759.616  
  22253763.585   118625086.08006     -2292.272    22253770.921    92264002.04805
     -1782.879  
  19880597.276   106086690.38407      1761.621           0.000           0.0000 
         0.000  
  20972262.083   112226806.37208     -2342.180    20972266.209    87287543.67007
     -1821.699  
  20892887.874   111645264.89708      1571.226    20892891.875    86835247.93707
      1222.065  
  21554772.311   115060834.27405      1592.280    21554775.186    89491786.94903
      1238.437  
  20310874.764   108573289.43309     -2140.179    20310878.783    84445930.88908
     -1664.590  
 20 10 01 07 38 35.0000000  0 16G 8G27G15G18G21G32G24G20G10G13R14R 6
                                R21R15R22R 5
  24623126.471   129395391.42045      -303.737    24623125.906   100827591.02746
      -236.684  
  24538887.162   128952710.92546     -2023.565    24538891.320   100482648.41849
     -1576.808  
  21572428.692   113363912.48248     -2704.847    21572428.090    88335515.04149
     -2107.745  
  21966967.229   115437201.64348     -3016.206    21966967.880    89951074.46547
     -2350.296  
  24447245.480   128471139.79444      2484.964    24447244.719   100107380.34243
      1936.339  
  24573810.716   129136261.66145      3347.745    24573816.496   100625664.26947
      2608.636  
  20758480.186   109086557.89949      1238.210    20758481.890    85002539.44849
       964.835  
  19967139.071   104928024.02549       273.875    19967137.909    81762117.10448
       213.406  
  21706437.100   114068119.60849      2390.120    21706438.581    88884258.97749
      1862.429  
  24259819.535   127486211.89845     -3539.383    24259815.204    99339912.34344
     -2757.953  
  22255915.430   118636557.06506     -2293.331    22255922.428    92272923.93105
     -1783.703  
  19878947.571   106077887.33307      1762.249           0.000           0.0000 
         0.000  
  20974452.254   112238526.76108     -2343.250    20974456.510    87296659.52207
     -1822.530  
  20891419.614   111637418.52608      1569.688    20891423.672    86829145.21507
      1220.867  
  21553282.321   115052881.98205      1590.835    21553285.558    89485601.86203
      1237.316  
  20312877.419   108583994.61509     -2139.207    20312881.627    84454257.14208
     -1663.827  
 20 10 01 07 38 40.0000000  0 16G 8G27G15G18G21G32G24G20G10G13R14R 6
                                R21R15R22R 5
  24623415.175   129396908.72644      -309.305    24623414.621   100828773.39248
      -241.012  
  24540812.867   128962829.98046     -2029.472    24540816.933   100490533.38749
     -1581.409  
  21575001.303   113377431.70849     -2708.651    21575000.600    88346049.50849
     -2110.636  
  21969836.372   115452278.43748     -3020.288    21969836.854    89962822.62147
     -2353.477  
  24444879.665   128458706.94646      2481.574    24444878.763   100097692.42844
      1933.687  
  24570623.471   129119513.69945      3345.152    24570628.958   100612613.89447
      2606.617  
  20757302.116   109080366.78749      1232.469    20757303.783    84997715.20649
       960.362  
  19966877.966   104926652.62849       268.761    19966876.872    81761048.48248
       209.421  
  21704161.960   114056163.22649      2386.445    21704163.488    88874942.31749
      1859.562  
  24263185.193   127503900.89444     -3542.011    24263182.515    99353677.85454
     -2760.007  
  22258066.605   118648024.25706     -2299.726    22258073.484    92281842.85405
     -1788.676  
  19877295.472   106069071.79407      1757.976           0.000           0.0000 
         0.000  
  20976642.021   112250244.39708     -2349.789    20976646.338    87305773.25107
     -1827.612  
  20889950.953   111629570.97708      1563.234    20889955.004    86823041.56208
      1215.848  
  21551792.539   115044929.08405      1584.425    21551795.945    89479416.24103
      1232.328  
  20314877.604   108594686.09609     -2143.378    20314881.576    84462572.73608
     -1667.078  
 20 10 01 07 38 45.0000000  0 16G 8G27G15G18G21G32G24G20G10G13R14R 6
                                R21R15R22R 5
  24623715.069   129398483.99544      -316.766    24623714.181   100830000.88647
      -246.832  
  24542749.103   128973003.18746     -2036.269    24542752.772   100498460.54349
     -1586.706  
  21577583.645   113391001.00448     -2714.710    21577582.591    88356622.98749
     -2115.363  
  21972715.400   115467407.92548     -3027.090    21972715.904    89974611.82047
     -2358.772  
  24442523.504   128446324.42644      2475.238    24442522.304   100088043.68945
      1928.749  
  24567444.698   129102810.72845      3340.140    24567450.224   100599598.60647
      2602.703  
  20756135.468   109074235.10449      1224.406    20756136.910    84992937.27549
       954.082  
  19966627.692   104925337.20949       261.636    19966626.573    81760023.48548
       203.867  
  21701896.149   114044256.71549      2380.438    21701897.655    88865664.51849
      1854.886  
  24266559.576   127521634.02044     -3547.296    24266557.186    99367495.97844
     -2764.141  
  22260229.521   118659553.16106     -2307.809    22260236.271    92290809.78506
     -1794.960  
  19875653.504   106060309.59307      1751.352           0.000           0.0000 
         0.000  
  20978843.604   112262025.10408     -2358.469    20978847.979    87314936.02007
     -1834.366  
  20888494.494   111621787.88508      1554.352    20888498.587    86816988.04608
      1208.941  
  21550314.819   115037041.12905      1575.000    21550318.315    89473281.18503
      1225.000  
  20316887.286   108605429.59009     -2149.636    20316891.358    84470928.77608
     -1671.945  
 20 10 01 07 38 50.0000000  0 16G 8G27G15G18G21G32G24G20G10G13R14R 6
                                R21R15R22R 5
  24624015.784   129400063.10644      -316.230    24624014.872   100831231.35046
      -246.421  
  24544685.082   128983176.51746     -2034.792    24544688.621   100506387.80349
     -1585.558  
  21580164.999   113404566.27048     -2712.761    21580164.147    88367193.30749
     -2113.843  
  21975594.426   115482536.02848     -3025.695    21975594.678    89986399.94746
     -2357.629  
  24440166.650   128433938.35245      2477.687    24440166.035   100078392.22044
      1930.664  
  24564264.279   129086080.60955      3342.210    24564270.016   100586579.15256
      2604.320  
  20754969.581   109068108.92149      1224.507    20754971.007    84988163.62549
       954.155  
  19966377.606   104924023.71949       262.386    19966376.532    81758999.98548
       204.453  
  21699629.748   114032346.04549      2382.230    21699631.130    88856383.47849
      1856.284  
  24269931.726   127539357.01145     -3544.046    24269929.068    99381306.11443
     -2761.597  
  22262393.518   118671088.91906     -2307.933    22262400.534    92299782.02105
     -1795.062  
  19874011.145   106051545.62107      1752.699           0.000           0.0000 
         0.000  
  20981046.483   112273813.81208     -2358.820    20981050.803    87324104.99407
     -1834.640  
  20887039.861   111614014.29708      1553.628    20887043.589    86810941.92608
      1208.378  
  21548838.790   115029163.21004      1574.234    21548842.410    89467153.91403
      1224.406  
  20318896.624   108616170.18209     -2148.016    20318900.660    84479282.56708
     -1670.680  
 20 10 01 07 38 55.0000000  0 14G27G15G18G21G32G24G20G10R14R 6R21R15
                                R22R 5
  24546623.295   128993361.95546     -2040.397    24546626.942   100514324.52749
     -1589.921  
  21582747.881   113418139.50149     -2717.370    21582746.933    88377769.85549
     -2117.434  
  21978475.188   115497674.68848     -3030.656    21978475.653    89998196.31047
     -2361.554  
  24437811.326   128421560.54045      2472.648    24437810.773   100068747.19445
      1926.742  
  24561084.505   129069371.28145      3340.262    24561090.198   100573558.89047
      2602.789  
  20753807.288   109062000.09449      1218.152    20753808.550    84983403.49849
       949.206  
  19966130.373   104922724.18849       256.691    19966129.429    81757987.36048
       200.016  
  21697364.685   114020443.18249      2378.023    21697366.083    88847108.51749
      1852.999  
  22264561.183   118682643.85307     -2314.816    22264568.081    92308769.22005
     -1800.413  
  19872370.890   106042792.12107      1747.921           0.000           0.0000 
         0.000  
  20983253.268   112285622.73308     -2365.612    20983257.667    87333289.72207
     -1839.925  
  20885589.128   111606262.42908      1546.422    20885592.906    86804912.71007
      1202.772  
  21547366.920   115021307.60705      1567.015    21547370.824    89461043.98003
      1218.785  
  20320907.623   108626920.00308     -2152.723    20320911.620    84487643.53408
     -1674.343  
 20 10 01 07 39  0.0000000  0 15G27G15G18G21G32G24G20G10R16R14R 6R21
                                R15R22R 5
  24548564.453   129003561.43546     -2039.160    24548567.935   100522272.16249
     -1588.961  
  21585332.690   113431722.57749     -2715.527    21585331.897    88388354.06949
     -2116.000  
  21981358.382   115512825.85348     -3029.437    21981358.852    90010002.40147
     -2360.604  
  24435458.018   128409193.10645      2474.922    24435457.382   100059110.26244
      1928.516  
  24557905.536   129052666.75245      3342.574    24557911.536   100560542.33346
      2604.594  
  20752648.438   109055910.60849      1218.050    20752649.759    84978658.44149
       949.125  
  19965886.024   104921440.52949       257.144    19965885.244    81756987.11648
       200.370  
  21695101.525   114008550.07049      2379.581    21695102.999    88837841.16349
      1854.218  
  22959204.115   122643947.83414      4401.362    22959212.523    95389771.49415
      3423.035  
  22266732.922   118694219.69907     -2315.065    22266739.773    92317772.66706
     -1800.604  
  19870732.646   106034050.91907      1749.136           0.000           0.0000 
         0.000  
  20985464.173   112297453.82708     -2366.316    20985468.587    87342491.67107
     -1840.473  
  20884142.924   111598534.28808      1545.402    20884146.614    86798901.93307
      1201.976  
  21545899.802   115013476.15805      1566.000    21545903.750    89454952.84603
      1217.995  
  20322920.712   108637681.05309     -2151.285    20322924.756    84496013.23508
     -1673.227  
 20 10 01 07 39  5.0000000  0 15G27G15G18G21G32G24G20G10R16R14R 6R21
                                R15R22R 5
  24550507.266   129013770.61246     -2044.098    24550510.570   100530227.36449
     -1592.809  
  21587918.617   113445311.21049     -2719.105    21587917.625    88398942.60049
     -2118.789  
  21984243.297   115527985.18448     -3033.554    21984243.559    90021814.85647
     -2363.812  
  24433105.678   128396831.57345      2470.815    24433105.092   100049477.84046
      1925.305  
  24554726.776   129035962.59545      3340.063    24554732.795   100547526.17047
      2602.647  
  20751492.587   109049836.01049      1212.562    20751493.679    84973924.98849
       944.855  
  19965643.935   104920168.40449       252.358    19965642.999    81755995.85148
       196.644  
  21692839.319   113996662.37949      2376.116    21692840.893    88828578.02649
      1851.519  
  22955087.529   122621957.33404      4397.031    22955095.798    95372667.81305
      3419.918  
  22268907.797   118705812.25506     -2320.952    22268914.979    92326789.08406
     -1805.191  
  19869096.072   106025317.62807      1744.984           0.000           0.0000 
         0.000  
  20987678.452   112309302.53508     -2372.273    20987682.902    87351707.34407
     -1845.102  
  20882700.279   111590825.41608      1538.910    20882704.201    86792906.14808
      1196.929  
  21544436.184   115005664.54705      1559.195    21544440.542    89448877.13503
      1212.703  
  20324934.944   108648448.87109     -2155.066    20324939.160    84504388.20708
     -1676.168  
 20 10 01 07 39 10.0000000  0 15G27G15G18G21G32G24G20G10R16R14R 6R21
                                R15R22R 5
  24552452.100   129023990.59546     -2044.793    24552455.130   100538190.98249
     -1593.348  
  21590505.695   113458906.46348     -2718.820    21590504.824    88409536.30849
     -2118.565  
  21987129.775   115543153.75648     -3033.719    21987130.187    90033634.52247
     -2363.941  
  24430754.862   128384477.10545      2470.777    24430754.403   100039851.00742
      1925.277  
  24551548.253   129019260.06545      3340.762    24551554.326   100534511.21747
      2603.194  
  20750339.597   109043777.56949      1210.828    20750341.012    84969204.13549
       943.503  
  19965404.137   104918908.94649       251.355    19965403.446    81755014.45248
       195.859  
  21690578.445   113984781.24849      2376.246    21690579.982    88819320.00649
      1851.621  
  22950971.673   122599970.54704      4397.671    22950979.780    95355566.97805
      3420.410  
  22271085.857   118717422.47907     -2323.039    22271093.199    92335819.25206
     -1806.808  
  19867461.191   106016593.62007      1744.456           0.000           0.0000 
         0.000  
  20989896.277   112321170.06408     -2374.504    20989900.598    87360937.65207
     -1846.835  
  20881261.350   111583136.96808      1536.433    20881265.435    86786926.24608
      1195.003  
  21542976.557   114997873.93005      1556.140    21542980.974    89442817.75703
      1210.327  
  20326950.830   108659224.62308     -2155.319    20326954.972    84512769.34708
     -1676.362  
 20 10 01 07 39 15.0000000  0 16G27G15G18G21G32G24G20G10G13R16R14R 6
                                R21R15R22R 5
  24554397.920   129034215.85246     -2046.022    24554400.913   100546158.70149
     -1594.308  
  21593092.968   113472502.89248     -2719.656    21593092.007    88420130.92049
     -2119.215  
  21990017.183   115558326.12848     -3035.229    21990017.574    90045457.14146
     -2365.116  
  24428404.154   128372124.27245      2469.659    24428403.889   100030225.48044
      1924.409  
  24548368.907   129002553.61545      3341.472    24548375.172   100521493.20647
      2603.745  
  20749188.881   109037730.01549      1208.184    20749190.065    84964491.76049
       941.441  
  19965165.861   104917656.67449       249.374    19965165.086    81754038.65948
       194.316  
  21688317.767   113972901.21249      2375.569    21688319.089    88810062.84349
      1851.093  
  24286795.838   127627974.13954     -3545.191    24286792.203    99450355.11551
     -2762.503  
  22946855.447   122577982.02904      4397.301    22946863.579    95338464.78905
      3420.117  
  22273266.124   118729044.87207     -2326.082    22273273.523    92344858.89106
     -1809.180  
  19865826.989   106007873.26807      1743.305           0.000           0.0000 
         0.000  
  20992116.342   112333050.89708     -2377.914    20992120.920    87370178.30007
     -1849.491  
  20879825.408   111575463.44608      1532.723    20879829.320    86780957.95308
      1192.116  
  21541519.835   114990098.72205      1553.222    21541524.517    89436770.38503
      1208.063  
  20328967.105   108670002.67908     -2156.300    20328971.252    84521152.27408
     -1677.124  
 20 10 01 07 39 20.0000000  0 16G27G15G18G21G32G24G20G10G13R16R14R 6
                                R21R15R22R 5
  24556344.088   129044442.00446     -2048.270    24556346.900   100554127.13148
     -1596.058  
  21595679.829   113486096.00048     -2721.027    21595678.667    88430722.95349
     -2120.284  
  21992904.236   115573497.81848     -3037.108    21992904.681    90057279.23647
     -2366.581  
  24426052.828   128359768.62545      2467.668    24426052.858   100020597.68444
      1922.851  
  24545188.068   128985838.81845      3341.066    24545194.393   100508468.66646
      2603.425  
  20748039.130   109031688.59649      1204.831    20748040.597    84959784.16449
       938.831  
  19964928.160   104916407.13849       246.968    19964927.246    81753064.99548
       192.437  
  21686056.354   113961017.84449      2374.227    21686057.958    88800803.07649
      1850.042  
  24290166.705   127645689.26144     -3545.437    24290164.668    99464163.10751
     -2762.680  
  22942737.782   122555987.07604      4397.558    22942746.140    95321357.61205
      3419.804  
  22275447.924   118740674.90707     -2329.979    22275455.506    92353904.47106
     -1812.211  
  19864192.491   105999151.99107      1741.507           0.000           0.0000 
         0.000  
  20994338.315   112344940.40208     -2381.851    20994342.681    87379425.68507
     -1852.551  
  20878391.323   111567800.25808      1528.784    20878395.382    86774997.70708
      1189.054  
  21540065.360   114982334.44805      1548.469    21540069.939    89430731.50403
      1204.362  
  20330982.969   108680778.65708     -2157.922    20330987.038    84529533.58808
     -1678.386  
 20 10 01 07 39 25.0000000  0 16G27G15G18G21G32G24G20G10G13R16R14R 6
                                R21R15R22R 5
  24558295.748   129054698.04746     -2052.269    24558298.268   100562118.84448
     -1599.176  
  21598271.249   113499714.97248     -2724.246    21598270.445    88441335.13549
     -2122.792  
  21995796.766   115588697.91548     -3040.937    21995797.182    90069123.45046
     -2369.515  
  24423706.697   128347439.31245      2464.972    24423706.923   100010990.44244
      1920.753  
  24542011.246   128969144.81645      3338.999    24542017.737   100495460.35346
      2601.812  
  20746896.226   109025682.59149      1199.707    20746897.716    84955104.16349
       934.835  
  19964696.364   104915189.47849       242.305    19964695.723    81752116.16548
       188.804  
  21683800.072   113949160.22249      2371.015    21683801.461    88791563.37749
      1847.543  
  24293541.316   127663424.15045     -3547.152    24293538.974    99477980.45055
     -2764.016  
  22938624.682   122534015.63404      4393.804    22938633.059    95304268.72905
      3417.402  
  22277636.907   118752342.04007     -2334.964    22277644.167    92362978.89806
     -1816.086  
  19862563.532   105990459.18307      1737.680           0.000           0.0000 
         0.000  
  20996567.323   112356868.24308     -2387.390    20996571.648    87388702.90207
     -1856.862  
  20876964.713   111560177.10608      1522.715    20876968.920    86769068.59508
      1184.331  
  21538618.442   114974610.63705      1542.206    21538623.099    89424724.09703
      1199.495  
  20333003.876   108691581.96908     -2161.379    20333008.103    84537936.15908
     -1681.077  
 20 10 01 07 39 30.0000000  0 16G27G15G18G21G32G24G20G10G13R16R14R 6
                                R21R15R22R 5
  24560249.110   129064963.44246     -2054.090    24560251.601   100570117.85149
     -1600.594  
  21600863.985   113513339.11048     -2725.469    21600862.964    88451951.34949
     -2123.741  
  21998690.810   115603905.81148     -3042.483    21998691.132    90080973.75446
     -2370.769  
  24421361.549   128335115.69245      2464.198    24421361.955   100001387.65844
      1920.160  
  24538834.568   128952450.98045      3338.340    24538841.066   100482452.16646
      2601.305  
  20745756.199   109019691.27249      1196.601    20745757.515    84950435.60549
       932.418  
  19964466.847   104913983.04949       239.941    19964466.177    81751176.08948
       186.965  
  21681544.574   113937307.78049      2369.801    21681545.924    88782327.70849
      1846.594  
  24296915.841   127681158.36704     -3548.051           0.000           0.0000 
         0.000  
  22934512.114   122512046.50404      4393.016    22934520.467    95287181.62805
      3416.788  
  22279828.675   118764025.42707     -2338.473    22279835.965    92372065.98306
     -1818.816  
  19860935.937   105981774.24207      1736.151           0.000           0.0000 
         0.000  
  20998799.471   112368813.45008     -2390.866    20998803.953    87397993.60807
     -1859.566  
  20875541.667   111552573.02808      1518.726    20875546.051    86763154.32208
      1181.229  
  21537175.244   114966906.46704      1538.062    21537179.614    89418731.96004
      1196.265  
  20335026.096   108702391.79808     -2162.784    20335030.116    84546343.80308
     -1682.172  
 20 10 01 07 39 35.0000000  0 16G27G15G18G21G32G24G20G10G13R16R14R 6
                                R21R15R22R 5
  24562203.931   129075236.81146     -2055.710    24562206.676   100578123.09149
     -1601.851  
  21603457.288   113526967.07248     -2726.297    21603456.189    88462570.54749
     -2124.387  
  22001586.174   115619120.17648     -3044.004    22001586.527    90092829.09847
     -2371.953  
  24419017.344   128322796.43645      2463.473    24419017.767    99991788.25445
      1919.593  
  24535657.704   128935755.91946      3338.926    24535664.199   100469443.05347
      2601.761  
  20744618.633   109013713.44849      1193.945    20744620.005    84945777.56649
       930.347  
  19964239.055   104912786.55549       238.128    19964238.339    81750243.75348
       185.551  
  21679290.020   113925459.20549      2368.933    21679291.377    88773095.05749
      1845.921  
  24300289.893   127698890.40904     -3547.401           0.000           0.0000 
         0.000  
  22930399.782   122490078.47704      4392.520    22930408.103    95270095.41304
      3416.402  
  22282023.280   118775723.75107     -2341.417    22282030.648    92381164.68506
     -1821.102  
  19859309.490   105973095.74107      1734.648           0.000           0.0000 
         0.000  
  21001034.665   112380774.55108     -2394.081    21001039.135    87407296.69407
     -1862.063  
  20874121.860   111544986.63408      1515.019    20874126.294    86757253.79708
      1178.348  
  21535735.278   114959220.45605      1535.082    21535739.777    89412753.96903
      1193.952  
  20337049.229   108713206.76308     -2163.769    20337053.363    84554755.44608
     -1682.938  
 20 10 01 07 39 40.0000000  0 16G27G15G18G21G32G24G20G10G13R16R14R 6
                                R21R15R22R 5
  24564160.836   129085520.54246     -2057.745    24564163.470   100586136.36349
     -1603.441  
  21606051.703   113540601.25248     -2727.640    21606050.663    88473194.57749
     -2125.434  
  22004483.054   115634343.35448     -3045.714    22004483.386    90104691.31446
     -2373.288  
  24416674.144   128310483.99545      2461.777    24416674.801    99982194.10743
      1918.269  
  24532481.309   128919062.09946      3338.527    24532487.332   100456434.87747
      2601.444  
  20743484.124   109007751.43849      1190.718    20743485.417    84941131.83849
       927.827  
  19964013.724   104911602.40549       235.563    19964013.178    81749321.03848
       183.550  
  21677036.415   113913616.83749      2367.718    21677037.789    88763867.24149
      1844.977  
  24303663.865   127716622.84543     -3548.589    24303656.935    99519421.99651
     -2765.145  
  22926287.975   122468113.78705      4393.063    22926296.230    95253011.76705
      3416.832  
  22284221.325   118787439.26007     -2344.979    22284228.355    92390276.74006
     -1823.875  
  19857684.702   105964425.93407      1733.141           0.000           0.0000 
         0.000  
  21003273.410   112392754.05708     -2397.917    21003277.954    87416614.07407
     -1865.051  
  20872705.965   111537420.33408      1511.132    20872710.394    86751368.89808
      1175.320  
  21534299.368   114951555.09805      1531.351    21534304.034    89406792.00703
      1191.046  
  20339073.853   108724029.19408     -2165.390    20339077.868    84563172.88708
     -1684.195  
 20 10 01 07 39 45.0000000  0 15G27G15G18G21G32G24G20G10R16R14R 6R21
                                R15R22R 5
  24566120.217   129095817.87846     -2060.409    24566122.935   100594160.26649
     -1605.515  
  21608647.798   113554244.92148     -2729.651    21608647.083    88483826.01449
     -2127.004  
  22007382.220   115649578.63448     -3048.214    22007382.461    90116562.94946
     -2375.234  
  24414333.024   128298181.64145      2459.546    24414333.738    99972607.84644
      1916.429  
  24529305.490   128902372.80845      3337.395    24529311.609   100443430.25947
      2600.566  
  20742353.242   109001808.61549      1186.828    20742354.750    84936501.06849
       924.800  
  19963791.250   104910433.85649       232.313    19963790.702    81748410.47648
       181.019  
  21674784.878   113901784.02849      2365.746    21674785.897    88754646.87149
      1843.433  
  22922177.675   122446156.08004      4392.109    22922185.757    95235933.56404
      3416.085  
  22286423.114   118799175.44007     -2349.269    22286430.022    92399404.89806
     -1827.211  
  19856062.344   105955768.25207      1730.370           0.000           0.0000 
         0.000  
  21005516.062   112404755.18808     -2402.218    21005520.667    87425948.28807
     -1868.390  
  20871294.379   111529877.56208      1506.367    20871299.077    86745502.29308
      1171.617  
  21532867.788   114943913.91205      1526.354    21532872.416    89400848.86103
      1187.164  
  20341100.397   108734862.54409     -2167.757    20341104.544    84571598.82008
     -1686.038  
 20 10 01 07 39 50.0000000  0 15G27G15G18G21G32G24G20G10R16R14R 6R21
                                R15R22R 5
  24568081.851   129106126.11446     -2063.097    24568084.380   100602192.64849
     -1607.612  
  21611245.405   113567895.31048     -2730.992    21611244.519    88494462.67449
     -2128.050  
  22010283.274   115664823.24748     -3050.397    22010283.474    90128441.86446
     -2376.949  
  24411993.263   128285886.58145      2457.558    24411994.293    99963027.30244
      1914.976  
  24526130.191   128885685.34146      3336.957    24526136.136   100430427.03847
      2600.227  
  20741225.585   108995882.23649      1183.296    20741227.006    84931883.11349
       922.051  
  19963571.436   104909278.16449       229.554    19963570.682    81747509.93748
       178.874  
  21672534.467   113889958.00549      2364.233    21672535.465    88745431.78749
      1842.257  
  22918067.982   122424202.46505      4389.590    22918076.021    95218858.54705
      3414.124  
  22288628.343   118810929.33207     -2352.913    22288635.102    92408546.79906
     -1830.046  
  19854441.681   105947120.05007      1728.354           0.000           0.0000 
         0.000  
  21007762.254   112416775.26908     -2406.375    21007766.998    87435297.24407
     -1871.629  
  20869886.708   111522355.51808      1501.820    20869891.341    86739651.82408
      1168.081  
  21531440.471   114936293.89205      1521.617    21531445.094    89394922.17403
      1183.479  
  20343128.422   108745703.96909     -2169.410    20343132.928    84580031.04208
     -1687.324  
 20 10 01 07 39 55.0000000  0 15G27G15G18G21G32G24G20G10R16R14R 6R21
                                R15R22R 5
  24570045.802   129116447.46846     -2065.504    24570048.453   100610235.26349
     -1609.487  
  21613844.507   113581554.74748     -2732.547    21613843.936    88505106.38249
     -2129.262  
  22013186.428   115680079.42648     -3052.140    22013186.703    90140329.78846
     -2378.296  
  24409655.336   128273601.12945      2456.602    24409656.217    99953454.27544
      1914.237  
  24522955.515   128869001.80746      3336.852    24522961.164   100417426.90247
      2600.145  
  20740101.346   108989974.25749      1180.016    20740102.701    84927279.49449
       919.491  
  19963354.283   104908137.61249       227.035    19963353.848    81746621.19248
       176.905  
  21670285.730   113878141.02949      2362.809    21670286.731    88736223.75349
      1841.145  
  22913959.601   122402255.38905      4389.347    22913967.460    95201788.60004
      3413.937  
  22290837.258   118822703.31008     -2356.430    22290844.004    92417704.32906
     -1832.780  
  19852823.075   105938483.42507      1726.496           0.000           0.0000 
         0.000  
  21010012.370   112428816.47008     -2410.078    21010017.164    87444662.60307
     -1874.507  
  20868483.332   111514856.39608      1497.945    20868488.177    86733819.17008
      1165.065  
  21530017.484   114928697.45505      1517.430    21530021.856    89389013.85103
      1180.222  
  20345158.533   108756555.73109     -2171.066    20345162.996    84588471.29508
     -1688.609  
 20 10 01 07 40  0.0000000  0 15G27G15G18G21G32G24G20G10R16R14R 6R21
                                R15R22R 5
  24572011.791   129126779.93145     -2067.570    24572014.459   100618286.51048
     -1611.098  
  21616445.123   113595221.20248     -2733.859    21616444.568    88515755.56649
     -2130.284  
  22016091.465   115695345.21748     -3053.979    22016091.815    90152225.20446
     -2379.729  
  24407318.710   128261323.32845      2454.964    24407319.958    99943887.15145
      1912.965  
  24519781.368   128852320.42646      3336.043    24519787.036   100404428.44047
      2599.515  
  20738980.128   108984082.96949      1176.655    20738981.581    84922688.88049
       916.874  
  19963139.784   104907010.25249       224.121    19963139.203    81745742.72748
       174.637  
  21668038.284   113866331.15449      2361.203    21668039.435    88727021.26749
      1839.898  
  22909851.948   122380312.60605      4388.116    22909859.829    95184722.01605
      3412.984  
  22293049.547   118834495.36508     -2360.367    22293056.068    92426875.93906
     -1835.844  
  19851206.352   105929856.46807      1724.422           0.000           0.0000 
         0.000  
  21012266.022   112440876.90308     -2413.688    21012270.965    87454042.93107
     -1877.316  
  20867083.889   111507378.38308      1493.605    20867088.656    86728002.93908
      1161.687  
  21528598.439   114921122.43405      1513.019    21528602.998    89383122.18003
      1176.792  
  20347190.117   108767415.89909     -2172.836    20347194.711    84596918.08708
     -1689.987  
 20 10 01 07 40  5.0000000  0 15G27G15G18G21G32G24G20G10R16R14R 6R21
                                R15R22R 5
  24573980.097   129137124.73245     -2070.144    24573983.002   100626347.39449
     -1613.104  
  21619047.086   113608895.88848     -2735.659    21619046.934    88526411.16349
     -2131.687  
  22018998.405   115710621.85148     -3056.354    22018998.874    90164129.06346
     -2381.578  
  24404983.847   128249054.34945      2453.304    24404984.985    99934326.95343
      1911.664  
  24516607.854   128835642.31246      3335.620    24516613.361   100391432.49347
      2599.179  
  20737862.523   108978209.63349      1173.047    20737864.129    84918112.25749
       914.063  
  19962927.956   104905897.27949       221.117    19962927.473    81744875.47748
       172.296  
  21665792.369   113854529.60449      2359.617    21665793.631    88717825.26149
      1838.663  
  22905745.514   122358375.55305      4386.891    22905752.930    95167659.87904
      3412.027  
  22295265.308   118846306.71207     -2364.230    22295271.944    92436062.54106
     -1838.847  
  19849591.730   105921240.31707      1722.063           0.000           0.0000 
         0.000  
  21014523.653   112452957.66308     -2418.194    21014528.773    87463439.09407
     -1880.819  
  20865688.580   111499922.64808      1489.011    20865693.719    86722204.03908
      1158.121  
  21527183.741   114913570.30305      1508.238    21527188.124    89377248.29903
      1173.074  
  20349223.585   108778285.57709     -2174.758    20349228.102    84605372.28108
     -1691.480  
 20 10 01 07 40 10.0000000  0 15G27G15G18G21G32G24G20G10R16R14R 6R21
                                R15R22R 5
  24575950.544   129147480.25145     -2072.059    24575953.520   100634416.64749
     -1614.589  
  21621650.615   113622577.21748     -2737.094    21621650.291    88537071.94749
     -2132.801  
  22021907.224   115725907.70248     -3058.117    22021907.675    90176040.11746
     -2382.952  
  24402650.327   128236792.83845      2451.479    24402652.058    99924772.50744
      1910.241  
  24513434.464   128818965.94146      3334.671    24513439.851   100378437.93747
      2598.445  
  20736747.942   108972352.68649      1169.675    20736749.619    84913548.40149
       911.433  
  19962718.597   104904797.14949       218.625    19962718.186    81744018.23248
       170.352  
  21663547.777   113842734.81649      2358.223    21663549.035    88708634.51849
      1837.574  
  22901639.684   122336442.54205      4386.070    22901646.962    95150600.89604
      3411.390  
  22297484.493   118858135.65707     -2367.694    22297491.011    92445262.80906
     -1841.546  
  19847978.755   105912633.67307      1720.085           0.000           0.0000 
         0.000  
  21016784.815   112465057.22308     -2421.804    21016789.707    87472849.86307
     -1883.628  
  20864297.198   111492487.55808      1484.773    20864302.375    86716421.19608
      1154.823  
  21525772.886   114906039.34405      1503.761    21525777.185    89371390.88303
      1169.589  
  20351258.551   108789163.23209     -2176.461    20351262.916    84613832.67408
     -1692.808  
 20 10 01 07 40 15.0000000  0 15G27G15G18G21G32G24G20G10R16R14R 6R21
                                R15R22R 5
  24577923.015   129157847.52945     -2074.382    24577926.516   100642495.01848
     -1616.409  
  21624255.471   113636266.07748     -2738.441    21624255.377    88547738.58749
     -2133.855  
  22024817.935   115741203.68648     -3060.211    22024818.419    90187959.06646
     -2384.582  
  24400318.530   128224539.44645      2449.480    24400320.481    99915224.33844
      1908.671  
  24510261.901   128802292.19546      3334.977    24510267.051   100365445.44448
      2598.688  
  20735636.596   108966512.93349      1166.254    20735638.305    84908997.94549
       908.770  
  19962511.730   104903710.74549       215.870    19962511.313    81743171.68248
       168.211  
  21661304.709   113830947.73049      2356.711    21661305.907    88699449.78149
      1836.398  
  22897534.885   122314514.72005      4385.526    22897541.936    95133545.94504
      3410.968  
  22299707.161   118869983.13307     -2371.406    22299713.678    92454477.50106
     -1844.430  
  19846367.832   105904037.26007      1718.266           0.000           0.0000 
         0.000  
  21019049.550   112477176.39808     -2425.905    21019054.461    87482275.87207
     -1886.819  
  20862909.884   111485074.13908      1480.519    20862915.096    86710655.22008
      1151.516  
  21524366.047   114898530.60505      1499.727    21524370.519    89365550.76703
      1166.453  
  20353295.043   108800049.88608     -2178.176    20353299.617    84622300.07008
     -1694.140  
 20 10 01 07 40 20.0000000  0 15G27G15G18G21G32G24G20G10R16R14R 6R21
                                R15R22R 5
  24579898.003   129168226.88044     -2077.089    24579901.403   100650582.78649
     -1618.516  
  21626861.701   113649962.96648     -2740.218    21626861.932    88558411.49249
     -2135.234  
  22027730.722   115756510.26548     -3062.445    22027731.102    90199886.26346
     -2386.324  
  24397988.159   128212294.73145      2447.886    24397990.468    99905683.10744
      1907.453  
  24507089.713   128785621.61046      3333.723    24507094.672   100352455.39547
      2597.707  
  20734528.679   108960690.81849      1162.746    20734530.632    84904461.24049
       906.035  
  19962307.736   104902638.50049       213.238    19962307.370    81742336.16548
       166.155  
  21659063.131   113819168.78049      2355.094    21659064.492    88690271.37549
      1835.132  
  22893431.222   122292592.22205      4383.995    22893438.132    95116495.14004
      3409.777  
  22301933.214   118881849.68507     -2375.194    22301939.986    92463707.07206
     -1847.374  
  19844758.884   105895451.44907      1716.383           0.000           0.0000 
         0.000  
  21021318.011   112489315.73908     -2429.604    21021323.023    87491717.57707
     -1889.694  
  20861526.502   111477682.80108      1476.207    20861531.838    86704906.39208
      1148.156  
  21522963.717   114891044.40205      1495.503    21522968.077    89359728.19003
      1163.167  
  20355333.345   108810945.87208     -2179.839    20355337.721    84630774.73408
     -1695.430  
 20 10 01 07 40 25.0000000  0 15G27G15G18G21G32G24G20G10R16R14R 6R21
                                R15R22R 5
  24581875.154   129178617.16246     -2079.664    24581878.807   100658679.17948
     -1620.512  
  21629469.459   113663666.76748     -2741.695    21629469.671    88569089.78049
     -2136.390  
  22030645.215   115771826.28048     -3064.397    22030645.487    90211820.83946
     -2387.843  
  24395659.575   128200057.75246      2446.125    24395661.666    99896147.73944
      1906.058  
  24503917.799   128768952.99745      3332.809    24503922.637   100339466.85047
      2596.992  
  20733423.970   108954885.34649      1159.234    20733425.911    84899937.49649
       903.297  
  19962106.213   104901579.39549       210.226    19962105.595    81741510.89848
       163.812  
  21656822.940   113807396.90449      2353.366    21656824.340    88681098.48449
      1833.788  
  22889328.213   122270674.40605      4382.316    22889334.751    95099447.99304
      3408.477  
  22304162.781   118893734.12507     -2379.116    22304169.371    92472950.49505
     -1850.429  
  19843151.799   105886875.33007      1714.273           0.000           0.0000 
         0.000  
  21023590.211   112501474.08008     -2433.757    21023595.141    87501174.04607
     -1892.930  
  20860147.315   111470312.49808      1471.551    20860152.427    86699173.95907
      1144.538  
  21521565.282   114883579.80505      1490.504    21521569.636    89353922.41303
      1159.280  
  20357373.129   108821849.96809     -2181.918    20357377.532    84639255.71808
     -1697.047  
 20 10 01 07 40 30.0000000  0 15G 8G27G15G18G21G24G20G10R16R14R 6R21
                                R15R22R 5
  24630623.533   129434800.49854      -375.921    24630626.477   100858297.61356
      -292.918  
  24583853.766   129189015.52344     -2079.558    24583857.380   100666781.75849
     -1620.437  
  21632077.993   113677374.48748     -2741.746    21632078.344    88579771.10949
     -2136.430  
  22033560.811   115787148.87448     -3064.777    22033561.160    90223760.50446
     -2388.140  
  24393331.757   128187825.29644      2447.328    24393333.849    99886615.90445
      1907.008  
  20732321.733   108949093.61749      1157.362    20732323.799    84895424.46949
       901.839  
  19961906.614   104900530.43249       209.172    19961905.999    81740693.52448
       162.991  
  21654583.734   113795629.17149      2353.504    21654584.911    88671928.83449
      1833.897  
  22885225.627   122248758.06105      4383.473    22885231.903    95082401.94004
      3409.366  
  22306395.017   118905633.45107     -2381.359    22306401.548    92482205.58306
     -1852.159  
  19841545.833   105878305.89807      1713.551           0.000           0.0000 
         0.000  
  21025865.200   112513648.31908     -2436.008    21025869.851    87510642.90007
     -1894.671  
  20858771.476   111462960.12008      1469.027    20858776.546    86693455.42008
      1142.574  
  21520170.461   114876133.75105      1487.742    21520174.898    89348131.04303
      1157.133  
  20359414.065   108832759.53109     -2181.968    20359418.321    84647740.92308
     -1697.089  
 20 10 01 07 40 35.0000000  0 16G 8G27G15G18G21G32G24G20G10R16R14R 6
                                R21R15R22R 5
  24630981.925   129436684.26944      -379.487    24630984.850   100859765.52747
      -295.706  
  24585832.555   129199414.57144     -2081.636    24585836.250   100674884.93249
     -1622.058  
  21634685.777   113691078.79648     -2742.190    21634686.086    88590449.78549
     -2136.777  
  22036476.375   115802470.61048     -3066.008    22036476.657    90235699.50745
     -2389.101  
  24391003.339   128175590.31745      2445.690    24391005.825    99877082.22345
      1905.734  
  24497572.235   128735610.77256      3334.417    24497576.979   100313482.00358
      2598.241  
  20731220.837   108943308.08949      1154.726    20731222.909    84890916.26049
       899.780  
  19961707.585   104899484.34349       207.120    19961706.941    81739878.38448
       161.390  
  21652343.758   113783858.24049      2352.672    21652344.991    88662756.67349
      1833.245  
  22881121.649   122226835.69504      4383.203    22881128.169    95065351.20305
      3409.151  
  22308628.655   118917540.24907     -2384.070    22308635.341    92491466.37606
     -1854.284  
  19839939.876   105869735.54607      1712.383           0.000           0.0000 
         0.000  
  21028141.890   112525831.09808     -2439.198    21028146.464    87520118.39507
     -1897.159  
  20857397.574   111455618.40408      1465.550    20857402.553    86687745.19307
      1139.870  
  21518777.693   114868698.77805      1484.007    21518782.033    89342348.32103
      1154.226  
  20361454.502   108843666.77709     -2183.022    20361458.857    84656224.32308
     -1697.909  
 20 10 01 07 40 40.0000000  0 15G 8G27G15G18G32G24G20G10R16R14R 6R21
                                R15R22R 5
  24631346.873   129438602.92444      -387.858    24631349.929   100861260.52747
      -302.230  
  24587817.201   129209844.86044     -2089.718    24587821.174   100683012.39449
     -1628.362  
  21637298.863   113704810.15848     -2749.597    21637299.175    88601149.54249
     -2142.546  
  22039397.674   115817822.01348     -3073.961    22039397.828    90247661.64946
     -2395.296  
  24494402.978   128718955.24346      3329.019    24494407.417   100300503.73747
      2594.051  
  20730126.793   108937559.44249      1145.417    20730128.798    84886436.80949
       892.535  
  19961514.832   104898471.57549       198.620    19961514.240    81739089.21048
       154.765  
  21650108.894   113772114.60449      2345.387    21650110.152    88653605.78949
      1827.570  
  22877022.523   122204938.39705      4376.484    22877028.763    95048319.94804
      3403.929  
  22310869.576   118929485.30807     -2393.453    22310876.099    92500756.97806
     -1861.578  
  19838339.555   105861195.43007      1704.397           0.000           0.0000 
         0.000  
  21030425.908   112538053.33808     -2449.007    21030430.310    87529624.58407
     -1904.788  
  20856031.516   111448318.22908      1455.374    20856036.310    86682067.29907
      1131.956  
  21517392.665   114861305.81205      1473.773    21517396.961    89336598.23803
      1146.269  
  20363500.311   108854602.82609     -2190.680    20363504.706    84664730.16108
     -1703.863  
 20 10 01 07 40 45.0000000  0 15G 8G27G15G18G32G24G20G10R16R14R 6R21
                                R15R22R 5
  24631715.633   129440541.02043      -386.987    24631718.452   100862770.78748
      -301.546  
  24589804.795   129220290.70744     -2088.132    24589808.880   100691151.99949
     -1627.120  
  21639914.043   113718553.08448     -2747.780    21639914.414    88611858.32149
     -2141.132  
  22042321.406   115833187.48348     -3072.426    22042321.616    90259634.73146
     -2394.094  
  24491234.823   128702306.54046      3330.987    24491239.209   100287530.70748
      2595.570  
  20729036.950   108931832.15349      1145.440    20729038.884    84881973.98149
       892.547  
  19961325.520   104897476.60949       199.312    19961324.675    81738313.91448
       155.308  
  21647876.302   113760382.72449      2347.406    21647877.794    88644464.06049
      1829.144  
  22872925.308   122183050.40405      4379.015    22872931.545    95031296.03804
      3405.909  
  22313114.751   118941453.10007     -2393.624    22313121.528    92510065.26306
     -1861.710  
  19836741.792   105852669.55407      1705.874           0.000           0.0000 
         0.000  
  21032714.403   112550299.31808     -2449.491    21032718.745    87539149.22007
     -1905.164  
  20854670.129   111441043.92208      1454.308    20854674.897    86676409.48307
      1131.125  
  21516012.535   114853939.27104      1473.250    21516016.830    89330868.69603
      1145.854  
  20365548.508   108865551.92609     -2188.977    20365552.929    84673246.11808
     -1702.542  
 20 10 01 07 40 50.0000000  0 15G 8G27G15G18G32G24G20G10R16R14R 6R21
                                R15R22R 5
  24632085.713   129442486.30344      -389.188    24632088.639   100864286.54748
      -303.269  
  24591792.821   129230739.72844     -2090.609    24591797.565   100699294.08248
     -1629.051  
  21642529.078   113732295.02848     -2749.116    21642529.420    88622566.33149
     -2142.167  
  22045245.525   115848554.58748     -3074.519    22045245.964    90271609.10146
     -2395.729  
  24488065.547   128685651.97546      3330.512    24488070.023   100274553.13948
      2595.206  
  20727948.630   108926113.61649      1142.042    20727950.669    84877517.98449
       889.902  
  19961137.142   104896486.98949       196.729    19961136.327    81737542.78448
       153.296  
  21645643.721   113748650.18249      2345.887    21645644.960    88635321.82349
      1827.961  
  22868827.406   122161159.08205      4377.426    22868833.284    95014269.44404
      3404.664  
  22315361.546   118953430.81407     -2397.460    22315368.594    92519381.24106
     -1864.694  
  19835144.445   105844145.33307      1703.703           0.000           0.0000 
         0.000  
  21035004.954   112562556.24208     -2453.215    21035009.142    87548682.39707
     -1908.055  
  20853311.377   111433782.72308      1450.082    20853315.869    86670761.89107
      1127.839  
  21514635.028   114846586.29504      1468.815    21514639.339    89325149.74303
      1142.417  
  20367596.932   108876501.30309     -2190.694    20367601.205    84681762.29508
     -1703.878  
 20 10 01 07 40 55.0000000  0 16G 8G27G15G18G32G24G20G10R16R14R 6R 7
                                R21R15R22R 5
  24632458.959   129444448.16444      -394.215    24632461.861   100865815.26547
      -307.180  
  24593783.346   129241201.41644     -2093.335    24593788.416   100707446.03548
     -1631.176  
  21645145.647   113746045.59548     -2750.952    21645146.119    88633281.05849
     -2143.605  
  22048171.727   115863932.84948     -3076.784    22048172.319    90283592.16046
     -2397.499  
  24484897.179   128669001.24646      3329.960    24484901.359   100261578.55347
      2594.772  
  20726863.932   108920413.46049      1138.316    20726866.096    84873076.30949
       886.999  
  19960951.811   104895512.25149       193.394    19960950.925    81736783.24948
       150.694  
  21643412.684   113736926.50249      2343.855    21643414.093    88626186.48449
      1826.379  
  22864730.647   122139274.08905      4376.215    22864736.232    94997247.78304
      3403.718  
  22317612.301   118965428.10507     -2401.386    22317619.229    92528712.48106
     -1867.746  
  19833549.179   105835632.75307      1701.476           0.000           0.0000 
         0.000  
  23557507.632   126105175.10515      3491.339           0.000           0.0000 
         0.000  
  21037299.276   112574833.87208     -2457.632    21037303.457    87558231.65707
     -1911.495  
  20851956.887   111426544.36608      1445.374    20851961.460    86665132.06107
      1124.180  
  21513261.994   114839256.82405      1463.272    21513266.322    89319449.05303
      1138.101  
  20369647.000   108887460.65309     -2192.793    20369651.379    84690286.23708
     -1705.503  
 20 10 01 07 41  0.0000000  0 16G 8G27G15G18G32G24G20G10R16R14R 6R 7
                                R21R15R22R 5
  24632834.616   129446423.75544      -396.070    24632837.541   100867354.70647
      -308.628  
  24595775.970   129251673.03644     -2094.773    24595781.047   100715605.74548
     -1632.293  
  21647763.526   113759802.11448     -2751.913    21647763.782    88644000.42049
     -2144.351  
  22051099.634   115879319.60448     -3078.266    22051100.270    90295581.81746
     -2398.651  
  24481728.847   128652351.67246      3329.949    24481732.932   100248604.87547
      2594.766  
  20725782.306   108914729.10049      1135.344    20725784.215    84868646.93449
       884.683  
  19960768.581   104894549.71749       191.363    19960767.745    81736033.22048
       149.112  
  21641182.958   113725209.02849      2342.926    21641184.219    88617055.98949
      1825.652  
  22860634.504   122117392.75905      4375.789    22860639.980    94980228.97604
      3403.387  
  22319865.932   118977442.19507     -2404.460    22319873.001    92538056.76306
     -1870.140  
  19831955.573   105827128.71707      1700.034           0.000           0.0000 
         0.000  
  23554245.699   126087717.53605      3491.769           0.000           0.0000 
         0.000  
  21039597.140   112587129.42608     -2460.832    21039601.188    87567794.85707
     -1913.983  
  20850606.171   111419326.14308      1441.694    20850610.442    86659517.88507
      1121.315  
  21511892.755   114831947.85505      1460.343    21511896.952    89313764.31703
      1135.824  
  20371698.594   108898427.32109     -2194.086    20371702.772    84698815.87208
     -1706.511  
 20 10 01 07 41  5.0000000  0 15G27G15G18G32G24G20G10R16R14R 6R 7R21
                                R15R22R 5
  24597771.325   129262159.69645     -2099.003    24597776.784   100723777.17248
     -1635.585  
  21650383.356   113773569.47648     -2754.815    21650383.641    88654728.24149
     -2146.609  
  22054030.075   115894719.74048     -3081.706    22054030.833    90307581.92346
     -2401.336  
  24478561.832   128635708.17746      3328.242    24478565.745   100235635.92948
      2593.433  
  20724704.483   108909065.38249      1130.445    20724706.515    84864233.65449
       880.866  
  19960588.786   104893604.32849       187.191    19960587.760    81735296.55748
       145.859  
  21638955.151   113713502.69549      2339.972    21638956.800    88607934.17749
      1823.354  
  22856540.156   122095520.07905      4373.516    22856545.373    94963216.88304
      3401.625  
  22322123.787   118989478.20907     -2409.437    22322131.056    92547418.11106
     -1874.012  
  19830364.586   105818638.62307      1696.644           0.000           0.0000 
         0.000  
  23550983.724   126070265.30304      3490.586    23550990.593    98054673.45915
      2714.898  
  21041899.119   112599447.93308     -2466.112    21041903.252    87577375.90507
     -1918.094  
  20849260.119   111412133.09508      1435.925    20849264.527    86653923.29607
      1116.831  
  21510528.424   114824664.68605      1453.917    21510532.409    89308099.62303
      1130.823  
  20373752.436   108909406.34209     -2197.207    20373756.798    84707355.11208
     -1708.940  
