     2.11           OBSERVATION DATA    M                   RINEX VERSION / TYPE
LEICA GEO OFFICE 8.4                    1-10-20 21:39       PGM / RUN BY / DATE
                                                            OBSERVER / AGENCY
BOLO                                                        MARKER NAME
BOLO                                                        MARKER NUMBER
352348              LEICA GX1220GG      4.10                REC # / TYPE / VERS
                    LEIAX1202GG                             ANT # / TYPE
 -1239708.9241  3756481.7170  4987632.1986                  APPROX POSITION XYZ
        1.6430        0.0000        0.0000                  ANTENNA: DELTA H/E/N
L1PhaOff:   0.0644  L2PhaOff:   0.0640                      COMMENT
     1     1                                                WAVELENGTH FACT L1/2
     6    C1    L1    D1    P2    L2    D2                  # / TYPES OF OBSERV
  2020    10     1     3    53   15.0000000     GPS         TIME OF FIRST OBS
  2020    10     1     7    22   50.0000000     GPS         TIME OF LAST OBS
    18                                                      LEAP SECONDS
    28                                                      # OF SATELLITES
          C1    L1    D1    P2    L2    D2                  COMMENT
   G 1     0     0     0     0     0     0                  PRN / # OF OBS
   G 2   798   798   798   773   773   773                  PRN / # OF OBS
   G 3     0     0     0     0     0     0                  PRN / # OF OBS
   G 4     0     0     0     0     0     0                  PRN / # OF OBS
   G 5  1785  1785  1785  1776  1776  1776                  PRN / # OF OBS
   G 6     0     0     0     0     0     0                  PRN / # OF OBS
   G 7   834   834   834   829   829   829                  PRN / # OF OBS
   G 8    51    51    51    51    51    51                  PRN / # OF OBS
   G 9     0     0     0     0     0     0                  PRN / # OF OBS
   G10   877   877   877   876   876   876                  PRN / # OF OBS
   G11     0     0     0     0     0     0                  PRN / # OF OBS
   G12     0     0     0     0     0     0                  PRN / # OF OBS
   G13  2516  2516  2516  2516  2516  2516                  PRN / # OF OBS
   G14     0     0     0     0     0     0                  PRN / # OF OBS
   G15  2516  2516  2516  2516  2516  2516                  PRN / # OF OBS
   G16     0     0     0     0     0     0                  PRN / # OF OBS
   G17     0     0     0     0     0     0                  PRN / # OF OBS
   G18  2516  2516  2516  2516  2516  2516                  PRN / # OF OBS
   G19     0     0     0     0     0     0                  PRN / # OF OBS
   G20  1892  1892  1892  1857  1857  1857                  PRN / # OF OBS
   G21    60    60    60    59    59    59                  PRN / # OF OBS
   G22     0     0     0     0     0     0                  PRN / # OF OBS
   G23     0     0     0     0     0     0                  PRN / # OF OBS
   G24   870   870   870   869   869   869                  PRN / # OF OBS
   G25     0     0     0     0     0     0                  PRN / # OF OBS
   G26     0     0     0     0     0     0                  PRN / # OF OBS
   G27   991   991   991   990   990   990                  PRN / # OF OBS
   G28     0     0     0     0     0     0                  PRN / # OF OBS
   G29  1531  1531  1531  1531  1531  1531                  PRN / # OF OBS
   G30  1474  1474  1474  1464  1464  1464                  PRN / # OF OBS
   G31     0     0     0     0     0     0                  PRN / # OF OBS
   G32     0     0     0     0     0     0                  PRN / # OF OBS
   R 1     0     0     0     0     0     0                  PRN / # OF OBS
   R 2     0     0     0     0     0     0                  PRN / # OF OBS
   R 3  1081  1081  1081  1081  1081  1081                  PRN / # OF OBS
   R 4  2458  2458  2458  2445  2445  2445                  PRN / # OF OBS
   R 5  2516  2516  2516  2516  2516  2516                  PRN / # OF OBS
   R 6   928   928   928     0     0     0                  PRN / # OF OBS
   R 7     0     0     0     0     0     0                  PRN / # OF OBS
   R 8     0     0     0     0     0     0                  PRN / # OF OBS
   R 9     0     0     0     0     0     0                  PRN / # OF OBS
   R10     0     0     0     0     0     0                  PRN / # OF OBS
   R11    13    13    13    13    13    13                  PRN / # OF OBS
   R12   773   773   773   736   736   736                  PRN / # OF OBS
   R13   193   193   193   193   193   193                  PRN / # OF OBS
   R14  1189  1189  1189  1179  1179  1179                  PRN / # OF OBS
   R15   658   658   658   656   656   656                  PRN / # OF OBS
   R16     0     0     0     0     0     0                  PRN / # OF OBS
   R17     0     0     0     0     0     0                  PRN / # OF OBS
   R18   530   530   530   530   530   530                  PRN / # OF OBS
   R19  1150  1150  1150  1150  1150  1150                  PRN / # OF OBS
   R20  2014  2014  2014  2014  2014  2014                  PRN / # OF OBS
   R21  1565  1565  1565  1565  1565  1565                  PRN / # OF OBS
   R22   472   472   472   260   260   260                  PRN / # OF OBS
   R23     0     0     0     0     0     0                  PRN / # OF OBS
   R24     0     0     0     0     0     0                  PRN / # OF OBS
                                                            END OF HEADER
 20 10 01 03 53 15.0000000  0 12G29G 2G15G18G 5G 7G13R 4R 3R18R 5R19
  21074545.999   110747491.30149      -224.476    21074546.445    86296743.59249
      -174.922  
  22212379.856   116726840.33149     -2225.344    22212377.216    90955970.29647
     -1734.039  
  23471756.914   123344925.06446      3940.729    23471757.687    96112921.17147
      3070.703  
  23655003.522   124307869.36247      3327.414    23655000.678    96863281.24644
      2592.792  
  20241243.956   106368457.97849      -997.694    20241243.563    82884506.49749
      -777.430  
  24674944.259   129667710.54547       804.546    24674944.352   101039771.77844
       626.918  
  21879226.857   114976112.87649      2934.961    21879226.604    89591774.88946
      2286.979  
  19483964.140   104335738.57809      1601.511    19483966.511    81150032.32407
      1245.621  
  20106096.646   107629502.24509     -2433.819    20106100.161    83711856.65208
     -1892.976  
  21253543.705   113452866.77208     -3576.894    21253551.208    88241137.14607
     -2782.026  
  23028838.300   123102332.89606      4113.527    23028845.532    95746289.93506
      3199.414  
  19182406.421   102612929.92306      -216.680    19182409.126    79810072.82607
      -168.530  
 20 10 01 03 53 20.0000000  0 12G29G 2G15G18G 5G 7G13R 4R 3R18R 5R19
  21074760.834   110748620.98649      -227.390    21074761.319    86297623.86949
      -177.187  
  22214497.546   116737969.70648     -2226.395    22214495.018    90964642.52947
     -1734.855  
  23468007.452   123325221.35146      3940.491    23468007.816    96097567.60947
      3070.512  
  23651837.661   124291232.55347      3327.729    23651834.600    96850317.49944
      2593.034  
  20242194.079   106373450.81849      -999.503    20242193.807    82888397.02349
      -778.839  
  24674179.668   129663692.21747       802.664    24674179.758   101036640.64444
       625.457  
  21876435.231   114961442.75449      2933.219    21876435.051    89580343.63246
      2285.625  
  19482470.198   104327738.68309      1598.547    19482472.563    81143810.17407
      1243.308  
  20108370.893   107641676.74908     -2435.898    20108374.522    83721325.71408
     -1894.589  
  21256895.162   113470756.38708     -3578.750    21256902.437    88255051.28907
     -2783.477  
  23024990.822   123081765.35606      4113.468    23024997.838    95730292.96906
      3199.363  
  19182610.936   102614023.41006      -220.586    19182613.608    79810923.30907
      -171.570  
 20 10 01 03 53 25.0000000  0 12G29G 2G15G18G 5G 7G13R 4R 3R18R 5R19
  21074979.107   110749767.01949      -230.843    21074979.347    86298516.87649
      -179.882  
  22216616.563   116749105.93848     -2228.063    22216614.241    90973320.11147
     -1736.156  
  23464258.515   123305520.80246      3939.648    23464258.684    96082216.57147
      3069.859  
  23648672.094   124274597.04347      3327.011    23648668.873    96837354.74845
      2592.472  
  20243146.273   106378454.06549     -1001.792    20243145.762    82892295.65349
      -780.621  
  24673417.234   129659685.85047       800.038    24673417.162   101033518.78244
       623.402  
  21873645.527   114946782.60349      2930.886    21873645.479    89568920.14747
      2283.808  
  19480979.447   104319755.21809      1594.940    19480981.542    81137600.81507
      1240.512  
  20110647.537   107653863.55108     -2438.718    20110651.283    83730804.33508
     -1896.780  
  21260248.503   113488656.03108     -3581.015    21260255.544    88268973.22707
     -2785.238  
  23021144.094   123061202.14106      4112.090    23021151.058    95714299.39506
      3198.297  
  19182818.880   102615135.73406      -224.733    19182821.515    79811788.45007
      -174.796  
 20 10 01 03 53 30.0000000  0 12G29G 2G15G18G 5G 7G13R 4R 3R18R 5R19
  21075200.619   110750931.16649      -234.500    21075201.046    86299424.01149
      -182.726  
  22218737.293   116760250.82248     -2229.651    22218734.993    90982004.42547
     -1737.395  
  23460510.730   123285825.31146      3938.808    23460510.594    96066869.42647
      3069.198  
  23645506.893   124257964.61447      3326.440    23645503.947    96824394.44044
      2592.030  
  20244100.563   106383469.45449     -1004.140    20244100.143    82896203.74649
      -782.449  
  24672657.603   129655693.11847       797.121    24672657.386   101030407.56344
       621.128  
  21870858.124   114932134.26549      2928.648    21870857.856    89557505.86046
      2282.063  
  19479492.055   104311790.07909      1591.390    19479494.147    81131405.71107
      1237.750  
  20112926.752   107666064.49208     -2441.469    20112930.408    83740293.95408
     -1898.925  
  21263603.913   113506567.49808     -3583.234    21263610.783    88282904.36107
     -2786.965  
  23017298.508   123040645.12306      4110.953    23017305.340    95698310.61706
      3197.406  
  19183030.673   102616268.55905      -228.215    19183033.248    79812669.53707
      -177.500  
 20 10 01 03 53 35.0000000  0 12G29G 2G15G18G 5G 7G13R 4R 3R18R 5R19
  21075425.554   110752113.08149      -238.214    21075425.697    86300344.98149
      -185.624  
  22220859.532   116771403.94948     -2231.366    22220857.414    90990695.16447
     -1738.730  
  23456763.740   123266134.43446      3937.617    23456763.289    96051525.90048
      3068.272  
  23642342.193   124241334.93947      3325.664    23642339.363    96811436.24744
      2591.421  
  20245057.120   106388496.60249     -1006.559    20245056.731    82900120.99949
      -784.335  
  24671900.262   129651713.82946       794.823    24671900.046   101027306.85343
       619.344  
  21868072.813   114917497.35649      2926.180    21868072.651    89546100.47447
      2280.140  
  19478007.843   104303842.90909      1587.668    19478010.145    81125224.58208
      1234.848  
  20115208.589   107678279.22008     -2444.250    20115212.400    83749794.29108
     -1901.085  
  21266961.581   113524490.39808     -3585.534    21266968.196    88296844.39507
     -2788.749  
  23013453.820   123020093.81206      4109.874    23013460.864    95682326.28106
      3196.570  
  19183246.247   102617421.55106      -233.097    19183248.810    79813566.30907
      -181.296  
 20 10 01 03 53 40.0000000  0 12G29G 2G15G18G 5G 7G13R 4R 3R18R 5R19
  21075653.919   110753313.05549      -241.820    21075654.274    86301280.02949
      -188.433  
  22222983.486   116782565.65448     -2233.156    22222981.330    90999392.58947
     -1740.125  
  23453017.619   123246448.49646      3936.813    23453017.239    96036186.23447
      3067.647  
  23639178.195   124224708.30147      3324.796    23639175.332    96798480.44144
      2590.750  
  20246015.956   106393535.81949     -1009.093    20246015.738    82904047.66349
      -786.308  
  24671145.768   129647748.21847       791.687    24671145.523   101024216.79942
       616.902  
  21865289.795   114902872.21449      2923.726    21865289.618    89534704.26046
      2278.227  
  19476527.169   104295913.93509      1583.937    19476529.517    81119057.59908
      1231.949  
  20117493.016   107690508.03008     -2447.281    20117496.793    83759305.59208
     -1903.440  
  21270321.449   113542425.13408     -3588.276    21270327.727    88310793.62907
     -2790.887  
  23009610.454   122999548.78606      4108.284    23009617.272    95666346.83906
      3195.335  
  19183465.743   102618595.05006      -236.914    19183468.221    79814479.03207
      -184.266  
 20 10 01 03 53 45.0000000  0 12G29G 2G15G18G 5G 7G13R 4R 3R18R 5R19
  21075885.722   110754531.09549      -245.530    21075886.043    86302229.14749
      -191.323  
  22225109.001   116793735.93949     -2235.098    22225106.967    91008096.68847
     -1741.636  
  23449272.456   123226767.56346      3935.676    23449271.921    96020850.47247
      3066.765  
  23636014.565   124208084.68746      3324.101    23636011.639    96785526.99145
      2590.211  
  20246977.275   106398587.15049     -1011.573    20246976.914    82907983.76549
      -788.242  
  24670393.744   129643796.21347       789.496    24670393.585   101021137.27244
       615.188  
  21862508.864   114888258.82549      2921.328    21862508.777    89523317.21446
      2276.359  
  19475050.059   104288003.17509      1580.171    19475052.260    81112904.78208
      1229.020  
  20119779.923   107702750.83708     -2450.038    20119783.802    83768827.78208
     -1905.585  
  21273683.337   113560371.61808     -3590.550    21273689.604    88324752.01207
     -2792.651  
  23005768.243   122979009.77706      4107.250    23005775.182    95650372.07706
      3194.530  
  19183689.033   102619789.00106      -240.996    19183691.244    79815407.65807
      -187.445  
 20 10 01 03 53 50.0000000  0 12G29G 2G15G18G 5G 7G13R 4R 3R18R 5R19
  21076120.737   110755766.91849      -249.082    21076121.244    86303192.12849
      -194.094  
  22227236.252   116804914.53049     -2236.784    22227234.274    91016807.27947
     -1742.952  
  23445528.215   123207091.41446      3935.039    23445527.735    96005518.43448
      3066.269  
  23632851.505   124191463.85247      3323.762    23632848.720    96772575.68144
      2589.944  
  20247940.687   106403650.28749     -1014.038    20247940.510    82911929.06349
      -790.164  
  24669644.169   129639857.54147       786.438    24669643.871   101018068.19143
       612.805  
  21859730.204   114873656.93149      2919.164    21859730.106    89511939.11246
      2274.667  
  19473576.110   104280110.39909      1576.589    19473578.384    81106765.95408
      1226.233  
  20122069.639   107715007.36408     -2452.891    20122073.439    83778360.63708
     -1907.808  
  21277047.419   113578329.53408     -3592.781    21277053.414    88338719.26407
     -2794.391  
  23001927.160   122958476.58506      4106.141    23001933.777    95634401.82106
      3193.663  
  19183915.993   102621003.17706      -245.163    19183918.342    79816352.01807
      -190.688  
 20 10 01 03 53 55.0000000  0 12G29G 2G15G18G 5G 7G13R 4R 3R18R 5R19
  21076359.760   110757022.21249      -252.676    21076360.109    86304170.27249
      -196.895  
  22229365.423   116816103.08449     -2238.410    22229363.309    91025525.63247
     -1744.218  
  23441785.153   123187421.67747      3933.770    23441784.665    95990191.37547
      3065.273  
  23629689.438   124174847.48147      3323.358    23629686.653    96759627.85744
      2589.625  
  20248906.576   106408726.91249     -1016.379    20248906.307    82915884.87249
      -791.987  
  24668897.361   129635933.98046       783.261    24668897.127   101015010.90042
       610.332  
  21856954.210   114859068.23349      2916.715    21856953.908    89500571.29947
      2272.766  
  19472105.910   104272237.26209      1572.867    19472108.354    81100642.39408
      1223.336  
  20124362.130   107727279.30908     -2455.663    20124365.920    83787905.48608
     -1909.960  
  21280413.993   113596300.60208     -3595.254    21280419.678    88352696.76507
     -2796.312  
  22998087.594   122937951.08906      4103.940    22998094.133    95618437.57506
      3191.956  
  19184147.191   102622239.27406      -248.722    19184149.280    79817313.41907
      -193.452  
 20 10 01 03 54  0.0000000  0 12G29G 2G15G18G 5G 7G13R 4R 3R18R 5R19
  21076601.674   110758293.51049      -255.738    21076601.907    86305160.89649
      -199.276  
  22231495.747   116827298.10948     -2239.667    22231493.804    91034249.02747
     -1745.198  
  23438042.706   123167754.79646      3933.422    23438042.136    95974866.53447
      3065.003  
  23626527.630   124158232.06847      3323.090    23626524.907    96746680.75644
      2589.422  
  20249874.555   106413813.46049     -1018.296    20249874.322    82919848.41749
      -793.479  
  24668152.836   129632021.90847       780.703    24668152.548   101011962.53843
       608.343  
  21854179.944   114844489.24449      2914.784    21854179.627    89489211.05046
      2271.258  
  19470638.679   104264380.21409      1569.866    19470641.196    81094531.35508
      1221.003  
  20126656.859   107739563.17308     -2457.789    20126660.512    83797459.59508
     -1911.616  
  21283782.439   113614281.40407     -3597.159    21283787.886    88366681.80607
     -2797.796  
  22994248.445   122917429.54605      4104.034    22994255.204    95602476.39606
      3192.026  
  19184381.604   102623493.72306      -252.402    19184383.815    79818289.09707
      -196.312  
 20 10 01 03 54  5.0000000  0 12G29G 2G15G18G 5G 7G13R 4R 3R18R 5R19
  21076846.795   110759581.47449      -259.112    21076847.151    86306164.50549
      -201.909  
  22233627.391   116838500.31848     -2240.984    22233625.579    91042978.01147
     -1746.226  
  23434301.002   123148091.63447      3932.749    23434300.451    95959544.61648
      3064.480  
  23623365.914   124141618.38846      3322.629    23623363.873    96733735.06844
      2589.066  
  20250844.492   106418910.72849     -1020.438    20250844.308    82923820.31649
      -795.145  
  24667410.737   129628122.15145       778.995    24667410.388   101008923.76744
       607.007  
  21851407.537   114829920.64749      2912.733    21851407.037    89477858.91446
      2269.664  
  19469174.615   104256540.09509      1566.293    19469177.189    81088433.50608
      1218.227  
  20128953.820   107751859.55008     -2460.452    20128957.534    83807023.44608
     -1913.691  
  21287152.687   113632272.42507     -3599.335    21287158.141    88380674.81307
     -2799.488  
  22990410.344   122896912.81906      4102.917    22990416.995    95586518.93106
      3191.156  
  19184619.735   102624767.28506      -256.895    19184621.732    79819279.65907
      -199.808  
 20 10 01 03 54 10.0000000  0 12G29G 2G15G18G 5G 7G13R 4R 3R18R 5R19
  21077095.536   110760888.64949      -263.351    21077096.012    86307183.08049
      -205.215  
  22235760.965   116849712.19849     -2243.468    22235759.015    91051714.54247
     -1748.160  
  23430560.505   123128434.62747      3930.769    23430559.958    95944227.48647
      3062.937  
  23620204.826   124125008.88847      3320.984    23620202.985    96720792.60144
      2587.780  
  20251817.110   106424021.15149     -1023.500    20251816.733    82927802.45649
      -797.535  
  24666671.332   129624237.20845       775.813    24666671.460   101005896.54344
       604.526  
  21848637.801   114815365.02049      2909.843    21848637.153    89466516.85847
      2267.405  
  19467714.127   104248719.40609      1562.249    19467716.761    81082350.74908
      1215.082  
  20131253.605   107764170.98008     -2463.762    20131257.229    83816598.98908
     -1916.262  
  21290525.429   113650276.22308     -3602.081    21290530.819    88394677.75907
     -2801.625  
  22986573.879   122876403.37406      4101.156    22986580.467    95570567.17006
      3189.792  
  19184861.776   102626062.50806      -261.253    19184863.973    79820287.05507
      -203.198  
 20 10 01 03 54 15.0000000  0 12G29G 2G15G18G 5G 7G13R 4R 3R18R 5R19
  21077348.460   110762217.27349      -268.194    21077348.786    86308218.36549
      -208.987  
  22237896.649   116860935.98049     -2246.012    22237894.860    91060460.34447
     -1750.144  
  23426821.740   123108786.03647      3928.527    23426820.909    95928916.89448
      3061.191  
  23617045.158   124108405.84447      3319.770    23617043.513    96707855.12644
      2586.823  
  20252792.387   106429146.99049     -1026.921    20252792.117    82931796.61549
      -800.202  
  24665935.042   129620369.32345       772.027    24665935.420   101002882.61145
       601.573  
  21845870.717   114800824.58549      2906.335    21845870.195    89455186.65546
      2264.672  
  19466257.741   104240920.33709      1557.391    19466260.392    81076284.80508
      1211.301  
  20133556.760   107776499.88508     -2467.547    20133560.545    83826188.14008
     -1919.203  
  21293900.944   113668295.23508     -3605.457    21293906.498    88408692.53707
     -2804.249  
  22982739.007   122855903.59406      4098.402    22982745.335    95554622.93506
      3187.652  
  19185108.237   102627381.69006      -266.660    19185110.520    79821313.08307
      -207.402  
 20 10 01 03 54 20.0000000  0 12G29G 2G15G18G 5G 7G13R 4R 3R18R 5R19
  21077605.018   110763565.80649      -270.757    21077605.480    86309269.17149
      -210.984  
  22240034.584   116872170.18549     -2246.664    22240032.642    91069214.26647
     -1750.652  
  23423084.072   123089144.29847      3928.913    23423083.311    95913611.67847
      3061.491  
  23613886.442   124091807.74246      3320.047    23613884.812    96694921.58644
      2587.054  
  20253770.528   106434286.68749     -1028.280    20253770.184    82935801.57449
      -801.257  
  24665201.808   129616517.15445       770.254    24665202.477   100999880.92643
       600.199  
  21843106.278   114786297.85848      2904.909    21843106.005    89443867.13646
      2263.565  
  19464805.082   104233141.37909      1554.815    19464807.824    81070234.50308
      1209.297  
  20135862.868   107788844.57108     -2469.477    20135866.503    83835789.57108
     -1920.702  
  21297278.924   113686327.71807     -3606.734    21297284.574    88422717.79907
     -2805.241  
  22978905.634   122835411.83306      4098.351    22978911.860    95538684.89806
      3187.604  
  19185359.243   102628723.18605      -269.340    19185361.125    79822356.46407
      -209.491  
 20 10 01 03 54 25.0000000  0 12G29G 2G15G18G 5G 7G13R 4R 3R18R 5R19
  21077863.670   110764924.71849      -273.222    21077864.085    86310328.05549
      -212.906  
  22242172.537   116883405.26848     -2247.413    22242170.369    91077968.87347
     -1751.233  
  23419345.832   123069499.96947      3928.789    23419345.224    95898304.43148
      3061.395  
  23610726.896   124075205.05847      3320.684    23610725.367    96681984.40444
      2587.538  
  20254749.421   106439430.77249     -1029.586    20254748.973    82939809.95549
      -802.273  
  24664469.395   129612670.92345       768.598    24664471.004   100996883.85443
       598.910  
  21840342.794   114771775.30748      2903.687    21840342.250    89432550.86747
      2262.608  
  19463354.301   104225372.88709      1552.331    19463357.136    81064192.34808
      1207.366  
  20138170.088   107801195.29608     -2471.164    20138173.647    83845395.68608
     -1922.020  
  21300657.792   113704364.12107     -3608.109    21300663.632    88436746.10507
     -2806.313  
  22975072.023   122814918.54706      4098.104    22975078.211    95522745.67106
      3187.414  
  19185612.383   102630077.40705      -272.222    19185614.116    79823409.74607
      -211.730  
 20 10 01 03 54 30.0000000  0 12G29G 2G15G18G 5G 7G13R 4R 3R18R 5R19
  21078125.364   110766299.71149      -277.116    21078125.623    86311399.47749
      -215.933  
  22244311.642   116894646.90448     -2249.465    22244309.558    91086728.58747
     -1752.831  
  23415608.287   123049858.75546      3927.616    23415607.613    95882999.60048
      3060.479  
  23607567.469   124058603.50147      3319.594    23607566.293    96669048.14845
      2586.694  
  20255730.240   106444584.91649     -1032.269    20255729.980    82943826.17249
      -804.366  
  24663739.545   129608836.31344       765.737    24663741.302   100993895.78544
       596.668  
  21837581.038   114757262.68549      2901.145    21837580.706    89421242.33647
      2260.633  
  19461906.655   104217620.65509      1548.425    19461909.304    81058162.83508
      1204.327  
  20140479.373   107813557.95608     -2474.136    20140483.117    83855011.08408
     -1924.332  
  21304038.345   113722410.05708     -3610.645    21304044.135    88450781.82007
     -2808.281  
  22971239.248   122794429.38806      4096.871    22971245.263    95506809.70006
      3186.461  
  19185869.037   102631450.20505      -276.679    19185870.746    79824477.47807
      -215.198  
 20 10 01 03 54 35.0000000  0 12G29G 2G15G18G 5G 7G13R 4R 3R18R 5R19
  21078390.858   110767694.39349      -280.941    21078391.053    86312486.24349
      -218.918  
  22246452.846   116905898.75749     -2251.461    22246450.721    91095496.25947
     -1754.390  
  23411872.022   123030224.26946      3925.874    23411871.481    95867700.01648
      3059.125  
  23604409.003   124042006.71247      3318.487    23604407.928    96656115.58044
      2585.836  
  20256713.709   106449752.73849     -1035.026    20256713.407    82947853.04749
      -806.520  
  24663012.644   129605017.11145       762.289    24663014.443   100990919.79545
       593.992  
  21834821.956   114742763.57948      2898.378    21834821.618    89409944.33346
      2258.476  
  19460462.755   104209888.38609      1544.359    19460465.335    81052148.84808
      1201.167  
  20142791.812   107825936.21508     -2477.383    20142795.224    83864638.61708
     -1926.855  
  21307421.377   113740469.44408     -3613.296    21307427.566    88464828.00007
     -2810.348  
  22967407.722   122773948.12206      4095.277    22967413.753    95490879.83906
      3185.215  
  19186129.830   102632845.15106      -281.277    19186131.494    79825562.43407
      -218.772  
 20 10 01 03 54 40.0000000  0 12G29G 2G15G18G 5G 7G13R 4R 3R18R 5R19
  21078659.744   110769107.92949      -284.512    21078659.893    86313587.69349
      -221.702  
  22248595.785   116917159.91449     -2252.940    22248593.630    91104271.17647
     -1755.543  
  23408136.696   123010595.65346      3925.437    23408136.285    95852405.01148
      3058.780  
  23601251.308   124025413.82046      3318.281    23601250.556    96643186.04545
      2585.663  
  20257699.670   106454933.34149     -1037.293    20257699.045    82951889.88249
      -808.280  
  24662288.459   129601212.46245       759.102    24662290.532   100987955.15741
       591.508  
  21832065.361   114728277.16648      2896.035    21832064.957    89398656.23546
      2256.651  
  19459022.396   104202175.23309      1540.934    19459024.959    81046149.73207
      1198.504  
  20145106.892   107838329.14408     -2479.741    20145110.206    83874277.55908
     -1928.690  
  21310806.900   113758541.15708     -3615.487    21310812.960    88478883.77307
     -2812.051  
  22963577.344   122753473.96606      4094.621    22963583.761    95474955.50206
      3184.706  
  19186394.513   102634261.40106      -285.320    19186396.125    79826663.95507
      -221.917  
 20 10 01 03 54 45.0000000  0 12G29G 2G15G18G 5G 7G13R 4R 3R18R 5R19
  21078932.062   110770538.40749      -287.218    21078932.133    86314702.34449
      -223.813  
  22250740.269   116928428.47149     -2253.894    22250737.829    91113051.87447
     -1756.281  
  23404402.320   122990971.06547      3924.988    23404401.817    95837113.14447
      3058.433  
  23598093.935   124008822.96346      3318.676    23598093.323    96630258.10744
      2585.977  
  20258687.520   106460124.83749     -1038.914    20258687.130    82955935.20849
      -809.542  
  24661566.730   129597420.34645       757.042    24661568.731   100985000.22144
       589.895  
  21829310.639   114713801.66348      2894.601    21829310.261    89387376.61946
      2255.534  
  19457585.194   104194479.20609      1538.125    19457587.698    81040163.93708
      1196.319  
  20147424.229   107850734.75108     -2481.977    20147427.615    83883926.35208
     -1930.429  
  21314194.241   113776623.42108     -3617.055    21314200.506    88492947.75607
     -2813.269  
  22959748.115   122733004.91306      4093.566    22959754.748    95459035.14306
      3183.887  
  19186663.015   102635697.17405      -288.351    19186664.640    79827780.66507
      -224.276  
 20 10 01 03 54 50.0000000  0 12G29G 2G15G18G 5G 7G13R 4R 3R18R 5R19
  21079207.219   110771984.74049      -291.175    21079207.300    86315829.35549
      -226.894  
  22252885.908   116939703.34949     -2255.840    22252883.481    91121837.49247
     -1757.801  
  23400668.376   122971349.42847      3923.601    23400667.818    95821823.57648
      3057.355  
  23594936.977   123992233.00446      3317.492    23594936.129    96617330.86444
      2585.054  
  20259677.465   106465326.13249     -1041.647    20259676.949    82959988.16449
      -811.680  
  24660847.034   129593639.66245       754.664    24660849.388   100982054.25643
       588.050  
  21826557.884   114699335.83549      2891.937    21826557.514    89376104.55246
      2253.456  
  19456150.983   104186799.16809      1534.144    19456153.595    81034190.57108
      1193.222  
  20149743.822   107863151.96708     -2484.854    20149747.202    83893584.18308
     -1932.668  
  21317583.549   113794715.09108     -3619.628    21317589.939    88507019.04807
     -2815.270  
  22955919.744   122712539.89306      4092.020    22955926.225    95443117.94806
      3182.687  
  19186934.792   102637151.12405      -292.805    19186936.514    79828911.51107
      -227.742  
 20 10 01 03 54 55.0000000  0 12G29G 2G15G18G 5G 7G13R 4R 3R18R 5R19
  21079486.946   110773454.02749      -295.940    21079486.878    86316974.24649
      -230.609  
  22255034.016   116950991.67349     -2258.691    22255031.606    91130633.58147
     -1760.023  
  23396936.410   122951737.78547      3921.668    23396935.763    95806541.77847
      3055.843  
  23591781.381   123975651.14547      3316.104    23591780.698    96604409.93345
      2583.973  
  20260670.463   106470544.37049     -1045.050    20260669.933    82964054.32649
      -814.328  
  24660131.116   129589877.73746       750.711    24660133.278   100979122.77744
       584.956  
  21823808.348   114684886.86849      2888.222    21823807.924    89364845.62646
      2250.563  
  19454721.086   104179142.44608      1529.304    19454723.816    81028235.34408
      1189.460  
  20152067.157   107875588.02308     -2488.917    20152070.187    83903256.66208
     -1935.827  
  21320975.847   113812823.31008     -3623.159    21320982.249    88521103.21907
     -2818.016  
  22952093.621   122692086.10006      4089.609    22952100.122    95427209.47106
      3180.953  
  19187211.255   102638630.60405      -298.473    19187213.238    79830062.21607
      -232.147  
 20 10 01 03 55  0.0000000  0 13G29G 2G15G18G 5G 7G13R 4R 3R18R11R 5
                                R19
  21079769.733   110774940.05549      -298.401    21079769.631    86318132.19449
      -232.523  
  22257183.618   116962287.21849     -2259.504    22257181.191    91139435.30447
     -1760.652  
  23393205.413   122932130.04547      3921.383    23393204.672    95791263.02247
      3055.620  
  23588626.259   123959071.11347      3316.078    23588625.882    96591490.45744
      2583.961  
  20261665.534   106475773.31449     -1046.460    20261664.861    82968128.83149
      -815.425  
  24659417.772   129586128.15347       748.984    24659420.091   100976201.08342
       583.625  
  21821060.887   114670448.48448      2887.098    21821060.276    89353594.93646
      2249.688  
  19453294.309   104171502.62009      1526.711    19453297.159    81022293.27408
      1187.440  
  20154392.572   107888036.52608     -2490.496    20154395.583    83912938.83708
     -1937.051  
  21324370.051   113830941.80508     -3624.452    21324376.559    88535195.38007
     -2819.023  
  23595260.334   126085918.91914      -937.074    23595263.970    98066833.33514
      -728.844  
  22948268.170   122671637.25006      4089.461    22948274.734    95411304.80706
      3180.688  
  19187491.420   102640129.33205      -301.359    19187493.357    79831227.89607
      -234.391  
 20 10 01 03 55  5.0000000  0 13G29G 2G15G18G 5G 7G13R 4R 3R18R 5R20
                                R19
  21080055.014   110776439.87249      -301.926    21080054.833    86319300.86549
      -235.270  
  22259333.977   116973587.02449     -2260.948    22259331.433    91148240.34047
     -1761.780  
  23389474.351   122912523.18247      3920.937    23389473.336    95775984.98148
      3055.280  
  23585470.774   123942489.96047      3315.956    23585470.731    96578570.08044
      2583.862  
  20262662.138   106481010.00549     -1048.609    20262661.530    82972209.36549
      -817.101  
  24658706.120   129582388.01746       746.953    24658708.381   100973286.69144
       582.043  
  21818314.734   114656017.79148      2884.983    21818314.319    89342350.23446
      2248.035  
  19451870.145   104163876.78708      1523.273    19451873.124    81016362.06108
      1184.769  
  20156719.812   107900494.57808     -2493.116    20156722.917    83922628.42508
     -1939.094  
  21327765.773   113849067.45808     -3626.289    21327772.308    88549293.11307
     -2820.448  
  22944443.116   122651190.39506      4088.789    22944449.792    95395401.71806
      3180.167  
  21873900.624   116969576.98114      3716.813    21873908.268    90976370.76616
      2890.854  
  19187774.654   102641644.25705      -304.968    19187776.862    79832406.16407
      -237.203  
 20 10 01 03 55 10.0000000  0 13G29G 2G15G18G 5G 7G13R 4R 3R18R 5R20
                                R19
  21080343.917   110777957.47449      -305.577    21080343.698    86320483.40549
      -238.117  
  22261485.868   116984895.09949     -2262.582    22261483.157    91157051.82347
     -1763.055  
  23385744.265   122892921.26047      3919.671    23385743.241    95760710.77048
      3054.289  
  23582315.927   123925911.75147      3314.824    23582315.646    96565651.96945
      2582.980  
  20263660.810   106486258.46849     -1051.215    20263660.402    82976299.08149
      -819.133  
  24657996.936   129578661.41846       743.582    24657999.275   100970382.80142
       579.402  
  21815570.893   114641598.81049      2882.246    21815570.303    89331114.66546
      2245.906  
  19450449.341   104156268.94908      1519.585    19450452.190    81010444.85908
      1181.898  
  20159049.715   107912966.16808     -2495.937    20159052.623    83932328.54108
     -1941.288  
  21331163.532   113867204.58708     -3628.684    21331169.964    88563399.76107
     -2822.312  
  22940619.092   122630749.60806      4086.956    22940626.078    95379503.36206
      3178.750  
  21870426.753   116950997.22504      3714.190    21870433.162    90961919.85605
      2888.816  
  19188061.572   102643179.44906      -309.656    19188063.998    79833600.19107
      -240.848  
 20 10 01 03 55 15.0000000  0 13G29G 2G15G18G 5G 7G13R 4R 3R18R 5R20
                                R19
  21080636.619   110779495.85049      -308.925    21080636.502    86321682.13849
      -240.726  
  22263639.866   116996214.40549     -2264.273    22263637.315    91165872.05147
     -1764.371  
  23382015.700   122873327.26647      3918.530    23382014.621    95745442.72848
      3053.402  
  23579162.261   123909339.37647      3314.371    23579162.140    96552738.45544
      2582.625  
  20264662.348   106491521.61849     -1053.301    20264661.954    82980400.23649
      -820.757  
  24657291.046   129574951.28746       740.937    24657293.423   100967491.76844
       577.351  
  21812829.904   114627194.50248      2880.093    21812829.233    89319890.53746
      2244.230  
  19449032.630   104148682.17809      1516.020    19449035.521    81004544.04708
      1179.144  
  20161382.613   107925454.23008     -2498.570    20161385.421    83942041.47208
     -1943.336  
  21334563.937   113885355.86808     -3631.020    21334570.512    88577517.41507
     -2824.128  
  22936796.891   122610317.87406      4086.245    22936804.048    95363612.03506
      3178.190  
  21866954.299   116932428.26404      3712.687    21866960.359    90947477.34206
      2887.644  
  19188352.881   102644737.97006      -312.917    19188355.453    79834812.37807
      -243.383  
 20 10 01 03 55 20.0000000  0 13G29G 2G15G18G 5G 7G13R 4R 3R18R 5R20
                                R19
  21080932.562   110781050.04349      -312.733    21080932.223    86322893.18949
      -243.690  
  22265795.004   117007539.95149     -2266.030    22265792.465    91174697.15646
     -1765.742  
  23378287.653   122853736.18847      3917.582    23378286.461    95730176.97347
      3052.659  
  23576008.603   123892767.97747      3313.953    23576008.657    96539825.68745
      2582.300  
  20265665.778   106496794.48849     -1055.949    20265665.210    82984508.96749
      -822.820  
  24656587.272   129571252.67846       737.839    24656589.661   100964609.72744
       574.934  
  21810090.646   114612799.91648      2877.577    21810089.936    89308673.97846
      2242.270  
  19447618.754   104141111.43808      1512.156    19447621.492    80998655.69408
      1176.120  
  20163717.578   107937953.70208     -2501.362    20163720.367    83951763.28208
     -1945.507  
  21337966.209   113903516.42508     -3633.495    21337972.740    88591642.29607
     -2826.055  
  22932975.568   122589890.09106      4084.718    22932982.520    95347723.76406
      3177.004  
  21863483.245   116913865.32404      3711.866    21863489.129    90933039.48906
      2887.004  
  19188647.630   102646314.77406      -317.148    19188650.255    79836038.77007
      -246.675  
 20 10 01 03 55 25.0000000  0 13G29G 2G15G18G 5G 7G13R 4R 3R18R 5R20
                                R19
  21081231.558   110782621.30749      -316.046    21081231.125    86324117.55249
      -246.269  
  22267951.844   117018873.00449     -2267.422    22267949.066    91183528.10846
     -1766.824  
  23374560.361   122834149.38347      3916.675    23374559.348    95714914.53848
      3051.957  
  23572855.556   123876198.73047      3313.589    23572855.784    96526914.57344
      2582.020  
  20266671.284   106502078.33349     -1057.956    20266670.890    82988626.24349
      -824.386  
  24655885.911   129567566.72146       735.921    24655888.218   100961737.56044
       573.441  
  21807353.665   114598416.32848      2875.456    21807352.870    89297465.99546
      2240.616  
  19446208.038   104133557.93008      1508.883    19446210.823    80992780.74708
      1173.574  
  20166054.979   107950465.89608     -2503.749    20166057.471    83961494.98308
     -1947.362  
  21341370.345   113921687.34008     -3635.289    21341376.860    88605775.21807
     -2827.449  
  22929154.867   122569467.62805      4083.930    22929162.182    95331839.63306
      3176.390  
  21860013.428   116895309.46304      3709.718    21860019.231    90918607.14806
      2885.332  
  19188946.150   102647911.03105      -321.191    19188948.882    79837280.29707
      -249.819  
 20 10 01 03 55 30.0000000  0 13G29G 2G15G18G 5G 7G13R 4R 3R18R 5R20
                                R19
  21081534.355   110784212.32849      -320.171    21081533.963    86325357.30949
      -249.483  
  22270110.367   117030216.27449     -2269.508    22270107.648    91192367.01746
     -1768.453  
  23370834.395   122814569.51847      3915.120    23370833.412    95699657.51248
      3050.741  
  23569703.448   123859634.32347      3312.270    23569703.678    96514007.22745
      2580.983  
  20267679.260   106507375.87849     -1060.866    20267679.009    82992754.19649
      -826.651  
  24655187.693   129563896.24947       732.703    24655189.687   100958877.41443
       570.930  
  21804619.193   114584046.42849      2872.590    21804618.462    89286268.67446
      2238.382  
  19444801.263   104126024.49309      1504.691    19444804.021    80986921.40508
      1170.312  
  20168395.354   107962993.57709     -2507.026    20168397.703    83971238.74008
     -1949.909  
  21344776.900   113939871.66708     -3638.250    21344783.366    88619918.57807
     -2829.754  
  22925335.967   122549053.29506      4081.593    22925343.233    95315961.86606
      3174.578  
  21856545.025   116876763.63904      3708.441    21856550.916    90904182.61106
      2884.339  
  19189248.728   102649529.68105      -326.147    19189251.570    79838539.25007
      -253.676  
 20 10 01 03 55 35.0000000  0 13G29G 2G15G18G 5G 7G13R 4R 3R18R 5R20
                                R19
  21081840.563   110785821.43049      -323.448    21081840.232    86326611.14849
      -252.043  
  22272270.569   117041568.08949     -2271.094    22272267.634    91201212.57746
     -1769.687  
  23367109.367   122794994.95947      3914.530    23367108.563    95684404.60048
      3050.284  
  23566551.911   123843073.22846      3311.819    23566552.330    96501102.48444
      2580.641  
  20268689.734   106512685.42549     -1062.987    20268689.345    82996891.51049
      -828.305  
  24654491.957   129560239.60247       730.433    24654493.673   100956028.10143
       569.167  
  21801886.993   114569688.61748      2870.516    21801886.289    89275080.75947
      2236.761  
  19443397.875   104118509.35209      1501.331    19443400.621    80981076.29108
      1167.699  
  20170738.376   107975535.01808     -2509.461    20170740.625    83980993.19508
     -1951.808  
  21348185.690   113958067.42508     -3640.059    21348192.038    88634070.84107
     -2831.156  
  22921518.041   122528645.41406      4080.953    22921525.782    95300089.07706
      3174.073  
  21853078.640   116858225.87904      3707.336    21853084.255    90889764.36006
      2883.483  
  19189555.044   102651168.79605      -329.651    19189558.059    79839814.11007
      -256.398  
 20 10 01 03 55 40.0000000  0 14G29G 2G15G18G 5G30G 7G13R 4R 3R18R 5
                                R20R19
  21082150.401   110787449.64349      -327.007    21082149.881    86327879.88949
      -254.815  
  22274432.485   117052929.46849     -2272.688    22274429.586    91210065.59947
     -1770.930  
  23363385.715   122775426.66047      3913.397    23363385.013    95669156.59648
      3049.401  
  23563401.157   123826516.37047      3311.675    23563401.826    96488201.04145
      2580.527  
  20269702.666   106518008.03949     -1065.422    20269702.118    83001038.99349
      -830.202  
  24546321.460   128991790.86615      2074.156           0.000           0.0000 
         0.000  
  24653799.102   129556597.87246       727.651    24653800.393   100953190.36344
       566.995  
  21799157.235   114555343.92348      2868.101    21799156.793    89263903.08546
      2234.882  
  19441998.018   104111013.68109      1497.624    19442000.865    80975246.32508
      1164.862  
  20173083.953   107988091.23008     -2512.222    20173086.205    83990759.12308
     -1953.952  
  21351596.697   113976275.83308     -3642.128    21351603.129    88648232.92407
     -2832.770  
  22917701.433   122508244.95805      4079.866    22917709.478    95284222.05706
      3173.229  
  21849613.655   116839697.64304      3705.194    21849619.444    90875353.51706
      2881.820  
  19189865.519   102652829.56305      -333.862    19189868.382    79841105.82907
      -259.672  
 20 10 01 03 55 45.0000000  0 14G29G 2G15G18G 5G30G 7G13R 4R 3R18R 5
                                R20R19
  21082463.265   110789093.03449      -329.979    21082462.699    86329160.45349
      -257.133  
  22276595.521   117064296.45748     -2273.934    22276592.512    91218922.98246
     -1771.898  
  23359662.449   122755860.79947      3913.055    23359661.986    95653910.48748
      3049.133  
  23560250.396   123809959.85547      3311.352    23560251.076    96475299.87145
      2580.270  
  20270717.104   106523339.66949     -1067.137    20270716.847    83005193.51149
      -831.538  
  24544347.879   128981420.47145      2073.777    24544351.511   100504995.80053
      1615.929  
  24653108.471   129552967.05047       725.230    24653109.375   100950361.16642
       565.113  
  21796429.379   114541008.38348      2866.261    21796428.731    89252732.53446
      2233.445  
  19440601.188   104103533.38009      1494.597    19440604.007    80969428.30508
      1162.461  
  20175431.571   108000658.15308     -2514.457    20175433.791    84000533.40308
     -1955.687  
  21355009.376   113994492.85008     -3644.171    21355015.908    88662401.70607
     -2834.358  
  22913885.612   122487847.89806      4079.284    22913893.588    95268357.70006
      3172.733  
  21846149.879   116821174.58704      3704.152    21846155.597    90860946.68706
      2881.004  
  19190179.137   102654507.99405      -337.097    19190182.310    79842411.27007
      -262.191  
 20 10 01 03 55 50.0000000  0 14G29G 2G15G18G 5G30G 7G13R 4R 3R18R 5
                                R20R19
  21082779.022   110790752.53449      -333.741    21082778.452    86330453.56449
      -260.062  
  22278759.702   117075669.99148     -2275.496    22278756.947    91227785.47846
     -1773.117  
  23355939.923   122736298.25947      3911.965    23355939.481    95638666.94948
      3048.284  
  23557099.987   123793404.65647      3310.566    23557100.899    96462399.73544
      2579.663  
  20271733.635   106528681.25949     -1069.551    20271733.286    83009355.78249
      -833.422  
  24542376.380   128971058.42245      2071.628    24542382.161   100496921.54643
      1614.262  
  24652419.958   129549348.01847       722.359    24652420.584   100947541.11944
       562.874  
  21793703.180   114526682.95348      2863.652    21793702.664    89241569.87046
      2231.418  
  19439207.327   104096069.34709      1490.914    19439210.041    80963622.95708
      1159.601  
  20177781.246   108013236.80108     -2517.230    20177783.586    84010316.78908
     -1957.851  
  21358423.946   114012719.18008     -3646.586    21358430.364    88676577.73107
     -2836.238  
  22910070.834   122467455.25005      4077.308    22910078.577    95252496.74406
      3171.233  
  21842687.246   116802657.89404      3702.233    21842692.809    90846544.82306
      2879.515  
  19190496.484   102656205.08305      -341.844    19190499.592    79843731.22307
      -265.882  
 20 10 01 03 55 55.0000000  0 14G29G 2G15G18G 5G30G 7G13R 4R 3R18R 5
                                R20R19
  21083098.584   110792431.66049      -337.559    21083097.846    86331761.96349
      -263.034  
  22280925.969   117087053.61748     -2277.527    22280923.032    91236655.82846
     -1774.699  
  23352218.499   122716742.64047      3910.644    23352218.400    95623428.80948
      3047.249  
  23553950.586   123776854.28747      3309.762    23553951.778    96449503.32845
      2579.030  
  20272752.625   106534036.37249     -1072.097    20272752.429    83013528.59749
      -835.406  
  24540406.338   128960708.06145      2068.655    24540410.068   100488856.28043
      1611.922  
  24651734.249   129545744.40446       719.180    24651734.828   100944733.09444
       560.394  
  21790979.869   114512371.23248      2861.070    21790979.219    89230417.87946
      2229.406  
  19437817.184   104088625.31909      1486.930    19437820.183    80957833.15208
      1156.496  
  20180133.917   108025830.74108     -2520.116    20180136.547    84020112.07108
     -1960.094  
  21361840.749   114030958.68408     -3648.952    21361847.428    88690764.01907
     -2838.074  
  22906257.327   122447070.62505      4076.270    22906265.202    95236642.05905
      3170.434  
  21839226.814   116784151.25204      3700.031    21839232.014    90832150.78006
      2877.801  
  19190817.835   102657924.40606      -345.761    19190820.963    79845068.47107
      -268.929  
 20 10 01 03 56  0.0000000  0 14G29G 2G15G18G 5G30G 7G13R 4R 3R18R 5
                                R20R19
  21083421.566   110794128.59649      -341.164    21083420.924    86333084.25449
      -265.844  
  22283093.791   117098445.50448     -2279.156    22283090.881    91245532.62146
     -1775.969  
  23348498.262   122697192.06847      3909.809    23348498.266    95608194.60548
      3046.604  
  23550801.627   123760306.89547      3309.417    23550803.022    96436609.26244
      2578.766  
  20273773.918   106539403.21049     -1074.659    20273773.765    83017710.54749
      -837.402  
  24538438.210   128950367.60445      2066.840    24538441.903   100480798.84944
      1610.535  
  24651051.145   129542154.35446       716.362    24651051.150   100941935.67345
       558.206  
  21788258.635   114498071.39348      2858.702    21788258.229    89219275.16246
      2227.563  
  19436430.393   104081199.42709      1483.289    19436433.414    80952057.46608
      1153.668  
  20182489.215   108038438.11708     -2522.808    20182491.689    84029917.81108
     -1962.184  
  21365259.783   114049209.53408     -3651.401    21365266.367    88704959.12507
     -2839.983  
  22902445.190   122426692.28505      4074.949    22902452.755    95220792.23405
      3169.402  
  21835767.338   116765652.60204      3698.538    21835772.708    90817762.93206
      2876.636  
  19191143.115   102659664.06206      -349.663    19191146.182    79846421.53907
      -271.960  
 20 10 01 03 56  5.0000000  0 14G29G 2G15G18G 5G30G 7G13R 4R 3R18R 5
                                R20R19
  21083748.155   110795844.14449      -344.597    21083747.418    86334421.03949
      -268.522  
  22285263.315   117109846.39848     -2280.929    22285260.461    91254416.43846
     -1777.351  
  23344778.951   122677647.36047      3908.636    23344779.096    95592964.97648
      3045.690  
  23547653.608   123743763.31747      3308.664    23547654.979    96423718.17544
      2578.179  
  20274797.495   106544782.48749     -1076.729    20274797.551    83021902.18849
      -839.015  
  24536471.677   128940037.81144      2065.456    24536477.486   100472749.69942
      1609.449  
  24650370.764   129538578.58446       714.652    24650370.648   100939149.34844
       556.867  
  21785539.877   114483784.16148      2856.409    21785539.451    89208142.25246
      2225.772  
  19435047.152   104073792.29609      1479.957    19435050.274    80946296.36008
      1151.020  
  20184846.919   108051059.65308     -2525.492    20184849.752    84039734.55808
     -1964.277  
  21368681.004   114067472.24508     -3653.371    21368687.473    88719163.44607
     -2841.516  
  22898634.191   122406320.87105      4073.703    22898641.599    95204947.80405
      3168.438  
  21832309.626   116747162.91204      3696.679    21832315.271    90803382.07206
      2875.194  
  19191472.101   102661424.82006      -353.921    19191475.516    79847791.01207
      -275.277  
 20 10 01 03 56 10.0000000  0 14G29G 2G15G18G 5G30G 7G13R 4R 3R18R 5
                                R20R19
  21084078.194   110797578.26149      -348.844    21084077.332    86335772.29449
      -271.831  
  22287434.549   117121256.30848     -2283.230    22287431.731    91263307.27146
     -1779.144  
  23341060.781   122658108.49947      3906.617    23341061.156    95577739.91448
      3044.116  
  23544506.160   123727223.52247      3307.355    23544507.670    96410830.00645
      2577.152  
  20275823.541   106550174.26749     -1079.843    20275823.541    83026103.57149
      -841.441  
  24534507.736   128929718.73244      2062.585    24534513.155   100464708.90741
      1607.237  
  24649693.155   129535017.22446       710.195    24649692.805   100936374.25844
       553.394  
  21782823.404   114469509.59648      2853.160    21782823.109    89197019.22447
      2223.242  
  19433667.471   104066404.07509      1475.483    19433670.494    80940549.97108
      1147.597  
  20187207.466   108063695.28208     -2528.738    20187210.463    84049562.26508
     -1966.800  
  21372104.310   114085746.83108     -3656.512    21372110.948    88733377.01007
     -2843.957  
  22894824.622   122385956.38505      4072.229    22894831.807    95189108.80005
      3167.292  
  21828853.401   116728681.89104      3695.038    21828858.983    90789007.96107
      2873.917  
  19191805.304   102663206.54406      -358.734    19191808.440    79849176.79807
      -279.020  
 20 10 01 03 56 15.0000000  0 13G29G 2G15G18G 5G 7G13R 4R 3R18R 5R20
                                R19
  21084411.418   110799329.17849      -351.276    21084410.414    86337136.64449
      -273.727  
  22289607.072   117132673.46348     -2283.507    22289604.231    91272203.76446
     -1779.354  
  23337343.382   122638573.74847      3906.918    23337344.200    95562518.03748
      3044.351  
  23541359.149   123710685.74647      3307.840    23541360.621    96397943.42645
      2577.534  
  20276851.498   106555576.78449     -1081.031    20276851.721    83030313.32449
      -842.367  
  24649017.795   129531468.34146       708.890    24649017.229   100933608.88444
       552.379  
  21780109.023   114455245.89448      2852.218    21780108.772    89185904.65546
      2222.507  
  19432290.810   104059032.96209      1473.104    19432294.044    80934816.88708
      1145.750  
  20189570.206   108076343.27808     -2530.265    20189573.312    84059399.59108
     -1967.987  
  21375529.632   114104031.61908     -3657.323    21375536.110    88747598.51307
     -2844.590  
  22891015.932   122365597.16205      4071.957    22891022.959    95173273.87405
      3167.323  
  21825399.050   116710208.11004      3695.171    21825404.457    90774639.45907
      2874.019  
  19192141.848   102665007.73406      -361.594    19192145.191    79850577.72207
      -281.242  
 20 10 01 03 56 20.0000000  0 13G29G 2G15G18G 5G 7G13R 4R 3R18R 5R20
                                R19
  21084747.330   110801094.97349      -355.038    21084746.424    86338512.58149
      -276.655  
  22291780.549   117144095.91348     -2285.402    22291777.926    91281104.36846
     -1780.835  
  23333626.537   122619041.15747      3906.109    23333627.222    95547297.85348
      3043.723  
  23538212.327   123694148.02247      3307.386    23538213.585    96385056.87145
      2577.179  
  20277881.359   106560988.02149     -1083.409    20277881.353    83034529.87149
      -844.218  
  24648344.531   129527930.12946       706.492    24648343.930   100930851.83944
       550.511  
  21777396.533   114440991.16248      2849.718    21777396.394    89174797.07847
      2220.558  
  19430917.106   104051676.83809      1469.352    19430920.460    80929095.45708
      1142.828  
  20191934.843   108089001.64809     -2533.074    20191938.066    84069244.98008
     -1970.172  
  21378956.476   114122324.63008     -3659.772    21378962.968    88761826.40407
     -2846.496  
  22887207.768   122345241.12605      4070.711    22887214.879    95157441.42505
      3166.113  
  21821945.270   116691739.50904      3692.503    21821950.676    90760274.99707
      2871.949  
  19192481.915   102666826.30206      -365.824    19192485.289    79851992.16807
      -284.531  
 20 10 01 03 56 25.0000000  0 13G29G 2G15G18G 5G 7G13R 4R 3R18R 5R20
                                R19
  21085087.008   110802879.96249      -359.000    21085086.106    86339903.49049
      -279.742  
  22293956.083   117155528.01548     -2287.402    22293953.285    91290012.50746
     -1782.390  
  23329910.896   122599515.14347      3904.569    23329911.641    95532082.79648
      3042.523  
  23535066.121   123677614.75347      3306.257    23535067.531    96372173.80645
      2576.300  
  20278913.513   106566412.33549     -1086.176    20278913.671    83038756.60549
      -846.375  
  24647673.951   129524406.89347       703.203    24647673.663   100928106.45943
       547.945  
  21774686.327   114426749.77948      2846.729    21774686.228    89163699.89947
      2218.230  
  19429547.177   104044340.31009      1465.378    19429550.446    80923389.27008
      1139.698  
  20194302.286   108101674.75409     -2536.023    20194305.683    84079101.84508
     -1972.465  
  21382385.794   114140630.18708     -3662.542    21382392.222    88776064.05307
     -2848.647  
  22883401.016   122324892.73106      4068.815    22883407.989    95141614.92005
      3164.637  
  21818493.363   116673280.42204      3690.901    21818498.877    90745917.92807
      2870.699  
  19192825.907   102668666.64306      -370.394    19192829.193    79853423.54407
      -288.089  
 20 10 01 03 56 30.0000000  0 13G29G 2G15G18G 5G 7G13R 4R 3R18R 5R20
                                R19
  21085430.514   110804684.40749      -362.706    21085429.427    86341309.55149
      -282.633  
  22296133.322   117166970.01548     -2289.367    22296130.654    91298928.34346
     -1783.925  
  23326196.389   122579995.86947      3903.308    23326197.339    95516872.97348
      3041.538  
  23531921.031   123661086.19047      3305.277    23531922.557    96359294.41545
      2575.539  
  20279948.169   106571849.89949     -1088.745    20279948.429    83042993.67449
      -848.374  
  24647006.392   129520898.97346       699.976    24647006.317   100925373.00843
       545.434  
  21771978.806   114412521.97448      2844.503    21771978.987    89152613.29247
      2216.492  
  19428180.796   104037023.55809      1461.527    19428184.033    80917698.45908
      1136.738  
  20196672.517   108114362.84809     -2538.921    20196676.154    84088970.37808
     -1974.719  
  21385817.360   114158948.58608     -3664.729    21385823.623    88790311.67907
     -2850.352  
  22879595.995   122304552.24205      4067.145    22879602.875    95125794.54906
      3163.336  
  21815042.987   116654831.30904      3688.507    21815048.905    90731568.61807
      2868.836  
  19193173.981   102670528.91706      -374.354    19193177.220    79854871.97407
      -291.167  
 20 10 01 03 56 35.0000000  0 13G29G 2G15G18G 5G 7G13R 4R 3R18R 5R20
                                R19
  21085777.071   110806505.42249      -365.937    21085775.940    86342728.52949
      -285.145  
  22298311.840   117178419.01748     -2290.742    22298309.242    91307849.64146
     -1784.995  
  23322482.880   122560480.59347      3903.012    23322484.017    95501666.25948
      3041.304  
  23528776.168   123644559.48247      3304.977    23528777.674    96346416.45845
      2575.300  
  20280984.933   106577297.94449     -1090.886    20280985.127    83047238.90149
      -850.042  
  24646341.381   129517403.43946       697.895    24646341.095   100922649.18943
       543.792  
  21769273.412   114398304.90348      2842.266    21769273.716    89141535.06847
      2214.749  
  19426817.589   104029723.64109      1458.141    19426820.735    80912020.74508
      1134.109  
  20199045.046   108127062.99409     -2541.339    20199048.745    84098848.26708
     -1976.601  
  21389250.796   114177276.78408     -3666.870    21389256.950    88804566.96007
     -2852.012  
  22875791.768   122284216.81406      4066.253    22875798.773    95109978.10505
      3162.641  
  21811594.083   116636389.06104      3687.042    21811600.104    90717224.64907
      2867.695  
  19193525.776   102672410.40805      -378.276    19193529.071    79856335.35207
      -294.219  
 20 10 01 03 56 40.0000000  0 13G29G 2G15G18G 5G 7G13R 4R 3R18R 5R20
                                R19
  21086126.847   110808343.97549      -369.363    21086125.896    86344161.16449
      -287.819  
  22300491.754   117189875.97748     -2292.214    22300489.564    91316777.13146
     -1786.144  
  23318770.304   122540970.18847      3901.640    23318771.435    95486463.38848
      3040.246  
  23525631.799   123628035.52547      3304.769    23525633.419    96333540.66445
      2575.144  
  20282023.987   106582757.33049     -1092.874    20282024.022    83051492.97149
      -851.594  
  24645678.743   129513921.19446       695.234    24645678.738   100919935.66944
       541.729  
  21766570.298   114384099.51048      2839.840    21766570.427    89130465.92547
      2212.862  
  19425457.772   104022441.50809      1454.672    19425460.804    80906356.87108
      1131.410  
  20201420.183   108139776.10209     -2543.827    20201423.734    84108736.23308
     -1978.534  
  21392686.298   114195615.85208     -3668.851    21392692.451    88818830.67407
     -2853.554  
  22871988.655   122263887.24405      4064.956    22871995.597    95094166.26305
      3161.637  
  21808146.515   116617954.61804      3687.121    21808152.798    90702886.76807
      2867.765  
  19193881.164   102674311.93206      -382.491    19193884.527    79857814.31707
      -297.496  
 20 10 01 03 56 45.0000000  0 13G29G 2G15G18G 5G 7G13R 4R 3R18R 5R20
                                R19
  21086480.413   110810201.44749      -373.313    21086479.230    86345608.54049
      -290.894  
  22302673.748   117201342.27648     -2294.046    22302671.321    91325711.90546
     -1787.574  
  23315058.799   122521466.03547      3900.437    23315060.060    95471265.36548
      3039.300  
  23522488.250   123611515.81147      3303.602    23522490.021    96320668.13345
      2574.230  
  20283065.324   106588229.53149     -1095.652    20283065.583    83055757.02149
      -853.758  
  24645018.695   129510453.77145       692.262    24645018.792   100917233.82945
       539.421  
  21763869.646   114369907.23648      2837.362    21763870.092    89119407.00547
      2210.930  
  19424101.505   104015178.63609      1450.844    19424104.426    80900707.97908
      1128.433  
  20203797.731   108152503.64709     -2546.913    20203801.324    84118635.43508
     -1980.933  
  21396124.260   114213967.17308     -3671.195    21396130.103    88833103.91007
     -2855.379  
  22868186.947   122243565.09505      4063.453    22868193.926    95078360.17906
      3160.465  
  21804701.066   116599529.75304      3683.766    21804707.423    90688556.32807
      2865.151  
  19194240.835   102676235.02505      -386.668    19194244.052    79859310.06107
      -300.741  
 20 10 01 03 56 50.0000000  0 13G29G 2G15G18G 5G 7G13R 4R 3R18R 5R20
                                R19
  21086837.585   110812078.36849      -377.046    21086836.512    86347071.07849
      -293.805  
  22304857.449   117212818.42548     -2295.796    22304855.258    91334654.35846
     -1788.937  
  23311348.463   122501968.77647      3898.933    23311349.886    95456072.69748
      3038.132  
  23519345.647   123595000.76247      3302.772    23519347.360    96307799.27245
      2573.590  
  20284109.140   106593714.94549     -1098.116    20284109.314    83060031.36549
      -855.679  
  24644361.642   129507001.46745       688.796    24644361.983   100914543.71444
       536.729  
  21761171.466   114355728.51748      2834.723    21761171.936    89108358.66547
      2208.874  
  19422748.922   104007935.52109      1446.948    19422751.923    80895074.44508
      1125.406  
  20206178.315   108165246.16009     -2549.664    20206181.785    84128546.27808
     -1983.074  
  21399564.476   114232331.28208     -3674.012    21399570.472    88847387.11407
     -2857.566  
  22864386.536   122223250.99605      4062.352    22864393.735    95062560.34006
      3159.609  
  21801257.309   116581114.65504      3681.983    21801263.728    90674233.47007
      2863.765  
  19194604.448   102678180.04906      -390.828    19194607.463    79860822.84607
      -303.980  
 20 10 01 03 56 55.0000000  0 13G29G 2G15G18G 5G 7G13R 4R 3R18R 5R20
                                R19
  21087197.597   110813970.99149      -380.086    21087196.508    86348545.86149
      -296.171  
  22307042.356   117224300.75048     -2297.168    22307040.135    91343601.62446
     -1790.004  
  23307638.851   122482474.63147      3897.948    23307640.346    95440882.47248
      3037.362  
  23516203.165   123578486.71847      3302.613    23516204.921    96294931.22945
      2573.468  
  20285154.842   106599209.96049     -1100.003    20285154.997    83064313.19849
      -857.147  
  24643706.849   129503560.66546       687.184    24643707.391   100911862.58244
       535.465  
  21758475.182   114341559.73248      2832.715    21758475.960    89097318.06147
      2207.308  
  19421399.352   104000708.44709      1443.897    19421402.312    80889453.39408
      1123.030  
  20208560.711   108177999.75409     -2551.832    20208564.143    84138465.73808
     -1984.762  
  21403006.388   114250704.22008     -3675.633    21403012.299    88861677.18307
     -2858.827  
  22860587.371   122202941.06805      4061.651    22860594.239    95046763.76805
      3159.065  
  21797814.826   116562705.74304      3681.102    21797821.281    90659915.42707
      2863.074  
  19194971.439   102680143.42005      -394.563    19194974.482    79862349.92107
      -306.883  
 20 10 01 03 57  0.0000000  0 13G29G 2G15G18G 5G 7G13R 4R 3R18R 5R20
                                R19
  21087561.015   110815880.73749      -384.023    21087559.928    86350033.97049
      -299.241  
  22309228.794   117235790.58848     -2299.090    22309226.454    91352554.73646
     -1791.503  
  23303929.982   122462984.89347      3897.129    23303931.572    95425695.66347
      3036.718  
  23513061.292   123561975.09748      3301.792    23513062.954    96282065.02445
      2572.820  
  20286202.661   106604715.88149     -1102.573    20286202.616    83068603.52349
      -859.152  
  24643054.380   129500132.97445       683.480    24643055.143   100909191.60843
       532.570  
  21755781.154   114327402.26748      2830.113    21755781.899    89086286.26847
      2205.277  
  19420052.932   103993498.80609      1439.883    19420055.827    80883845.89508
      1119.910  
  20210945.503   108190765.85309     -2554.836    20210948.905    84148394.92608
     -1987.097  
  21406450.188   114269087.58508     -3677.984    21406456.039    88875975.35107
     -2860.659  
  22856788.828   122182636.80305      4060.284    22856795.965    95030971.55505
      3158.000  
  21794373.784   116544304.32204      3678.836    21794380.258    90645603.21007
      2861.315  
  19195342.149   102682126.49805      -398.800    19195345.354    79863892.31107
      -310.183  
 20 10 01 03 57  5.0000000  0 13G29G 2G15G18G 5G 7G13R 4R 3R18R 5R20
                                R19
  21087928.237   110817810.09649      -387.711    21087927.271    86351537.36749
      -302.117  
  22311417.137   117247290.47048     -2300.745    22311414.763    91361515.68246
     -1792.793  
  23300222.634   122443502.24147      3896.148    23300224.214    95410514.39948
      3035.965  
  23509920.117   123545468.36048      3301.082    23509921.664    96269202.62145
      2572.270  
  20287253.110   106610235.24549     -1105.026    20287252.903    83072904.33449
      -861.058  
  24642405.095   129496720.58846       681.569    24642406.065   100906532.58844
       531.090  
  21753089.595   114313258.59148      2827.625    21753090.507    89075265.22247
      2203.343  
  19418710.449   103986309.09009      1436.226    19418713.215    80878253.89808
      1117.066  
  20213333.139   108203546.99509     -2557.473    20213336.551    84158335.81108
     -1989.148  
  21409896.478   114287483.77408     -3680.371    21409902.242    88890283.49807
     -2862.516  
  22852992.117   122162340.55105      4058.866    22852999.072    95015185.61205
      3156.898  
  21790934.385   116525912.99504      3677.823    21790940.900    90631298.85907
      2860.530  
  19195717.002   102684131.68006      -403.285    19195720.056    79865451.88507
      -313.671  
 20 10 01 03 57 10.0000000  0 13G29G 2G15G18G 5G 7G13R 4R 3R18R 5R20
                                R19
  21088298.304   110819755.49849      -390.573    21088297.527    86353053.25649
      -304.348  
  22313606.677   117258796.79948     -2301.835    22313604.278    91370481.66146
     -1793.637  
  23296515.883   122424023.04247      3895.640    23296517.355    95395335.84148
      3035.566  
  23506779.183   123528962.95248      3301.093    23506780.895    96256341.26045
      2572.276  
  20288305.284   106615764.45749     -1106.723    20288304.910    83077212.81249
      -862.383  
  24641758.134   129493320.06346       678.816    24641759.119   100903882.85745
       528.952  
  21750400.166   114299125.14248      2825.933    21750401.035    89064252.15746
      2202.027  
  19417370.765   103979135.60909      1433.277    19417373.752    80872674.52108
      1114.770  
  20215722.995   108216339.54809     -2559.547    20215726.323    84168285.57608
     -1990.762  
  21413344.587   114305889.32308     -3681.961    21413350.094    88904598.92407
     -2863.749  
  22849195.968   122142048.76705      4057.922    22849203.170    94999403.14105
      3156.164  
  21787496.565   116507528.30404      3676.246    21787502.909    90616999.66007
      2859.300  
  19196095.401   102686155.45006      -406.715    19196098.334    79867025.93107
      -316.335  
 20 10 01 03 57 15.0000000  0 13G29G 2G15G18G 5G 7G13R 4R 3R18R 5R20
                                R19
  21088671.813   110821718.33149      -394.523    21088670.920    86354582.73549
      -307.425  
  22315797.764   117270310.94748     -2303.812    22315795.339    91379453.72346
     -1795.179  
  23292809.904   122404548.74047      3894.223    23292811.735    95380161.07148
      3034.464  
  23503639.000   123512460.30748      3300.098    23503640.615    96243482.05945
      2571.503  
  20289359.531   106621304.93949     -1109.374    20289359.352    83081530.07749
      -864.449  
  24641113.518   129489932.80646       675.819    24641114.872   100901243.46144
       526.612  
  21747712.849   114285003.38348      2823.140    21747713.768    89053248.18547
      2199.848  
  19416034.404   103971979.89709      1429.160    19416037.460    80867108.97308
      1111.570  
  20218115.107   108229144.93109     -2562.581    20218118.483    84178245.31508
     -1993.124  
  21416794.559   114324305.41708     -3684.508    21416800.167    88918922.54707
     -2865.729  
  22845401.148   122121763.12304      4056.344    22845408.227    94983625.43406
      3154.933  
  21784060.045   116489151.56204      3674.422    21784066.329    90602706.64307
      2857.882  
  19196477.563   102688199.29506      -410.870    19196480.461    79868615.58207
      -319.569  
 20 10 01 03 57 20.0000000  0 13G29G 2G15G18G 5G 7G13R 4R 3R18R 5R20
                                R19
  21089048.941   110823700.46349      -397.835    21089048.221    86356127.25349
      -310.008  
  22317990.721   117281834.79748     -2305.297    22317988.353    91388433.34146
     -1796.340  
  23289105.398   122385081.21047      3893.468    23289107.117    95364991.58948
      3033.874  
  23500499.588   123495962.30448      3299.488    23500501.084    96230626.48445
      2571.030  
  20290416.460   106626858.54549     -1111.547    20290416.000    83085857.56249
      -866.140  
  24640471.841   129486560.73645       673.187    24640473.143   100898615.84544
       524.559  
  21745028.195   114270895.21048      2820.683    21745028.880    89042254.79947
      2197.930  
  19414701.792   103964843.85209      1425.796    19414704.996    80861558.71408
      1108.948  
  20220510.028   108241964.94309     -2564.977    20220513.278    84188216.43308
     -1994.983  
  21420246.929   114342734.12108     -3686.593    21420252.391    88933255.96807
     -2867.354  
  22841607.585   122101485.23005      4054.866    22841614.870    94967853.72405
      3153.780  
  21780625.280   116470784.51904      3673.172    21780631.659    90588421.16107
      2856.905  
  19196863.750   102690265.00506      -414.698    19196866.699    79870222.24907
      -322.543  
 20 10 01 03 57 25.0000000  0 13G29G 2G15G18G 5G 7G13R 4R 3R18R 5R20
                                R19
  21089429.313   110825699.64849      -401.526    21089428.701    86357685.06549
      -312.879  
  22320185.228   117293366.13048     -2307.219    22320182.553    91397418.78546
     -1797.835  
  23285401.647   122365618.24047      3892.391    23285403.426    95349825.62848
      3033.026  
  23497360.573   123479466.69748      3298.694    23497361.994    96217772.77845
      2570.409  
  20291475.456   106632423.01149     -1114.214    20291474.859    83090193.50549
      -868.222  
  24639832.720   129483201.56946       670.331    24639834.247   100895998.29544
       522.331  
  21742345.619   114256798.33348      2818.132    21742346.482    89031270.23447
      2195.949  
  19413372.544   103957725.16209      1421.796    19413375.667    80856021.95008
      1105.922  
  20222907.350   108254797.36909     -2567.874    20222910.506    84198197.21008
     -1997.233  
  21423701.218   114361173.09808     -3688.897    21423706.796    88947597.38607
     -2869.147  
  22837815.086   122081212.99406      4053.828    22837822.698    94952086.44805
      3152.976  
  21777192.089   116452425.29304      3670.223    21777198.179    90574141.75507
      2854.613  
  19197253.618   102692350.32006      -419.137    19197256.548    79871844.15507
      -325.999  
 20 10 01 03 57 30.0000000  0 13G29G 2G15G18G 5G 7G13R 4R 3R18R 5R20
                                R19
  21089813.093   110827716.98449      -405.027    21089812.585    86359257.00949
      -315.609  
  22322381.056   117304905.97448     -2308.680    22322378.530    91406410.88246
     -1798.972  
  23281698.845   122346160.88546      3890.565    23281701.019    95334664.10948
      3031.616  
  23494222.271   123462974.49748      3298.382    23494223.594    96204921.71345
      2570.167  
  20292536.531   106637999.40449     -1116.172    20292535.926    83094538.74449
      -869.750  
  24639196.307   129479856.38546       667.972    24639197.606   100893391.67345
       520.500  
  21739665.362   114242713.86448      2815.824    21739666.266    89020295.32047
      2194.147  
  19412046.484   103950624.98309      1418.417    19412049.946    80850499.58908
      1103.210  
  20225307.087   108267643.31909     -2570.359    20225310.169    84208188.49908
     -1999.171  
  21427157.554   114379623.35208     -3690.929    21427163.150    88961947.58207
     -2870.726  
  22834024.062   122060947.42606      4052.413    22834031.727    94936324.34606
      3151.879  
  21773760.427   116434074.65704      3669.977    21773766.612    90559869.05607
      2854.422  
  19197647.366   102694456.44806      -423.672    19197650.254    79873482.26307
      -329.522  
 20 10 01 03 57 35.0000000  0 13G29G 2G15G18G 5G 7G13R 4R 3R18R 5R20
                                R19
  21090200.113   110829750.66449      -408.867    21090199.396    86360841.68549
      -318.602  
  22324578.402   117316452.57148     -2310.570    22324575.940    91415408.22246
     -1800.448  
  23277996.905   122326707.28046      3889.555    23277998.976    95319505.48448
      3030.823  
  23491084.294   123446484.00448      3297.249    23491085.596    96192071.98045
      2569.285  
  20293599.513   106643585.91149     -1118.784    20293598.934    83098891.86449
      -871.784  
  24638562.177   129476523.38746       665.137    24638563.345   100890794.50843
       518.284  
  21736987.357   114228640.00849      2813.155    21736987.980    89009328.68746
      2192.070  
  19410723.771   103943541.41609      1414.680    19410727.328    80844990.14708
      1100.300  
  20227708.932   108280500.80509     -2573.238    20227711.970    84218188.75708
     -2001.409  
  21430615.642   114398082.95008     -3693.410    21430621.424    88976305.03107
     -2872.656  
  22830233.801   122040686.74606      4051.238    22830241.698    94920566.07006
      3150.965  
  21770330.105   116415730.93004      3667.895    21770335.988    90545601.68507
      2852.804  
  19198044.581   102696581.40605      -427.469    19198047.567    79875135.00707
      -332.479  
 20 10 01 03 57 40.0000000  0 13G29G 2G15G18G 5G 7G13R 4R 3R18R 5R20
                                R19
  21090590.956   110831804.62149      -412.305    21090590.381    86362442.17149
      -321.276  
  22326777.655   117328009.85448     -2311.921    22326775.019    91424413.89546
     -1801.500  
  23274296.341   122307261.52646      3888.762    23274298.436    95304352.92548
      3030.199  
  23487947.232   123429999.16647      3296.765    23487948.722    96179226.66045
      2568.906  
  20294665.321   106649186.52249     -1121.008    20294664.657    83103255.97749
      -873.516  
  24637931.058   129473206.55346       662.519    24637932.162   100888209.95244
       516.246  
  21734311.808   114214580.74948      2810.996    21734312.643    88998373.41347
      2190.386  
  19409404.783   103936478.51209      1410.969    19409408.312    80839496.77408
      1097.418  
  20230113.941   108293374.00409     -2575.777    20230116.911    84228201.24008
     -2003.386  
  21434076.506   114416556.18508     -3695.308    21434082.079    88990673.11807
     -2874.128  
  22826445.364   122020435.03605      4050.022    22826453.134    94904814.73006
      3150.019  
  21766901.883   116397398.21904      3666.558    21766907.563    90531342.92907
      2851.769  
  19198446.136   102698729.26605      -431.375    19198448.944    79876805.56707
      -335.520  
 20 10 01 03 57 45.0000000  0 13G29G 2G15G18G 5G 7G13R 4R 3R18R 5R20
                                R19
  21090985.038   110833875.97249      -416.022    21090984.539    86364056.21349
      -324.176  
  22328978.433   117339574.95548     -2313.776    22328975.838    91433425.66246
     -1802.949  
  23270596.724   122287820.69246      3887.523    23270599.140    95289204.26748
      3029.242  
  23484810.794   123413517.07048      3296.026    23484812.332    96166383.48145
      2568.335  
  20295733.244   106654798.30849     -1123.444    20295732.567    83107628.79749
      -875.413  
  24637302.506   129469903.02146       659.410    24637303.464   100885635.75645
       513.816  
  21731638.722   114200533.18048      2808.343    21731639.504    88987427.26147
      2188.319  
  19408089.164   103929433.34309      1407.258    19408092.881    80834017.20808
      1094.512  
  20232520.992   108306259.91509     -2578.534    20232523.995    84238223.61808
     -2005.530  
  21437539.016   114435039.92508     -3697.812    21437544.661    89005049.35507
     -2876.082  
  22822657.990   122000189.28506      4048.836    22822666.074    94889068.04706
      3149.093  
  21763475.086   116379073.37804      3664.487    21763480.839    90517090.27907
      2850.155  
  19198851.458   102700897.18905      -435.218    19198854.170    79878491.73207
      -338.507  
 20 10 01 03 57 50.0000000  0 12G29G 2G15G18G 5G 7G13R 4R 3R18R 5R19
  21091382.163   110835962.94249      -419.198    21091381.630    86365682.42249
      -326.651  
  22331180.528   117351146.07548     -2315.160    22331177.876    91442442.10846
     -1804.022  
  23266897.847   122268383.02347      3886.593    23266900.313    95274058.03648
      3028.515  
  23481674.359   123397035.99347      3295.870    23481676.198    96153541.06645
      2568.206  
  20296802.861   106660419.49849     -1125.441    20296802.191    83112008.94549
      -876.968  
  24636675.866   129466610.91246       656.698    24636677.091   100883070.48845
       511.714  
  21728967.353   114186495.51048      2806.152    21728968.035    88976488.82347
      2186.612  
  19406776.519   103922404.12409      1403.922    19406780.307    80828550.03908
      1091.937  
  20234930.271   108319156.63509     -2580.730    20234933.269    84248254.39108
     -2007.237  
  21441003.401   114453532.38808     -3699.550    21441008.905    89019432.37307
     -2877.433  
  22818871.330   121979947.70006      4047.776    22818879.514    94873324.60106
      3148.269  
  19199260.104   102703083.19905      -439.409    19199262.761    79880191.95807
      -341.766  
 20 10 01 03 57 55.0000000  0 12G29G 2G15G18G 5G 7G13R 4R 3R18R 5R19
  21091782.913   110838068.05149      -422.883    21091782.167    86367322.77249
      -329.523  
  22333383.940   117362725.73648     -2316.906    22333381.386    91451465.20846
     -1805.387  
  23263199.937   122248951.06346      3885.926    23263202.386    95258916.26848
      3027.991  
  23478538.873   123380558.40447      3294.988    23478540.496    96140701.39045
      2567.519  
  20297874.766   106666052.70849     -1127.938    20297874.238    83116398.45649
      -878.918  
  24636052.044   129463332.89146       653.878    24636053.223   100880516.19844
       509.511  
  21726298.470   114172470.34448      2803.699    21726299.223    88965560.14046
      2184.699  
  19405467.206   103915393.34509      1400.065    19405471.049    80823097.21208
      1088.940  
  20237341.969   108332066.83109     -2583.444    20237344.904    84258295.65208
     -2009.351  
  21444469.837   114472036.21008     -3702.081    21444475.295    89033824.23607
     -2879.401  
  22815086.061   121959712.89406      4046.163    22815094.344    94857586.43506
      3147.015  
  19199672.319   102705289.92805      -443.762    19199675.405    79881908.30007
      -345.151  
 20 10 01 03 58  0.0000000  0 12G29G 2G15G18G 5G 7G13R 4R 3R18R 5R19
  21092187.104   110840192.09249      -426.586    21092186.334    86368977.86449
      -332.410  
  22335589.225   117374314.74548     -2318.749    22335586.732    91460495.60646
     -1806.820  
  23259503.215   122229525.62646      3884.832    23259505.617    95243779.55448
      3027.141  
  23475404.161   123364085.19548      3294.323    23475405.735    96127865.13245
      2567.008  
  20298949.141   106671698.64649     -1130.488    20298948.484    83120797.87849
      -880.902  
  24635430.936   129460069.72746       651.285    24635432.145   100877973.42545
       507.492  
  21723632.058   114158458.53548      2800.921    21723632.660    88954641.85446
      2182.534  
  19404161.460   103908401.97709      1396.305    19404165.361    80817659.47708
      1086.012  
  20239756.458   108344991.33808     -2586.340    20239759.466    84268348.03908
     -2011.601  
  21447938.443   114490552.11708     -3704.297    21447943.838    89048225.47707
     -2881.125  
  22811302.227   121939485.75406      4044.434    22811310.617    94841854.26706
      3145.680  
  19200088.988   102707518.29605      -447.289    19200091.900    79883641.47807
      -347.894  
 20 10 01 03 58  5.0000000  0 12G29G 2G15G18G 5G 7G13R 4R 3R18R 5R19
  21092594.910   110842335.15749      -430.483    21092594.145    86370647.78149
      -335.445  
  22337796.455   117385913.15848     -2320.641    22337793.991    91469533.30446
     -1808.301  
  23255807.801   122210106.81546      3883.229    23255810.251    95228648.02148
      3025.890  
  23472270.262   123347616.41148      3293.441    23472271.738    96115032.34545
      2566.316  
  20300026.015   106677357.34649     -1133.007    20300025.413    83125207.25249
      -882.866  
  24634812.725   129456821.50745       647.902    24634813.884   100875442.40644
       504.863  
  21720968.368   114144460.09249      2798.292    21720968.768    88943733.97446
      2180.487  
  19402859.456   103901429.93009      1392.469    19402863.261    80812236.77408
      1083.026  
  20242173.546   108357930.04608     -2589.297    20242176.422    84278411.48708
     -2013.897  
  21451409.384   114509080.23508     -3706.766    21451414.767    89062636.25007
     -2883.038  
  22807519.892   121919266.25906      4043.156    22807528.290    94826128.01406
      3144.680  
  19200509.550   102709768.33106      -452.102    19200512.490    79885391.50207
      -351.636  
 20 10 01 03 58 10.0000000  0 12G29G 2G15G18G 5G 7G13R 4R 3R18R 5R19
  21093006.146   110844496.52749      -433.828    21093005.355    86372331.96249
      -338.046  
  22340005.190   117397520.23748     -2322.039    22340002.737    91478577.78346
     -1809.387  
  23252113.480   122190693.86947      3882.359    23252115.887    95213521.09347
      3025.215  
  23469137.117   123331151.34148      3293.081    23469138.529    96102202.40845
      2566.039  
  20301105.183   106683028.07049     -1135.191    20301104.286    83129625.99549
      -884.569  
  24634197.292   129453587.48046       645.780    24634198.462   100872922.38644
       503.203  
  21718307.015   114130474.33949      2796.038    21718307.328    88932835.97746
      2178.726  
  19401561.001   103894476.57209      1389.043    19401564.735    80806828.61708
      1080.363  
  20244593.071   108370882.32909     -2591.647    20244596.070    84288485.48508
     -2015.729  
  21454882.326   114527619.75408     -3708.930    21454887.691    89077055.86807
     -2884.727  
  22803738.671   121899053.81106      4042.065    22803747.106    94810407.23106
      3143.827  
  19200934.105   102712039.28505      -455.960    19200936.975    79887157.79507
      -354.640  
 20 10 01 03 58 15.0000000  0 12G29G 2G15G18G 5G 7G13R 4R 3R18R 5R19
  21093420.811   110846675.29749      -437.188    21093420.005    86374029.69749
      -340.667  
  22342215.471   117409135.12048     -2323.590    22342213.151    91487628.34146
     -1810.594  
  23248420.160   122171285.96947      3881.383    23248422.456    95198398.04848
      3024.453  
  23466004.522   123314689.03748      3292.405    23466005.743    96089374.64245
      2565.512  
  20302186.249   106688709.95149     -1137.184    20302185.618    83134053.43049
      -886.121  
  24633584.322   129450366.79746       643.117    24633585.472   100870412.76544
       501.129  
  21715647.905   114116500.37149      2793.901    21715648.324    88921947.17547
      2177.062  
  19400265.752   103887540.94809      1385.601    19400269.584    80801434.23408
      1077.688  
  20247015.011   108383847.16008     -2593.991    20247018.086    84298569.21808
     -2017.559  
  21458357.343   114546169.72207     -3710.738    21458362.842    89091483.60407
     -2886.133  
  22799958.727   121878847.43706      4041.176    22799967.164    94794691.14406
      3143.070  
  19201362.423   102714330.28305      -459.663    19201365.276    79888939.68507
      -357.519  
 20 10 01 03 58 20.0000000  0 12G29G 2G15G18G 5G 7G13R 4R 3R18R 5R19
  21093838.345   110848869.64149      -440.543    21093837.615    86375739.58349
      -343.284  
  22344426.666   117420755.93548     -2324.836    22344424.480    91496683.52046
     -1811.559  
  23244727.407   122151881.22946      3880.555    23244729.586    95183277.48747
      3023.809  
  23462871.886   123298227.76847      3292.242    23462873.182    96076547.67345
      2565.382  
  20303269.420   106694401.17849     -1139.151    20303268.661    83138488.15349
      -887.655  
  24632973.612   129447157.52546       640.706    24632974.866   100867911.99945
       499.250  
  21712990.705   114102536.37949      2791.754    21712991.060    88911066.15547
      2175.394  
  19398973.672   103880621.20009      1382.355    19398977.348    80796052.21108
      1075.160  
  20249438.836   108396822.70909     -2596.245    20249442.008    84308661.32108
     -2019.304  
  21461834.040   114564728.31608     -3712.437    21461839.606    89105918.07407
     -2887.456  
  22796179.543   121858645.27905      4040.062    22796187.923    94778978.37606
      3142.273  
  19201794.025   102716639.59305      -463.597    19201796.914    79890735.80307
      -360.578  
 20 10 01 03 58 25.0000000  0 13G29G 2G15G18G 5G 7G13R 4R 3R18R11R 5
                                R19
  21094259.658   110851083.02749      -444.539    21094258.907    86377464.29549
      -346.398  
  22346639.977   117432386.18048     -2326.980    22346637.757    91505746.01747
     -1813.238  
  23241035.822   122132483.22647      3878.930    23241038.233    95168162.17348
      3022.543  
  23459740.220   123281770.97348      3291.082    23459741.568    96063724.20545
      2564.480  
  20304354.864   106700105.19749     -1141.980    20304353.884    83142932.83549
      -889.858  
  24632365.749   129443963.25145       637.145    24632367.040   100865422.95945
       496.476  
  21710335.975   114088585.86449      2788.781    21710336.195    88900195.61447
      2173.073  
  19397684.947   103873720.85909      1378.078    19397688.691    80790685.28108
      1071.796  
  20251865.460   108409812.62108     -2599.421    20251868.554    84318764.57208
     -2021.777  
  21465312.987   114583299.07807     -3715.390    21465318.293    89120361.99007
     -2889.754  
  23634407.150   126295101.00915     -1103.215    23634410.834    98229543.49713
      -858.065  
  22792401.756   121838450.78006      4038.347    22792410.153    94763271.54006
      3140.937  
  19202229.794   102718970.47705      -468.933    19202232.648    79892548.71107
      -364.729  
 20 10 01 03 58 30.0000000  0 13G29G 2G15G18G 5G 7G13R 4R 3R18R11R 5
                                R19
  21094684.011   110853313.11549      -447.390    21094683.375    86379202.01749
      -348.621  
  22348854.387   117444023.51848     -2327.901    22348852.187    91514814.08246
     -1813.948  
  23237345.058   122113089.54046      3878.719    23237347.636    95153050.20148
      3022.375  
  23456609.174   123265316.36848      3291.046    23456610.176    96050902.42845
      2564.449  
  20305442.210   106705819.70649     -1143.636    20305441.330    83147385.71349
      -891.145  
  24631760.088   129440781.60246       635.308    24631761.513   100862943.73844
       495.034  
  21707683.498   114074646.50549      2786.902    21707683.556    88889333.78247
      2171.612  
  19396399.561   103866837.67209      1375.211    19396403.199    80785331.69008
      1069.604  
  20254294.327   108422814.31508     -2601.332    20254297.555    84328877.01108
     -2023.257  
  21468793.521   114601879.53207     -3716.969    21468799.202    89134813.44807
     -2890.980  
  23635441.546   126300626.44604     -1106.894    23635444.011    98233841.06404
      -860.921  
  22788625.068   121818261.75406      4037.734    22788633.305    94747568.97106
      3140.460  
  19202669.095   102721320.68905      -471.925    19202671.963    79894376.64607
      -367.059  
 20 10 01 03 58 35.0000000  0 13G29G 2G15G18G 5G 7G13R 4R 3R18R11R 5
                                R19
  21095111.620   110855560.56049      -451.659    21095111.072    86380953.27049
      -351.944  
  22351070.347   117455668.62248     -2330.284    22351068.059    91523888.17746
     -1815.808  
  23233655.126   122093700.91045      3876.555    23233658.066    95137942.18548
      3020.691  
  23453478.443   123248864.54847      3289.690    23453479.318    96038082.83745
      2563.395  
  20306531.859   106711545.35249     -1146.711    20306530.981    83151847.24649
      -893.543  
  24631157.182   129437613.24845       631.773    24631158.477   100860474.90545
       492.284  
  21705033.131   114060718.97949      2783.921    21705033.335    88878481.16646
      2169.285  
  19395117.587   103859972.22809      1370.831    19395121.066    80779991.90008
      1066.199  
  20256725.388   108435828.63508     -2604.563    20256728.652    84338999.24308
     -2025.772  
  21472276.165   114620470.43407     -3719.726    21472281.986    89149273.03507
     -2893.125  
  23636479.851   126306171.64405     -1111.479    23636482.502    98238154.02804
      -864.483  
  22784849.397   121798078.71806      4035.766    22784857.897    94731871.07706
      3138.930  
  19203112.105   102723690.99405      -476.394    19203115.163    79896220.21307
      -370.530  
 20 10 01 03 58 40.0000000  0 13G29G 2G15G18G 5G 7G13R 4R 3R18R11R 5
                                R19
  21095542.861   110857826.99449      -455.144    21095542.443    86382719.32049
      -354.660  
  22353288.217   117467323.04448     -2331.788    22353285.636    91532969.53446
     -1816.980  
  23229966.745   122074319.05245      3876.184    23229969.659    95122839.42948
      3020.390  
  23450348.656   123232417.15947      3289.147    23450349.327    96025266.70646
      2562.973  
  20307623.772   106717283.70549     -1148.788    20307622.840    83156318.69549
      -895.160  
  24630556.922   129434459.83246       629.102    24630558.340   100858017.72844
       490.214  
  21702385.382   114046804.84348      2781.468    21702385.314    88867638.99246
      2167.379  
  19393839.153   103853126.08609      1367.468    19393842.748    80774667.12708
      1063.585  
  20259159.294   108448857.05108     -2607.020    20259162.426    84349132.46008
     -2027.684  
  21475761.050   114639073.33308     -3721.453    21475766.708    89163741.94707
     -2894.469  
  23637521.440   126311738.08104     -1115.210    23637523.959    98242483.41703
      -867.394  
  22781075.166   121777903.41606      4034.562    22781083.650    94716179.16605
      3137.992  
  19203559.151   102726082.82806      -480.472    19203562.233    79898080.53307
      -373.699  
 20 10 01 03 58 45.0000000  0 13G29G 2G15G18G 5G 7G13R 4R 3R18R11R 5
                                R19
  21095977.519   110860110.23049      -458.272    21095977.003    86384498.45749
      -357.101  
  22355507.248   117478984.66048     -2333.160    22355504.771    91542056.51946
     -1818.047  
  23226279.003   122054941.52845      3875.414    23226282.116    95107740.12147
      3019.813  
  23447219.260   123215972.13147      3288.563    23447220.020    96012452.40346
      2562.511  
  20308717.775   106723032.60349     -1150.852    20308716.876    83160798.34049
      -896.769  
  24629959.468   129431319.18546       626.859    24629960.646   100855570.48845
       488.460  
  21699739.932   114032902.06248      2779.383    21699739.742    88856805.66047
      2165.754  
  19392563.892   103846297.18308      1363.949    19392567.284    80769355.76808
      1060.847  
  20261595.265   108461897.40208     -2609.375    20261598.403    84359274.94608
     -2029.520  
  21479247.846   114657686.11807     -3723.566    21479253.540    89178218.55707
     -2896.104  
  23638566.556   126317323.64706     -1118.992    23638568.307    98246827.78804
      -870.324  
  22777301.947   121757733.74506      4033.023    22777310.331    94700491.64906
      3136.796  
  19204009.998   102728494.17906      -484.156    19204013.143    79899956.02107
      -376.570  
 20 10 01 03 58 50.0000000  0 13G29G 2G15G18G 5G 7G13R 4R 3R18R11R 5
                                R19
  21096415.588   110862412.11449      -462.527    21096415.227    86386292.13049
      -360.413  
  22357728.180   117490655.30248     -2335.246    22357725.518    91551150.51646
     -1819.676  
  23222592.498   122035570.52945      3873.055    23222595.567    95092645.85048
      3017.964  
  23444090.626   123199531.14647      3287.444    23444091.318    95999641.23845
      2561.640  
  20309814.072   106728793.90149     -1153.647    20309813.141    83165287.67449
      -898.945  
  24629364.476   129428193.17246       623.773    24629365.574   100853134.58145
       486.050  
  21697096.775   114019012.43248      2776.354    21697096.590    88845982.58246
      2163.395  
  19391292.150   103839487.31209      1359.741    19391295.701    80764059.20308
      1057.577  
  20264033.874   108474951.53208     -2612.445    20264037.198    84369428.16308
     -2031.905  
  21482736.650   114676310.55808     -3726.315    21482742.556    89192704.23607
     -2898.250  
  23639615.621   126322930.25104     -1123.171    23639617.230    98251188.39604
      -873.590  
  22773530.294   121737571.47105      4031.602    22773538.452    94684809.92606
      3135.694  
  19204464.607   102730926.87406      -489.073    19204467.894    79901848.11707
      -380.395  
 20 10 01 03 58 55.0000000  0 13G29G 2G15G18G 5G 7G13R 4R 3R18R11R 5
                                R19
  21096857.140   110864732.23349      -465.444    21096856.852    86388100.01149
      -362.687  
  22359950.627   117502334.52548     -2336.297    22359948.135    91560251.19846
     -1820.496  
  23218907.293   122016205.55346      3872.284    23218910.562    95077556.24646
      3017.359  
  23440962.578   123183093.88847      3287.245    23440963.472    95986833.01045
      2561.496  
  20310912.837   106734567.14049     -1155.449    20310911.866    83169786.30349
      -900.355  
  24628772.264   129425081.26246       621.038    24628773.307   100850709.78445
       483.930  
  21694456.102   114005135.47448      2774.449    21694455.901    88835169.37146
      2161.909  
  19390023.774   103832695.99709      1356.624    19390027.465    80758777.07708
      1055.151  
  20266475.075   108488019.03308     -2614.359    20266478.195    84379591.76708
     -2033.394  
  21486227.740   114694946.36007     -3728.019    21486233.510    89207198.74007
     -2899.570  
  23640668.487   126328557.31805     -1126.425    23640669.854    98255565.00604
      -876.116  
  22769759.916   121717416.17406      4030.914    22769768.047    94669133.55206
      3135.152  
  19204923.397   102733380.31005      -492.457    19204926.484    79903756.33607
      -383.026  
 20 10 01 03 59  0.0000000  0 13G29G 2G15G18G 5G 7G13R 4R 3R18R11R 5
                                R19
  21097301.696   110867068.79749      -469.093    21097301.381    86389920.71849
      -365.526  
  22362174.391   117514020.58148     -2338.109    22362171.883    91569357.23146
     -1821.901  
  23215222.967   121996844.50945      3872.137    23215225.841    95062469.70848
      3017.245  
  23437835.089   123166658.60447      3286.675    23437835.715    95974026.27445
      2561.043  
  20312013.294   106740350.57949     -1157.800    20312012.298    83174292.85749
      -902.187  
  24628182.372   129421981.79846       618.644    24628183.439   100848294.59144
       482.059  
  21691817.494   113991269.53048      2771.984    21691817.200    88824364.73946
      2159.988  
  19388758.773   103825921.56609      1353.141    19388762.367    80753508.08108
      1052.397  
  20268918.335   108501098.02508     -2617.098    20268921.581    84389764.31508
     -2035.522  
  21489720.591   114713591.46508     -3730.210    21489726.370    89221700.47407
     -2901.276  
  23641725.051   126334203.21705     -1130.949    23641725.732    98259956.20703
      -879.641  
  22765990.495   121697266.11406      4029.151    22765998.498    94653461.27206
      3133.776  
  19205385.358   102735852.89805      -496.425    19205388.702    79905679.46507
      -386.108  
 20 10 01 03 59  5.0000000  0 13G29G 2G15G18G 5G 7G13R 4R 3R18R11R 5
                                R19
  21097749.857   110869423.68149      -472.758    21097749.557    86391755.67649
      -368.386  
  22364399.916   117525715.29348     -2339.586    22364397.179    91578469.97546
     -1823.059  
  23211539.591   121977489.61445      3870.391    23211542.728    95047388.01048
      3015.895  
  23434708.394   123150227.09048      3286.078    23434708.737    95961222.51045
      2560.578  
  20313116.213   106746146.02049     -1160.082    20313115.173    83178808.78649
      -903.964  
  24627595.370   129418896.61246       615.476    24627596.255   100845890.57745
       479.593  
  21689181.370   113977416.41648      2769.551    21689181.216    88813570.10947
      2158.090  
  19387497.110   103819165.85809      1349.386    19387500.681    80748253.64008
      1049.522  
  20271364.027   108514190.47508     -2619.663    20271367.360    84399947.33008
     -2037.519  
  21493215.443   114732247.87607     -3732.195    21493221.400    89236211.02607
     -2902.820  
  23642785.309   126339869.60204     -1134.960    23642785.224    98264363.42703
      -882.742  
  22762222.315   121677123.12606      4027.938    22762230.112    94637794.51006
      3132.840  
  19205851.505   102738346.47005      -500.492    19205854.743    79907618.91007
      -389.276  
 20 10 01 03 59 10.0000000  0 13G29G 2G15G18G 5G 7G13R 4R 3R18R11R 5
                                R19
  21098201.081   110871794.72449      -475.593    21098200.884    86393603.25249
      -370.597  
  22366626.555   117537416.54848     -2340.555    22366623.917    91587587.84446
     -1823.813  
  23207857.079   121958138.47445      3870.921    23207860.174    95032309.19248
      3016.312  
  23431581.939   123133797.23947      3286.413    23431582.329    95948420.01745
      2560.844  
  20314220.863   106751951.33849     -1161.770    20314219.989    83183332.41849
      -905.273  
  24627010.753   129415823.55647       613.597    24627011.488   100843496.02345
       478.136  
  21686547.166   113963573.95749      2767.710    21686546.850    88802783.78546
      2156.656  
  19386238.612   103812426.56608      1346.499    19386242.115    80743011.97708
      1047.277  
  20273811.939   108527294.06008     -2621.437    20273815.316    84410139.00208
     -2038.898  
  21496712.211   114750913.33408     -3733.351    21496717.942    89250728.60706
     -2903.719  
  23643849.445   126345554.45605     -1138.578    23643848.428    98268784.88501
      -885.581  
  22758455.008   121656984.95706      4027.815    22758462.792    94622131.49605
      3132.750  
  19206321.098   102740858.81505      -503.773    19206324.384    79909572.95407
      -391.827  
 20 10 01 03 59 15.0000000  0 13G29G 2G15G18G 5G 7G13R 4R 3R18R11R 5
                                R19
  21098655.894   110874184.28249      -479.667    21098655.604    86395465.22549
      -373.769  
  22368854.914   117549126.71548     -2342.944    22368852.429    91596712.63646
     -1825.675  
  23204175.835   121938793.84346      3868.660    23204178.965    95017235.44548
      3014.535  
  23428456.268   123117371.47247      3284.988    23428456.435    95935620.75245
      2559.729  
  20315327.784   106757768.87349     -1164.676    20315327.006    83187865.56049
      -907.542  
  24626428.706   129412764.97147       610.770    24626429.147   100841112.65445
       475.918  
  21683915.612   113949744.63949      2764.632    21683915.241    88792007.69446
      2154.257  
  19384983.670   103805706.25108      1342.269    19384987.404    80737785.05608
      1043.984  
  20276262.307   108540411.28708     -2624.616    20276265.629    84420341.29908
     -2041.370  
  21500211.071   114769590.29908     -3736.387    21500216.840    89265255.12807
     -2906.082  
  23644917.418   126351260.07005     -1143.184    23644916.411    98273222.67802
      -889.141  
  22754689.360   121636854.38105      4025.433    22754696.963    94606474.43006
      3130.894  
  19206794.810   102743392.38606      -509.211    19206798.135    79911543.50507
      -396.059  
 20 10 01 03 59 20.0000000  0 13G29G 2G15G18G 5G 7G13R 4R 3R18R11R 5
                                R19
  21099113.964   110876591.05149      -483.320    21099113.475    86397340.62949
      -376.616  
  22371084.773   117560844.45448     -2344.452    22371082.386    91605843.34546
     -1826.848  
  23200495.701   121919454.17345      3867.499    23200498.614    95002165.61548
      3013.637  
  23425331.143   123100948.45447      3284.124    23425331.243    95922823.58545
      2559.054  
  20316436.970   106763597.30949     -1167.063    20316436.225    83192407.19149
      -909.402  
  24625849.357   129409719.65847       607.410    24625849.460   100838739.71345
       473.304  
  21681286.331   113935927.08049      2762.121    21681285.823    88781240.76146
      2152.300  
  19383731.901   103799003.55208      1338.629    19383735.641    80732571.85208
      1041.156  
  20278714.868   108553540.63508     -2627.269    20278718.065    84430552.99808
     -2043.437  
  21503711.770   114788277.51808     -3738.843    21503717.455    89279789.62107
     -2907.992  
  23645988.658   126356985.29503     -1147.543    23645987.261    98277675.60501
      -892.538  
  22750924.581   121616729.66506      4024.265    22750932.073    94590821.85706
      3129.983  
  19207272.183   102745945.76205      -512.597    19207275.494    79913529.47107
      -398.688  
 20 10 01 03 59 25.0000000  0 12G29G 2G15G18G 5G 7G13R 4R 3R18R 5R19
  21099575.461   110879016.26549      -486.789    21099575.031    86399230.40349
      -379.320  
  22373316.183   117572571.00048     -2346.179    22373313.841    91614980.90546
     -1828.194  
  23196816.528   121900120.64446      3865.996    23196819.512    94987100.58947
      3012.469  
  23422206.782   123084529.39447      3283.563    23422206.733    95910029.52045
      2558.621  
  20317548.250   106769437.90849     -1169.328    20317547.639    83196958.30949
      -911.163  
  24625272.640   129406688.77147       604.671    24625272.512   100836377.99144
       471.172  
  21678659.359   113922122.53349      2759.609    21678658.851    88770483.96847
      2150.344  
  19382483.683   103792319.71609      1334.929    19382487.701    80727373.32108
      1038.277  
  20281170.018   108566683.59008     -2629.870    20281173.416    84440775.30508
     -2045.457  
  21507214.717   114806976.14008     -3740.823    21507220.255    89294332.99407
     -2909.531  
  22747161.293   121596612.26706      4023.059    22747168.653    94575174.99706
      3129.046  
  19207753.593   102748520.29606      -517.270    19207756.701    79915531.88707
      -402.319  
 20 10 01 03 59 30.0000000  0 12G29G 2G15G18G 5G 7G13R 4R 3R18R 5R19
  21100040.382   110881459.12749      -490.500    21100039.768    86401133.92449
      -382.210  
  22375549.280   117584305.56648     -2347.863    22375546.983    91624124.71846
     -1829.507  
  23193138.600   121880792.59445      3864.992    23193141.441    94972039.75247
      3011.679  
  23419082.961   123068113.53747      3282.507    23419082.775    95897237.96345
      2557.797  
  20318661.797   106775289.85649     -1171.640    20318661.265    83201518.26449
      -912.969  
  24624698.557   129403671.56947       601.940    24624698.297   100834026.92645
       469.046  
  21676034.827   113908330.24349      2757.145    21676034.275    88759736.73946
      2148.426  
  19381238.841   103785653.98509      1331.241    19381242.869    80722188.85608
      1035.433  
  20283627.605   108579839.15208     -2632.617    20283630.903    84451007.40808
     -2047.590  
  21510719.502   114825685.36008     -3743.121    21510725.165    89308884.59907
     -2911.319  
  22743399.214   121576501.45705      4021.163    22743406.662    94559533.26306
      3127.569  
  19208238.707   102751115.13906      -521.016    19208241.982    79917550.09707
      -405.238  
 20 10 01 03 59 35.0000000  0 12G29G 2G15G18G 5G 7G13R 4R 3R18R 5R19
  21100508.341   110883918.73549      -493.453    21100507.937    86403050.50049
      -384.511  
  22377783.731   117596047.24549     -2348.934    22377781.616    91633274.07246
     -1830.339  
  23189461.620   121861469.12147      3864.397    23189464.298    94956982.52848
      3011.223  
  23415959.714   123051700.01447      3282.522    23415959.516    95884448.20945
      2557.812  
  20319777.422   106781152.31849     -1173.405    20319776.840    83206086.41849
      -914.347  
  24624127.035   129400667.07847       599.633    24624126.376   100831685.78645
       467.246  
  21673412.392   113894549.34448      2755.133    21673411.902    88748998.37146
      2146.852  
  19379997.400   103779005.34409      1328.188    19380001.395    80717017.69208
      1033.030  
  20286087.262   108593006.54508     -2634.688    20286090.532    84461248.70908
     -2049.206  
  21514226.154   114844404.22807     -3744.651    21514231.828    89323443.70307
     -2912.512  
  22739638.099   121556396.23206      4020.468    22739645.458    94543895.86106
      3127.030  
  19208727.220   102753729.50905      -524.601    19208730.634    79919583.49007
      -408.026  
 20 10 01 03 59 40.0000000  0 12G29G 2G15G18G 5G 7G13R 4R 3R18R 5R19
  21100979.896   110886396.02649      -497.241    21100979.251    86404980.85849
      -387.460  
  22380019.548   117607796.98149     -2350.762    22380017.394    91642429.70946
     -1831.762  
  23185785.684   121842151.22847      3862.890    23185788.124    94941929.64747
      3010.046  
  23412836.748   123035289.77947      3281.519    23412836.764    95871661.00145
      2557.027  
  20320895.117   106787026.18849     -1175.948    20320894.591    83210663.45549
      -916.328  
  24623557.870   129397676.34647       596.515    24623557.162   100829355.35445
       464.816  
  21670792.214   113880780.78049      2752.452    21670791.780    88738269.62946
      2144.769  
  19378759.149   103772374.87709      1324.363    19378763.232    80711860.66208
      1030.055  
  20288549.388   108606186.52708     -2637.207    20288552.631    84471499.80008
     -2051.164  
  21517734.700   114863133.67908     -3747.063    21517740.612    89338011.05007
     -2914.386  
  22735878.402   121536297.59506      4018.765    22735885.797    94528263.59506
      3125.707  
  19209219.813   102756364.30206      -529.378    19209223.128    79921632.77207
      -411.738  
 20 10 01 03 59 45.0000000  0 12G29G 2G15G18G 5G 7G13R 4R 3R18R 5R19
  21101454.740   110888891.59849      -501.230    21101454.233    86406925.45449
      -390.573  
  22382257.258   117619555.32248     -2352.722    22382255.205    91651592.04747
     -1833.292  
  23182110.918   121822839.39247      3861.281    23182113.333    94926881.46147
      3008.784  
  23409714.827   123018883.35147      3280.762    23409714.549    95858876.80246
      2556.438  
  20322015.118   106792912.02049     -1178.547    20322014.562    83215249.83049
      -918.348  
  24622991.396   129394699.84547       593.534    24622990.285   100827035.99444
       462.491  
  21668174.716   113867025.04848      2749.547    21668174.101    88727550.88846
      2142.503  
  19377524.595   103765763.08909      1320.395    19377528.641    80706718.16508
      1026.973  
  20291013.963   108619379.77509     -2640.156    20291017.400    84481761.22208
     -2053.452  
  21521245.536   114881874.29607     -3749.367    21521251.374    89352587.07507
     -2916.180  
  22732120.070   121516206.02906      4017.300    22732127.277    94512636.85506
      3124.569  
  19209716.150   102759019.89806      -533.305    19209719.690    79923698.23107
      -414.796  
 20 10 01 03 59 50.0000000  0 12G29G 2G15G18G 5G 7G13R 4R 3R18R 5R19
  21101933.374   110891406.08549      -504.180    21101932.641    86408884.79849
      -392.866  
  22384496.490   117631322.94148     -2353.866    22384494.468    91660761.60947
     -1834.187  
  23178437.461   121803534.46546      3860.605    23178439.659    94911838.63347
      3008.257  
  23406593.586   123002481.49247      3280.160    23406593.519    95846096.14345
      2555.968  
  20323137.417   106798810.55149     -1180.465    20323137.231    83219846.06749
      -919.848  
  24622428.024   129391738.36947       591.640    24622426.716   100824728.39845
       461.022  
  21665559.517   113853282.92549      2747.632    21665559.099    88716842.73546
      2141.007  
  19376293.458   103759170.68509      1316.995    19376297.384    80701590.74408
      1024.332  
  20293481.290   108632587.01008     -2642.242    20293484.536    84492033.49808
     -2055.081  
  21524758.396   114900626.83308     -3751.000    21524764.248    89367172.40207
     -2917.444  
  22728363.063   121496122.42405      4016.512    22728370.398    94497016.28106
      3123.952  
  19210216.940   102761697.16406      -537.097    19210220.093    79925780.54507
      -417.745  
 20 10 01 03 59 55.0000000  0 12G29G 2G15G18G 5G 7G13R 4R 3R18R 5R19
  21102414.875   110893936.82649      -507.656    21102414.260    86410856.79049
      -395.581  
  22386737.239   117643097.18648     -2355.434    22386735.118    91669936.35346
     -1835.405  
  23174764.625   121784233.51745      3859.488    23174766.787    94896798.95947
      3007.398  
  23403472.760   122986081.44447      3279.839    23403472.469    95833316.87045
      2555.714  
  20324261.820   106804719.04849     -1182.624    20324261.574    83224450.09149
      -921.531  
  24621866.859   129388789.18047       588.581    24621865.453   100822430.33844
       458.636  
  21662946.635   113839551.73149      2745.219    21662946.212    88706143.09046
      2139.129  
  19375065.500   103752594.89909      1313.461    19375069.492    80696476.24108
      1021.581  
  20295950.510   108645805.31309     -2644.698    20295953.872    84502314.40208
     -2056.992  
  21528273.180   114919388.33507     -3753.089    21528278.870    89381764.67407
     -2919.074  
  22724606.874   121476043.97306      4015.125    22724614.048    94481399.68506
      3122.858  
  19210720.920   102764393.39706      -541.245    19210724.071    79927877.60807
      -420.973  
 20 10 01 04 00  0.0000000  0 13G29G 2G15G18G 5G 7G13R 4R 3R18R 5R20
                                R19
  21102899.585   110896483.99549      -511.300    21102899.060    86412841.59149
      -398.421  
  22388979.151   117654878.23048     -2357.094    22388977.052    91679116.38346
     -1836.695  
  23171092.874   121764937.02546      3858.785    23171094.824    94881762.73048
      3006.843  
  23400352.360   122969683.40947      3279.324    23400352.132    95820539.17545
      2555.315  
  20325387.929   106810637.63349     -1185.008    20325387.630    83229061.97949
      -923.382  
  24621308.015   129385852.49347       585.719    24621306.865   100820142.01645
       456.402  
  21660335.814   113825831.61849      2742.890    21660335.347    88695452.09446
      2137.313  
  19373840.715   103746035.98109      1309.891    19373844.473    80691374.86108
      1018.801  
  20298421.943   108659035.08708     -2647.374    20298425.387    84512604.22508
     -2059.069  
  21531789.658   114938159.28208     -3755.367    21531795.418    89396364.28507
     -2920.843  
  22720851.906   121455970.76406      4014.030    22720858.848    94465787.18706
      3122.020  
  21671548.228   115887507.53314      3618.253    21671554.451    90134754.41716
      2814.198  
  19211228.501   102767108.70806      -544.964    19211231.645    79929989.50507
      -423.867  
 20 10 01 04 00  5.0000000  0 12G29G 2G15G18G 5G 7G13R 4R 3R18R 5R19
  21103387.931   110899049.61549      -515.058    21103387.280    86414840.77049
      -401.348  
  22391222.781   117666668.02448     -2358.948    22391220.651    91688303.23647
     -1838.140  
  23167422.013   121745646.89246      3856.983    23167424.175    94866731.47448
      3005.440  
  23397232.746   122953289.51247      3278.241    23397232.339    95807764.73845
      2554.472  
  20326516.522   106816568.27749     -1187.527    20326516.376    83233683.25649
      -925.348  
  24620751.877   129382930.31646       582.777    24620750.872   100817865.00246
       454.112  
  21657727.468   113812124.67149      2739.793    21657726.949    88684771.36146
      2134.901  
  19372619.468   103739495.98009      1305.863    19372623.280    80686288.19808
      1015.671  
  20300895.830   108672278.24708     -2650.022    20300899.335    84522904.45808
     -2061.133  
  21535308.244   114956941.48408     -3757.698    21535313.844    89410972.66307
     -2922.659  
  22717098.183   121435904.93307      4012.676    22717104.821    94450180.44106
      3120.969  
  19211740.140   102769845.13006      -549.265    19211743.054    79932117.83007
      -427.211  
 20 10 01 04 00 10.0000000  0 12G29G 2G15G18G 5G 7G13R 4R 3R18R 5R19
  21103879.686   110901633.86849      -518.808    21103879.153    86416854.46949
      -404.269  
  22393467.944   117678466.80848     -2360.718    22393466.001    91697497.06846
     -1839.526  
  23163752.640   121726363.24046      3855.988    23163754.654    94851705.27447
      3004.668  
  23394113.873   122936899.84547      3277.359    23394113.502    95794993.56045
      2553.781  
  20327647.433   106822511.22149     -1190.035    20327647.305    83238314.12849
      -927.300  
  24620198.441   129380022.79947       579.824    24620197.561   100815599.41245
       451.812  
  21655121.755   113798431.02648      2737.409    21655121.012    88674100.98446
      2133.046  
  19371401.924   103732975.02209      1302.230    19371405.456    80681216.34808
      1012.847  
  20303372.143   108685534.92708     -2652.890    20303375.930    84533215.21408
     -2063.358  
  21538829.006   114975735.20508     -3760.078    21538834.672    89425590.01207
     -2924.503  
  22713346.022   121415846.79606      4011.016    22713352.274    94434579.65606
      3119.676  
  19212255.764   102772603.02706      -553.956    19212258.576    79934262.86007
      -430.858  
 20 10 01 04 00 15.0000000  0 12G29G 2G15G18G 5G 7G13R 4R 3R18R 5R19
  21104375.047   110904236.85449      -522.354    21104374.439    86418882.77149
      -407.035  
  22395714.989   117690274.67548     -2362.374    22395713.057    91706698.01046
     -1840.816  
  23160084.426   121707086.27046      3854.992    23160086.372    94836684.26947
      3003.887  
  23390995.881   122920514.53147      3276.988    23390995.378    95782225.76745
      2553.491  
  20328780.638   106828466.56549     -1192.116    20328780.432    83242954.65349
      -928.921  
  24619648.004   129377130.07647       577.151    24619647.152   100813345.36245
       449.729  
  21652518.344   113784750.84949      2734.675    21652517.969    88663441.11346
      2130.917  
  19370187.763   103726473.18609      1298.495    19370191.231    80676159.36107
      1009.938  
  20305851.251   108698805.25408     -2655.438    20305854.914    84543536.57208
     -2065.343  
  21542351.862   114994540.48107     -3762.141    21542357.436    89440216.33607
     -2926.113  
  22709595.344   121395796.33306      4009.324    22709601.248    94418984.85606
      3118.358  
  19212775.156   102775382.36105      -557.608    19212778.220    79936424.57107
      -433.699  
 20 10 01 04 00 20.0000000  0 13G29G 2G15G18G 5G 7G13R 4R 3R12R18R 5
                                R19
  21104873.969   110906858.11249      -525.851    21104873.396    86420925.32249
      -409.753  
  22397963.667   117702091.21048     -2364.000    22397961.580    91715905.71247
     -1842.077  
  23156417.374   121687815.56246      3853.401    23156419.304    94821668.14648
      3002.652  
  23387878.606   122904133.17347      3276.015    23387878.239    95769461.10445
      2552.738  
  20329916.135   106834433.89249     -1194.492    20329916.006    83247604.51549
      -930.776  
  24619100.105   129374251.75447       574.262    24619099.480   100811102.48545
       447.472  
  21649917.565   113771083.75949      2732.378    21649917.115    88652791.42947
      2129.124  
  19368977.132   103719990.21609      1294.852    19368980.625    80671117.04508
      1007.102  
  20308332.626   108712088.77908     -2658.007    20308336.476    84553868.19208
     -2067.344  
  23566909.924   125890198.12514      1783.737           0.000           0.0000 
         0.000  
  21545876.958   115013357.03008     -3764.405    21545882.373    89454851.40507
     -2927.878  
  22705845.995   121375753.07106      4008.027    22705851.617    94403395.63405
      3117.352  
  19213298.645   102778182.67406      -562.094    19213301.664    79938602.59307
      -437.188  
 20 10 01 04 00 25.0000000  0 12G29G 2G15G18G 5G 7G13R 4R 3R18R 5R19
  21105375.741   110909495.43949      -528.645    21105375.222    86422980.37349
      -411.933  
  22400213.561   117713914.11248     -2364.804    22400211.556    91725118.33246
     -1842.706  
  23152751.138   121668548.86146      3853.629    23152753.026    94806655.13347
      3002.827  
  23384761.624   122887753.53947      3276.160    23384761.074    95756697.74345
      2552.852  
  20331053.541   106840410.91049     -1195.983    20331053.295    83252261.93049
      -931.941  
  24618554.628   129371385.53547       572.702    24618554.277   100808869.09546
       446.261  
  21647318.912   113757427.43049      2730.430    21647318.487    88642150.13846
      2127.608  
  19367769.460   103713523.65609      1292.081    19367772.870    80666087.50407
      1004.952  
  20310816.239   108725383.22308     -2659.707    20310819.960    84564208.31708
     -2068.659  
  21549403.589   115032182.26607     -3765.612    21549409.080    89469493.25407
     -2928.813  
  22702097.182   121355714.92605      4007.483    22702103.090    94387810.47206
      3116.937  
  19213825.670   102781001.62105      -564.792    19213828.761    79940795.09607
      -439.289  
 20 10 01 04 00 30.0000000  0 12G29G 2G15G18G 5G 7G13R 4R 3R18R 5R19
  21105880.562   110912148.41949      -532.617    21105880.027    86425047.62249
      -415.031  
  22402464.583   117725743.02748     -2366.949    22402462.502    91734335.67146
     -1844.379  
  23149085.715   121649285.71446      3851.840    23149087.264    94791644.88948
      3001.437  
  23381644.954   122871375.20247      3275.000    23381644.369    95743935.41745
      2551.948  
  20332192.829   106846397.25249     -1198.703    20332192.512    83256926.61249
      -934.058  
  24618011.248   129368530.99446       569.461    24618010.975   100806644.77146
       443.733  
  21644722.155   113743781.47748      2727.745    21644721.545    88631516.93446
      2125.516  
  19366564.970   103707073.22909      1287.918    19366568.193    80661070.50707
      1001.710  
  20313301.729   108738688.12308     -2662.464    20313305.361    84574556.57708
     -2070.804  
  21552931.559   115051015.96807     -3768.015    21552937.187    89484141.67007
     -2930.687  
  22698349.582   121335681.35305      4005.636    22698355.404    94372228.77706
      3115.492  
  19214356.254   102783839.01805      -569.441    19214358.995    79943001.96007
      -442.901  
 20 10 01 04 00 35.0000000  0 12G29G 2G15G18G 5G 7G13R 4R 3R18R 5R19
  21106389.173   110914821.28049      -536.723    21106388.736    86427130.35649
      -418.230  
  22404717.478   117737582.19748     -2369.055    22404715.375    91743560.99846
     -1846.020  
  23145421.715   121630030.51646      3850.323    23145423.199    94776640.87248
      3000.253  
  23378529.276   122855002.45647      3273.979    23378528.776    95731177.42945
      2551.147  
  20333334.613   106852397.11549     -1201.581    20333334.180    83261601.83549
      -936.301  
  24617471.014   129365692.48146       565.855    24617470.945   100804432.97145
       440.926  
  21642128.231   113730150.09649      2724.719    21642127.801    88620895.08247
      2123.156  
  19365364.245   103700643.21609      1283.754    19365367.389    80656069.38807
       998.473  
  20315789.783   108752007.90008     -2665.574    20315793.644    84584916.39908
     -2073.226  
  21556462.190   115069862.49807     -3770.727    21556467.863    89498800.06307
     -2932.796  
  22694603.468   121315656.69906      4003.847    22694609.644    94356654.08906
      3114.108  
  19214890.848   102786699.10905      -574.664    19214893.783    79945226.46407
      -446.964  
 20 10 01 04 00 40.0000000  0 12G29G 2G15G18G 5G 7G13R 4R 3R18R 5R19
  21106901.220   110917512.91849      -540.136    21106900.839    86429227.73849
      -420.891  
  22406972.075   117749430.43748     -2370.469    22406970.143    91752793.39846
     -1847.116  
  23141759.116   121610782.11646      3848.901    23141760.650    94761642.12648
      2999.145  
  23375414.609   122838634.14147      3273.227    23375413.950    95718422.89245
      2550.563  
  20334478.693   106858409.39349     -1203.624    20334478.278    83266286.72349
      -937.890  
  24616933.448   129362868.77146       563.702    24616933.790   100802232.66045
       439.245  
  21639536.814   113716532.29649      2722.284    21639536.259    88610283.80646
      2121.258  
  19364166.993   103694232.35809      1280.223    19364170.170    80651083.16708
       995.729  
  20318280.675   108765341.15208     -2667.844    20318284.339    84595286.70408
     -2074.991  
  21559994.904   115088720.58207     -3772.808    21560000.470    89513467.44607
     -2934.409  
  22690858.831   121295639.96606      4002.730    22690865.062    94341085.51506
      3113.233  
  19215429.401   102789580.66205      -578.449    19215432.399    79947467.66807
      -449.910  
 20 10 01 04 00 45.0000000  0 13G29G 2G15G18G 5G 7G13R 4R 3R12R18R 5
                                R19
  21107416.484   110920220.46049      -543.151    21107416.142    86431337.50649
      -423.237  
  22409227.804   117761284.90148     -2371.476    22409225.880    91762030.63746
     -1847.906  
  23138097.065   121591537.56446      3848.238    23138098.612    94746646.38248
      2998.628  
  23372300.117   122822267.38047      3273.184    23372299.642    95705669.57445
      2550.531  
  20335624.681   106864431.16249     -1205.438    20335624.313    83270979.01449
      -939.300  
  24616398.409   129360057.02946       561.164    24616398.757   100800041.72845
       437.272  
  21636947.484   113702925.18149      2720.276    21636946.880    88599680.85746
      2119.690  
  19362972.733   103687837.86808      1277.206    19362975.834    80646109.67707
       993.370  
  20320773.439   108778685.17408     -2669.898    20320777.248    84605665.38208
     -2076.589  
  23558607.944   125845854.78414      1765.159           0.000           0.0000 
         0.000  
  21563529.255   115107587.31307     -3774.551    21563534.767    89528141.56107
     -2935.765  
  22687115.374   121275628.04306      4001.562    22687121.373    94325520.68906
      3112.328  
  19215971.615   102792480.82806      -582.055    19215974.630    79949723.35607
      -452.711  
 20 10 01 04 00 50.0000000  0 13G29G 2G15G18G 5G 7G13R 4R 3R12R18R 5
                                R19
  21107934.991   110922945.42349      -546.972    21107934.609    86433460.85349
      -426.215  
  22411485.272   117773147.13448     -2373.676    22411483.086    91771273.92646
     -1849.620  
  23134436.152   121572298.52546      3846.793    23134437.557    94731654.94248
      2997.500  
  23369186.197   122805903.74347      3272.184    23369185.696    95692918.70445
      2549.754  
  20336772.564   106870463.98449     -1208.007    20336772.061    83275679.91449
      -941.305  
  24615865.704   129357258.83447       558.101    24615866.428   100797861.33645
       434.887  
  21634360.452   113689330.29749      2717.327    21634359.974    88589087.44247
      2117.398  
  19361782.035   103681461.23909      1273.148    19361785.127    80641150.07908
       990.227  
  20323268.434   108792041.36008     -2672.761    20323272.310    84616053.52508
     -2078.819  
  23556957.635   125837037.78204      1761.175           0.000           0.0000 
         0.000  
  21567065.477   115126464.18807     -3776.922    21567071.006    89542823.58107
     -2937.605  
  22683372.856   121255622.54705      4000.176    22683378.896    94309960.86506
      3111.245  
  19216517.717   102795401.16406      -586.016    19216520.494    79951994.72207
      -455.793  
 20 10 01 04 00 55.0000000  0 14G29G 2G15G18G 5G 7G13R 4R 3R12R18R 5
                                R20R19
  21108457.304   110925690.35049      -550.710    21108456.958    86435599.75549
      -429.128  
  22413744.462   117785019.63248     -2375.176    22413742.492    91780525.22246
     -1850.789  
  23130776.712   121553067.44446      3845.730    23130778.182    94716669.69448
      2996.671  
  23366073.419   122789545.76747      3271.296    23366073.022    95680172.23045
      2549.062  
  20337923.295   106876510.39749     -1210.448    20337922.725    83280391.40849
      -943.206  
  24615336.292   129354476.72146       554.776    24615337.047   100795693.45145
       432.289  
  21631776.251   113675750.19649      2714.738    21631775.814    88578505.55246
      2115.375  
  19360595.055   103675105.01009      1269.578    19360598.071    80636206.34708
       987.448  
  20325766.283   108805412.32408     -2675.461    20325770.252    84626453.15708
     -2080.918  
  23555311.149   125828241.30205      1757.230           0.000           0.0000 
         0.000  
  21570604.012   115145353.75507     -3778.883    21570609.657    89557515.42807
     -2939.140  
  22679632.163   121235626.05406      3998.613    22679638.304    94294408.03906
      3110.031  
  21634438.487   115689064.91514      3597.691    21634443.273    89980404.14816
      2798.203  
  19217067.904   102798344.13906      -590.902    19217070.690    79954283.70307
      -459.594  
 20 10 01 04 01  0.0000000  0 13G29G 2G15G18G 5G 7G13R 4R 3R12R18R 5
                                R19
  21108982.863   110928452.43149      -553.910    21108982.726    86437752.03049
      -431.617  
  22416005.167   117796899.65448     -2376.605    22416003.116    91789782.37846
     -1851.897  
  23127118.154   121533841.59446      3844.776    23127119.705    94701688.53248
      2995.930  
  23362961.235   122773190.65747      3271.034    23362960.920    95667428.00545
      2548.859  
  20339075.934   106882567.61949     -1212.401    20339075.338    83285111.32249
      -944.730  
  24614809.378   129351707.89447       552.660    24614810.073   100793535.92645
       430.645  
  21629194.318   113662182.11049      2712.598    21629194.122    88567933.01546
      2113.706  
  19359411.284   103668766.47209      1266.070    19359414.379    80631276.37308
       984.722  
  20328266.351   108818795.19708     -2677.698    20328270.368    84636862.05608
     -2082.659  
  23553667.822   125819462.91505      1753.644           0.000           0.0000 
         0.000  
  21574144.544   115164253.25807     -3780.804    21574150.233    89572215.05207
     -2940.628  
  22675892.517   121215635.87606      3997.605    22675898.742    94278860.12206
      3109.249  
  19217621.839   102801307.03506      -594.387    19217624.737    79956588.17607
      -462.305  
 20 10 01 04 01  5.0000000  0 13G29G 2G15G18G 5G 7G13R 4R 3R12R18R 5
                                R19
  21109511.266   110931229.77149      -557.011    21109511.184    86439916.19549
      -434.035  
  22418267.050   117808785.24048     -2377.956    22418264.775    91799043.86945
     -1852.956  
  23123460.354   121514619.06746      3843.772    23123461.740    94686709.96348
      2995.148  
  23359849.215   122756836.56947      3270.710    23359848.734    95654684.56145
      2548.605  
  20340230.283   106888633.73549     -1214.215    20340229.666    83289838.16749
      -946.141  
  24614284.742   129348950.44747       550.516    24614285.488   100791387.27545
       428.973  
  21626614.275   113648624.11149      2710.573    21626614.054    88557368.34946
      2112.137  
  19358230.488   103662443.61209      1262.901    19358233.593    80626358.59608
       982.258  
  20330768.289   108832188.17108     -2679.640    20330772.136    84647278.80908
     -2084.167  
  23552027.744   125810700.53605      1751.507           0.000           0.0000 
         0.000  
  21577686.396   115183160.72007     -3782.542    21577692.047    89586920.84407
     -2941.980  
  22672153.526   121195649.98205      3996.276    22672159.966    94263315.53006
      3108.206  
  19218178.916   102804287.86506      -598.245    19218181.912    79958906.60007
      -465.301  
 20 10 01 04 01 10.0000000  0 13G29G 2G15G18G 5G 7G13R 4R 3R12R18R 5
                                R19
  21110043.308   110934025.67249      -561.104    21110043.043    86442094.81949
      -437.227  
  22420530.468   117820679.73948     -2379.926    22420528.351    91808312.30346
     -1854.491  
  23119803.692   121495403.17646      3842.179    23119805.205    94671736.56248
      2993.909  
  23356737.925   122740486.79147      3269.602    23356737.547    95641944.46045
      2547.738  
  20341387.094   106894712.06749     -1216.815    20341386.183    83294574.53449
      -948.168  
  24613762.796   129346207.72947       546.984    24613763.566   100789250.09045
       426.223  
  21624036.686   113635079.57348      2707.562    21624036.708    88546814.17546
      2109.789  
  19357053.275   103656139.81809      1258.715    19357056.411    80621455.64508
       979.000  
  20333272.645   108845594.52908     -2682.625    20333276.534    84657705.97608
     -2086.488  
  23550390.884   125801957.40904      1747.023           0.000           0.0000 
         0.000  
  21581230.535   115202079.44607     -3785.124    21581236.324    89601635.39507
     -2943.987  
  22668416.133   121175671.72505      3994.976    22668422.693    94247776.90806
      3107.202  
  19218740.323   102807290.14106      -602.363    19218743.178    79961241.70307
      -468.508  
 20 10 01 04 01 15.0000000  0 13G29G 2G15G18G 5G 7G13R 4R 3R12R18R 5
                                R19
  21110578.970   110936840.30949      -564.723    21110578.796    86444288.04549
      -440.043  
  22422795.749   117832583.31048     -2381.581    22422793.266    91817587.81446
     -1855.776  
  23116148.430   121476194.17846      3840.780    23116149.879    94656768.52248
      2992.816  
  23353627.566   122724141.49347      3268.445    23353627.107    95629207.88245
      2546.839  
  20342545.986   106900802.74049     -1219.300    20342545.152    83299320.50849
      -950.108  
  24613243.711   129343479.88647       544.077    24613244.277   100787124.50245
       423.953  
  21621461.770   113621548.67149      2704.949    21621461.749    88536270.61746
      2107.749  
  19355879.796   103649855.23209      1254.913    19355882.839    80616567.63508
       976.069  
  20335779.674   108859014.28908     -2685.215    20335783.569    84668143.55808
     -2088.503  
  23548757.475   125793233.97205      1742.558           0.000           0.0000 
         0.000  
  21584776.732   115221009.66107     -3786.836    21584782.611    89616358.88507
     -2945.320  
  22664680.381   121155701.40006      3993.468    22664687.030    94232244.48206
      3106.034  
  19219305.474   102810313.84906      -607.234    19219308.519    79963593.47807
      -472.292  
 20 10 01 04 01 20.0000000  0 14G29G 2G15G18G 5G30G 7G13R 4R 3R12R18
                                R 5R19
  21111118.070   110939673.30249      -568.104    21111117.706    86446495.57249
      -442.680  
  22425062.534   117844495.59448     -2382.918    22425060.169    91826870.12445
     -1856.820  
  23112494.333   121456991.61247      3840.124    23112495.803    94641805.47048
      2992.301  
  23350517.942   122707800.34147      3267.789    23350517.655    95616474.54145
      2546.328  
  20343707.354   106906905.39849     -1221.469    20343706.344    83304075.83049
      -951.792  
  24416520.983   128309682.03515      1935.831           0.000           0.0000 
         0.000  
  24612727.441   129340766.52547       541.586    24612728.079   100785010.19545
       422.015  
  21618889.529   113608031.01649      2702.620    21618889.456    88525737.38046
      2105.933  
  19354709.659   103643589.48209      1251.660    19354712.846    80611694.27808
       973.512  
  20338289.098   108872447.24708     -2687.526    20338293.040    84678591.41208
     -2090.305  
  23547128.073   125784529.65205      1739.147           0.000           0.0000 
         0.000  
  21588324.937   115239950.91007     -3789.234    21588331.092    89631090.98007
     -2947.184  
  22660945.857   121135738.60005      3991.652    22660952.472    94216717.86706
      3104.620  
  19219874.652   102813358.59906      -610.859    19219877.672    79965961.61607
      -475.116  
 20 10 01 04 01 25.0000000  0 14G29G 2G15G18G 5G30G 7G13R 4R 3R12R18
                                R 5R19
  21111660.205   110942522.71149      -571.668    21111659.779    86448715.89649
      -445.456  
  22427330.587   117856414.66748     -2384.723    22427327.995    91836157.71145
     -1858.227  
  23108841.126   121437793.62746      3838.715    23108842.750    94626846.04748
      2991.210  
  23347408.791   122691461.35947      3267.203    23347408.476    95603742.84946
      2545.870  
  20344870.599   106913018.13449     -1223.773    20344869.742    83308839.00049
      -953.594  
  24414681.002   128300008.33745      1933.742    24414677.439    99974026.61953
      1506.819  
  24612213.515   129338065.79647       538.652    24612214.045   100782905.71945
       419.726  
  21616319.225   113594524.66449      2699.949    21616319.132    88515212.95946
      2103.855  
  19353542.697   103637340.67409      1247.878    19353545.970    80606834.09508
       970.574  
  20340800.619   108885891.33408     -2690.183    20340804.373    84689047.92308
     -2092.366  
  23545501.871   125775842.68205      1735.141           0.000           0.0000 
         0.000  
  21591875.097   115258901.34307     -3791.171    21591881.473    89645830.18807
     -2948.691  
  22657212.356   121115781.33506      3990.223    22657219.228    94201195.52806
      3103.499  
  19220447.509   102816422.59306      -614.613    19220450.454    79968344.72307
      -478.031  
 20 10 01 04 01 30.0000000  0 14G29G 2G15G18G 5G30G 7G13R 4R 3R12R18
                                R 5R19
  21112205.974   110945390.49349      -575.297    21112205.529    86450950.52549
      -448.289  
  22429600.407   117868342.43548     -2386.625    22429597.813    91845452.04945
     -1859.710  
  23105189.278   121418602.13047      3837.937    23105190.549    94611891.64748
      2990.602  
  23344300.376   122675126.52747      3266.367    23344300.274    95591014.40645
      2545.223  
  20346035.943   106919142.86949     -1226.058    20346035.094    83313611.51649
      -955.374  
  24412842.203   128290345.97644      1931.386    24412839.876    99966497.51341
      1504.960  
  24611702.413   129335379.59047       535.991    24611702.852   100780812.59245
       417.651  
  21613751.548   113581031.62149      2697.266    21613751.468    88504698.89846
      2101.761  
  19352379.297   103631110.69109      1244.194    19352382.460    80601988.55508
       967.706  
  20343314.542   108899348.49708     -2692.784    20343318.330    84699514.60808
     -2094.387  
  23543879.238   125767174.80205      1731.961           0.000           0.0000 
         0.000  
  21595427.133   115277862.88107     -3793.344    21595433.756    89660578.03907
     -2950.382  
  22653480.256   121095831.50006      3989.347    22653487.422    94185679.01206
      3102.828  
  19221024.224   102819507.75406      -619.199    19221027.297    79970744.29207
      -481.601  
 20 10 01 04 01 35.0000000  0 14G29G 2G15G18G 5G30G 7G13R 4R 3R12R18
                                R 5R19
  21112755.000   110948275.39549      -578.448    21112754.453    86453198.49549
      -450.741  
  22431871.523   117880277.60548     -2387.672    22431868.951    91854752.19545
     -1860.522  
  23101538.162   121399415.95446      3836.879    23101539.672    94596941.35148
      2989.770  
  23341192.473   122658794.57347      3266.086    23341192.488    95578288.22845
      2545.003  
  20347203.581   106925278.28449     -1227.952    20347202.655    83318392.36149
      -956.852  
  24411005.212   128280693.77745      1929.675    24411003.066    99958976.30041
      1503.632  
  24611193.790   129332706.69847       533.617    24611194.202   100778729.82045
       415.805  
  21611186.163   113567550.61849      2695.304    21611186.286    88494194.22146
      2100.233  
  19351219.225   103624898.37109      1240.866    19351222.317    80597156.75508
       965.117  
  20345830.670   108912817.46708     -2694.969    20345834.422    84709990.46608
     -2096.090  
  23542260.027   125758525.01705      1728.394           0.000           0.0000 
         0.000  
  21598981.319   115296834.14907     -3795.063    21598987.701    89675333.48007
     -2951.714  
  22649749.482   121075888.06206      3988.082    22649756.490    94170167.44306
      3101.839  
  19221604.669   102822612.77406      -622.987    19221607.739    79973159.30207
      -484.546  
 20 10 01 04 01 40.0000000  0 14G29G 2G15G18G 5G30G 7G13R 4R 3R12R18
                                R 5R19
  21113306.882   110951175.99549      -582.113    21113306.272    86455458.69749
      -453.597  
  22434143.788   117892218.84648     -2389.246    22434141.256    91864057.06245
     -1861.749  
  23097888.010   121380233.71246      3835.371    23097889.435    94581994.14848
      2988.602  
  23338084.951   122642464.21747      3265.503    23338085.032    95565563.28046
      2544.547  
  20348372.936   106931423.10149     -1230.546    20348371.960    83323180.53049
      -958.870  
  24409169.752   128271050.21346      1926.940    24409167.148    99951462.05643
      1501.531  
  24610687.456   129330045.67547       530.504    24610688.100   100776656.29145
       413.374  
  21608622.865   113554080.33449      2692.569    21608622.826    88483697.90346
      2098.104  
  19350062.153   103618702.20809      1237.140    19350065.317    80592337.51508
       962.219  
  20348348.670   108926296.73708     -2697.270    20348352.509    84720474.34608
     -2097.874  
  23540643.809   125749891.90905      1724.370           0.000           0.0000 
         0.000  
  21602536.750   115315813.78507     -3797.222    21602543.295    89690095.42107
     -2953.395  
  22646019.487   121055949.47304      3987.234    22646026.475    94154659.65206
      3101.180  
  19222188.672   102825736.35606      -626.508    19222191.601    79975588.76007
      -487.285  
 20 10 01 04 01 45.0000000  0 14G29G 2G15G18G 5G30G 7G13R 4R 3R12R18
                                R 5R19
  21113862.575   110954095.45949      -585.688    21113861.815    86457733.61549
      -456.379  
  22436418.002   117904169.26648     -2390.733    22436415.340    91873369.08746
     -1862.909  
  23094239.063   121361058.49146      3833.890    23094240.410    94567052.50048
      2987.456  
  23334978.204   122626138.46546      3264.816    23334978.210    95552841.92345
      2544.008  
  20349544.568   106937580.38049     -1232.605    20349543.714    83327978.41649
      -960.476  
  24407337.318   128261418.58045      1924.812    24407333.571    99943956.80043
      1499.855  
  24610183.990   129327399.72247       527.784    24610184.669   100774594.51245
       411.257  
  21606062.003   113540623.88349      2690.124    21606062.255    88473212.35446
      2096.199  
  19348908.620   103612525.52909      1233.554    19348911.888    80587533.43208
       959.430  
  20350869.301   108939789.62008     -2699.863    20350872.972    84730968.81008
     -2099.897  
  23539031.514   125741278.41405      1720.730           0.000           0.0000 
         0.000  
  21606094.474   115334804.93707     -3799.313    21606101.021    89704866.31107
     -2955.022  
  22642290.911   121036018.97406      3985.081    22642298.067    94139158.13906
      3099.500  
  19222776.557   102828881.51905      -630.984    19222779.493    79978034.98707
      -490.769  
 20 10 01 04 01 50.0000000  0 14G29G 2G15G18G 5G30G 7G13R 4R 3R12R18
                                R 5R19
  21114421.886   110957034.50349      -589.604    21114421.054    86460023.76249
      -459.438  
  22438693.979   117916129.63548     -2392.823    22438691.080    91882688.80045
     -1864.551  
  23090591.693   121341891.11846      3832.840    23090592.839    94552116.87148
      2986.632  
  23331872.586   122609818.17547      3263.969    23331872.690    95540124.80545
      2543.347  
  20350718.704   106943750.81949     -1235.206    20350717.901    83332786.54749
      -962.503  
  24405506.545   128251799.55204      1923.047           0.000           0.0000 
         0.000  
  24609683.565   129324769.53547       524.624    24609684.333   100772545.03245
       408.797  
  21603504.193   113527182.03249      2687.108    21603504.394    88462738.18846
      2093.851  
  19347758.793   103606368.97709      1229.483    19347762.339    80582745.00708
       956.265  
  20353392.530   108953296.81908     -2702.781    20353396.221    84741474.39808
     -2102.167  
  23537422.978   125732685.56205      1716.535           0.000           0.0000 
         0.000  
  21609654.628   115353808.34508     -3801.726    21609660.960    89719646.72907
     -2956.901  
  22638564.312   121016097.16806      3983.905    22638571.186    94123663.40906
      3098.593  
  19223368.760   102832049.06306      -635.563    19223371.746    79980498.63607
      -494.327  
 20 10 01 04 01 55.0000000  0 14G29G 2G15G18G 5G30G 7G13R 4R 3R12R18
                                R 5R19
  21114984.622   110959991.98249      -592.929    21114983.951    86462328.29449
      -462.026  
  22440971.648   117928098.67648     -2394.258    22440968.850    91892015.35746
     -1865.652  
  23086945.458   121322730.40045      3831.640    23086946.744    94537186.44048
      2985.694  
  23328767.741   122593502.13747      3263.163    23328768.134    95527411.01546
      2542.726  
  20351895.299   106949933.30549     -1237.429    20351894.572    83337604.06749
      -964.230  
  24403677.851   128242191.89044      1920.766    24403674.106    99928989.96754
      1496.699  
  24609185.806   129322153.92247       521.918    24609186.431   100770506.89445
       406.687  
  21600948.667   113513753.55748      2684.729    21600948.948    88452274.43746
      2091.992  
  19346612.696   103600231.30209      1226.008    19346616.156    80577971.25908
       953.562  
  20355918.381   108966817.05508     -2705.054    20355921.885    84751990.14208
     -2103.930  
  23535818.132   125724112.04005      1712.961           0.000           0.0000 
         0.000  
  21613216.664   115372822.86007     -3803.718    21613223.070    89734435.81807
     -2958.449  
  22634838.918   120996183.08205      3982.031    22634845.750    94108174.69306
      3097.137  
  19223964.889   102835237.67006      -639.438    19223967.821    79982978.66007
      -497.343  
 20 10 01 04 02  0.0000000  0 13G29G 2G15G18G 5G 7G13R 4R 3R12R18R 5
                                R19
  21115550.568   110962965.30149      -596.418    21115549.770    86464645.16449
      -464.746  
  22443250.483   117940073.88348     -2395.757    22443247.616    91901346.67946
     -1866.828  
  23083299.905   121303573.70145      3831.086    23083301.328    94522259.16249
      2985.258  
  23325663.047   122577187.73247      3262.766    23325663.627    95514698.51345
      2542.414  
  20353073.636   106956125.19549     -1239.460    20353072.710    83342428.91149
      -965.815  
  24608690.495   129319550.32647       519.402    24608691.087   100768478.10844
       404.727  
  21598395.256   113500335.91749      2682.266    21598395.717    88441819.13346
      2090.078  
  19345469.422   103594109.90209      1222.496    19345473.104    80573210.17308
       950.828  
  20358445.910   108980347.74008     -2707.281    20358449.494    84762514.01107
     -2105.667  
  23534216.348   125715555.22305      1709.715           0.000           0.0000 
         0.000  
  21616780.375   115391845.75107     -3805.559    21616786.885    89749231.36407
     -2959.886  
  22631114.352   120976273.98405      3981.253    22631121.259    94092689.84006
      3096.531  
  19224564.472   102838444.97505      -643.332    19224567.514    79985473.23307
      -500.375  
 20 10 01 04 02  5.0000000  0 13G29G 2G15G18G 5G 7G13R 4R 3R12R18R 5
                                R19
  21116119.766   110965956.76849      -600.023    21116119.021    86466976.18349
      -467.555  
  22445531.006   117952057.54548     -2397.566    22445528.105    91910684.58646
     -1868.237  
  23079655.729   121284423.42945      3829.449    23079656.902    94507336.88048
      2983.987  
  23322559.277   122560877.37747      3261.695    23322560.022    95501989.14646
      2541.577  
  20354254.057   106962328.79049     -1241.688    20354253.285    83347262.88749
      -967.547  
  24608197.825   129316961.04547       516.488    24608198.280   100766460.48745
       402.457  
  21595844.552   113486931.43949      2679.676    21595844.942    88431374.10646
      2088.058  
  19344329.890   103588007.22709      1218.741    19344333.374    80568463.64608
       947.906  
  20360976.062   108993891.15508     -2709.870    20360979.263    84773047.74907
     -2107.684  
  23532618.155   125707017.49206      1706.104           0.000           0.0000 
         0.000  
  21620346.144   115410879.38407     -3807.930    21620352.585    89764035.29607
     -2961.727  
  22627391.322   120956372.41105      3980.093    22627398.199    94077210.84206
      3095.624  
  19225168.218   102841673.20305      -647.503    19225171.087    79987984.07707
      -503.617  
 20 10 01 04 02 10.0000000  0 13G29G 2G15G18G 5G 7G13R 4R 3R12R18R 5
                                R19
  21116692.558   110968966.34249      -603.391    21116691.667    86469321.29449
      -470.180  
  22447813.053   117964049.69148     -2398.917    22447810.319    91920029.12346
     -1869.285  
  23076012.717   121265279.48645      3828.855    23076013.919    94492419.47348
      2983.515  
  23319456.172   122544570.91947      3261.328    23319456.939    95489282.82146
      2541.292  
  20355436.931   106968544.14549     -1243.737    20355436.279    83352106.01649
      -969.151  
  24607707.773   129314386.11447       513.793    24607708.226   100764454.04744
       400.355  
  21593296.356   113473540.17049      2677.253    21593296.558    88420939.33446
      2086.168  
  19343193.728   103581923.19509      1215.413    19343197.215    80563731.61408
       945.315  
  20363508.452   109007447.32708     -2712.039    20363511.630    84783591.46107
     -2109.363  
  23531023.393   125698498.93706      1702.651           0.000           0.0000 
         0.000  
  21623913.740   115429923.85507     -3809.430    21623920.130    89778847.66707
     -2962.895  
  22623669.793   120936478.05205      3978.727    22623676.575    94061737.43806
      3094.563  
  19225775.526   102844922.32605      -651.430    19225778.507    79990511.17407
      -506.667  
 20 10 01 04 02 15.0000000  0 13G29G 2G15G18G 5G 7G13R 4R 3R12R18R 5
                                R19
  21117268.399   110971992.15549      -607.211    21117267.507    86471679.07349
      -473.156  
  22450096.393   117976048.31748     -2400.691    22450093.464    91929378.68845
     -1870.672  
  23072370.657   121246140.02145      3827.124    23072371.690    94477505.68748
      2982.187  
  23316353.637   122528266.61047      3260.270    23316354.571    95476578.17546
      2540.468  
  20356621.519   106974769.29249     -1246.413    20356620.754    83356956.77649
      -971.233  
  24607220.002   129311823.64447       510.937    24607220.529   100762457.35345
       398.128  
  21590750.239   113460160.14149      2674.577    21590750.377    88410513.33746
      2084.082  
  19342060.542   103575855.91109      1211.551    19342064.218    80559012.62908
       942.300  
  20366042.913   109021014.31108     -2714.937    20366045.977    84794143.53708
     -2111.620  
  23529432.095   125689997.57105      1698.461           0.000           0.0000 
         0.000  
  21627483.207   115448977.10207     -3811.636    21627489.413    89793666.85207
     -2964.609  
  22619949.210   120916589.24505      3977.257    22619955.986    94046268.43506
      3093.425  
  19226386.314   102848190.50505      -655.582    19226389.497    79993053.09607
      -509.898  
 20 10 01 04 02 20.0000000  0 13G29G 2G15G18G 5G 7G13R 4R 3R12R18R 5
                                R19
  21117847.804   110975037.85449      -610.952    21117847.016    86474052.34849
      -476.069  
  22452381.645   117988057.17848     -2402.516    22452378.859    91938736.21646
     -1872.097  
  23068729.868   121227008.79846      3825.390    23068731.234    94462598.25248
      2980.823  
  23313252.206   122511968.07447      3259.081    23313253.161    95463878.01245
      2539.539  
  20357808.589   106981007.91449     -1248.914    20357808.153    83361818.03949
      -973.184  
  24606735.459   129309277.25847       507.723    24606735.958   100760473.14845
       395.629  
  21588206.963   113446795.01249      2671.824    21588206.914    88400098.93846
      2081.937  
  19340931.503   103569809.11409      1207.563    19340935.066    80554309.56208
       939.210  
  20368579.922   109034595.83708     -2717.628    20368582.918    84804706.94907
     -2113.711  
  23527844.480   125681517.09705      1694.523           0.000           0.0000 
         0.000  
  21631054.715   115468042.83507     -3814.171    21631061.137    89808495.76507
     -2966.581  
  22616230.272   120896709.61106      3975.066    22616237.030    94030806.46806
      3091.718  
  19227001.528   102851481.45305      -660.487    19227004.576    79995612.71607
      -513.718  
 20 10 01 04 02 25.0000000  0 13G29G 2G15G18G 5G 7G13R 4R 3R12R18R 5
                                R19
  21118430.674   110978100.60549      -614.316    21118429.690    86476438.89449
      -478.690  
  22454668.220   118000073.36948     -2403.972    22454665.389    91948099.48646
     -1873.229  
  23065090.286   121207882.91446      3824.332    23065091.384    94447694.92548
      2979.996  
  23310151.182   122495672.42847      3258.667    23310152.205    95451180.11646
      2539.223  
  20358997.963   106987257.18049     -1251.104    20358997.241    83366687.59449
      -974.890  
  24606253.420   129306744.12847       505.155    24606253.795   100758499.33544
       393.636  
  21585665.818   113433441.98749      2669.226    21585665.893    88389693.97746
      2079.913  
  19339805.484   103563779.80409      1204.039    19339809.231    80549620.09308
       936.472  
  20371119.227   109048188.96508     -2719.980    20371122.238    84815279.39207
     -2115.539  
  23526260.154   125673054.66504      1690.409           0.000           0.0000 
         0.000  
  21634628.252   115487118.12107     -3816.081    21634634.760    89823332.09207
     -2968.066  
  22612512.653   120876836.24306      3974.249    22612519.263    94015349.38506
      3091.078  
  19227620.437   102854792.17005      -664.159    19227623.531    79998187.71407
      -516.574  
 20 10 01 04 02 30.0000000  0 13G29G 2G15G18G 5G 7G13R 4R 3R12R18R 5
                                R19
  21119016.958   110981181.23849      -617.878    21119016.020    86478839.38149
      -481.469  
  22456956.327   118012097.79748     -2405.617    22456953.591    91957469.16545
     -1874.511  
  23061452.051   121188763.20246      3823.371    23061453.155    94432796.42349
      2979.245  
  23307050.866   122479380.59247      3257.758    23307052.056    95438485.17846
      2538.507  
  20360189.234   106993517.88549     -1253.132    20360188.751    83371566.06449
      -976.473  
  24605774.048   129304225.10547       502.433    24605774.262   100756536.41645
       391.500  
  21583127.310   113420101.94549      2666.930    21583127.559    88379299.14046
      2078.125  
  19338682.982   103557768.91909      1200.449    19338686.530    80544944.95808
       933.680  
  20373660.942   109061794.52608     -2722.320    20373663.693    84825861.47307
     -2117.363  
  23524679.290   125664611.03204      1686.828           0.000           0.0000 
         0.000  
  21638203.547   115506203.91207     -3818.288    21638210.099    89838176.60607
     -2969.781  
  22608796.369   120856970.07706      3972.645    22608802.732    93999897.93906
      3089.836  
  19228243.213   102858123.66405      -668.238    19228246.288    80000778.87107
      -519.746  
 20 10 01 04 02 35.0000000  0 13G29G 2G15G18G 5G 7G13R 4R 3R12R18R 5
                                R19
  21119606.483   110984279.96149      -621.237    21119605.530    86481253.98149
      -484.085  
  22459246.133   118024130.58948     -2407.089    22459243.278    91966845.33446
     -1875.664  
  23057814.758   121169649.88246      3821.991    23057816.114    94417903.00448
      2978.179  
  23303951.419   122463092.73347      3257.550    23303952.577    95425793.36146
      2538.351  
  20361382.984   106999790.20649     -1255.281    20361382.205    83376453.58949
      -978.144  
  24605297.267   129301720.57247       499.909    24605297.578   100754584.84944
       389.535  
  21580591.443   113406775.09249      2664.386    21580591.452    88368914.58346
      2076.144  
  19337564.019   103551776.67508      1196.933    19337567.644    80540284.33608
       930.949  
  20376204.893   109075412.77708     -2724.644    20376207.615    84836453.45007
     -2119.171  
  23523101.823   125656186.77204      1682.886           0.000           0.0000 
         0.000  
  21641781.031   115525300.35807     -3819.918    21641787.686    89853029.38907
     -2971.051  
  22605081.481   120837111.33806      3970.866    22605087.893    93984452.24706
      3088.448  
  19228870.097   102861476.00905      -671.905    19228873.124    80003386.25307
      -522.597  
 20 10 01 04 02 40.0000000  0 13G29G 2G15G18G 5G 7G13R 4R 3R12R18R 5
                                R19
  21120199.441   110987395.13549      -624.796    21120198.479    86483681.38249
      -486.859  
  22461537.295   118036170.16348     -2408.792    22461534.171    91976226.81645
     -1876.983  
  23054178.639   121150541.38346      3821.183    23054179.755    94403013.25548
      2977.546  
  23300852.525   122446807.28047      3256.477    23300853.558    95413103.39546
      2537.516  
  20362578.429   107006072.56349     -1257.621    20362577.622    83381348.93649
      -979.965  
  24604822.974   129299228.70847       496.910    24604823.646   100752643.11444
       387.199  
  21578057.460   113393459.82849      2661.895    21578057.800    88358539.04446
      2074.198  
  19336448.215   103545801.43909      1193.276    19336451.623    80535636.93108
       928.102  
  20378750.921   109089041.96008     -2727.016    20378753.453    84847053.93307
     -2121.011  
  23521527.696   125647779.84704      1678.937           0.000           0.0000 
         0.000  
  21645360.095   115544405.74007     -3822.210    21645366.991    89867889.12307
     -2972.835  
  22601367.668   120817258.28806      3970.188    22601374.105    93969011.01706
      3087.925  
  19229500.210   102864847.65405      -676.128    19229503.318    80006008.63507
      -525.883  
 20 10 01 04 02 45.0000000  0 13G29G 2G15G18G 5G 7G13R 4R 3R12R18R 5
                                R19
  21120795.244   110990526.35049      -628.441    21120794.361    86486121.29649
      -489.695  
  22463829.595   118048216.09548     -2410.336    22463826.578    91985613.24445
     -1878.190  
  23050543.244   121131437.31646      3820.069    23050544.202    94388126.99048
      2976.680  
  23297753.815   122430523.76148      3256.065    23297754.796    95400414.95146
      2537.195  
  20363775.781   107012364.53449     -1259.871    20363774.996    83386251.76449
      -981.723  
  24604351.159   129296749.08247       494.237    24604351.441   100750710.92044
       385.113  
  21575525.763   113380155.73449      2658.984    21575526.080    88348172.23246
      2071.938  
  19335335.406   103539842.80009      1189.457    19335338.953    80531002.41908
       925.129  
  20381299.036   109102681.65608     -2729.757    20381301.479    84857662.55907
     -2123.148  
  23519957.025   125639389.97805      1675.715           0.000           0.0000 
         0.000  
  21648940.767   115563519.70407     -3824.316    21648947.725    89882755.53507
     -2974.472  
  22597654.754   120797410.66406      3968.870    22597660.968    93953573.99706
      3086.901  
  19230134.082   102868238.07105      -679.918    19230137.075    80008645.62207
      -528.827  
 20 10 01 04 02 50.0000000  0 13G29G 2G15G18G 5G 7G13R 4R 3R12R18R 5
                                R19
  21121394.820   110993677.30149      -631.855    21121393.903    86488576.57149
      -492.359  
  22466123.603   118060272.00048     -2411.937    22466120.674    91995007.46446
     -1879.433  
  23046909.475   121112341.35746      3818.890    23046910.563    94373247.00449
      2975.753  
  23294656.239   122414245.89047      3255.402    23294657.199    95387730.90346
      2536.675  
  20364975.582   107018669.78249     -1261.875    20364974.808    83391164.94849
      -983.277  
  24603882.335   129294285.42847       491.363    24603882.862   100748791.19744
       382.878  
  21572996.909   113366866.45249      2656.687    21572997.025    88337816.95546
      2070.145  
  19334226.513   103533904.38709      1185.862    19334229.886    80526383.66008
       922.335  
  20383849.769   109116335.58708     -2731.820    20383852.190    84868282.30307
     -2124.750  
  23518390.352   125631020.99905      1672.086           0.000           0.0000 
         0.000  
  21652523.714   115582645.96907     -3826.429    21652530.796    89897631.49407
     -2976.116  
  22593943.516   120777572.09706      3967.195    22593950.075    93938144.02206
      3085.597  
  19230772.014   102871651.10505      -685.027    19230775.127    80011300.19907
      -532.805  
 20 10 01 04 02 55.0000000  0 13G29G 2G15G18G 5G 7G13R 4R 3R12R18R 5
                                R19
  21121997.477   110996844.65749      -635.218    21121996.644    86491044.63249
      -494.980  
  22468419.122   118072334.65848     -2413.156    22468416.043    92004406.93046
     -1880.387  
  23043276.602   121093250.10546      3817.882    23043277.459    94358370.70348
      2974.973  
  23291559.238   122397970.38447      3254.886    23291560.162    95375048.67946
      2536.270  
  20366177.291   107024984.99349     -1264.104    20366176.573    83396085.88149
      -985.020  
  24603415.987   129291834.41047       488.944    24603416.523   100746881.30344
       380.995  
  21570470.175   113353588.75249      2654.301    21570470.430    88327470.68946
      2068.280  
  19333120.627   103527982.91409      1182.573    19333124.191    80521778.07508
       919.781  
  20386402.508   109130000.47208     -2734.222    20386404.864    84878910.52908
     -2126.621  
  23516827.058   125622669.47804      1668.926           0.000           0.0000 
         0.000  
  21656108.549   115601781.21407     -3828.012    21656115.541    89912514.46907
     -2977.348  
  22590233.344   120757739.22806      3965.789    22590239.857    93922718.45006
      3084.504  
  19231413.578   102875083.26205      -688.371    19231416.573    80013969.64807
      -535.402  
 20 10 01 04 03  0.0000000  0 13G29G 2G15G18G 5G 7G13R 4R 3R12R18R 5
                                R19
  21122603.741   111000030.28649      -638.894    21122602.805    86493526.94549
      -497.840  
  22470716.153   118084405.92048     -2415.059    22470713.340    92013813.10346
     -1881.867  
  23039644.785   121074165.56246      3816.241    23039645.856    94343499.64948
      2973.698  
  23288462.989   122381699.20348      3253.948    23288463.835    95362369.83546
      2535.538  
  20367381.470   107031312.02849     -1266.452    20367380.791    83401016.04749
      -986.847  
  24602952.366   129289397.97447       485.719    24602952.847   100744982.78544
       378.472  
  21567946.109   113340324.50648      2651.547    21567946.240    88317134.92846
      2066.140  
  19332018.456   103522080.37409      1178.695    19332021.851    80517187.21008
       916.758  
  20388957.720   109143678.18809     -2736.651    20388959.934    84889548.73508
     -2128.515  
  23515267.367   125614337.50905      1665.007           0.000           0.0000 
         0.000  
  21659695.253   115620927.25507     -3830.059    21659702.210    89927405.80407
     -2978.937  
  22586524.728   120737914.11106      3964.604    22586531.129    93907298.94706
      3083.585  
  19232058.942   102878536.49206      -692.796    19232062.134    80016655.49807
      -538.844  
 20 10 01 04 03  5.0000000  0 13G29G 2G15G18G 5G 7G13R 4R 3R12R18R 5
                                R19
  21123213.240   111003233.28649      -641.940    21123212.399    86496022.78649
      -500.219  
  22473014.712   118096484.83548     -2416.241    22473011.890    92023225.21846
     -1882.792  
  23036014.209   121055086.81846      3815.906    23036015.485    94328633.10348
      2973.433  
  23285367.336   122365431.25148      3253.769    23285368.142    95349693.51846
      2535.406  
  20368587.349   107037649.96549     -1268.227    20368586.713    83405954.69049
      -988.229  
  24602491.644   129286975.11047       483.457    24602491.911   100743094.82944
       376.714  
  21565424.305   113327072.80649      2649.476    21565424.512    88306808.93446
      2064.522  
  19330919.518   103516195.63909      1175.512    19330922.879    80512610.18908
       914.280  
  20391514.955   109157367.64308     -2738.660    20391517.391    84900196.09408
     -2130.070  
  23513711.047   125606023.96205      1661.815           0.000           0.0000 
         0.000  
  21663283.651   115640082.95907     -3831.683    21663290.794    89942304.68407
     -2980.199  
  22582817.142   120718095.75005      3963.558    22582823.867    93891884.66207
      3082.766  
  19232708.156   102882009.91205      -696.362    19232711.565    80019357.04307
      -541.620  
 20 10 01 04 03 10.0000000  0 13G29G 2G15G18G 5G 7G13R 4R 3R12R18R 5
                                R19
  21123825.566   111006451.51749      -645.573    21123824.928    86498530.49049
      -503.046  
  22475314.390   118108569.32048     -2417.784    22475311.407    92032641.69846
     -1883.992  
  23032384.287   121036011.82546      3814.038    23032385.601    94313769.46049
      2971.972  
  23282271.839   122349164.55448      3252.749    23282272.700    95337018.16945
      2534.608  
  20369795.119   107043996.68349     -1270.602    20369794.584    83410900.18949
      -990.082  
  24602032.741   129284563.78048       480.754    24602033.223   100741215.92444
       374.613  
  21562904.658   113313831.53349      2646.714    21562905.043    88296491.06846
      2062.371  
  19329823.549   103510326.74509      1171.750    19329826.786    80508045.49808
       911.358  
  20394074.073   109171066.74308     -2741.148    20394076.365    84910850.95808
     -2132.004  
  23512157.978   125597726.71405      1658.132           0.000           0.0000 
         0.000  
  21666873.755   115659246.45807     -3833.843    21666880.777    89957209.62207
     -2981.883  
  22579110.642   120698281.98006      3962.050    22579117.400    93876473.99506
      3081.597  
  19233360.868   102885501.41605      -700.949    19233364.135    80022072.64807
      -545.188  
 20 10 01 04 03 15.0000000  0 13G29G 2G15G18G 5G 7G13R 4R 3R12R18R 5
                                R19
  21124441.712   111009689.85549      -649.964    21124441.125    86501053.87049
      -506.469  
  22477616.016   118120664.19448     -2420.324    22477613.121    92042066.26945
     -1885.973  
  23028756.143   121016945.32845      3812.108    23028757.392    94298912.48948
      2970.477  
  23279177.542   122332903.94247      3251.250    23279178.227    95324347.57246
      2533.440  
  20371005.565   107050357.02449     -1273.757    20371004.892    83415856.29149
      -992.542  
  24601577.163   129282168.85348       476.956    24601577.819   100739349.71344
       371.648  
  21560387.888   113300605.53649      2643.315    21560388.257    88286185.09346
      2059.726  
  19328731.514   103504478.47909      1167.120    19328734.529    80503496.85108
       907.762  
  20396635.994   109184780.52708     -2744.480    20396638.441    84921517.20708
     -2134.604  
  23510608.874   125589450.80405      1652.781           0.000           0.0000 
         0.000  
  21670466.038   115678422.50007     -3836.496    21670473.137    89972124.30407
     -2983.948  
  22575405.918   120678477.72706      3959.516    22575412.632    93861070.70706
      3079.628  
  19234017.776   102889015.80906      -705.766    19234021.280    80024806.07107
      -548.933  
 20 10 01 04 03 20.0000000  0 13G29G 2G15G18G 5G 7G13R 4R 3R12R18R 5
                                R19
  21125061.467   111012946.97349      -652.855    21125060.987    86503591.88449
      -508.718  
  22479919.364   118132768.15148     -2421.155    22479916.264    92051497.91445
     -1886.621  
  23025129.362   120997886.02746      3811.823    23025130.621    94284061.09448
      2970.253  
  23276084.326   122316648.13847      3251.230    23276084.794    95311680.70045
      2533.422  
  20372218.067   107056729.76649     -1275.257    20372217.651    83420822.05749
      -993.711  
  24601124.594   129279789.02648       475.140    24601125.230   100737495.31243
       370.238  
  21557873.781   113287393.56349      2641.594    21557874.187    88275890.05446
      2058.382  
  19327643.004   103498649.62109      1164.453    19327646.091    80498963.29508
       905.688  
  20399200.358   109198507.55109     -2746.164    20399202.687    84932193.77308
     -2135.910  
  23509063.491   125581194.92805      1649.921           0.000           0.0000 
         0.000  
  21674060.422   115697609.84607     -3838.180    21674067.345    89987047.78807
     -2985.254  
  22571702.648   120658681.78706      3958.870    22571709.342    93845673.87606
      3079.120  
  19234678.894   102892551.99606      -709.132    19234682.272    80027556.43407
      -551.551  
 20 10 01 04 03 25.0000000  0 14G29G 2G15G18G 5G 7G13R 4R 3R12R18R 5
                                R20R19
  21125684.045   111016218.95449      -656.168    21125683.744    86506141.47049
      -511.305  
  22482223.637   118144877.27948     -2422.684    22482220.590    92060933.58746
     -1887.808  
  23021503.095   120978830.15046      3810.425    23021504.425    94269212.36448
      2969.160  
  23272991.061   122300393.20647      3250.405    23272991.643    95299014.54645
      2532.784  
  20373432.279   107063110.96449     -1277.496    20373431.884    83425794.41649
      -995.456  
  24600673.943   129277420.40448       472.269    24600674.463   100735649.65443
       368.000  
  21555361.594   113274191.68349      2638.999    21555361.810    88265602.88646
      2056.362  
  19326557.488   103492836.19709      1160.831    19326560.304    80494441.74808
       902.871  
  20401766.416   109212243.76808     -2748.559    20401768.884    84942877.49208
     -2137.773  
  23507520.828   125572954.95405      1645.995           0.000           0.0000 
         0.000  
  21677656.302   115716804.48807     -3840.038    21677662.971    90001976.96407
     -2986.694  
  22568000.384   120638890.12206      3957.547    22568006.978    93830280.36606
      3078.094  
  21534280.452   115153474.76314      3542.078    21534287.495    89563843.10817
      2754.945  
  19235343.306   102896105.77905      -713.101    19235346.643    80030320.48207
      -554.637  
 20 10 01 04 03 30.0000000  0 14G29G 2G15G18G 5G 7G13R 4R 3R12R18R 5
                                R20R19
  21126310.269   111019509.34649      -659.629    21126309.902    86508705.42149
      -513.995  
  22484529.641   118156995.13148     -2424.104    22484526.676    92070376.09346
     -1888.914  
  23017878.250   120959781.14546      3809.367    23017879.476    94254368.99249
      2968.340  
  23269898.629   122284142.70948      3250.038    23269899.084    95286351.81245
      2532.491  
  20374648.975   107069504.08549     -1279.418    20374648.559    83430776.06349
      -996.953  
  24600226.101   129275066.44747       469.863    24600226.678   100733815.36243
       366.120  
  21552852.041   113261003.48549      2636.640    21552852.304    88255326.37546
      2054.522  
  19325475.318   103487041.75809      1157.332    19325478.129    80489934.96308
       900.147  
  20404334.894   109225992.81208     -2750.870    20404337.482    84953571.17508
     -2139.570  
  23505981.963   125564734.67404      1642.554           0.000           0.0000 
         0.000  
  21681254.283   115736010.06907     -3841.980    21681260.772    90016914.64406
     -2988.207  
  22564299.337   120619106.28306      3956.499    22564305.806    93814892.96406
      3077.281  
  21530969.018   115135766.03804      3539.968    21530975.705    89550069.67107
      2753.308  
  19236011.482   102899680.85306      -716.867    19236015.102    80033101.10207
      -557.562  
 20 10 01 04 03 35.0000000  0 14G29G 2G15G18G 5G 7G13R 4R 3R12R18R 5
                                R20R19
  21126939.533   111022816.40049      -663.206    21126939.228    86511282.34249
      -516.785  
  22486836.772   118169119.94048     -2425.800    22486833.770    92079823.97546
     -1890.238  
  23014254.345   120940737.24147      3808.183    23014255.720    94239529.56848
      2967.414  
  23266806.747   122267894.88148      3249.105    23266807.307    95273691.15945
      2531.770  
  20375867.384   107075907.33749     -1282.039    20375866.950    83435765.60549
      -998.995  
  24599780.721   129272725.49047       466.925    24599781.048   100731991.26644
       363.844  
  21550344.754   113247827.19649      2633.897    21550344.985    88245059.13946
      2052.387  
  19324396.520   103481264.49809      1153.563    19324399.358    80485441.54608
       897.211  
  20406905.392   109239752.92308     -2753.414    20406908.024    84964273.48208
     -2141.547  
  23504446.608   125556532.20905      1638.769           0.000           0.0000 
         0.000  
  21684853.675   115755224.71207     -3843.926    21684860.257    90031859.34807
     -2989.726  
  22560599.482   120599328.53406      3954.844    22560605.987    93799510.28206
      3075.988  
  21527658.836   115118065.94303      3538.141    21527665.586    89536302.93407
      2751.886  
  19236683.592   102903275.28005      -720.780    19236686.890    80035896.75707
      -560.612  
 20 10 01 04 03 40.0000000  0 13G29G 2G15G18G 5G 7G13R 4R 3R12R18R 5
                                R19
  21127572.582   111026143.09449      -666.901    21127572.238    86513874.56849
      -519.668  
  22489145.996   118181254.68248     -2427.422    22489143.073    92089279.62346
     -1891.496  
  23010631.922   120921701.52847      3806.770    23010633.436    94224696.57449
      2966.316  
  23263715.974   122251652.73347      3248.145    23263716.299    95261034.96746
      2531.022  
  20377088.269   107082323.78849     -1284.230    20377088.029    83440765.43849
     -1000.703  
  24599338.383   129270400.45847       463.948    24599338.088   100730179.54643
       361.515  
  21547840.143   113234665.81549      2631.129    21547840.323    88234803.52946
      2050.230  
  19323321.478   103475507.54209      1149.777    19323324.195    80480963.90508
       894.266  
  20409478.759   109253527.04408     -2755.843    20409481.175    84974986.68608
     -2143.433  
  23502915.046   125548350.69004      1634.215           0.000           0.0000 
         0.000  
  21688455.519   115774451.41607     -3846.140    21688461.943    90046813.43807
     -2991.445  
  22556901.267   120579559.95406      3953.152    22556907.692    93784134.71706
      3074.671  
  19237359.698   102906892.21306      -725.304    19237362.993    80038709.93107
      -564.124  
 20 10 01 04 03 45.0000000  0 13G29G 2G15G18G 5G 7G13R 4R 3R12R18R 5
                                R19
  21128208.646   111029486.94749      -670.547    21128208.667    86516480.17049
      -522.508  
  22491456.544   118193396.91248     -2429.382    22491453.861    92098741.09846
     -1893.031  
  23007010.646   120902671.53547      3805.538    23007012.346    94209868.06848
      2965.362  
  23260625.723   122235413.82047      3247.288    23260626.331    95248381.28445
      2530.355  
  20378311.269   107088750.91549     -1286.608    20378311.057    83445773.59849
     -1002.559  
  24598898.452   129268088.97847       460.875    24598898.296   100728378.42244
       359.133  
  21545337.941   113221516.90749      2628.531    21545338.094    88224557.63046
      2048.207  
  19322249.762   103469768.33308      1145.906    19322252.688    80476500.08408
       891.261  
  20412053.931   109267312.79508     -2758.378    20412056.470    84985708.94108
     -2145.409  
  23501386.731   125540189.61615      1631.418    23501391.463    97642388.80514
      1268.879  
  21692059.026   115793687.68107     -3848.156    21692065.686    90061775.00607
     -2993.012  
  22553204.411   120559798.01606      3951.937    22553210.911    93768764.35407
      3073.737  
  19238039.637   102910529.39206      -729.604    19238042.933    80041538.85107
      -567.472  
 20 10 01 04 03 50.0000000  0 12G29G 2G15G18G 5G 7G13R 4R 3R18R 5R19
  21128848.334   111032848.99949      -674.156    21128848.249    86519099.96649
      -525.315  
  22493768.822   118205547.69948     -2430.918    22493766.183    92108209.23346
     -1894.227  
  23003390.765   120883648.33647      3803.934    23003392.199    94195044.76348
      2964.102  
  23257536.445   122219179.21348      3246.559    23257536.854    95235730.92145
      2529.780  
  20379536.571   107095189.79549     -1288.858    20379536.233    83450790.89349
     -1004.309  
  24598461.595   129265792.06047       458.073    24598461.104   100726588.59943
       356.941  
  21542838.449   113208381.58049      2625.729    21542838.515    88214322.30546
      2046.020  
  19321181.394   103464047.99309      1142.359    19321184.267    80472050.93008
       888.499  
  20414631.724   109281111.11108     -2760.809    20414634.165    84996440.93908
     -2147.305  
  21695664.696   115812934.52107     -3850.398    21695671.022    90076744.72006
     -2994.761  
  22549508.748   120540043.85706      3950.065    22549515.513    93753400.02506
      3072.276  
  19238723.414   102914187.54905      -733.604    19238726.964    80044384.07207
      -570.586  
 20 10 01 04 03 55.0000000  0 12G29G 2G15G18G 5G 7G13R 4R 3R18R 5R19
  21129491.459   111036228.29849      -677.522    21129491.466    86521733.17349
      -527.945  
  22496082.388   118217705.97848     -2432.233    22496079.945    92117683.20246
     -1895.250  
  22999771.842   120864630.95447      3803.089    22999773.561    94180226.01448
      2963.440  
  23254447.571   122202947.88347      3245.938    23254448.338    95223083.15545
      2529.301  
  20380763.965   107101639.39049     -1291.051    20380763.617    83455816.54749
     -1006.016  
  24598026.994   129263508.71647       455.211    24598026.556   100724809.38744
       354.710  
  21540341.270   113195258.78449      2623.273    21540341.156    88204096.75446
      2044.105  
  19320116.574   103458345.42809      1138.702    19320119.428    80467615.60008
       885.651  
  20417211.612   109294921.01908     -2763.105    20417213.995    85007181.98008
     -2149.085  
  21699272.120   115832191.07107     -3852.441    21699278.551    90091722.03606
     -2996.347  
  22545814.570   120520296.39206      3948.976    22545820.932    93738040.90206
      3071.430  
  19239410.969   102917865.78306      -737.664    19239414.390    80047244.91407
      -573.742  
 20 10 01 04 04  0.0000000  0 12G29G 2G15G18G 5G 7G13R 4R 3R18R 5R19
  21130137.826   111039625.88749      -681.121    21130137.905    86524380.64049
      -530.741  
  22498397.678   118229872.90948     -2434.179    22498395.156    92127163.91846
     -1896.765  
  22996154.375   120845620.44647      3801.547    22996155.869    94165412.63849
      2962.246  
  23251359.667   122186720.99448      3245.163    23251360.318    95210438.82145
      2528.694  
  20381993.427   107108100.81649     -1293.272    20381993.163    83460851.42349
     -1007.750  
  24597595.422   129261240.01247       452.516    24597594.854   100723041.51443
       352.601  
  21537846.733   113182149.65549      2620.523    21537846.553    88193881.86546
      2041.965  
  19319055.149   103452661.79409      1135.108    19319058.186    80463195.00208
       882.862  
  20419793.716   109308743.59608     -2765.676    20419796.249    85017932.86508
     -2151.086  
  21702881.485   115851458.38907     -3854.402    21702887.793    90106707.71607
     -2997.870  
  22542121.808   120500556.83606      3947.191    22542128.091    93722687.92006
      3070.034  
  19240102.627   102921565.28106      -741.683    19240106.114    80050122.29907
      -576.867  
 20 10 01 04 04  5.0000000  0 12G29G 2G15G18G 5G 7G13R 4R 3R18R 5R19
  21130787.637   111043040.10649      -684.694    21130787.714    86527041.06249
      -533.530  
  22500714.329   118242046.71348     -2435.539    22500711.777    92136649.99745
     -1897.823  
  22992537.838   120826615.19347      3800.434    22992539.330    94150603.33148
      2961.366  
  23248272.382   122170496.76348      3244.496    23248273.019    95197796.56545
      2528.176  
  20383224.970   107114572.33649     -1295.379    20383224.705    83465894.16549
     -1009.387  
  24597166.140   129258984.27247       449.851    24597165.314   100721283.83744
       350.538  
  21535354.502   113169052.45349      2617.926    21535354.406    88183676.25346
      2039.941  
  19317997.058   103446995.32908      1131.347    19317999.826    80458787.75108
       879.938  
  20422378.046   109322577.15708     -2767.921    20422380.626    85028692.30608
     -2152.827  
  21706492.408   115870734.61207     -3856.414    21706498.909    90121700.33306
     -2999.437  
  22538430.344   120480823.34806      3946.305    22538436.396    93707339.67106
      3069.352  
  19240797.905   102925284.20405      -745.859    19240801.228    80053014.78707
      -580.116  
 20 10 01 04 04 10.0000000  0 13G29G 2G15G18G 5G30G 7G13R 4R 3R18R 5
                                R19
  21131440.667   111046472.42849      -688.218    21131440.706    86529715.61249
      -536.273  
  22503032.486   118254228.95948     -2437.140    22503030.134    92146142.66046
     -1899.073  
  22988922.471   120807616.56446      3799.363    22988924.096    94135799.23848
      2960.547  
  23245185.802   122154276.77147      3243.844    23245186.432    95185157.63545
      2527.675  
  20384458.615   107121055.52949     -1297.742    20384458.388    83470946.01649
     -1011.227  
  24355082.596   127986823.13355      1861.835    24355086.407    99730002.68254
      1450.780  
  24596739.748   129256743.03547       446.937    24596739.120   100719537.42544
       348.262  
  21532864.737   113155968.71349      2615.351    21532864.714    88173481.13146
      2037.937  
  19316942.337   103441347.62809      1127.714    19316945.299    80454395.09208
       877.113  
  20424964.599   109336423.11508     -2770.229    20424967.177    85039461.39308
     -2154.629  
  21710105.511   115890021.51107     -3858.144    21710111.969    90136701.24107
     -3000.785  
  22534740.131   120461097.54406      3944.777    22534746.278    93691997.41806
      3068.164  
  19241497.024   102929024.05406      -750.229    19241500.394    80055923.57107
      -583.512  
 20 10 01 04 04 15.0000000  0 13G29G 2G15G18G 5G30G 7G13R 4R 3R18R 5
                                R19
  21132097.149   111049922.82349      -691.851    21132097.386    86532404.23249
      -539.109  
  22505352.329   118266419.53348     -2438.757    22505350.001    92155641.78346
     -1900.339  
  22985308.389   120788624.58846      3797.773    22985310.093    94121000.31248
      2959.308  
  23242099.997   122138060.94147      3242.851    23242100.603    95172521.90046
      2526.894  
  20385694.537   107127550.21749     -1299.973    20385694.047    83476006.80249
     -1012.969  
  24353311.737   127977518.80145      1859.742    24353310.315    99722752.53843
      1449.167  
  24596315.929   129254516.19647       443.835    24596315.606   100717802.20843
       345.843  
  21530377.614   113142898.42149      2612.820    21530377.507    88163296.49747
      2035.960  
  19315891.165   103435718.58709      1124.104    19315893.898    80450016.95008
       874.319  
  20427553.364   109350281.35308     -2772.645    20427556.138    85050240.01808
     -2156.500  
  21713720.493   115909318.62207     -3860.457    21713726.990    90151710.10207
     -3002.581  
  22531051.361   120441379.42206      3943.085    22531057.468    93676661.09906
      3066.843  
  19242199.933   102932784.86005      -753.863    19242203.434    80058848.63107
      -586.344  
 20 10 01 04 04 20.0000000  0 13G29G 2G15G18G 5G30G 7G13R 4R 3R18R 5
                                R19
  21132757.037   111053390.31149      -694.820    21132757.256    86535106.16449
      -541.421  
  22507673.468   118278617.51448     -2439.898    22507671.290    92165146.72746
     -1901.218  
  22981695.447   120769638.38746      3797.272    22981697.063    94106205.90348
      2958.914  
  23239014.929   122121848.33247      3242.495    23239015.600    95159888.70045
      2526.620  
  20386932.367   107134055.52849     -1301.867    20386931.936    83481075.87449
     -1014.444  
  24351544.418   127968225.07145      1858.422    24351546.415    99715510.72444
      1448.124  
  24595894.564   129252302.84847       441.792    24595894.335   100716077.57744
       344.257  
  21527892.746   113129840.62948      2610.522    21527892.699    88153121.59047
      2034.176  
  19314843.337   103430107.17109      1121.016    19314846.067    80445652.52108
       871.901  
  20430144.367   109364151.09908     -2774.766    20430146.965    85061027.59308
     -2158.155  
  21717337.361   115928625.23907     -3861.917    21717343.595    90166726.35006
     -3003.718  
  22527363.716   120421667.93706      3942.215    22527369.743    93661329.95306
      3066.167  
  19242906.731   102936565.72206      -757.909    19242910.316    80061789.30007
      -589.487  
 20 10 01 04 04 25.0000000  0 14G29G 2G15G18G 5G30G 7G13R 4R 3R12R18
                                R 5R19
  21133419.814   111056873.59949      -698.391    21133420.035    86537820.41449
      -544.198  
  22509995.704   118290821.60348     -2441.659    22509993.734    92174656.40546
     -1902.593  
  22978083.210   120750656.67647      3795.507    22978084.940    94091414.92448
      2957.535  
  23235930.038   122105637.68248      3241.628    23235931.056    95147257.04046
      2525.944  
  20388172.092   107140570.17249     -1304.081    20388171.768    83486152.21749
     -1016.168  
  24349777.998   127958940.68645      1855.655    24349777.383    99708276.11543
      1445.961  
  24595475.691   129250101.68347       438.858    24595475.573   100714362.34744
       341.968  
  21525410.139   113116794.00449      2608.116    21525410.104    88142955.40346
      2032.300  
  19313798.520   103424512.19309      1117.136    19313801.141    80441300.87908
       868.883  
  20432737.057   109378030.78408     -2776.895    20432739.731    85071822.90308
     -2159.813  
  23489289.916   125475570.47814      1600.484    23489296.706    97592138.12115
      1244.828  
  21720955.477   115947939.96106     -3863.718    21720961.720    90181748.91406
     -3005.112  
  22523677.263   120401961.79506      3940.625    22523683.317    93646002.98306
      3064.929  
  19243617.146   102940365.15006      -762.261    19243620.545    80064744.39607
      -592.875  
 20 10 01 04 04 30.0000000  0 14G29G 2G15G18G 5G30G 7G13R 4R 3R12R18
                                R 5R19
  21134086.221   111060375.87349      -702.526    21134086.470    86540549.44749
      -547.430  
  22512319.654   118303034.91948     -2443.680    22512317.931    92184173.25745
     -1904.168  
  22974472.602   120731682.58547      3793.909    22974474.232    94076629.92949
      2956.292  
  23232846.291   122089432.13947      3240.348    23232847.105    95134629.37345
      2524.944  
  20389414.108   107147097.29049     -1306.921    20389413.824    83491238.29049
     -1018.379  
  24348013.654   127949668.68646      1853.030    24348013.879    99701051.10944
      1443.913  
  24595059.761   129247915.92746       435.750    24595059.512   100712659.18044
       339.542  
  21522930.059   113103761.81849      2604.891    21522930.169    88132800.45446
      2029.785  
  19312757.230   103418936.91209      1112.914    19312760.034    80436964.54708
       865.551  
  20435332.387   109391923.91208     -2780.097    20435335.083    85082628.66508
     -2162.301  
  23487793.650   125467577.72105      1596.336    23487800.367    97585921.49105
      1241.586  
  21724576.061   115967266.03706     -3866.499    21724582.258    90196780.30306
     -3007.280  
  22519992.566   120382264.41907      3938.538    22519998.516    93630682.80706
      3063.305  
  19244331.494   102944186.49306      -766.452    19244334.873    80067716.54507
      -596.132  
 20 10 01 04 04 35.0000000  0 14G29G 2G15G18G 5G30G 7G13R 4R 3R12R18
                                R 5R19
  21134756.473   111063897.07449      -705.465    21134756.548    86543293.24049
      -549.715  
  22514645.486   118315257.52848     -2444.746    22514643.816    92193697.36946
     -1905.000  
  22970863.507   120712716.22346      3793.558    22970865.321    94061851.01249
      2956.027  
  23229763.266   122073231.73347      3240.530    23229764.112    95122005.65645
      2525.086  
  20390658.422   107153636.88949     -1308.460    20390658.290    83496334.07849
     -1019.581  
  24346251.735   127940409.08445      1851.027    24346251.828    99693835.87044
      1442.362  
  24594646.808   129245745.50247       433.394    24594646.172   100710967.93343
       337.706  
  21520452.833   113090744.00049      2602.866    21520452.946    88122656.70546
      2028.206  
  19311719.891   103413381.22609      1109.976    19311722.563    80432643.45708
       863.316  
  20437930.307   109405830.15808     -2782.030    20437932.837    85093444.64608
     -2163.805  
  23486301.298   125459605.37405      1592.651    23486308.082    97579720.76405
      1238.727  
  21728198.504   115986603.44707     -3867.956    21728204.802    90211820.49306
     -3008.414  
  22516309.347   120362575.50006      3937.941    22516315.435    93615369.21806
      3062.843  
  19245050.075   102948029.72706      -769.980    19245053.282    80070705.73207
      -598.874  
 20 10 01 04 04 40.0000000  0 14G29G 2G15G18G 5G30G 7G13R 4R 3R12R18
                                R 5R19
  21135429.779   111067435.66149      -709.469    21135429.812    86546050.58349
      -552.835  
  22516972.641   118327487.87448     -2447.141    22516971.106    92203227.48446
     -1906.871  
  22967255.474   120693756.09946      3791.301    22967257.133    94047076.86648
      2954.258  
  23226681.042   122057034.91147      3239.055    23226681.913    95109384.75546
      2523.938  
  20391905.029   107160187.38749     -1311.351    20391904.715    83501438.35449
     -1021.835  
  24344491.666   127931160.35546      1848.680    24344491.745    99686629.09244
      1440.527  
  24594236.240   129243588.88846       430.223    24594236.008   100709287.44242
       335.230  
  21517978.252   113077739.05349      2599.698    21517978.141    88112522.97746
      2025.733  
  19310685.735   103407843.52709      1105.676    19310688.454    80428336.36508
       859.968  
  20440530.228   109419748.11408     -2784.968    20440532.797    85104269.71708
     -2166.089  
  23484812.479   125451651.74905      1588.445    23484819.255    97573534.62505
      1235.456  
  21731822.850   116005950.48207     -3870.402    21731829.317    90226868.17706
     -3010.316  
  22512627.454   120342893.73706      3935.444    22512633.579    93600061.18906
      3060.902  
  19245772.431   102951893.22406      -774.938    19245775.521    80073710.67207
      -602.734  
 20 10 01 04 04 45.0000000  0 14G29G 2G15G18G 5G30G 7G13R 4R 3R12R18
                                R 5R19
  21136106.506   111070991.97949      -713.063    21136106.518    86548821.73849
      -555.637  
  22519301.567   118339726.18348     -2448.465    22519299.918    92212763.82846
     -1907.895  
  22963648.516   120674802.22247      3790.211    22963650.434    94032307.59949
      2953.410  
  23223599.526   122040841.96747      3238.313    23223600.457    95096766.89446
      2523.358  
  20393153.737   107166749.05049     -1313.570    20393153.358    83506551.34049
     -1023.562  
  24342733.694   127921922.87145      1846.073    24342733.773    99679430.99244
      1438.483  
  24593828.521   129241446.49646       426.719    24593827.945   100707618.08644
       332.508  
  21515505.944   113064747.33149      2596.996    21515505.997    88102399.55446
      2023.629  
  19309655.115   103402324.22709      1102.031    19309657.748    80424043.57608
       857.214  
  20443132.211   109433677.95108     -2787.207    20443135.166    85115104.04108
     -2167.832  
  23483327.346   125443717.37204      1585.214    23483333.688    97567363.46605
      1232.948  
  21735449.055   116025307.47506     -3872.801    21735455.468    90241923.62206
     -3012.180  
  22508946.940   120323219.18807      3934.155    22508952.818    93584758.77306
      3059.898  
  19246498.486   102955777.34306      -778.559    19246501.639    80076731.65407
      -605.551  
 20 10 01 04 04 50.0000000  0 13G29G 2G15G18G 5G30G 7G13R 4R 3R18R 5
                                R19
  21136786.853   111074566.25949      -716.711    21136786.626    86551606.88649
      -558.479  
  22521631.859   118351972.73148     -2450.261    22521630.473    92222306.59446
     -1909.297  
  22960042.958   120655855.10347      3788.776    22960044.949    94017543.64848
      2952.293  
  23220518.999   122024653.22147      3237.339    23220520.031    95084152.28445
      2522.601  
  20394404.576   107173322.15949     -1315.801    20394404.171    83511673.23949
     -1025.305  
  24340977.475   127912696.97045      1843.897    24340977.970    99672241.99142
      1436.922  
  24593423.583   129239318.38147       424.145    24593422.318   100705959.86143
       330.504  
  21513036.325   113051769.05149      2594.188    21513036.283    88092286.61246
      2021.445  
  19308627.844   103396823.52009      1098.219    19308630.675    80419765.25608
       854.171  
  20445736.823   109447620.05108     -2789.668    20445739.470    85125947.88608
     -2169.746  
  21739077.171   116044674.88707     -3874.730    21739083.868    90256987.15907
     -3013.683  
  22505267.826   120303552.40006      3932.695    22505273.931    93569462.40306
      3058.766  
  19247228.525   102959682.31306      -782.901    19247231.577    80079768.84507
      -608.930  
 20 10 01 04 04 55.0000000  0 14G29G 2G15G18G 5G30G 7G13R 4R 3R12R18
                                R 5R19
  21137470.257   111078157.79349      -719.792    21137470.145    86554405.46849
      -560.883  
  22523963.701   118364226.82848     -2451.538    22523962.463    92231855.23546
     -1910.293  
  22956438.402   120636913.97347      3787.762    22956440.624    94002784.35148
      2951.504  
  23217438.770   122008467.88347      3237.194    23217440.116    95071540.32846
      2522.483  
  20395657.307   107179905.96149     -1317.574    20395656.966    83516803.47449
     -1026.679  
  24339223.743   127903481.67445      1842.242    24339224.334    99665061.26944
      1435.511  
  24593021.236   129237204.00246       421.729    24593019.309   100704312.29444
       328.620  
  21510568.991   113038803.46749      2592.081    21510569.046    88082183.56546
      2019.804  
  19307603.945   103391340.64709      1094.960    19307606.704    80415500.79808
       851.633  
  20448343.262   109461573.58208     -2791.487    20448346.203    85136800.62608
     -2171.159  
  23480366.958   125427912.04415      1577.457    23480372.775    97555063.76915
      1226.910  
  21742707.104   116064051.87006     -3875.882    21742713.943    90272058.11306
     -3014.581  
  22501590.070   120283892.53207      3931.680    22501596.235    93554171.38906
      3057.969  
  19247962.250   102963607.49706      -787.055    19247965.380    80082821.77007
      -612.151  
 20 10 01 04 05  0.0000000  0 15G29G 2G15G18G 5G30G 7G13R 4R 3R12R18
                                R 5R20R19
  21138156.872   111081765.00849      -723.147    21138156.599    86557216.28649
      -563.495  
  22526296.683   118376486.88748     -2452.737    22526295.440    92241408.50946
     -1911.230  
  22952835.019   120617977.28347      3786.516    22952836.995    93988028.46948
      2950.526  
  23214359.142   121992284.45247      3236.339    23214360.460    95058929.86946
      2521.823  
  20396911.948   107186498.98549     -1319.604    20396911.472    83521940.90549
     -1028.265  
  24337471.868   127894275.75446      1840.191    24337472.294    99657887.83144
      1433.906  
  24592620.848   129235101.76146       418.914    24592618.990   100702674.15044
       326.425  
  21508103.897   113025849.09049      2589.629    21508103.963    88072089.24547
      2017.890  
  19306583.221   103385874.15509      1091.538    19306586.108    80411249.08308
       848.976  
  20450951.567   109475536.98008     -2793.526    20450954.819    85147661.05108
     -2172.745  
  23478892.021   125420032.84705      1574.542    23478897.646    97548935.47804
      1224.641  
  21746338.582   116083436.63407     -3877.660    21746345.494    90287135.13506
     -3015.965  
  22497913.173   120264237.97106      3930.078    22497919.465    93538884.53606
      3056.727  
  21471671.910   114818678.22014      3505.863    21471677.993    89303442.09217
      2726.776  
  19248699.577   102967551.22706      -790.891    19248702.760    80085889.11007
      -615.140  
 20 10 01 04 05  5.0000000  0 14G29G 2G15G18G 5G30G 7G13R 4R 3R12R18
                                R 5R19
  21138846.554   111085389.68949      -725.206    21138846.220    86560040.70249
      -565.101  
  22528631.211   118388754.72848     -2452.737    22528629.910    92250967.87046
     -1911.230  
  22949232.551   120599046.78347      3787.210    22949234.597    93973277.43848
      2951.074  
  23211280.039   121976104.75247      3237.280    23211281.781    95046322.31746
      2522.558  
  20398168.719   107193102.92349     -1320.308    20398168.197    83527086.82949
     -1028.813  
  24335721.944   127885080.84245      1839.414    24335722.722    99650722.91044
      1433.296  
  24592223.368   129233013.42246       417.702    24592221.345   100701046.89144
       325.477  
  21505641.095   113012907.69549      2588.565    21505641.335    88062005.03847
      2017.062  
  19305565.650   103380425.73709      1089.551    19305568.617    80407011.42708
       847.429  
  20453562.141   109489511.99708     -2794.699    20453565.357    85158530.50608
     -2173.659  
  23477420.303   125412172.63105      1571.969    23477426.288    97542821.97804
      1222.636  
  21749971.968   116102831.21007     -3878.155    21749978.710    90302219.79106
     -3016.348  
  22494237.840   120244590.55507      3930.539    22494244.142    93523603.20106
      3057.081  
  19249440.613   102971515.27206      -793.145    19249443.744    80088972.25807
      -616.891  
 20 10 01 04 05 10.0000000  0 14G29G 2G15G18G 5G30G 7G13R 4R 3R12R18
                                R 5R19
  21139537.572   111089020.88649      -729.289    21139537.304    86562870.20249
      -568.281  
  22530965.149   118401019.34148     -2454.961    22530963.868    92260524.69446
     -1912.961  
  22945629.318   120580111.63547      3784.995    22945631.227    93958522.77048
      2949.344  
  23208199.600   121959917.77847      3235.918    23208201.565    95033709.09946
      2521.495  
  20399425.474   107199706.87349     -1323.180    20399424.949    83532232.76749
     -1031.051  
  24333972.100   127875885.94645      1836.866    24333973.016    99643558.15644
      1431.328  
  24591826.457   129230928.02046       414.359    24591824.095   100699421.94043
       322.882  
  21503178.806   112999968.31049      2585.210    21503178.970    88051922.40747
      2014.448  
  19304549.604   103374984.20109      1085.195    19304552.554    80402779.12008
       844.034  
  20456172.938   109503487.48408     -2797.491    20456176.080    85169400.32908
     -2175.832  
  23475950.598   125404320.23505      1567.280    23475955.757    97536714.57304
      1218.996  
  21753604.973   116122224.30907     -3880.921    21753611.953    90317303.30406
     -3018.499  
  22490561.693   120224939.12806      3928.327    22490567.839    93508318.76106
      3055.367  
  19250183.314   102975488.43806      -797.422    19250186.367    80092062.50307
      -620.218  
 20 10 01 04 05 15.0000000  0 14G29G 2G15G18G 5G30G 7G13R 4R 3R12R18
                                R 5R19
  21140233.909   111092679.59949      -733.789    21140233.539    86565721.13749
      -571.789  
  22533302.284   118413301.78648     -2457.534    22533301.235    92270095.41246
     -1914.964  
  22942029.086   120561192.75846      3782.772    22942030.986    93943780.79248
      2947.613  
  23205121.906   121943744.57347      3233.655    23205123.827    95021106.62146
      2519.733  
  20400686.225   107206331.82349     -1326.457    20400685.856    83537395.06349
     -1033.602  
  24332226.225   127866712.15445      1833.363    24332227.254    99636409.70644
      1428.589  
  24591433.922   129228866.66846       410.191    24591431.777   100697815.67942
       319.616  
  21500720.883   112987052.06149      2581.487    21500720.988    88041857.79047
      2011.547  
  19303538.775   103369571.03409      1080.719    19303541.517    80398568.87508
       840.456  
  20458787.677   109517484.88608     -2800.937    20458790.919    85180287.19308
     -2178.512  
  23474486.353   125396496.99804      1562.948    23474490.142    97530629.87204
      1215.633  
  21757241.678   116141637.35107     -3883.976    21757248.680    90332402.31606
     -3020.875  
  22486888.683   120205305.25507      3925.765    22486894.982    93493047.99006
      3053.374  
  19250931.907   102979492.31706      -803.034    19250934.729    80095176.63007
      -624.585  
 20 10 01 04 05 20.0000000  0 14G29G 2G15G18G 5G30G 7G13R 4R 3R12R18
                                R 5R19
  21140934.396   111096360.99449      -737.659    21140933.927    86568589.76349
      -574.804  
  22535642.126   118425597.14948     -2459.530    22535641.010    92279676.21446
     -1916.523  
  22938431.137   120542285.40446      3781.254    22938432.982    93929047.81548
      2946.429  
  23202045.879   121927580.28847      3232.879    23202048.093    95008511.06646
      2519.121  
  20401949.989   107212972.91349     -1328.996    20401949.454    83542569.94249
     -1035.581  
  24330483.292   127857554.69645      1830.414    24330484.361    99629274.04146
      1426.292  
  24591045.254   129226824.33045       407.414    24591042.603   100696224.23444
       317.461  
  21498266.235   112974153.98449      2578.581    21498266.648    88031807.33547
      2009.281  
  19302532.235   103364181.31009      1076.620    19302535.001    80394376.86808
       837.366  
  20461405.750   109531499.13608     -2803.761    20461408.868    85191187.16308
     -2180.702  
  23473026.016   125388698.17104      1557.734    23473030.334    97524564.08004
      1211.563  
  21760881.199   116161065.45406     -3886.288    21760888.222    90347513.07806
     -3022.667  
  22483218.023   120185683.72107      3923.944    22483224.500    93477786.78106
      3051.956  
  19251685.164   102983521.92106      -807.538    19251687.924    80098310.76807
      -628.085  
 20 10 01 04 05 25.0000000  0 15G29G 2G15G18G 5G30G 7G13R 4R 3R12R18
                                R 5R20R19
  21141637.949   111100057.62849      -741.125    21141637.473    86571470.23149
      -577.508  
  22537982.939   118437898.04748     -2460.926    22537981.753    92289261.31946
     -1917.604  
  22934833.957   120523382.06546      3780.413    22934835.697    93914317.94248
      2945.772  
  23198970.121   121911417.44647      3232.382    23198972.348    94995916.65446
      2518.738  
  20403215.468   107219622.67449     -1331.105    20403215.006    83547751.57349
     -1037.230  
  24328742.245   127848406.02945      1828.613    24328743.714    99622145.19445
      1424.730  
  24590658.668   129224793.68346       404.238    24590656.013   100694641.93042
       314.995  
  21495813.864   112961266.68949      2576.051    21495814.297    88021765.30647
      2007.312  
  19301528.680   103358807.44509      1072.937    19301531.591    80390197.19808
       834.484  
  20464025.363   109545522.78508     -2806.046    20464028.534    85202094.44008
     -2182.484  
  23471568.744   125380915.93604      1553.828    23471573.237    97518511.33504
      1208.542  
  21764521.940   116180500.88306     -3888.276    21764528.984    90362629.50006
     -3024.218  
  22479548.321   120166067.19007      3922.594    22479554.927    93462529.51106
      3050.906  
  21455303.864   114731151.14314      3495.359    21455308.961    89235361.17517
      2718.612  
  19252441.892   102987569.55806      -811.570    19252444.512    80101458.93007
      -631.227  
 20 10 01 04 05 30.0000000  0 15G29G 2G15G18G 5G30G 7G13R 4R 3R12R18
                                R 5R20R19
  21142344.930   111103772.55649      -744.671    21142344.202    86574364.97749
      -580.270  
  22540325.339   118450207.59948     -2462.491    22540324.207    92298853.18346
     -1918.827  
  22931238.009   120504485.95346      3778.929    22931239.924    93899593.69748
      2944.621  
  23195895.287   121895259.27247      3231.309    23195897.581    94983325.87146
      2517.901  
  20404483.184   107226284.22249     -1333.183    20404482.762    83552942.38349
     -1038.847  
  24327003.109   127839269.24544      1826.855    24327004.962    99615025.69944
      1423.527  
  24590274.934   129222777.77145       402.160    24590272.126   100693071.13441
       313.382  
  21493364.158   112948393.49049      2573.401    21493364.654    88011734.23847
      2005.250  
  19300528.650   103353452.57609      1069.195    19300531.553    80386032.29608
       831.594  
  20466647.379   109559558.89108     -2808.085    20466650.642    85213011.41308
     -2184.065  
  23470115.429   125373153.65105      1550.645    23470119.067    97512473.96404
      1206.059  
  21768164.812   116199946.84607     -3889.879    21768171.836    90377754.12706
     -3025.465  
  22475879.996   120146458.76207      3920.883    22475886.826    93447278.51406
      3049.574  
  21452036.284   114713678.73704      3494.073    21452041.323    89221771.52607
      2717.609  
  19253202.472   102991638.49306      -815.523    19253205.193    80104623.65507
      -634.301  
 20 10 01 04 05 35.0000000  0 15G29G 2G15G18G 5G30G 7G13R 4R 3R12R18
                                R 5R20R19
  21143054.958   111107503.56449      -747.996    21143054.339    86577272.24749
      -582.858  
  22542669.085   118462523.50348     -2464.051    22542667.666    92308449.97646
     -1920.043  
  22927643.145   120485594.74847      3777.605    22927645.147    93884873.28048
      2943.586  
  23192820.860   121879103.45347      3230.421    23192823.271    94970736.92946
      2517.211  
  20405752.615   107232955.31549     -1335.430    20405752.235    83558140.63349
     -1040.597  
  24325265.794   127830142.21844      1823.769    24325268.395    99607913.68645
      1421.113  
  24589893.598   129220774.46545       399.058    24589890.410   100691510.10143
       310.952  
  21490916.580   112935531.97249      2570.976    21490917.212    88001712.27746
      2003.355  
  19299531.813   103348114.40409      1065.780    19299534.603    80381880.37608
       828.937  
  20469271.498   109573605.16208     -2810.569    20469274.714    85223936.27908
     -2186.004  
  23468666.187   125365408.93404      1546.938    23468668.849    97506450.35904
      1203.180  
  21771809.368   116219401.17006     -3891.815    21771816.217    90392885.26006
     -3026.973  
  22472213.022   120126856.21607      3919.491    22472219.890    93432032.11106
      3048.492  
  21448770.707   114696214.63604      3492.379    21448775.367    89208188.34607
      2716.292  
  19253966.645   102995726.27406      -819.410    19253969.473    80107803.03607
      -637.324  
 20 10 01 04 05 40.0000000  0 15G29G 2G15G18G 5G30G 7G13R 4R 3R12R18
                                R 5R20R19
  21143768.600   111111253.65149      -751.684    21143767.889    86580194.39549
      -585.726  
  22545014.553   118474848.74048     -2465.547    22545013.332    92318054.05646
     -1921.210  
  22924049.769   120466711.55646      3776.211    22924051.831    93870159.09448
      2942.500  
  23189747.400   121862952.96947      3229.870    23189750.152    94958152.14846
      2516.780  
  20407024.320   107239638.92149     -1337.694    20407024.137    83563348.64049
     -1042.359  
  24323530.870   127821027.94045      1821.477    24323533.972    99600811.64144
      1419.327  
  24589515.096   129218786.67345       396.343    24589512.152   100689961.10541
       308.832  
  21488472.047   112922685.08349      2568.164    21488472.393    87991701.71547
      2001.168  
  19298538.722   103342796.01009      1062.007    19298541.281    80377743.85008
       826.008  
  20471897.850   109587664.63708     -2812.948    20471901.148    85234871.42208
     -2187.852  
  23467220.473   125357684.84604      1542.862    23467222.352    97500442.74704
      1200.008  
  21775455.859   116238866.60506     -3893.905    21775462.754    90408025.03406
     -3028.598  
  22468547.540   120107262.42507      3918.344    22468554.308    93416792.49706
      3047.602  
  21445507.058   114678762.12304      3489.233    21445511.562    89194614.17007
      2713.847  
  19254735.019   102999836.18306      -823.972    19254737.595    80110999.62507
      -640.870  
 20 10 01 04 05 45.0000000  0 15G29G 2G15G18G 5G30G 7G13R 4R 3R12R18
                                R 5R20R19
  21144485.280   111115019.20749      -754.020    21144484.387    86583128.58649
      -587.550  
  22547361.151   118487179.69648     -2466.063    22547359.713    92327662.59146
     -1921.609  
  22920457.113   120447832.61646      3776.188    22920459.284    93855448.24748
      2942.483  
  23186674.526   121846804.22247      3230.625    23186677.057    94945568.71246
      2517.371  
  20408297.924   107246331.41049     -1338.726    20408297.729    83568563.56749
     -1043.168  
  24321797.975   127811922.76944      1820.479    24321801.629    99593716.76744
      1418.566  
  24589138.737   129216810.86044       394.300    24589135.810   100688402.54754
       307.245  
  21486029.427   112909849.24749      2566.597    21486029.776    87981699.76546
      1999.941  
  19297548.411   103337493.65809      1059.569    19297551.075    80373619.80208
       824.109  
  20474526.112   109601733.61608     -2813.976    20474529.255    85245813.96408
     -2188.647  
  23465777.775   125349977.90205      1540.206    23465779.538    97494448.46704
      1197.938  
  21779103.727   116258339.79906     -3894.859    21779110.527    90423170.84706
     -3029.340  
  22464882.990   120087673.93307      3917.937    22464889.896    93401557.02406
      3047.284  
  21442244.577   114661317.42304      3488.809    21442249.235    89181046.07907
      2713.520  
  19255506.724   103003964.43706      -826.882    19255509.290    80114210.48507
      -643.136  
 20 10 01 04 05 50.0000000  0 15G29G 2G15G18G 5G30G 7G13R 4R 3R12R18
                                R 5R20R19
  21145205.193   111118802.37349      -759.035    21145204.293    86586076.51249
      -591.457  
  22549709.276   118499518.55149     -2469.000    22549707.796    92337277.28546
     -1923.894  
  22916865.720   120428960.21747      3773.331    22916867.937    93840742.49948
      2940.258  
  23183602.229   121830659.46947      3227.742    23183604.853    94932988.39246
      2515.125  
  20409573.606   107253035.04349     -1342.347    20409573.510    83573787.17749
     -1045.983  
  24320067.188   127802828.88745      1817.262    24320071.460    99586630.54343
      1416.038  
  24588765.322   129214849.20645       390.969    24588761.374   100686873.92144
       304.612  
  21483589.276   112897026.63549      2562.695    21483589.790    87971708.11847
      1996.901  
  19296561.665   103332209.64909      1054.355    19296564.474    80369510.01808
       820.055  
  20477156.569   109615814.28408     -2817.852    20477159.717    85256765.59508
     -2191.668  
  23464338.910   125342290.21004      1535.020    23464340.508    97488469.15704
      1193.902  
  21782753.506   116277822.72407     -3898.140    21782760.469    90438324.22306
     -3031.890  
  22461220.016   120068092.89207      3914.891    22461226.681    93386327.34206
      3044.913  
  21438984.144   114643882.82904      3485.227    21438988.556    89167485.84507
      2710.730  
  19256282.342   103008113.31606      -832.386    19256284.826    80117437.39107
      -647.413  
 20 10 01 04 05 55.0000000  0 15G29G 2G15G18G 5G30G 7G13R 4R 3R12R18
                                R 5R20R19
  21145928.544   111122603.92249      -760.145    21145927.632    86589038.74649
      -592.324  
  22552059.088   118511866.11448     -2468.477    22552057.326    92346898.75146
     -1923.492  
  22913275.716   120410095.15147      3774.523    22913278.043    93826042.45448
      2941.187  
  23180530.901   121814519.46947      3229.671    23180533.421    94920411.76945
      2516.629  
  20410851.390   107259750.52849     -1342.301    20410851.477    83579020.02149
     -1045.952  
  24318338.860   127793747.15244      1817.164    24318343.206    99579553.91444
      1415.976  
  24588394.649   129212902.43245       389.934    24588391.423   100685357.00243
       303.831  
  21481151.969   112884218.06449      2562.272    21481152.242    87961727.42047
      1996.578  
  19295578.479   103326944.63709      1053.198    19295581.284    80365415.00608
       819.156  
  20479789.294   109629907.37208     -2817.824    20479792.302    85267726.87608
     -2191.644  
  23462903.410   125334622.52504      1533.179    23462905.253    97482505.40904
      1192.473  
  21786405.405   116297316.24207     -3897.487    21786412.104    90453485.85006
     -3031.383  
  22457558.731   120048520.04007      3915.812    22457565.072    93371104.02706
      3045.633  
  21435725.917   114626458.96904      3485.965    21435730.026    89153933.95606
      2711.305  
  19257061.983   103012283.39806      -833.980    19257064.261    80120680.79507
      -648.651  
 20 10 01 04 06  0.0000000  0 15G29G 2G15G18G 5G30G 7G13R 4R 3R12R18
                                R 5R20R19
  21146653.594   111126413.49049      -764.854    21146652.678    86592007.25049
      -595.991  
  22554408.296   118524211.97248     -2471.219    22554406.634    92356518.89946
     -1925.628  
  22909685.131   120391227.06047      3771.698    22909687.605    93811340.05548
      2938.983  
  23177458.430   121798373.77647      3227.410    23177460.966    94907830.73446
      2514.866  
  20412129.548   107266467.45449     -1345.836    20412129.429    83584253.99049
     -1048.702  
  24316610.663   127784667.04244      1813.504    24316615.406    99572478.48545
      1413.120  
  24588024.923   129210960.16945       385.714    24588022.135   100683843.64144
       300.570  
  21478715.268   112871413.17849      2558.351    21478715.456    87951749.59747
      1993.519  
  19294596.937   103321688.18309      1048.336    19294599.536    80361326.65208
       815.367  
  20482422.421   109644002.48808     -2821.449    20482425.357    85278689.73808
     -2194.465  
  23461469.915   125326964.30704      1528.636    23461471.970    97476549.00704
      1188.938  
  21790057.155   116316809.68907     -3901.309    21790063.936    90468647.41906
     -3034.354  
  22453896.777   120028944.92107      3913.085    22453902.770    93355878.95106
      3043.511  
  21432467.685   114609035.61504      3482.847    21432471.688    89140382.45707
      2708.882  
  19257843.555   103016464.34406      -839.426    19257845.860    80123932.64507
      -652.890  
 20 10 01 04 06  5.0000000  0 15G29G 2G15G18G 5G30G 7G13R 4R 3R12R18
                                R 5R20R19
  21147383.957   111130251.04049      -769.324    21147382.888    86594997.55549
      -599.472  
  22556761.294   118536576.09249     -2473.652    22556759.547    92366153.27846
     -1927.523  
  22906097.694   120372375.88947      3769.586    22906100.166    93796650.84247
      2937.344  
  23174388.893   121782242.47248      3225.707    23174391.229    94895260.89545
      2513.538  
  20413411.738   107273205.81349     -1348.969    20413411.750    83589504.65949
     -1051.147  
  24314886.356   127775608.68445      1810.229    24314892.177    99565420.02844
      1410.570  
  24587659.918   129209042.48945       382.008    24587657.392   100682349.42543
       297.671  
  21476282.972   112858631.97149      2554.840    21476283.312    87941790.21746
      1990.785  
  19293620.613   103316460.66509      1043.647    19293623.298    80357260.81408
       811.726  
  20485059.608   109658119.74808     -2824.687    20485062.478    85289669.84508
     -2196.979  
  23460041.365   125319335.90404      1524.043    23460043.837    97470615.81604
      1185.366  
  21793712.842   116336323.59106     -3903.948    21793719.390    90483824.90206
     -3036.409  
  22450238.239   120009387.87707      3910.773    22450244.016    93340667.91306
      3041.641  
  21429213.406   114591632.98904      3479.473    21429217.348    89126847.05407
      2706.253  
  19258630.964   103020676.39206      -844.512    19258633.285    80127208.66907
      -656.848  
 20 10 01 04 06 10.0000000  0 14G29G 2G15G18G 5G30G 7G13R 4R 3R18R 5
                                R20R19
  21148117.568   111134106.29049      -772.937    21148116.480    86598001.61849
      -602.292  
  22559115.621   118548948.19948     -2475.301    22559113.754    92375793.86346
     -1928.809  
  22902511.670   120353531.36447      3768.112    22902514.107    93781966.80847
      2936.190  
  23171320.158   121766115.22148      3224.765    23171322.431    94882694.17946
      2512.800  
  20414696.188   107279955.36049     -1351.112    20414696.293    83594764.05549
     -1052.816  
  24313164.366   127766561.84944      1809.194    24313170.844    99558370.55145
      1409.757  
  24587297.511   129207138.93604       379.148           0.000           0.0000 
         0.000  
  21473853.535   112845864.15949      2552.026    21473853.580    87931841.27847
      1988.594  
  19292647.841   103311251.45209      1039.780    19292650.664    80353209.20108
       808.715  
  20487699.045   109672248.76708     -2827.020    20487702.107    85300659.07808
     -2198.797  
  21797370.381   116355847.27806     -3905.780    21797376.771    90499009.97706
     -3037.836  
  22446581.187   119989838.37107      3909.104    22446586.794    93325462.77206
      3040.418  
  21425961.021   114574240.36704      3478.445    21425964.668    89113319.49106
      2705.456  
  19259422.271   103024909.13306      -848.594    19259424.514    80130500.80207
      -660.019  
 20 10 01 04 06 15.0000000  0 14G29G 2G15G18G 5G30G 7G13R 4R 3R18R 5
                                R20R19
  21148854.602   111137979.52049      -776.355    21148853.532    86601019.72149
      -604.956  
  22561471.466   118561328.59048     -2476.718    22561469.701    92385440.91546
     -1929.913  
  22898926.890   120334693.81347      3766.823    22898929.420    93767288.17948
      2935.184  
  23168252.140   121749992.30248      3224.383    23168254.127    94870130.89245
      2512.508  
  20415982.751   107286716.32549     -1353.136    20415982.776    83600032.33149
     -1054.395  
  24311444.698   127757526.68244      1805.851    24311451.450    99551330.10744
      1407.145  
  24586937.862   129205249.93445       376.383    24586936.533   100679393.15852
       293.258  
  21471426.590   112833110.03949      2549.589    21471426.367    87921902.99547
      1986.690  
  19291678.625   103306061.00409      1036.409    19291681.361    80349172.18308
       806.098  
  20490340.766   109686389.82108     -2829.316    20490343.592    85311657.66608
     -2200.577  
  21801029.580   116375380.98906     -3907.429    21801036.144    90514202.85405
     -3039.116  
  22442925.490   119970296.79107      3907.597    22442930.927    93310263.76606
      3039.241  
  21422710.414   114556858.53904      3474.847    21422714.121    89099800.30306
      2702.660  
  19260217.376   103029162.74706      -852.503    19260219.833    80133809.17007
      -663.063  
 20 10 01 04 06 20.0000000  0 13G29G 2G15G18G 5G 7G13R 4R 3R18R 5R20
                                R19
  21149595.847   111141874.38549      -782.261    21149594.716    86604054.68649
      -609.555  
  22563829.605   118573720.88348     -2480.613    22563828.049    92395097.23746
     -1932.948  
  22895344.237   120315866.93547      3763.203    22895346.562    93752617.91147
      2932.366  
  23165185.659   121733877.42848      3221.022    23165187.561    94857573.84846
      2509.883  
  20417272.188   107293492.33349     -1357.742    20417272.191    83605312.33549
     -1057.983  
  24586581.803   129203379.14544       370.378    24586580.521   100677935.41144
       288.597  
  21469002.860   112820373.28349      2544.613    21469002.818    87911978.24947
      1982.812  
  19290713.342   103300892.95609      1030.313    19290716.132    80345152.60008
       801.354  
  20492985.457   109700546.53208     -2833.992    20492988.252    85322668.44208
     -2204.219  
  21804691.606   116394928.57107     -3911.902    21804698.094    90529406.52905
     -3042.594  
  22439272.017   119950766.79107      3903.987    22439277.249    93295073.79905
      3036.437  
  21419462.344   114539490.77304      3471.566    21419466.261    89086292.04106
      2700.105  
  19261017.162   103033440.97306      -859.257    19261019.458    80137136.67307
      -668.315  
 20 10 01 04 06 25.0000000  0 13G29G 2G15G18G 5G 7G13R 4R 3R18R 5R20
                                R19
  21150341.240   111145791.16749      -784.019    21150340.054    86607106.71849
      -610.929  
  22566190.199   118586125.32348     -2480.604    22566188.597    92404763.03945
     -1932.941  
  22891763.662   120297050.94847      3763.741    22891766.119    93737956.09548
      2932.781  
  23162120.692   121717770.82448      3222.258    23162122.653    94845023.25046
      2510.847  
  20418564.478   107300283.64149     -1358.277    20418564.549    83610604.26149
     -1058.401  
  24586229.092   129201526.73245       369.727    24586228.020   100676491.94543
       288.090  
  21466582.539   112807654.16549      2543.667    21466582.434    87902067.24547
      1982.073  
  19289752.566   103295747.54609      1028.386    19289755.210    80341150.61408
       799.883  
  20495633.110   109714719.34208     -2834.659    20495635.815    85333691.74008
     -2204.737  
  21808356.247   116414490.14307     -3912.120    21808362.719    90544621.08605
     -3042.765  
  22435620.818   119931248.57207      3904.117    22435625.717    93279892.97405
      3036.535  
  21416217.382   114522137.68704      3470.215    21416221.048    89072795.19406
      2699.050  
  19261821.682   103037744.30006      -861.855    19261823.850    80140483.69607
      -670.335  
 20 10 01 04 06 30.0000000  0 14G29G 2G15G18G 5G 7G13R 4R 3R12R18R 5
                                R20R19
  21151088.340   111149717.98749      -786.597    21151087.333    86610166.57749
      -612.934  
  22568550.794   118598530.08548     -2481.108    22568549.164    92414429.07046
     -1933.335  
  22888183.074   120278234.05047      3763.605    22888185.117    93723293.58547
      2932.676  
  23159055.179   121701660.73048      3222.312    23159056.730    94832469.93546
      2510.895  
  20419857.560   107307078.45749     -1359.469    20419857.377    83615898.92749
     -1059.328  
  24585877.778   129199680.97045       368.522    24585876.737   100675053.62843
       287.151  
  21464163.163   112794940.85149      2541.854    21464163.043    87892160.77147
      1980.667  
  19288793.629   103290612.75909      1025.617    19288796.245    80337156.89908
       797.702  
  20498281.296   109728895.97808     -2835.988    20498284.353    85344718.00508
     -2205.773  
  23452956.996   125281486.88214      1504.819    23452962.760    97441179.06115
      1170.413  
  21812021.081   116434053.92907     -3913.230    21812027.626    90559837.34405
     -3043.629  
  22431969.613   119911730.28907      3903.573    22431974.395    93264712.11505
      3036.117  
  21412972.872   114504787.17704      3470.184    21412976.402    89059300.35906
      2699.030  
  19262628.458   103042060.47506      -864.476    19262630.616    80143840.72407
      -672.370  
 20 10 01 04 06 35.0000000  0 14G29G 2G15G18G 5G 7G13R 4R 3R12R18R 5
                                R20R19
  21151837.914   111153656.93149      -789.660    21151836.805    86613235.88149
      -615.324  
  22570911.771   118610937.22748     -2482.222    22570909.956    92424096.96246
     -1934.203  
  22884602.522   120259418.31447      3762.332    22884604.394    93708631.96547
      2931.684  
  23155989.476   121685549.13448      3222.202    23155990.908    94819915.46845
      2510.808  
  20421151.568   107313878.82849     -1361.137    20421151.437    83621197.91849
     -1060.629  
  24585528.169   129197843.79145       365.941    24585526.929   100673622.15843
       285.156  
  21461745.537   112782235.42049      2539.690    21461745.380    87882260.44247
      1978.979  
  19287837.121   103285490.73609      1022.538    19287839.931    80333173.10608
       795.308  
  20500930.732   109743078.58408     -2837.733    20500933.593    85355748.91008
     -2207.129  
  23451549.808   125273970.03004      1501.694    23451555.652    97435332.60004
      1167.980  
  21815686.817   116453621.78307     -3914.612    21815693.246    90575056.78305
     -3044.702  
  22428318.548   119892213.97207      3902.219    22428323.094    93249532.77905
      3035.063  
  21409728.989   114487441.27204      3467.734    21409732.689    89045809.09307
      2697.121  
  19263438.037   103046391.55306      -868.680    19263440.234    80147209.33507
      -675.644  
 20 10 01 04 06 40.0000000  0 14G29G 2G15G18G 5G 7G13R 4R 3R12R18R 5
                                R20R19
  21152590.894   111157613.74349      -793.199    21152589.938    86616319.11949
      -618.078  
  22573274.289   118623352.53048     -2483.784    22573272.692    92433771.22246
     -1935.421  
  22881023.331   120240609.50447      3761.015    22881025.061    93693975.75947
      2930.660  
  23152924.333   121669441.85148      3220.866    23152925.829    94807364.32545
      2509.766  
  20422447.857   107320690.46949     -1363.370    20422447.679    83626505.68449
     -1062.370  
  24585181.484   129196021.07445       363.027    24585180.230   100672201.82743
       282.870  
  21459330.384   112769543.64449      2536.972    21459330.133    87872370.75347
      1976.862  
  19286884.243   103280387.24109      1018.851    19286886.792    80329203.72108
       792.441  
  20503582.438   109757273.09308     -2840.003    20503585.440    85366789.07808
     -2208.895  
  23450146.032   125266472.93604      1497.527    23450152.270    97429501.52404
      1164.738  
  21819354.393   116473199.52107     -3916.749    21819360.742    90590283.88905
     -3046.363  
  22424669.188   119872705.45607      3900.894    22424673.566    93234359.50305
      3034.026  
  21406487.005   114470105.96204      3466.046    21406490.904    89032326.06607
      2695.808  
  19264251.434   103050743.42706      -872.374    19264253.733    80150594.12407
      -678.519  
 20 10 01 04 06 45.0000000  0 14G29G 2G15G18G 5G30G 7G13R 4R 3R18R 5
                                R20R19
  21153347.505   111161589.32549      -797.508    21153346.269    86619416.98049
      -621.434  
  22575638.523   118635776.88348     -2486.293    22575636.898    92443452.53246
     -1937.375  
  22877445.683   120221808.55548      3758.761    22877447.076    93679325.66647
      2928.902  
  23149860.229   121653339.78547      3219.574    23149861.658    94794817.27645
      2508.758  
  20423746.441   107327514.25949     -1366.480    20423746.089    83631822.92449
     -1064.793  
  24301172.422   127703523.47555      1792.265    24301180.647    99509272.69855
      1396.563  
  24584837.453   129194213.74246       359.352    24584836.942   100670793.52741
       280.022  
  21456918.084   112756866.45149      2533.527    21456917.822    87862492.42847
      1974.176  
  19285934.888   103275303.30309      1014.266    19285937.507    80325249.54508
       788.871  
  20506236.394   109771480.36308     -2843.266    20506239.469    85377839.17408
     -2211.433  
  21823024.038   116492788.15206     -3919.184    21823030.328    90605519.51405
     -3048.254  
  22421021.289   119853205.69007      3898.503    22421025.763    93219193.02505
      3032.167  
  21403247.454   114452782.18904      3462.370    21403251.259    89018852.00207
      2692.953  
  19265069.096   103055117.21206      -877.641    19265071.119    80153995.95907
      -682.609  
 20 10 01 04 06 50.0000000  0 15G29G 2G15G18G 5G30G 7G13R 4R 3R12R18
                                R 5R20R19
  21154108.846   111165590.25849      -801.448    21154107.727    86622534.58349
      -624.512  
  22578005.816   118648216.87248     -2488.351    22578004.199    92453146.01446
     -1938.979  
  22873870.896   120203022.02047      3756.809    22873872.067    93664686.85147
      2927.386  
  23146798.445   121637249.47147      3217.940    23146799.780    94782279.36645
      2507.483  
  20425048.478   107334356.79549     -1369.116    20425048.179    83637154.76649
     -1066.848  
  24299468.975   127694572.70644      1789.565    24299477.303    99502298.04046
      1394.465  
  24584497.936   129192428.25646       356.218    24584497.316   100669402.25444
       277.574  
  21454509.692   112744210.42449      2530.316    21454509.397    87852630.58146
      1971.672  
  19284990.391   103270245.59509      1010.141    19284992.995    80321315.78008
       785.655  
  20508894.043   109785707.00008     -2846.019    20508897.108    85388904.33108
     -2213.574  
  23447351.333   125251542.87614      1487.680    23447357.923    97417893.39915
      1157.081  
  21826696.907   116512394.29807     -3921.788    21826703.033    90620768.74205
     -3050.281  
  22417376.457   119833721.38107      3896.612    22417380.754    93204038.53806
      3030.695  
  21400011.123   114435476.41404      3460.582    21400014.727    89005391.97806
      2691.563  
  19265891.905   103059519.34306      -882.020    19265894.072    80157419.83207
      -686.019  
 20 10 01 04 06 55.0000000  0 14G29G 2G15G18G 5G30G 7G13R 4R 3R18R 5
                                R20R19
  21154872.247   111169602.89649      -803.753    21154871.397    86625661.31049
      -626.304  
  22580373.527   118660658.87048     -2488.695    22580371.834    92462841.08445
     -1939.242  
  22870296.049   120184236.28847      3757.094    22870297.138    93650048.58047
      2927.597  
  23143736.316   121621157.37248      3218.590    23143737.694    94769740.07245
      2507.991  
  20426351.635   107341204.49349     -1370.124    20426351.288    83642490.62649
     -1067.633  
  24297766.763   127685627.42945      1788.215    24297774.867    99495327.69145
      1393.410  
  24584159.848   129190651.18745       354.152    24584159.610   100668017.46444
       275.953  
  21452102.685   112731561.98549      2528.823    21452102.427    87842774.66247
      1970.511  
  19284048.349   103265200.12909      1007.772    19284050.947    80317391.52608
       783.819  
  20511552.665   109799939.15508     -2847.077    20511555.733    85399973.78008
     -2214.397  
  21830370.500   116532004.15607     -3922.116    21830376.459    90636020.81305
     -3050.542  
  22413731.721   119814238.67807      3896.273    22413736.188    93188885.36005
      3030.437  
  21396775.605   114418174.95904      3460.324    21396779.467    88991935.33906
      2691.366  
  19266717.624   103063936.03706      -884.559    19266719.920    80160855.03307
      -687.992  
 20 10 01 04 07  0.0000000  0 13G29G 2G15G18G 5G 7G13R 4R 3R18R 5R20
                                R19
  21155637.969   111173626.98149      -805.562    21155637.001    86628796.95549
      -627.714  
  22582741.621   118673102.54248     -2488.437    22582739.643    92472537.46046
     -1939.042  
  22866721.376   120165451.16147      3757.371    22866722.393    93635410.81648
      2927.816  
  23140673.795   121605063.18548      3219.448    23140674.983    94757199.16145
      2508.660  
  20427655.739   107348057.01249     -1370.469    20427655.371    83647830.24949
     -1067.902  
  24583823.369   129188882.03646       353.570    24583823.135   100666638.90543
       275.515  
  21449697.205   112718920.79049      2528.012    21449696.950    87832924.38247
      1969.875  
  19283108.338   103260166.69209      1005.952    19283111.001    80313476.62208
       782.402  
  20514212.214   109814176.61508     -2847.574    20514215.546    85411047.36408
     -2214.781  
  21834044.730   116551617.32007     -3922.573    21834050.662    90651275.50905
     -3050.891  
  22410087.417   119794757.31407      3896.691    22410091.680    93173733.17305
      3030.754  
  21393540.930   114400877.63304      3458.512    21393544.736    88978481.87007
      2689.953  
  19267545.981   103068367.19106      -887.401    19267548.194    80164301.48407
      -690.206  
 20 10 01 04 07  5.0000000  0 13G29G 2G15G18G 5G 7G13R 4R 3R18R 5R20
                                R19
  21156406.738   111177666.98149      -810.280    21156406.030    86631945.00349
      -631.390  
  22585110.849   118685552.41548     -2491.133    22585108.676    92482238.66245
     -1941.145  
  22863147.632   120146671.04247      3754.956    22863148.582    93620776.97348
      2925.941  
  23137611.713   121588971.42948      3217.254    23137612.819    94744660.10845
      2506.945  
  20428961.381   107354918.95449     -1374.042    20428961.167    83653177.20649
     -1070.687  
  24583489.211   129187125.40046       349.144    24583489.482   100665270.06144
       272.054  
  21447293.981   112706291.35849      2524.035    21447293.686    87823083.26246
      1966.781  
  19282171.499   103255149.92909      1000.965    19282174.171    80309574.69808
       778.523  
  20516873.633   109828423.89808     -2851.124    20516877.055    85422128.56808
     -2217.547  
  21837720.519   116571238.52407     -3925.949    21837726.328    90666536.43905
     -3053.520  
  22406444.044   119775281.86907      3893.776    22406448.104    93158585.61305
      3028.491  
  21390308.022   114383589.04204      3455.789    21390311.940    88965035.19406
      2687.836  
  19268377.904   103072817.07006      -892.647    19268380.142    80167762.49907
      -694.284  
 20 10 01 04 07 10.0000000  0 13G29G 2G15G18G 5G 7G13R 4R 3R18R 5R20
                                R19
  21157179.864   111181729.44549      -814.257    21157178.962    86635110.56149
      -634.492  
  22587482.513   118698015.09548     -2493.566    22587480.178    92491949.81745
     -1943.042  
  22859576.034   120127902.63947      3752.976    22859577.111    93606152.27047
      2924.398  
  23134551.281   121572888.69048      3215.976    23134552.289    94732128.12445
      2505.956  
  20430270.253   107361796.84149     -1376.753    20430269.917    83658536.59749
     -1072.801  
  24583158.665   129185387.89946       345.823    24583159.306   100663916.16844
       269.473  
  21444894.221   112693680.31349      2520.792    21444893.872    87813256.48847
      1964.253  
  19281239.128   103250156.53209       996.800    19281241.661    80305690.94808
       775.269  
  20519538.253   109842687.63308     -2854.000    20519541.672    85433222.59308
     -2219.781  
  21841399.124   116590874.26407     -3928.355    21841404.787    90681808.68606
     -3055.390  
  22402803.223   119755819.06307      3891.430    22402806.925    93143447.89705
      3026.672  
  21387077.669   114366315.95404      3453.535    21387081.790    88951600.55806
      2686.077  
  19269214.448   103077292.48706      -897.402    19269216.902    80171243.37907
      -697.979  
 20 10 01 04 07 15.0000000  0 15G29G 2G15G18G 5G30G 7G13R 4R 3R12R18
                                R 5R20R19
  21157956.974   111185813.02849      -819.632    21157956.035    86638292.57649
      -638.680  
  22589856.253   118710489.15248     -2496.691    22589853.808    92501669.87046
     -1945.477  
  22856006.562   120109144.46547      3749.789    22856007.267    93591535.54347
      2921.917  
  23131492.307   121556813.51747      3213.590    23131493.311    94719602.03045
      2504.098  
  20431581.979   107368689.22849     -1380.746    20431581.588    83663907.29549
     -1075.910  
  24290976.845   127649944.88655      1777.160    24290985.401    99467524.15055
      1384.792  
  24582831.748   129183668.09746       341.687    24582832.453   100662576.07344
       266.249  
  21442497.702   112681086.24249      2516.309    21442497.265    87803442.93946
      1960.762  
  19280310.682   103245184.93509       991.473    19280313.475    80301824.15308
       771.144  
  20522205.626   109856966.41608     -2858.132    20522209.135    85444328.30808
     -2222.995  
  23440423.529   125214535.88115      1468.664    23440432.221    97389118.00215
      1142.289  
  21845080.145   116610523.24207     -3932.133    21845085.906    90697091.19205
     -3058.332  
  22399164.260   119736367.44007      3888.773    22399167.957    93128318.86905
      3024.597  
  21383850.230   114349056.63604      3449.754    21383854.325    88938176.62307
      2683.136  
  19270055.715   103081792.16806      -902.879    19270058.196    80174743.12707
      -702.241  
 20 10 01 04 07 20.0000000  0 15G29G 2G15G18G 5G30G 7G13R 4R 3R12R18
                                R 5R20R19
  21158737.887   111189917.19149      -821.694    21158737.014    86641490.61549
      -640.285  
  22592232.062   118722974.08248     -2496.968    22592229.566    92511398.35746
     -1945.694  
  22852439.026   120090396.09547      3749.793    22852439.311    93576926.42147
      2921.917  
  23128434.607   121540745.50747      3214.199    23128435.517    94707081.49745
      2504.565  
  20432896.160   107375595.54849     -1381.629    20432895.702    83669288.84449
     -1076.594  
  24289286.355   127641060.74145      1777.011    24289294.762    99460601.48545
      1384.683  
  24582507.786   129181965.57046       339.651    24582508.727   100661249.43743
       264.660  
  21440104.204   112668508.69949      2514.925    21440104.074    87793642.25547
      1959.679  
  19279386.307   103240234.79309       989.035    19279389.161    80297974.04108
       769.250  
  20524875.615   109871259.85508     -2859.137    20524879.212    85455445.43808
     -2223.772  
  23439050.440   125207200.80405      1465.464    23439059.108    97383412.93405
      1139.800  
  21848763.373   116630184.81107     -3932.140    21848769.251    90712383.50606
     -3058.339  
  22395527.348   119716926.62107      3888.043    22395531.329    93113198.22505
      3024.030  
  21380625.231   114331810.58604      3449.020    21380629.420    88924763.08006
      2682.578  
  19270901.174   103086315.39506      -905.922    19270903.823    80178261.18207
      -704.609  
 20 10 01 04 07 25.0000000  0 15G29G 2G15G18G 5G30G 7G13R 4R 3R12R18
                                R 5R20R19
  21159521.079   111194033.64449      -824.612    21159520.455    86644698.23749
      -642.559  
  22594608.242   118735461.55548     -2497.972    22594605.613    92521128.87446
     -1946.477  
  22848871.720   120071649.21447      3749.156    22848871.862    93562318.47248
      2921.421  
  23125376.781   121524676.27047      3214.030    23125377.784    94694560.02945
      2504.440  
  20434211.504   107382507.57149     -1383.167    20434211.059    83674674.82349
     -1077.797  
  24287597.108   127632182.78145      1774.875    24287605.208    99453683.57644
      1383.016  
  24582185.673   129180271.89047       337.824    24582186.705   100659929.68644
       263.237  
  21437712.385   112655939.29449      2512.831    21437712.081    87783847.91047
      1958.050  
  19278464.381   103235297.54409       985.897    19278467.007    80294133.95608
       766.804  
  20527546.968   109885559.25208     -2860.749    20527550.523    85466567.17408
     -2225.030  
  23437680.026   125199879.83105      1462.512    23437688.857    97377718.79205
      1137.504  
  21852447.529   116649850.65007     -3933.883    21852453.417    90727679.16505
     -3059.687  
  22391890.765   119697488.00007      3887.241    22391894.897    93098079.30505
      3023.405  
  21377400.762   114314569.84104      3447.285    21377405.216    88911353.61206
      2681.219  
  19271749.510   103090853.92306      -909.523    19271752.306    80181791.15007
      -707.409  
 20 10 01 04 07 30.0000000  0 15G29G 2G15G18G 5G30G 7G13R 4R 3R12R18
                                R 5R20R19
  21160307.321   111198165.24649      -828.145    21160306.578    86647917.65549
      -645.313  
  22596985.522   118747954.43448     -2499.327    22596982.918    92530863.57246
     -1947.531  
  22845305.127   120052906.70447      3747.749    22845305.143    93547713.91548
      2920.323  
  23122319.142   121508608.80347      3213.078    23122320.003    94682039.92745
      2503.695  
  20435528.551   107389428.13449     -1385.304    20435528.112    83680067.46649
     -1079.461  
  24285909.543   127623313.97545      1772.929    24285917.274    99446772.89244
      1381.508  
  24581866.009   129178590.10745       334.839    24581866.933   100658619.18044
       260.914  
  21435322.660   112643381.04449      2510.281    21435322.519    87774062.27347
      1956.062  
  19277545.457   103230376.18409       982.363    19277548.166    80290306.23508
       764.058  
  20530219.777   109899867.63708     -2862.874    20530223.294    85477695.92708
     -2226.680  
  23436312.856   125192575.81105      1459.085    23436321.702    97372037.95105
      1134.848  
  21856133.019   116669523.57807     -3935.444    21856138.818    90742980.32506
     -3060.906  
  22388255.314   119678054.58607      3885.987    22388259.404    93082964.44505
      3022.433  
  21374178.350   114297337.02804      3445.414    21374182.749    88897950.30607
      2679.762  
  19272601.426   103095410.50706      -913.008    19272604.156    80185335.15607
      -710.120  
 20 10 01 04 07 35.0000000  0 15G29G 2G15G18G 5G30G 7G13R 4R 3R12R18
                                R 5R20R19
  21161096.974   111202315.52649      -831.624    21161096.394    86651151.63349
      -648.022  
  22599364.488   118760456.29548     -2500.823    22599361.909    92540605.26945
     -1948.698  
  22841740.234   120034172.09647      3746.453    22841739.948    93533115.53747
      2919.312  
  23119262.620   121492546.57747      3212.151    23119263.539    94669523.90645
      2502.977  
  20436847.686   107396360.76849     -1387.503    20436847.364    83685469.51849
     -1081.176  
  24284224.443   127614457.83745      1770.391    24284232.171    99439872.02444
      1379.522  
  24581549.063   129176923.63445       331.957    24581550.044   100657320.63444
       258.668  
  21432935.611   112630837.42449      2507.479    21432935.650    87764288.03647
      1953.883  
  19276630.069   103225474.29609       978.613    19276632.684    80286493.66008
       761.144  
  20532895.036   109914188.50608     -2865.194    20532898.716    85488834.37308
     -2228.487  
  23434949.636   125185292.45605      1454.918    23434958.735    97366373.10105
      1131.601  
  21859820.554   116689207.11007     -3937.519    21859826.156    90758289.71306
     -3062.520  
  22384621.432   119658629.96607      3884.324    22384625.702    93067856.43705
      3021.144  
  21370957.970   114280115.70904      3443.483    21370962.212    88884555.96507
      2678.265  
  19273457.264   103099988.75606      -917.397    19273460.078    80188896.01507
      -713.531  
 20 10 01 04 07 40.0000000  0 15G29G 2G15G18G 5G30G 7G13R 4R 3R12R18
                                R 5R20R19
  21161889.864   111206482.72349      -835.316    21161889.393    86654398.80149
      -650.895  
  22601744.790   118772965.36648     -2502.464    22601742.098    92550352.58646
     -1949.977  
  22838176.303   120015443.69948      3744.945    22838175.951    93518522.00347
      2918.141  
  23116206.679   121476487.84048      3211.276    23116207.777    94657010.60346
      2502.288  
  20438168.942   107403303.73449     -1389.718    20438168.590    83690879.62549
     -1082.898  
  24282541.411   127605612.60245      1768.703    24282548.652    99432979.57344
      1378.198  
  24581234.778   129175270.68146       329.194    24581235.549   100656032.61043
       256.515  
  21430551.055   112618306.68549      2504.722    21430550.952    87754523.81647
      1951.727  
  19275718.022   103220590.07309       974.952    19275720.553    80282694.82308
       758.296  
  20535572.341   109928520.20508     -2867.594    20535576.101    85499981.24208
     -2230.355  
  23433589.815   125178028.03405      1451.198    23433598.888    97360722.99805
      1128.706  
  21863509.588   116708899.67007     -3939.612    21863515.271    90773606.13705
     -3064.147  
  22380989.034   119639212.34507      3882.500    22380993.088    93052753.86104
      3019.722  
  21367739.539   114262904.25304      3441.542    21367743.833    88871169.28507
      2676.753  
  19274317.053   103104587.01406      -921.366    19274319.561    80192472.43407
      -716.616  
 20 10 01 04 07 45.0000000  0 15G29G 2G15G18G 5G30G 7G13R 4R 3R12R18
                                R 5R20R19
  21162686.349   111210668.06349      -838.887    21162686.073    86657660.10249
      -653.684  
  22604126.607   118785482.89748     -2504.245    22604124.072    92560106.49646
     -1951.366  
  22834613.906   119996722.64448      3743.772    22834613.278    93503934.17347
      2917.226  
  23113151.649   121460433.83348      3210.281    23113153.037    94644501.01645
      2501.523  
  20439492.453   107410258.20849     -1392.026    20439492.018    83696298.68549
     -1084.698  
  24280860.536   127596779.54345      1765.723    24280867.961    99426096.70844
      1375.886  
  24580923.352   129173632.56746       326.112    24580924.297   100654756.18143
       254.121  
  21428169.331   112605790.04849      2502.066    21428169.201    87744770.60147
      1949.663  
  19274809.303   103215724.76709       971.284    19274812.030    80278910.70208
       755.445  
  20538251.734   109942863.89208     -2869.835    20538255.660    85511137.44108
     -2232.097  
  23432233.573   125170783.70305      1447.031    23432243.043    97355088.48905
      1125.464  
  21867200.686   116728602.34507     -3941.488    21867206.157    90788930.44806
     -3065.605  
  22377358.121   119619803.00507      3881.352    22377362.143    93037657.72005
      3018.827  
  21364522.863   114245703.80404      3439.250    21364527.366    88857791.15207
      2674.968  
  19275180.554   103109206.41206      -926.112    19275183.132    80196065.30307
      -720.312  
 20 10 01 04 07 50.0000000  0 15G29G 2G15G18G 5G30G 7G13R 4R 3R12R18
                                R 5R20R19
  21163485.908   111214870.71049      -842.468    21163485.709    86660934.88649
      -656.472  
  22606509.928   118798007.96248     -2505.953    22606507.465    92569866.28046
     -1952.694  
  22831052.878   119978008.22047      3741.741    22831051.859    93489351.50547
      2915.641  
  23110097.390   121444383.74747      3209.547    23110098.667    94631994.44345
      2500.945  
  20440817.877   107417223.35949     -1394.315    20440817.632    83701726.07149
     -1086.483  
  24279181.754   127587957.79645      1763.070    24279189.066    99419222.63144
      1373.819  
  24580614.409   129172008.30646       323.152    24580614.973   100653490.48643
       251.800  
  21425789.915   112593286.75749      2499.094    21425789.866    87735027.77747
      1947.348  
  19273904.182   103210877.51209       967.315    19273906.878    80275140.62108
       752.354  
  20540933.359   109957218.68508     -2872.241    20540937.376    85522302.28208
     -2233.968  
  23430881.227   125163558.64906      1442.585    23430890.660    97349469.01804
      1122.012  
  21870893.465   116748314.21607     -3943.730    21870898.802    90804261.90106
     -3067.352  
  22373728.491   119600401.30007      3879.375    22373732.865    93022567.51205
      3017.293  
  21361308.161   114228513.72104      3436.706    21361312.821    88844421.10706
      2672.995  
  19276047.949   103113846.07806      -930.413    19276050.304    80199673.93407
      -723.656  
 20 10 01 04 07 55.0000000  0 15G29G 2G15G18G 5G30G 7G13R 4R 3R12R18
                                R 5R20R19
  21164289.099   111219091.88249      -845.800    21164289.256    86664224.11849
      -659.065  
  22608895.085   118810541.85748     -2507.390    22608892.278    92579632.94345
     -1953.815  
  22827493.090   119959301.59847      3740.776    22827491.981    93474774.96447
      2914.891  
  23107044.061   121428338.77247      3208.691    23107045.341    94619491.89845
      2500.276  
  20442145.567   107424200.47549     -1396.387    20442145.180    83707162.78549
     -1088.097  
  24277505.590   127579148.68245      1761.113    24277512.817    99412358.45345
      1372.309  
  24580308.452   129170399.30846       320.229    24580308.353   100652236.74241
       249.531  
  21423413.320   112580797.98149      2496.547    21423413.444    87725296.25947
      1945.355  
  19273002.599   103206049.57309       963.941    19273005.340    80271385.55808
       749.729  
  20543617.216   109971585.83008     -2874.526    20543621.238    85533476.71108
     -2235.746  
  23429532.732   125156354.10406      1438.711    23429541.835    97343865.45905
      1118.987  
  21874588.126   116768036.63107     -3945.313    21874593.457    90819601.57805
     -3068.574  
  22370100.628   119581008.10807      3878.395    22370104.970    93007483.89905
      3016.522  
  21358095.771   114211335.15904      3435.449    21358100.450    88831060.04107
      2672.019  
  19276919.179   103118507.35506      -934.340    19276921.799    80203299.36507
      -726.710  
 20 10 01 04 08  0.0000000  0 14G29G 2G15G18G 5G30G 7G13R 4R 3R12R18
                                R 5R19
  21165095.561   111223329.58949      -849.375    21165095.724    86667526.21949
      -661.855  
  22611281.599   118823082.54248     -2509.000    22611278.607    92589404.90545
     -1955.070  
  22823934.503   119940600.81648      3739.464    22823933.130    93460202.90847
      2913.862  
  23103991.329   121412296.96347      3207.863    23103992.754    94606991.78245
      2499.632  
  20443475.175   107431187.52349     -1398.531    20443474.932    83712607.23949
     -1089.766  
  24275831.479   127570350.04746      1758.976    24275838.569    99405502.37544
      1370.636  
  24580004.926   129168803.45645       317.914    24580005.139   100650993.25841
       247.729  
  21421039.192   112568321.75749      2493.823    21421039.178    87715574.53547
      1943.237  
  19272104.168   103201238.89109       960.336    19272106.949    80267643.91608
       746.809  
  20546303.199   109985963.23408     -2876.535    20546307.275    85544659.13508
     -2237.308  
  23428187.566   125149168.00006      1435.124    23428196.637    97338276.27805
      1116.207  
  21878284.458   116787767.43107     -3947.164    21878289.563    90834947.74605
     -3070.019  
  22366473.829   119561621.72707      3876.492    22366478.382    92992405.65605
      3015.054  
  19277794.342   103123188.07006      -937.944    19277796.643    80206939.91607
      -729.515  
 20 10 01 04 08  5.0000000  0 14G29G 2G15G18G 5G30G 7G13R 4R 3R12R18
                                R 5R19
  21165905.646   111227586.27149      -852.887    21165905.859    86670843.11849
      -664.589  
  22613669.862   118835632.51248     -2510.566    22613666.848    92599184.10245
     -1956.284  
  22820377.640   119921908.34148      3738.039    22820376.112    93445637.35747
      2912.757  
  23100939.789   121396260.79048      3206.902    23100941.400    94594496.06046
      2498.882  
  20444807.056   107438186.94849     -1400.819    20444806.886    83718061.33749
     -1091.550  
  24274159.750   127561564.51745      1756.179    24274166.768    99398656.53544
      1368.457  
  24579704.442   129167223.27446       314.828    24579704.798   100649762.00643
       245.327  
  21418667.898   112555860.52449      2491.074    21418667.861    87705864.48147
      1941.097  
  19271209.649   103196448.03409       956.511    19271212.397    80263917.70108
       743.953  
  20548991.329   110000353.44408     -2878.937    20548995.441    85555851.51408
     -2239.176  
  23426846.295   125142003.01506      1431.414    23426855.247    97332703.51705
      1113.320  
  21881982.843   116807509.12907     -3948.910    21881987.874    90850302.34906
     -3071.383  
  22362848.973   119542244.47907      3874.854    22362853.466    92977334.49205
      3013.780  
  19278673.375   103127890.83806      -942.543    19278675.821    80210597.62707
      -733.089  
 20 10 01 04 08 10.0000000  0 14G29G 2G15G18G 5G30G 7G13R 4R 3R12R18
                                R 5R19
  21166718.212   111231856.95849      -855.770    21166718.428    86674170.92449
      -666.835  
  22616058.896   118848186.71848     -2511.621    22616055.481    92608966.59345
     -1957.109  
  22816821.322   119903219.20247      3737.261    22816819.551    93431074.39847
      2912.148  
  23097888.378   121380225.20748      3206.604    23097889.773    94582000.81345
      2498.651  
  20446140.452   107445193.70949     -1402.382    20446140.290    83723521.15349
     -1092.766  
  24272489.555   127552787.02245      1754.870    24272496.053    99391816.92644
      1367.430  
  24579405.843   129165653.78005       312.761           0.000           0.0000 
         0.000  
  21416298.489   112543409.32349      2488.836    21416298.469    87696162.24947
      1939.352  
  19270317.560   103191671.81109       953.507    19270320.486    80260202.86208
       741.616  
  20551680.995   110014751.37408     -2880.660    20551685.004    85567049.90008
     -2240.515  
  23425507.968   125134853.97405      1428.016    23425516.849    97327143.12105
      1110.672  
  21885682.122   116827256.81907     -3950.753    21885687.128    90865661.68106
     -3072.812  
  22359224.847   119522871.38407      3873.995    22359229.257    92962266.51605
      3013.104  
  19279555.750   103132610.57606      -945.824    19279558.164    80214268.53407
      -735.645  
 20 10 01 04 08 15.0000000  0 14G29G 2G15G18G 5G30G 7G13R 4R 3R12R18
                                R 5R19
  21167535.556   111236151.84949      -861.324    21167535.862    86677517.58449
      -671.164  
  22618450.739   118860755.37848     -2514.969    22618447.138    92618760.33945
     -1959.719  
  22813267.479   119884543.60148      3733.808    22813265.729    93416522.02747
      2909.465  
  23094838.895   121364200.47048      3203.788    23094840.588    94569514.00445
      2496.460  
  20447477.272   107452218.05549     -1406.590    20447476.855    83728994.66449
     -1096.046  
  24270822.660   127544027.83646      1750.062    24270829.012    99384991.60944
      1363.679  
  24579111.084   129164105.06445       308.030    24579109.939   100647347.31451
       239.999  
  21413932.900   112530978.34749      2484.184    21413932.752    87686475.78347
      1935.726  
  19269430.337   103186920.74409       947.762    19269433.378    80256507.58608
       737.147  
  20554374.044   110029167.34608     -2884.977    20554378.148    85578262.31908
     -2243.875  
  23424174.778   125127731.22005      1421.401    23424183.041    97321603.23104
      1105.534  
  21889384.615   116847020.66407     -3954.331    21889389.548    90881033.56506
     -3075.594  
  22355603.421   119503512.75607      3870.483    22355607.674    92947209.83205
      3010.379  
  19280443.128   103137357.72606      -951.667    19280445.569    80217960.75307
      -740.190  
 20 10 01 04 08 20.0000000  0 14G29G 2G15G18G 5G30G 7G13R 4R 3R12R18
                                R 5R19
  21168356.141   111240463.42449      -863.609    21168356.464    86680877.25149
      -672.945  
  22620843.906   118873331.05748     -2515.242    22620839.988    92628559.56545
     -1959.934  
  22809714.933   119865874.06147      3733.816    22809712.837    93401974.34147
      2909.465  
  23091790.214   121348179.07748      3204.363    23091791.623    94557029.81445
      2496.906  
  20448815.833   107459252.49249     -1407.448    20448815.616    83734476.04249
     -1096.719  
  24269158.109   127535279.40546      1748.886    24269164.045    99378174.59743
      1362.761  
  24578818.823   129162569.81545       306.093    24578817.310   100646150.82741
       238.492  
  21411569.784   112518560.15049      2482.780    21411569.701    87676799.26646
      1934.633  
  19268546.480   103182187.07109       945.457    19268549.391    80252825.84508
       735.351  
  20557068.971   110043593.75208     -2885.895    20557072.946    85589482.84508
     -2244.590  
  23422844.973   125120627.14106      1419.594    23422852.742    97316077.83104
      1104.128  
  21893088.628   116866792.93807     -3954.813    21893093.473    90896411.97706
     -3075.972  
  22351983.482   119484161.11007      3870.077    22351987.528    92932158.55705
      3010.058  
  19281334.320   103142124.50306      -954.526    19281336.834    80221668.25307
      -742.409  
 20 10 01 04 08 25.0000000  0 14G29G 2G15G18G 5G30G 7G13R 4R 3R12R18
                                R 5R19
  21169179.213   111244788.26049      -866.444    21169179.493    86684247.25949
      -675.155  
  22623237.621   118885910.23648     -2516.097    22623233.592    92638361.53645
     -1960.594  
  22806162.774   119847207.21847      3732.637    22806160.418    93387428.75047
      2908.547  
  23088741.261   121332157.62447      3203.973    23088742.804    94544545.56745
      2496.602  
  20450155.710   107466293.68949     -1409.070    20450155.366    83739962.68749
     -1097.979  
  24267494.886   127526538.42045      1746.929    24267500.759    99371363.53044
      1361.246  
  24578528.653   129161044.55505       303.964           0.000           0.0000 
         0.000  
  21409208.398   112506151.32849      2480.621    21409208.404    87667130.05547
      1932.953  
  19267665.043   103177467.36309       942.366    19267667.995    80249154.95408
       732.948  
  20559765.392   110058027.09608     -2887.449    20559769.150    85600708.78408
     -2245.797  
  23421517.913   125113538.34905      1416.535    23421525.523    97310564.31604
      1101.749  
  21896793.695   116886570.43207     -3955.741    21896798.657    90911794.46206
     -3076.691  
  22348363.877   119464812.84107      3869.387    22348367.886    92917109.88405
      3009.519  
  19282228.420   103146907.49506      -958.402    19282230.995    80225388.36107
      -745.425  
 20 10 01 04 08 30.0000000  0 14G29G 2G15G18G 5G30G 7G13R 4R 3R12R18
                                R 5R19
  21170005.895   111249132.25449      -870.605    21170006.179    86687632.18349
      -678.398  
  22625633.090   118898498.85748     -2518.418    22625628.965    92648170.84645
     -1962.406  
  22802612.128   119828548.94448      3730.828    22802609.955    93372889.85247
      2907.145  
  23085693.677   121316142.05648      3202.730    23085694.867    94532065.89946
      2495.629  
  20451498.072   107473347.41049     -1411.953    20451497.789    83745459.09149
     -1100.226  
  24265833.989   127517810.72446      1744.581    24265840.129    99364562.74544
      1359.413  
  24578241.453   129159535.27645       300.238    24578234.668   100643762.25554
       233.953  
  21406849.861   112493757.79049      2477.277    21406849.777    87657472.74747
      1930.344  
  19266787.350   103172767.73209       937.961    19266790.432    80245499.68508
       729.511  
  20562464.082   110072473.36108     -2890.421    20562467.719    85611944.76208
     -2248.109  
  23420194.828   125106470.88505      1411.328    23420202.255    97305067.40805
      1097.695  
  21900500.904   116906359.01507     -3958.727    21900505.831    90927185.58306
     -3079.012  
  22344746.193   119445473.99407      3867.109    22344750.188    92902068.60305
      3007.753  
  19283126.574   103151712.79206      -963.296    19283129.256    80229125.81107
      -749.234  
 20 10 01 04 08 35.0000000  0 14G29G 2G15G18G 5G30G 7G13R 4R 3R12R18
                                R 5R19
  21170835.805   111253493.71149      -873.905    21170836.038    86691030.72349
      -680.969  
  22628030.212   118911095.19248     -2519.938    22628026.098    92657986.14345
     -1963.589  
  22799062.998   119809897.51747      3729.702    22799060.898    93358356.27647
      2906.258  
  23082646.680   121300130.63947      3201.933    23082648.172    94519589.47445
      2495.015  
  20452842.348   107480411.90849     -1413.882    20452841.911    83750963.89049
     -1101.730  
  24264175.378   127509094.57146      1742.914    24264181.263    99357770.84344
      1358.097  
  24577956.766   129158040.11105       298.277           0.000           0.0000 
         0.000  
  21404494.019   112481377.78949      2474.855    21404493.873    87647825.99847
      1928.457  
  19265913.202   103168086.29909       934.499    19265916.207    80241858.57108
       726.828  
  20565164.850   110086930.78308     -2892.387    20565168.497    85623189.43407
     -2249.633  
  23418875.546   125099422.92405      1407.605    23418882.551    97299585.65104
      1094.801  
  21904209.553   116926156.84707     -3960.351    21904214.661    90942583.89406
     -3080.276  
  22341129.920   119426142.88007      3865.563    22341133.933    92887033.29106
      3006.547  
  19284028.786   103156538.45806      -967.183    19284031.552    80232879.11007
      -752.253  
 20 10 01 04 08 40.0000000  0 14G29G 2G15G18G 5G30G 7G13R 4R 3R12R18
                                R 5R19
  21171668.929   111257871.15049      -876.984    21171669.038    86694441.71749
      -683.367  
  22630428.310   118923697.81148     -2521.246    22630424.252    92667806.36845
     -1964.609  
  22795514.754   119791251.52848      3728.750    22795512.444    93343826.94947
      2905.515  
  23079600.209   121284121.91547      3201.574    23079601.902    94507115.16545
      2494.734  
  20454188.513   107487485.74449     -1415.703    20454187.996    83756475.97849
     -1103.145  
  24262518.754   127500388.73246      1740.008    24262524.678    99350987.09144
      1355.851  
  24577674.494   129156557.67245       294.738    24577670.034   100641445.98551
       229.668  
  21402140.437   112469009.94649      2472.577    21402140.420    87638188.71647
      1926.680  
  19265042.034   103163421.64209       931.296    19265045.131    80238230.50708
       724.339  
  20567867.485   110101397.85808     -2894.352    20567870.916    85634441.59407
     -2251.168  
  23417559.709   125092393.08405      1404.594    23417566.274    97294117.97505
      1092.448  
  21907919.904   116945962.57807     -3961.801    21907925.124    90957988.32306
     -3081.409  
  22337515.036   119406818.00307      3864.343    22337518.637    92872002.84005
      3005.602  
  19284934.510   103161383.15706      -970.977    19284937.204    80236647.21807
      -755.202  
 20 10 01 04 08 45.0000000  0 14G29G 2G15G18G 5G30G 7G13R 4R 3R12R18
                                R 5R19
  21172505.298   111262266.26649      -881.007    21172505.424    86697866.48749
      -686.500  
  22632828.131   118936308.36548     -2522.991    22632823.909    92677632.78145
     -1965.972  
  22791967.879   119772612.69448      3726.891    22791965.736    93329303.14947
      2904.066  
  23076554.633   121268117.62247      3200.262    23076556.286    94494644.28245
      2493.711  
  20455536.767   107494570.61649     -1418.144    20455536.301    83761996.65549
     -1105.050  
  24260864.405   127491694.60146      1737.879    24260869.910    99344212.43944
      1354.190  
  24577394.940   129155089.54344       291.941    24577396.166   100640328.01154
       227.488  
  21399789.504   112456655.89349      2469.293    21399789.659    87628562.18447
      1924.125  
  19264174.436   103158775.44209       927.301    19264177.382    80234616.80108
       721.233  
  20570572.373   110115876.30308     -2896.933    20570575.542    85645702.60008
     -2253.176  
  23416247.464   125085383.02505      1399.926    23416253.937    97288665.69805
      1088.827  
  21911631.806   116965777.80807     -3964.026    21911637.319    90973400.13706
     -3083.140  
  22333901.426   119387501.03207      3862.465    22333904.961    92856978.56306
      3004.144  
  19285843.868   103166248.67306      -975.327    19285846.716    80240431.50807
      -758.590  
 20 10 01 04 08 50.0000000  0 14G29G 2G15G18G 5G30G 7G13R 4R 3R12R18
                                R 5R19
  21173344.911   111266678.96249      -884.227    21173344.948    86701304.94649
      -689.012  
  22635229.285   118948926.79748     -2524.340    22635225.316    92687465.33145
     -1967.020  
  22788422.337   119753980.93348      3725.987    22788420.195    93314784.93647
      2903.367  
  23073509.885   121252117.64147      3199.629    23073511.323    94482176.79445
      2493.222  
  20456887.117   107501666.53349     -1420.206    20456886.564    83767525.94549
     -1106.655  
  24259212.374   127483012.34046      1736.078    24259218.169    99337447.05144
      1352.785  
  24577118.085   129153635.94105       288.945           0.000           0.0000 
         0.000  
  21397441.263   112444315.61649      2466.905    21397441.360    87618946.38547
      1922.265  
  19263310.155   103154147.66509       923.858    19263313.215    80231017.42008
       718.559  
  20573279.295   110130366.04108     -2899.004    20573282.383    85656972.39207
     -2254.784  
  23414938.761   125078392.73405      1395.968    23414945.266    97283228.81305
      1085.749  
  21915345.672   116985602.45807     -3965.836    21915351.109    90988819.31806
     -3084.542  
  22330289.295   119368192.12207      3861.156    22330292.699    92841960.50705
      3003.117  
  19286757.220   103171134.76706      -979.504    19286760.066    80244231.79607
      -761.839  
 20 10 01 04 08 55.0000000  0 14G29G 2G15G18G 5G30G 7G13R 4R 3R12R18
                                R 5R19
  21174188.144   111271109.68149      -887.835    21174188.161    86704757.45049
      -691.824  
  22637632.149   118961553.49448     -2526.233    22637628.249    92697304.31345
     -1968.495  
  22784878.399   119735356.66648      3724.359    22784876.493    93300272.53948
      2902.097  
  23070466.073   121236122.45747      3198.608    23070467.648    94469713.01545
      2492.421  
  20458239.537   107508773.79949     -1422.612    20458239.276    83773064.07249
     -1108.534  
  24257562.522   127474342.40345      1733.063    24257568.121    99330691.29044
      1350.441  
  24576844.197   129152196.90044       285.620    24576837.836   100638048.93151
       222.562  
  21395095.701   112431989.51149      2463.852    21395095.741    87609341.62447
      1919.878  
  19262449.389   103149538.67808       919.883    19262452.406    80227432.64908
       715.460  
  20575988.269   110144867.45608     -2901.546    20575991.355    85668251.27307
     -2256.758  
  23413633.927   125071422.54205      1392.647    23413640.362    97277807.51305
      1083.168  
  21919061.207   117005436.98807     -3967.879    21919066.838    91004246.17505
     -3086.128  
  22326678.607   119348891.54707      3859.441    22326681.792    92826948.99205
      3001.792  
  19287674.705   103176042.00606      -983.456    19287677.491    80248048.54107
      -764.913  
 20 10 01 04 09  0.0000000  0 15G29G 2G15G18G 5G30G 7G13R 4R 3R12R18
                                R 5R20R19
  21175034.625   111275557.81349      -891.476    21175034.532    86708223.54049
      -694.655  
  22640036.355   118974187.93248     -2527.827    22640032.623    92707149.32446
     -1969.738  
  22781335.761   119716739.28848      3722.538    22781333.868    93285765.48947
      2900.680  
  23067423.018   121220131.41047      3197.776    23067424.437    94457252.48045
      2491.773  
  20459594.044   107515891.81149     -1424.746    20459593.691    83778610.58149
     -1110.194  
  24255914.745   127465683.87046      1730.734    24255920.308    99323944.36444
      1348.624  
  24576573.075   129150772.11145       283.757    24576570.178   100636953.76055
       221.109  
  21392752.838   112419677.02749      2461.128    21392752.787    87599747.49447
      1917.762  
  19261592.020   103144947.94108       916.176    19261595.217    80223862.08208
       712.578  
  20578699.438   110159380.02708     -2903.569    20578702.273    85679538.82007
     -2258.336  
  23412332.827   125064472.05005      1388.094    23412339.283    97272401.60505
      1079.628  
  21922778.599   117025280.77007     -3969.706    21922784.274    91019680.21606
     -3087.555  
  22323069.376   119329598.57707      3857.875    22323072.594    92811943.30305
      3000.566  
  21316512.884   113988974.46114      3406.753    21316517.045    88658108.08216
      2649.698  
  19288595.680   103180969.63306      -987.664    19288598.731    80251881.13007
      -768.187  
 20 10 01 04 09  5.0000000  0 15G29G 2G15G18G 5G30G 7G13R 4R 3R12R18
                                R 5R20R19
  21175884.131   111280021.96949      -894.710    21175884.067    86711702.08949
      -697.180  
  22642441.855   118986828.67048     -2528.984    22642438.064    92716999.23245
     -1970.641  
  22777794.040   119698127.45348      3721.523    22777792.355    93271262.80348
      2899.891  
  23064380.583   121204143.15147      3196.984    23064381.952    94444794.10845
      2491.155  
  20460950.433   107523019.18449     -1426.672    20460950.059    83784164.37149
     -1111.694  
  24254269.207   127457035.72646      1728.879    24254274.134    99317205.55645
      1347.175  
  24576304.171   129149360.07645       280.507    24576299.622   100635848.50253
       218.577  
  21390412.043   112407376.72649      2458.671    21390412.026    87590162.84547
      1915.848  
  19260737.790   103140373.98408       913.027    19260740.929    80220304.56208
       710.133  
  20581412.317   110173902.15208     -2905.641    20581415.111    85690833.79607
     -2259.944  
  23411034.938   125057539.58705      1384.952    23411041.534    97267009.69205
      1077.179  
  21926497.535   117045132.32807     -3971.352    21926503.100    91035120.31005
     -3088.827  
  22319461.482   119310312.00407      3856.386    22319464.459    92796942.68606
      2999.414  
  21313327.915   113971942.53204      3405.844    21313332.060    88644861.04306
      2648.988  
  19289520.500   103185916.33206      -991.156    19289523.365    80255728.55607
      -770.901  
 20 10 01 04 09 10.0000000  0 15G29G 2G15G18G 5G30G 7G13R 4R 3R12R18
                                R 5R20R19
  21176737.061   111284503.64449      -898.206    21176736.774    86715194.31449
      -699.901  
  22644848.873   118999477.22948     -2530.598    22644845.009    92726855.27245
     -1971.890  
  22774253.642   119679522.75147      3720.402    22774252.193    93256765.62047
      2899.016  
  23061338.894   121188159.21747      3196.156    23061340.189    94432339.09545
      2490.511  
  20462308.706   107530157.45849     -1428.863    20462308.375    83789726.66549
     -1113.402  
  24252625.878   127448399.38146      1726.355    24252630.269    99310475.92445
      1345.207  
  24576038.058   129147962.45244       277.383    24576036.506   100634759.39944
       216.147  
  21388074.107   112395090.19549      2455.813    21388073.985    87580588.92547
      1913.620  
  19259887.090   103135818.40208       909.215    19259890.251    80216761.33208
       707.155  
  20584127.216   110188435.49908     -2907.855    20584130.114    85702137.50607
     -2261.668  
  23409740.790   125050626.91505      1380.921    23409747.708    97261633.13505
      1074.043  
  21930218.023   117064993.14207     -3973.190    21930223.584    91050567.62805
     -3090.261  
  22315854.911   119291033.28707      3854.835    22315858.044    92781948.09905
      2998.203  
  21310144.992   113954921.45204      3402.609    21310148.994    88631622.42307
      2646.468  
  19290449.076   103190883.61406      -995.539    19290451.871    80259591.99807
      -774.313  
 20 10 01 04 09 15.0000000  0 15G29G 2G15G18G 5G30G 7G13R 4R 3R12R18
                                R 5R20R19
  21177593.416   111289003.57149      -901.590    21177592.897    86718700.74449
      -702.539  
  22647257.408   119012134.32048     -2532.120    22647253.392    92736717.91445
     -1973.086  
  22770714.735   119660925.89147      3718.816    22770713.545    93242274.57247
      2897.773  
  23058298.158   121172180.38647      3195.277    23058299.357    94419888.08445
      2489.827  
  20463669.288   107537307.33249     -1430.979    20463668.874    83795297.99349
     -1115.054  
  24250984.885   127439775.56246      1724.148    24250989.282    99303756.07244
      1343.488  
  24575774.838   129146579.75444       275.477    24575772.637   100633681.96544
       214.645  
  21385738.851   112382818.18549      2453.203    21385738.838    87571026.32447
      1911.585  
  19259039.760   103131281.89608       905.495    19259042.970    80213232.93508
       704.254  
  20586844.327   110202980.75308     -2909.991    20586847.283    85713450.48507
     -2263.328  
  23408450.664   125043734.79605      1376.590    23408457.463    97256272.61805
      1070.679  
  21933940.432   117084864.23807     -3974.703    21933946.028    91066022.92705
     -3091.438  
  22312250.014   119271763.29707      3853.440    22312253.220    92766960.34506
      2997.120  
  21306963.764   113937911.90104      3400.374    21306968.147    88618392.78307
      2644.733  
  19291381.684   103195872.25006      -999.741    19291384.728    80263472.04307
      -777.581  
 20 10 01 04 09 20.0000000  0 15G29G 2G15G18G 5G30G 7G13R 4R 3R12R18
                                R 5R20R19
  21178452.639   111293518.29049      -903.530    21178451.976    86722218.71749
      -704.050  
  22649666.880   119024796.49448     -2531.875    22649663.002    92746584.52244
     -1972.897  
  22767176.761   119642333.30347      3718.827    22767175.689    93227786.83248
      2897.784  
  23055257.802   121156203.11347      3196.007    23055258.844    94407438.25645
      2490.395  
  20465031.377   107544465.31249     -1431.503    20465031.058    83800875.63049
     -1115.460  
  24249345.529   127431160.78446      1723.038    24249349.750    99297043.24444
      1342.625  
  24575513.787   129145208.63844       274.280    24575514.494   100632613.47342
       213.702  
  21383405.651   112370557.22949      2451.969    21383405.640    87561472.33347
      1910.625  
  19258195.426   103126760.92709       903.531    19258198.772    80209716.63008
       702.745  
  20589563.097   110217534.29008     -2910.676    20589565.958    85724769.89207
     -2263.863  
  23407163.553   125036859.59205      1374.602    23407170.624    97250925.28006
      1069.141  
  21937664.005   117104741.73307     -3975.507    21937669.928    91081483.18005
     -3092.069  
  22308646.088   119252498.49407      3853.397    22308649.438    92751976.60906
      2997.081  
  21303784.396   113920910.45404      3400.168    21303788.987    88605169.43807
      2644.570  
  19292317.544   103200878.65806     -1002.500    19292320.437    80267365.92307
      -779.723  
 20 10 01 04 09 25.0000000  0 15G29G 2G15G18G 5G30G 7G13R 4R 3R12R18
                                R 5R20R19
  21179314.123   111298045.10649      -907.765    21179313.542    86725746.09249
      -707.354  
  22652076.907   119037461.02148     -2534.191    22652073.058    92756453.01545
     -1974.694  
  22763638.943   119623742.35047      3716.573    22763638.345    93213300.40348
      2896.035  
  23052217.025   121140224.75448      3194.465    23052218.099    94394987.60046
      2489.199  
  20466394.421   107551628.72349     -1434.628    20466394.249    83806457.51349
     -1117.898  
  24247707.489   127422552.35646      1719.737    24247711.627    99290335.43644
      1340.058  
  24575254.490   129143846.27845       270.422    24575254.245   100631552.04743
       210.733  
  21381073.959   112358304.57348      2448.327    21381073.899    87551924.80547
      1907.785  
  19257353.545   103122252.78909       899.039    19257356.984    80206210.30108
       699.250  
  20592282.852   110232093.47808     -2913.773    20592285.831    85736093.69207
     -2266.272  
  23405879.054   125029998.65105      1369.012    23405886.211    97245588.96005
      1064.777  
  21941388.593   117124623.02507     -3977.862    21941394.291    91096946.41506
     -3093.895  
  22305042.752   119233236.00707      3851.238    22305046.152    92736994.65506
      2995.401  
  21300605.958   113903914.32504      3397.503    21300610.819    88591950.25207
      2642.507  
  19293256.361   103205900.16905     -1007.188    19293259.230    80271271.53707
      -783.371  
 20 10 01 04 09 30.0000000  0 15G29G 2G15G18G 5G30G 7G13R 4R 3R12R18
                                R 5R20R19
  21180180.170   111302596.46349      -912.495    21180179.494    86729292.61149
      -711.034  
  22654489.582   119050140.33848     -2537.285    22654485.935    92766333.00245
     -1977.104  
  22760103.778   119605165.49547      3714.194    22760103.343    93198824.94248
      2894.180  
  23049178.557   121124257.74647      3192.597    23049179.518    94382545.80845
      2487.741  
  20467760.900   107558809.99249     -1437.772    20467760.822    83812053.30749
     -1120.348  
  24246072.913   127413962.81847      1716.273    24246077.194    99283642.26744
      1337.354  
  24574999.427   129142505.40844       265.616    24574999.005   100630507.16341
       206.977  
  21378746.244   112346072.78448      2444.468    21378746.324    87542393.55447
      1904.780  
  19256516.515   103117770.12708       894.105    19256519.734    80202723.77708
       695.453  
  20595005.993   110246670.98008     -2917.195    20595009.083    85747431.74907
     -2268.933  
  23404599.798   125023164.59505      1364.301    23404607.126    97240273.55506
      1061.116  
  21945115.873   117144520.84607     -3981.116    21945121.892    91112422.50405
     -3096.425  
  22301442.048   119213988.58407      3848.383    22301445.704    92722024.46906
      2993.190  
  21297430.838   113886936.12304      3394.137    21297435.860    88578744.97507
      2639.878  
  19294200.165   103210949.35006     -1012.570    19294203.099    80275198.68107
      -787.555  
 20 10 01 04 09 35.0000000  0 15G29G 2G15G18G 5G30G 7G13R 4R 3R12R18
                                R 5R20R19
  21181050.025   111307167.83349      -916.487    21181049.386    86732854.70649
      -714.151  
  22656904.142   119062829.96748     -2538.902    22656900.804    92776221.01946
     -1978.367  
  22756570.515   119586598.29347      3712.547    22756570.313    93184356.99748
      2892.894  
  23046141.354   121108297.63647      3191.183    23046142.372    94370109.35646
      2486.637  
  20469130.047   107566004.65849     -1440.359    20469129.813    83817659.53449
     -1122.363  
  24244441.207   127405387.61547      1713.289    24244445.405    99276960.27444
      1335.027  
  24574747.522   129141181.23644       263.237    24574747.158   100629475.35944
       205.125  
  21376421.777   112333857.31748      2441.323    21376421.897    87532875.01046
      1902.331  
  19255683.203   103113308.33709       890.065    19255686.526    80199253.49708
       692.270  
  20597731.954   110261262.10408     -2919.770    20597735.001    85758780.40207
     -2270.938  
  23403324.516   125016352.80205      1359.879    23403332.163    97234975.52806
      1057.684  
  21948845.666   117164430.35807     -3982.917    21948851.675    91127907.68206
     -3097.828  
  22297843.362   119194751.76207      3845.832    22297847.233    92707062.50206
      2991.202  
  21294258.307   113869971.54904      3391.066    21294263.760    88565550.30807
      2637.496  
  19295148.401   103216021.77206     -1017.176    19295151.343    80279143.89907
      -791.140  
 20 10 01 04 09 40.0000000  0 15G29G 2G15G18G 5G30G 7G13R 4R 3R12R18
                                R 5R20R19
  21181923.319   111311756.48949      -919.250    21181922.702    86736430.28949
      -716.297  
  22659320.407   119075527.18348     -2540.062    22659316.980    92786114.94946
     -1979.270  
  22753038.536   119568038.05747      3711.417    22753038.754    93169894.47448
      2892.016  
  23043104.974   121092341.66247      3190.848    23043106.057    94357676.15546
      2486.378  
  20470501.096   107573209.94449     -1442.003    20470501.009    83823274.03749
     -1123.644  
  24242811.814   127396824.00546      1711.664    24242815.757    99270287.35344
      1333.765  
  24574498.257   129139871.24645       260.527    24574497.832   100628454.56944
       203.003  
  21374099.781   112321655.42649      2439.171    21374099.916    87523367.04147
      1900.647  
  19254853.274   103108864.79609       886.956    19254856.674    80195797.41308
       689.854  
  20600459.764   110275864.03608     -2921.246    20600462.807    85770137.45207
     -2272.085  
  23402052.928   125009560.61205      1356.749    23402060.804    97229692.72706
      1055.249  
  21952576.914   117184348.88907     -3984.434    21952583.202    91143399.88206
     -3099.004  
  22294246.120   119175522.63107      3845.319    22294250.212    92692106.50106
      2990.801  
  21291087.814   113853017.59604      3389.608    21291093.289    88552363.91107
      2636.362  
  19296100.389   103221114.54806     -1020.210    19296103.451    80283104.94807
      -793.499  
 20 10 01 04 09 45.0000000  0 15G29G 2G15G18G 5G30G 7G13R 4R 3R12R18
                                R 5R20R19
  21182799.653   111316361.31349      -922.714    21182798.948    86740018.46349
      -718.999  
  22661737.626   119088230.81848     -2541.319    22661734.609    92796013.88945
     -1980.254  
  22749507.525   119549483.62447      3710.319    22749508.084    93155436.47248
      2891.155  
  23040069.104   121076388.74747      3190.160    23040070.237    94345245.32446
      2485.840  
  20471874.074   107580424.71249     -1443.953    20471873.657    83828895.93049
     -1125.163  
  24241184.328   127388271.03946      1708.867    24241187.933    99263622.68745
      1331.582  
  24574251.447   129138574.25045       257.758    24574251.170   100627443.93441
       200.852  
  21371780.264   112309466.03348      2436.477    21371780.100    87513868.81447
      1898.550  
  19254026.720   103104438.16909       883.569    19254029.966    80192354.48208
       687.223  
  20603189.223   110290475.79308     -2923.395    20603192.513    85781502.15707
     -2273.754  
  23400784.853   125002786.90705      1353.000    23400793.043    97224424.27906
      1052.328  
  21956309.869   117204275.47006     -3986.145    21956316.436    91158898.32506
     -3100.340  
  22290650.194   119156300.06306      3843.315    22290654.392    92677155.62006
      2989.245  
  21287919.204   113836073.23804      3387.582    21287924.742    88539184.95907
      2634.781  
  19297056.068   103226226.50506     -1024.363    19297059.190    80287080.91307
      -796.729  
 20 10 01 04 09 50.0000000  0 15G29G 2G15G18G 5G30G 7G13R 4R 3R12R18
                                R 5R20R19
  21183679.024   111320982.15849      -926.116    21183678.410    86743619.11849
      -721.652  
  22664156.174   119100940.77748     -2542.898    22664153.430    92805917.74446
     -1981.483  
  22745977.693   119530934.85747      3708.570    22745978.396    93140982.89548
      2889.796  
  23037033.805   121060438.76847      3189.370    23037034.834    94332816.76245
      2485.218  
  20473248.773   107587648.89849     -1446.128    20473248.511    83834525.16349
     -1126.859  
  24239558.715   127379728.35147      1707.313    24239562.383    99256966.05145
      1330.375  
  24574007.148   129137290.07345       255.445    24574007.101   100626443.29344
       199.046  
  21369462.843   112297288.99449      2433.801    21369462.972    87504380.21747
      1896.468  
  19253203.153   103100028.40909       880.113    19253206.369    80188924.66908
       684.527  
  20605920.570   110305096.93708     -2925.594    20605923.885    85792874.14707
     -2275.465  
  23399520.345   124996031.51005      1348.891    23399528.672    97219170.10406
      1049.141  
  21960044.091   117224209.65507     -3987.652    21960050.808    91174402.68006
     -3101.511  
  22287055.378   119137084.02606      3842.523    22287059.706    92662209.82906
      2988.628  
  21284752.306   113819138.28204      3385.573    21284758.046    88526013.33207
      2633.219  
  19298015.254   103231357.60006     -1028.281    19298018.513    80291071.75907
      -799.777  
 20 10 01 04 09 55.0000000  0 15G29G 2G15G18G 5G30G 7G13R 4R 3R12R18
                                R 5R20R19
  21184561.802   111325621.71849      -929.621    21184561.297    86747234.36449
      -724.378  
  22666576.446   119113659.67748     -2544.363    22666573.974    92815828.56146
     -1982.625  
  22742449.575   119512394.40847      3707.695    22742450.358    93126535.79548
      2889.108  
  23033999.653   121044494.34847      3188.543    23034000.744    94320392.54445
      2484.577  
  20474625.938   107594885.10649     -1448.339    20474625.309    83840163.76649
     -1128.582  
  24237935.549   127371198.77546      1704.522    24237939.122    99250319.63044
      1328.194  
  24573765.718   129136021.38145       252.289    24573766.370   100625454.69844
       196.585  
  21367148.482   112285126.97949      2430.973    21367148.556    87494903.32446
      1894.265  
  19252383.325   103095638.14509       876.229    19252386.618    80185510.02908
       681.535  
  20608654.345   110319730.45608     -2927.949    20608657.378    85804255.77607
     -2277.297  
  23398259.619   124989297.15505      1344.667    23398268.084    97213932.27206
      1045.847  
  21963780.450   117244154.24807     -3989.706    21963787.304    91189915.13305
     -3103.108  
  22283462.219   119117877.09206      3840.644    22283466.777    92647271.12006
      2987.171  
  21281587.591   113802215.44305      3382.847    21281593.525    88512851.12507
      2631.104  
  19298978.553   103236510.50406     -1032.655    19298981.890    80295079.56707
      -803.179  
 20 10 01 04 10  0.0000000  0 15G29G 2G15G18G 5G30G 7G13R 4R 3R12R18
                                R 5R20R19
  21185448.005   111330278.96549      -933.124    21185447.594    86750863.38149
      -727.113  
  22668998.256   119126386.56148     -2546.058    22668995.970    92825745.60746
     -1983.944  
  22738922.667   119493861.35247      3705.862    22738923.786    93112094.44748
      2887.684  
  23030966.274   121028554.51847      3187.629    23030967.429    94307971.90846
      2483.867  
  20476004.999   107602132.36649     -1450.378    20476004.331    83845810.97449
     -1130.168  
  24236314.928   127362681.26246      1702.522    24236318.252    99243682.62645
      1326.640  
  24573527.165   129134767.34245       249.944    24573528.179   100624477.50042
       194.754  
  21364836.950   112272979.04849      2428.199    21364836.790    87485437.40047
      1892.098  
  19251566.887   103091266.53109       872.578    19251570.055    80182109.88208
       678.672  
  20611390.192   110334375.12808     -2930.066    20611393.282    85815646.07407
     -2278.945  
  23397002.653   124982582.85905      1341.370    23397011.315    97208710.02106
      1043.284  
  21967518.455   117264108.35107     -3991.820    21967525.335    91205434.99106
     -3104.754  
  22279870.548   119098678.45906      3839.190    22279875.171    92632338.85206
      2986.034  
  21278425.123   113785303.90105      3381.851    21278430.901    88499697.71207
      2630.328  
  19299945.758   103241684.14806     -1036.159    19299949.114    80299103.50607
      -805.906  
 20 10 01 04 10  5.0000000  0 15G29G 2G15G18G 5G30G 7G13R 4R 3R12R18
                                R 5R20R19
  21186337.655   111334953.32549      -936.313    21186337.085    86754505.73149
      -729.598  
  22671421.409   119139120.84648     -2547.351    22671419.362    92835668.43046
     -1984.952  
  22735397.105   119475335.11547      3704.891    22735398.528    93097658.45049
      2886.934  
  23027933.669   121012618.76047      3186.921    23027935.086    94295554.43945
      2483.316  
  20477386.172   107609390.07749     -1452.413    20477385.550    83851466.33449
     -1131.754  
  24234696.381   127354175.33247      1700.019    24234699.508    99237054.64245
      1324.694  
  24573291.233   129133527.25645       246.913    24573292.180   100623511.21742
       192.398  
  21362527.720   112260844.61649      2425.785    21362527.692    87475982.00146
      1890.218  
  19250753.804   103086912.84809       869.124    19250757.043    80178723.68908
       675.953  
  20614127.881   110349030.47308     -2931.979    20614130.821    85827044.67407
     -2280.433  
  23395749.205   124975887.94505      1337.163    23395757.885    97203502.89806
      1040.019  
  21971258.267   117284071.25007     -3993.183    21971265.266    91220961.67805
     -3105.812  
  22276280.368   119079487.51706      3837.749    22276285.273    92617412.56206
      2984.918  
  21275264.548   113768402.91404      3378.980    21275270.441    88486552.48607
      2628.094  
  19300916.489   103246877.90506     -1040.706    19300920.130    80303143.09507
      -809.440  
 20 10 01 04 10 10.0000000  0 15G29G 2G15G18G 5G30G 7G13R 4R 3R12R18
                                R 5R20R19
  21187229.962   111339642.86649      -939.526    21187229.508    86758159.92749
      -732.097  
  22673845.724   119151860.61548     -2548.445    22673843.767    92845595.52346
     -1985.800  
  22731872.310   119456813.81947      3703.820    22731874.255    93083226.26449
      2886.090  
  23024901.487   120996685.09946      3186.539    23024903.020    94283138.57346
      2483.012  
  20478768.834   107616656.29749     -1454.233    20478768.234    83857128.31649
     -1133.172  
  24233079.497   127345678.98947      1698.500    24233082.819    99230434.10245
      1323.503  
  24573057.622   129132299.18546       244.313    24573058.823   100622554.31944
       190.383  
  21360220.770   112248721.76149      2423.379    21360220.608    87466535.62947
      1888.347  
  19249943.886   103082575.15409       865.746    19249946.921    80175349.93008
       673.355  
  20616867.234   110363694.50508     -2933.727    20616870.342    85838450.03007
     -2281.793  
  23394499.223   124969210.57905      1333.273    23394507.933    97198309.37806
      1036.988  
  21974999.090   117304040.95507     -3994.597    21975006.332    91236493.66706
     -3106.914  
  22272691.416   119060302.16707      3836.438    22272696.261    92602490.64006
      2983.895  
  21272105.608   113751510.61505      3377.257    21272111.610    88473414.03607
      2626.757  
  19301891.006   103252090.04106     -1044.296    19301894.219    80307196.97007
      -812.233  
 20 10 01 04 10 15.0000000  0 15G29G 2G15G18G 5G30G 7G13R 4R 3R12R18
                                R 5R20R19
  21188126.075   111344351.28549      -943.437    21188125.602    86761828.81749
      -735.148  
  22676271.760   119164609.52148     -2550.476    22676269.816    92855529.72546
     -1987.387  
  22728349.383   119438301.14947      3701.542    22728351.375    93068800.81949
      2884.320  
  23021870.251   120980757.25447      3185.058    23021872.174    94270727.29945
      2481.863  
  20480153.804   107623934.73449     -1456.898    20480153.107    83862799.83049
     -1135.245  
  24231465.330   127337195.95347      1695.171    24231468.402    99223823.95645
      1320.914  
  24572826.896   129131086.86845       240.687    24572828.139   100621609.64144
       187.538  
  21357916.836   112236614.19549      2420.034    21357916.732    87457101.17047
      1885.742  
  19249137.536   103078257.21409       861.609    19249140.664    80171991.52308
       670.199  
  20619608.831   110378370.95808     -2936.434    20619611.975    85849865.04907
     -2283.897  
  23393252.935   124962554.56705      1328.819    23393261.742    97193132.48505
      1033.526  
  21978742.195   117324021.40506     -3997.133    21978749.602    91252034.02606
     -3108.882  
  22269104.201   119041126.29107      3834.309    22269109.183    92587576.07406
      2982.238  
  21268949.003   113734630.85805      3374.831    21268954.958    88460285.33807
      2624.870  
  19302869.450   103257324.11706     -1049.027    19302872.667    80311267.92007
      -815.913  
 20 10 01 04 10 20.0000000  0 15G29G 2G15G18G 5G30G 7G13R 4R 3R12R18
                                R 5R20R19
  21189025.394   111349077.55349      -946.976    21189025.094    86765511.61749
      -737.905  
  22678699.345   119177366.53348     -2552.069    22678697.592    92865470.25246
     -1988.625  
  22724827.840   119419796.06547      3700.090    22724830.169    93054381.28649
      2883.187  
  23018840.010   120964834.19746      3184.323    23018841.972    94258319.72246
      2481.288  
  20481541.017   107631224.36949     -1458.984    20481540.446    83868480.06149
     -1136.874  
  24229853.579   127328725.23947      1692.719    24229856.542    99217223.41345
      1318.995  
  24572599.369   129129889.24046       238.371    24572600.644   100620676.43144
       185.737  
  21355615.388   112224520.87949      2417.194    21355615.297    87447677.80547
      1883.522  
  19248334.593   103073957.99209       858.023    19248337.791    80168647.68208
       667.347  
  20622352.657   110393058.68808     -2938.616    20622355.513    85861288.84707
     -2285.590  
  23392010.399   124955918.72605      1324.683    23392019.344    97187971.29205
      1030.308  
  21982487.078   117344011.31006     -3999.089    21982494.333    91267581.73406
     -3110.405  
  22265518.539   119021958.77806      3832.738    22265523.541    92572668.01006
      2981.016  
  21265794.658   113717762.47205      3373.190    21265800.521    88447165.47707
      2623.590  
  19303851.780   103262579.20206     -1053.410    19303855.243    80315355.20007
      -819.324  
 20 10 01 04 10 25.0000000  0 15G29G 2G15G18G 5G30G 7G13R 4R 3R12R18
                                R 5R20R19
  21189927.932   111353820.73649      -950.480    21189927.784    86769207.60649
      -740.633  
  22681128.297   119190130.76148     -2553.772    22681126.534    92875416.39545
     -1989.957  
  22721307.532   119401297.69247      3699.016    22721309.971    93039966.94449
      2882.343  
  23015810.666   120948915.10446      3183.507    23015812.852    94245915.23045
      2480.652  
  20482930.137   107638524.24849     -1461.137    20482929.460    83874168.27849
     -1138.546  
  24228243.688   127320265.88947      1690.555    24228246.632    99210631.72545
      1317.315  
  24572374.266   129128705.34646       235.566    24572375.333   100619753.97643
       183.566  
  21353316.626   112212440.92749      2414.512    21353316.591    87438264.86247
      1881.437  
  19247535.165   103069676.56209       854.444    19247538.290    80165317.69408
       664.570  
  20625098.303   110407756.84508     -2940.999    20625101.198    85872720.74207
     -2287.445  
  23390771.952   124949302.19304      1320.840    23390780.399    97182825.12904
      1027.320  
  21986233.378   117364009.84907     -4000.766    21986240.920    91283136.11905
     -3111.710  
  22261934.332   119002798.79406      3831.051    22261939.126    92557765.79806
      2979.707  
  21262642.161   113700904.56105      3370.155    21262647.998    88434053.76307
      2621.230  
  19304837.869   103267854.23706     -1056.941    19304841.188    80319457.99807
      -822.069  
 20 10 01 04 10 30.0000000  0 15G29G 2G15G18G 5G30G 7G13R 4R 3R12R18
                                R 5R20R19
  21190833.685   111358580.40649      -953.594    21190833.602    86772916.43549
      -743.063  
  22683558.552   119202901.74448     -2555.026    22683556.758    92885367.81646
     -1990.929  
  22717788.608   119382805.59047      3697.651    22717791.214    93025557.53749
      2881.288  
  23012781.848   120932999.43447      3182.726    23012784.227    94233513.39345
      2480.046  
  20484320.969   107645833.99249     -1462.921    20484320.440    83879864.17349
     -1139.941  
  24226636.190   127311817.58847      1688.171    24226638.920    99204048.62944
      1315.457  
  24572151.611   129127534.91346       232.858    24572152.608   100618841.92542
       181.445  
  21351020.366   112200373.93749      2412.167    21351020.607    87428862.00747
      1879.612  
  19246738.847   103065412.46909       851.104    19246742.159    80162001.18008
       661.929  
  20627845.830   110422464.94808     -2942.507    20627848.855    85884160.37707
     -2288.616  
  23389536.449   124942704.51705      1318.089    23389544.793    97177693.59105
      1025.179  
  21989981.374   117384016.49807     -4002.227    21989988.722    91298696.85806
     -3112.843  
  22258351.448   118983645.88206      3829.546    22258356.404    92542869.09206
      2978.535  
  21259491.493   113684056.74105      3368.542    21259497.439    88420949.90607
      2619.976  
  19305827.574   103273148.89606     -1061.035    19305831.246    80323576.06207
      -825.254  
