     2.11           OBSERVATION DATA    M                   RINEX VERSION / TYPE
LEICA GEO OFFICE 8.4                    29-9-20 09:38       PGM / RUN BY / DATE
                                                            OBSERVER / AGENCY
CHER                                                        MARKER NAME
CHER                                                        MARKER NUMBER
468588              LEICA GX1220GG      5.60                REC # / TYPE / VERS
                    LEIAX1202GG                             ANT # / TYPE
 -1179715.8247  3852977.7653  4928293.6193                  APPROX POSITION XYZ
        1.6330        0.0000        0.0000                  ANTENNA: DELTA H/E/N
L1PhaOff:   0.0644  L2PhaOff:   0.0640                      COMMENT
     1     1                                                WAVELENGTH FACT L1/2
     6    C1    L1    D1    P2    L2    D2                  # / TYPES OF OBSERV
  2020     9    28     9    15   20.0000000     GPS         TIME OF FIRST OBS
  2020     9    28    10    52   35.0000000     GPS         TIME OF LAST OBS
    18                                                      LEAP SECONDS
    23                                                      # OF SATELLITES
          C1    L1    D1    P2    L2    D2                  COMMENT
   G 1  1004  1004  1004  1003  1003  1003                  PRN / # OF OBS
   G 2     0     0     0     0     0     0                  PRN / # OF OBS
   G 3     0     0     0     0     0     0                  PRN / # OF OBS
   G 4     0     0     0     0     0     0                  PRN / # OF OBS
   G 5     0     0     0     0     0     0                  PRN / # OF OBS
   G 6     0     0     0     0     0     0                  PRN / # OF OBS
   G 7     0     0     0     0     0     0                  PRN / # OF OBS
   G 8     0     0     0     0     0     0                  PRN / # OF OBS
   G 9     0     0     0     0     0     0                  PRN / # OF OBS
   G10  1168  1168  1168  1168  1168  1168                  PRN / # OF OBS
   G11   621   621   621   621   621   621                  PRN / # OF OBS
   G12  1166  1166  1166  1166  1166  1166                  PRN / # OF OBS
   G13     0     0     0     0     0     0                  PRN / # OF OBS
   G14     0     0     0     0     0     0                  PRN / # OF OBS
   G15    14    14    14    11    11    11                  PRN / # OF OBS
   G16     0     0     0     0     0     0                  PRN / # OF OBS
   G17     0     0     0     0     0     0                  PRN / # OF OBS
   G18     0     0     0     0     0     0                  PRN / # OF OBS
   G19     0     0     0     0     0     0                  PRN / # OF OBS
   G20  1047  1047  1047  1047  1047  1047                  PRN / # OF OBS
   G21  1168  1168  1168  1168  1168  1168                  PRN / # OF OBS
   G22   406   406   406   402   402   402                  PRN / # OF OBS
   G23     0     0     0     0     0     0                  PRN / # OF OBS
   G24  1127  1127  1127  1127  1127  1127                  PRN / # OF OBS
   G25  1086  1086  1086  1085  1085  1085                  PRN / # OF OBS
   G26     0     0     0     0     0     0                  PRN / # OF OBS
   G27     0     0     0     0     0     0                  PRN / # OF OBS
   G28     0     0     0     0     0     0                  PRN / # OF OBS
   G29     0     0     0     0     0     0                  PRN / # OF OBS
   G30     0     0     0     0     0     0                  PRN / # OF OBS
   G31   876   876   876   875   875   875                  PRN / # OF OBS
   G32  1168  1168  1168  1168  1168  1168                  PRN / # OF OBS
   R 1     0     0     0     0     0     0                  PRN / # OF OBS
   R 2   217   217   217   216   216   216                  PRN / # OF OBS
   R 3  1168  1168  1168  1168  1168  1168                  PRN / # OF OBS
   R 4  1168  1168  1168  1168  1168  1168                  PRN / # OF OBS
   R 5   881   881   881   870   870   870                  PRN / # OF OBS
   R 6     0     0     0     0     0     0                  PRN / # OF OBS
   R 7     0     0     0     0     0     0                  PRN / # OF OBS
   R 8     0     0     0     0     0     0                  PRN / # OF OBS
   R 9     0     0     0     0     0     0                  PRN / # OF OBS
   R10     0     0     0     0     0     0                  PRN / # OF OBS
   R11     0     0     0     0     0     0                  PRN / # OF OBS
   R12   577   577   577   577   577   577                  PRN / # OF OBS
   R13  1168  1168  1168  1166  1166  1166                  PRN / # OF OBS
   R14  1168  1168  1168  1168  1168  1168                  PRN / # OF OBS
   R15   446   446   446   445   445   445                  PRN / # OF OBS
   R16     0     0     0     0     0     0                  PRN / # OF OBS
   R17     0     0     0     0     0     0                  PRN / # OF OBS
   R18     0     0     0     0     0     0                  PRN / # OF OBS
   R19   132   132   132   133   133   133                  PRN / # OF OBS
   R20   367   367   367   345   345   345                  PRN / # OF OBS
   R21   654   654   654   653   653   653                  PRN / # OF OBS
   R22     0     0     0     0     0     0                  PRN / # OF OBS
   R23     0     0     0     0     0     0                  PRN / # OF OBS
   R24     0     0     0     0     0     0                  PRN / # OF OBS
                                                            END OF HEADER
 20 09 28 09 15 20.0000000  0 14G12G15G21G32G24G20G10R 3R13R 2R14R12
                                R19R 4
  23612099.411   124082422.76747      3002.383    23612100.415    96687593.80846
      2339.511  
  24789557.464   130269998.47146     -3507.004    24789558.740   101509096.91246
     -2732.730  
  23009640.509   120916480.46348        70.805    23009639.661    94220641.63946
        55.168  
  21684501.265   113952856.17049      2323.449    21684503.548    88794461.58647
      1810.479  
  21333213.507   112106834.82548     -2191.667    21333215.608    87356000.54048
     -1707.796  
  21047513.367   110605455.80249     -2485.121    21047512.850    86186071.19447
     -1936.460  
  20383891.325   107118092.80949        82.340    20383893.133    83468660.17049
        64.155  
  19561120.086   104712254.39209      -967.785    19561123.435    81442900.92408
      -752.727  
  19966624.683   106620660.34805      1240.175           0.000           0.0000 
         0.000  
  22748454.095   121390105.22807     -3385.124    22748461.729    94414547.20706
     -2632.879  
  22389520.265   119348741.23507      4351.464    22389527.591    92826830.15806
      3384.472  
  21655633.109   115680532.97208     -2867.448    21655638.828    89973782.86607
     -2230.237  
  22271452.562   119137257.26605     -3145.612    22271456.586    92662325.27806
     -2446.594  
  20420151.876   109349007.55309      2411.116    20420155.093    85049252.82708
      1875.309  
 20 09 28 09 15 25.0000000  0 14G12G15G21G32G24G20G10R 3R13R 2R14R12
                                R19R 4
  23609243.312   124067413.74047      3001.926    23609244.044    96675898.54046
      2339.171  
  24792894.028   130287534.26946     -3506.132    24792896.244   101522761.12045
     -2732.058  
  23009574.511   120916133.70548        69.008    23009573.675    94220371.43846
        53.773  
  21682291.293   113941242.68949      2323.133    21682293.556    88785412.13347
      1810.234  
  21335300.089   112117799.88748     -2193.160    21335302.189    87364544.74348
     -1708.960  
  21049878.954   110617887.04649     -2486.331    21049878.443    86195757.87147
     -1937.406  
  20383814.370   107117688.43849        80.586    20383816.182    83468345.06849
        62.789  
  19562025.389   104717100.49009      -969.305    19562028.734    81446670.11108
      -753.906  
  19965465.824   106614472.54506      1236.215           0.000           0.0000 
         0.000  
  22751626.411   121407033.34906     -3384.352    22751632.783    94427713.54105
     -2632.273  
  22385439.077   119326986.52007      4351.522    22385446.450    92809909.83906
      3384.520  
  21658318.855   115694879.80908     -2869.801    21658324.579    89984941.52207
     -2232.065  
  22274394.229   119152994.01505     -3147.604    22274398.411    92674564.96106
     -2448.140  
  20417901.252   109336955.47109      2410.773    20417904.439    85039878.99608
      1875.046  
 20 09 28 09 15 30.0000000  0 14G12G15G21G32G24G20G10R 3R13R 2R14R12
                                R19R 4
  23606386.865   124052403.41948      3001.276    23606387.871    96664202.17845
      2338.652  
  24796228.922   130305061.00446     -3505.168    24796231.130   101536418.29746
     -2731.308  
  23009509.288   120915790.95748        67.102    23009508.432    94220104.37046
        52.284  
  21680080.758   113929626.21849      2322.698    21680083.012    88776360.32747
      1809.890  
  21337387.274   112128768.12049     -2194.991    21337389.359    87373091.41548
     -1710.387  
  21052244.935   110630320.29549     -2487.827    21052244.426    86205446.11247
     -1938.570  
  20383738.304   107117288.67449        78.534    20383740.110    83468033.56849
        61.190  
  19562931.178   104721949.18709      -970.944    19562934.519    81450441.32108
      -755.179  
  19964309.349   106608297.28306      1232.723    19964314.265    82917585.16316
       958.785  
  22754797.248   121423956.35306     -3384.995    22754803.109    94440875.84806
     -2632.781  
  22381357.268   119305228.52707      4350.805    22381364.686    92792986.96506
      3383.961  
  21661005.851   115709233.22907     -2872.656    21661011.568    89996105.28606
     -2234.293  
  22277337.141   119168735.45104     -3149.245    22277341.107    92686808.30306
     -2449.417  
  20415650.280   109324901.55509      2410.000    20415653.456    85030503.73108
      1874.448  
 20 09 28 09 15 35.0000000  0 12G21G32G24G20G10R 3R13R 2R14R12R19R 4
  23009446.466   120915460.88448        64.979    23009445.621    94219847.16946
        50.628  
  21677871.293   113918015.40449      2321.901    21677873.542    88767312.94848
      1809.270  
  21339476.687   112139748.02548     -2196.539    21339478.774    87381647.19048
     -1711.590  
  21054612.941   110642764.25048     -2489.547    21054612.443    86215142.68547
     -1939.910  
  20383664.765   107116902.19549        76.261    20383666.566    83467732.41949
        59.425  
  19563839.043   104726809.24609      -972.757    19563842.420    81454221.36808
      -756.624  
  19963156.932   106602143.25406      1229.145    19963161.820    82912798.69706
       956.000  
  22757969.672   121440883.14106     -3385.589    22757976.108    94454041.13205
     -2633.242  
  22377276.537   119283476.05907      4350.379    22377283.967    92776068.39407
      3383.628  
  21663695.690   115723601.92708     -2874.683    21663701.426    90007280.94207
     -2235.867  
  22280282.093   119184490.23905     -3151.831    22280286.339    92699062.01106
     -2451.429  
  20413400.602   109312854.53709      2409.046    20413403.753    85021133.83007
      1873.702  
 20 09 28 09 15 40.0000000  0 14G11G15G21G32G24G20G10R 3R13R 2R14R12
                                R19R 4
  23906245.427   125628159.20156       371.847    23906244.714    97892065.44954
       289.750  
  24802898.511   130340109.83656     -3504.949    24802899.701   101563733.32354
     -2731.132  
  23009385.211   120915139.08148        62.453    23009384.370    94219596.42046
        48.660  
  21675662.060   113906405.83649      2320.624    21675664.307    88758266.53247
      1808.276  
  21341567.507   112150735.26448     -2199.358    21341569.557    87390208.69247
     -1713.784  
  21056982.121   110655214.41048     -2491.804    21056981.668    86224844.10946
     -1941.667  
  20383592.907   107116524.58149        73.417    20383594.708    83467438.17149
        57.202  
  19564748.215   104731676.14509      -975.226    19564751.582    81458006.73308
      -758.511  
  19962007.554   106596006.29305      1224.504    19962012.573    82908025.50806
       952.391  
  22761141.817   121457809.06705     -3386.522    22761147.945    94467205.77705
     -2633.956  
  22373196.012   119261724.84206      4349.301    22373203.460    92759150.79705
      3382.789  
  21666387.549   115737981.47908     -2877.952    21666393.300    90018465.00407
     -2238.414  
  22283228.951   119200254.22705     -3154.562    22283233.252    92711322.86506
     -2453.554  
  20411151.388   109300810.13209      2407.483    20411154.528    85011765.97907
      1872.488  
 20 09 28 09 15 45.0000000  0 15G11G12G15G21G32G24G20G10R 3R13R 2R14
                                R12R19R 4
  23905891.612   125626302.51547       368.703    23905894.549    97890618.61143
       287.288  
  23597823.976   124007401.85157      2997.031    23597825.369    96629150.13054
      2335.344  
  24806232.470   130357629.47345     -3505.069    24806233.717   101577385.03044
     -2731.223  
  23009326.091   120914828.43548        59.847    23009325.227    94219354.36446
        46.633  
  21673453.621   113894800.44549      2319.516    21673455.871    88749223.38547
      1807.414  
  21343660.289   112161732.84848     -2201.663    21343662.330    87398778.24747
     -1715.581  
  21059353.073   110667673.78148     -2493.961    21059352.588    86234552.69346
     -1943.352  
  20383523.302   107116158.73749        70.815    20383525.098    83467153.09749
        55.175  
  19565659.237   104736552.88709      -977.426    19565662.608    81461799.76408
      -760.218  
  19960862.145   106589889.27805      1220.250    19960867.034    82903267.84506
       949.082  
  22764313.284   121474736.99604     -3387.215    22764319.745    94480371.92205
     -2634.504  
  22369116.325   119239977.72006      4347.824    22369123.759    92742236.38405
      3381.640  
  21669081.970   115752374.81008     -2881.172    21669087.758    90029659.79907
     -2240.913  
  22286177.984   119216030.06404     -3157.624    22286182.388    92723593.00005
     -2455.925  
  20408903.217   109288771.21308      2406.065    20408906.331    85002402.38408
      1871.386  
 20 09 28 09 15 50.0000000  0 15G11G12G15G21G32G24G20G10R 3R13R 2R14
                                R12R19R 4
  23905545.921   125624478.08747       362.410    23905544.815    97889197.01043
       282.398  
  23594975.002   123992431.26747      2992.316    23594976.395    96617484.74744
      2331.672  
  24809569.309   130375165.24104     -3508.445           0.000           0.0000 
         0.000  
  23009272.522   120914546.96148        53.719    23009271.703    94219135.00547
        41.852  
  21671249.399   113883217.24049      2315.027    21671251.625    88740197.45848
      1803.910  
  21345758.428   112172758.61048     -2207.441    21345760.449    87407369.78646
     -1720.082  
  21061729.175   110680160.34248     -2499.496    21061728.675    86244282.46546
     -1947.664  
  20383459.348   107115822.65949        64.827    20383461.142    83466891.24048
        50.515  
  19566575.510   104741457.80308      -983.137    19566578.894    81465614.72407
      -764.659  
  19959723.744   106583810.43705      1212.453    19959728.650    82898539.83906
       943.016  
  22767489.475   121491685.54104     -3391.718    22767496.148    94493554.01804
     -2638.022  
  22365040.689   119218252.85205      4343.386    22365048.209    92725339.24405
      3378.190  
  21671782.439   115766800.17208     -2887.656    21671788.207    90040879.51906
     -2245.956  
  22289132.843   119231836.13105     -3164.015    22289137.130    92735886.52406
     -2460.914  
  20406659.466   109276756.02909      2401.147    20406662.588    84993057.21108
      1867.551  
 20 09 28 09 15 55.0000000  0 16G11G12G15G21G32G24G20G10R 3R13R 2R14
                                R12R19R 4R20
  23905203.532   125622673.44247       359.633    23905201.032    97887790.77744
       280.229  
  23592128.385   123977471.88246      2991.562    23592129.764    96605828.08244
      2331.086  
  24812907.198   130392704.40103     -3507.987           0.000           0.0000 
         0.000  
  23009222.089   120914281.96148        51.938    23009221.267    94218928.51246
        40.469  
  21669046.994   113871643.52649      2314.426    21669049.205    88731178.98248
      1803.457  
  21347859.499   112183799.93847     -2209.288    21347861.521    87415973.41845
     -1721.522  
  21064108.035   110692661.33648     -2500.961    21064107.531    86254023.48246
     -1948.804  
  20383398.646   107115503.73249        62.757    20383400.438    83466642.73148
        48.901  
  19567494.645   104746378.03408      -984.710    19567498.028    81469441.57707
      -765.886  
  19958589.991   106577756.82205      1208.816    19958595.018    82893831.47406
       940.191  
  22770666.706   121508641.44704     -3391.323    22770673.694    94506741.92204
     -2637.703  
  22360967.033   119196537.50605      4342.870    22360974.475    92708449.56905
      3377.793  
  21674486.518   115781244.68808     -2890.159    21674492.251    90052114.14406
     -2247.905  
  22292090.806   119247659.54705     -3165.637    22292095.161    92748193.60706
     -2462.168  
  20404417.808   109264751.89409      2400.363    20404420.908    84983720.65907
      1866.944  
  22352319.956   119527901.33614       835.933           0.000           0.0000 
         0.000  
 20 09 28 09 16  0.0000000  0 15G11G12G15G21G32G24G20G10R 3R13R14R12
                                R19R 4R20
  23904863.095   125620879.99948       357.796    23904859.468    97886393.25443
       278.797  
  23589282.201   123962515.11147      2991.315    23589283.363    96594173.48344
      2330.897  
  24816243.951   130410238.38005     -3506.152           0.000           0.0000 
         0.000  
  23009173.209   120914025.06748        50.921    23009172.400    94218728.34547
        39.679  
  21666844.799   113860070.91349      2314.815    21666847.022    88722161.40947
      1803.773  
  21349961.927   112194848.39748     -2210.129    21349964.017    87424582.57047
     -1722.190  
  21066488.038   110705168.33648     -2501.660    21066487.560    86263769.21046
     -1949.343  
  20383339.613   107115193.53849        61.516    20383341.392    83466401.01049
        47.929  
  19568415.065   104751305.01709      -985.745    19568418.418    81473273.65608
      -766.698  
  19957459.488   106571719.90805      1206.113    19957464.484    82889136.10006
       938.089  
  22356893.518   119174823.21906      4343.401    22356900.944    92691560.70405
      3378.206  
  21677192.579   115795699.88408     -2891.582    21677198.280    90063357.07807
     -2249.008  
  22295050.363   119263491.68304     -3166.723    22295054.834    92760507.55206
     -2462.996  
  20402176.554   109252750.11208      2400.507    20402179.664    84974385.95807
      1867.066  
  22351538.796   119523726.84004       833.753           0.000           0.0000 
         0.000  
 20 09 28 09 16  5.0000000  0 15G11G12G15G21G32G24G20G10R 3R13R14R12
                                R19R 4R20
  23904524.152   125619094.99648       355.188    23904519.038    97885002.37443
       276.772  
  23586435.993   123947558.37646      2990.258    23586437.117    96582518.86045
      2330.065  
  24819579.075   130427764.63345     -3505.227    24819577.826   101632026.79954
     -2731.339  
  23009125.319   120913773.40048        48.844    23009124.504    94218532.24946
        38.058  
  21664642.265   113848496.60949      2314.050    21664644.493    88713142.48447
      1803.156  
  21352065.179   112205901.06148     -2211.906    21352067.269    87433195.00647
     -1723.565  
  21068868.651   110717678.57748     -2503.351    21068868.207    86273517.46946
     -1950.664  
  20383281.703   107114889.22449        59.202    20383283.476    83466163.88249
        46.129  
  19569336.192   104756235.82409      -987.594    19569339.533    81477108.69208
      -768.148  
  19956331.604   106565697.00505      1201.815    19956336.597    82884451.62806
       934.745  
  22352819.624   119153107.04107      4342.503    22352827.024    92674670.35605
      3377.504  
  21679900.106   115810162.82207     -2894.453    21679905.778    90074606.05507
     -2251.241  
  22298011.126   119279329.64405     -3169.675    22298015.535    92772825.96106
     -2465.305  
  20399935.191   109240747.84208      2399.363    20399938.328    84965050.87307
      1866.171  
  22350761.075   119519566.39604       830.108           0.000           0.0000 
         0.000  
 20 09 28 09 16 10.0000000  0 16G11G12G15G21G32G24G20G10R 3R13R 2R14
                                R12R19R 4R20
  23904188.397   125617328.90548       351.222    23904182.818    97883626.17344
       273.675  
  23583591.710   123932611.75646      2988.538    23583592.908    96570872.17643
      2328.734  
  24822914.522   130445293.62145     -3506.745    24822914.503   101645685.71545
     -2732.530  
  23009080.405   120913537.34548        45.476    23009079.593    94218348.31646
        35.438  
  21662441.401   113836930.96249      2312.140    21662443.632    88704130.29448
      1801.667  
  21354171.252   112216968.55148     -2215.215    21354173.347    87441819.04048
     -1726.140  
  21071251.872   110730202.45449     -2506.313    21071251.431    86283276.31147
     -1952.977  
  20383226.895   107114601.20649        55.848    20383228.664    83465939.43649
        43.515  
  19570260.020   104761180.98709      -990.667    19570263.336    81480954.95008
      -770.523  
  19955208.233   106559698.42605      1197.504    19955213.266    82879786.07506
       931.391  
  22780198.837   121559505.47716     -3392.308    22780205.433    94546309.08315
     -2638.480  
  22348747.383   119131399.55106      4340.652    22348754.746    92657786.78005
      3376.065  
  21682610.974   115824643.94908     -2898.187    21682616.687    90085869.16907
     -2254.144  
  22300975.111   119295184.02804     -3172.285    22300979.360    92785157.11806
     -2467.340  
  20397695.736   109228755.66409      2397.315    20397698.866    84955723.62507
      1864.573  
  22349988.186   119515430.53604       823.944           0.000           0.0000 
         0.000  
 20 09 28 09 16 15.0000000  0 16G11G12G15G21G32G24G20G10R 3R13R 2R14
                                R12R19R 4R20
  23903856.174   125615581.59248       347.565    23903850.147    97882264.59744
       270.823  
  23580749.460   123917675.75945      2985.863    23580750.608    96559233.80844
      2326.651  
  24826250.623   130462824.98046     -3506.520    24826251.811   101659346.49446
     -2732.359  
  23009038.467   120913316.95848        42.465    23009037.683    94218176.57546
        33.085  
  21660242.174   113825373.97449      2310.504    21660244.405    88695124.85747
      1800.395  
  21356280.092   112228050.58148     -2217.940    21356282.196    87450454.39348
     -1728.266  
  21073637.655   110742739.92448     -2508.926    21073637.240    86293045.76847
     -1955.012  
  20383175.181   107114329.44349        52.667    20383176.952    83465727.68849
        41.039  
  19571186.525   104766140.58309      -993.448    19571189.827    81484812.40108
      -772.687  
  19954089.395   106553724.35905      1192.004    19954094.513    82875139.60106
       927.113  
  22783377.909   121576469.83106     -3393.690    22783384.728    94559503.52505
     -2639.551  
  22344676.733   119109700.78907      4338.648    22344684.096    92640909.95605
      3374.503  
  21685325.329   115839143.35708     -2901.573    21685331.003    90097146.47107
     -2256.784  
  22303941.922   119311054.84105     -3176.156    22303946.217    92797501.07505
     -2470.347  
  20395458.161   109216773.57808      2395.242    20395461.294    84946404.21507
      1862.961  
  22349220.091   119511319.34104       819.476           0.000           0.0000 
         0.000  
 20 09 28 09 16 20.0000000  0 16G11G12G15G21G32G24G20G10R 3R13R 2R14
                                R12R19R 4R20
  23903526.908   125613849.35047       346.593    23903520.389    97880914.82544
       270.073  
  23577908.463   123902746.43347      2987.219    23577909.241    96547600.47847
      2327.691  
  24829586.565   130480355.16546     -3503.988    24829587.605   101673006.35846
     -2730.387  
  23008998.782   120913108.47948        42.133    23008998.035    94218014.13346
        32.827  
  21658043.892   113813821.92449      2311.538    21658046.099    88686123.25847
      1801.199  
  21358390.983   112239143.44748     -2218.000    21358393.102    87459098.17248
     -1728.315  
  21076025.330   110755287.17549     -2508.676    21076024.918    86302822.84647
     -1954.816  
  20383125.855   107114070.20249        52.336    20383127.627    83465525.67749
        40.781  
  19572114.986   104771110.73509      -993.281    19572118.296    81488678.08508
      -772.578  
  19952974.540   106547770.97206      1190.133    19952979.610    82870509.18106
       925.656  
  22786557.496   121593436.77806     -3391.741    22786564.199    94572700.07206
     -2638.022  
  22340607.011   119088007.16207      4339.972    22340614.417    92624037.15707
      3375.535  
  21688042.347   115853657.05208     -2902.457    21688047.986    90108434.91707
     -2257.465  
  22306911.148   119326938.01204     -3175.441    22306915.376    92809854.64606
     -2469.792  
  20393221.741   109204797.74608      2396.241    20393224.888    84937089.69507
      1863.741  
  22348454.922   119507228.95104       817.879    22348461.475    92950097.09616
       636.124  
 20 09 28 09 16 25.0000000  0 16G11G12G15G21G32G24G20G10R 3R13R 2R14
                                R12R19R 4R20
  23903197.906   125612119.65148       343.070    23903191.078    97879566.97544
       267.319  
  23575066.337   123887811.17946      2985.012    23575067.055    96535962.67244
      2325.983  
  24832919.884   130497871.59046     -3504.578    24832921.076   101686655.49044
     -2730.844  
  23008958.995   120912899.33148        39.398    23008958.228    94217851.15946
        30.698  
  21655844.150   113802262.20249      2310.188    21655846.351    88677115.68848
      1800.066  
  21360501.586   112250234.74148     -2220.613    21360503.699    87467740.74248
     -1730.351  
  21078412.487   110767831.74248     -2511.354    21078412.063    86312597.83846
     -1956.898  
  20383076.528   107113810.92849        49.293    20383078.291    83465323.65549
        38.410  
  19573043.034   104776078.71209      -995.948    19573046.342    81492542.07408
      -774.628  
  19951861.177   106541825.45506      1185.714    19951866.189    82865884.88406
       922.218  
  22789735.216   121610394.07805     -3393.098    22789741.842    94585889.12705
     -2639.069  
  22336535.863   119066305.65205      4338.242    22336543.258    92607158.22205
      3374.187  
  21690759.652   115868172.34707     -2905.938    21690765.264    90119724.58907
     -2260.172  
  22309880.189   119342820.94105     -3179.495    22309884.565    92822208.02706
     -2472.945  
  20390984.108   109192815.38509      2394.542    20390987.245    84927770.08407
      1862.422  
  22347691.567   119503146.57404       812.895    22347697.993    92946921.92607
       632.249  
 20 09 28 09 16 30.0000000  0 16G11G12G15G21G32G24G20G10R 3R13R 2R14
                                R12R19R 4R20
  23902874.827   125610421.01648       337.098    23902867.750    97878243.37644
       262.668  
  23572228.509   123872898.51548      2980.507    23572229.113    96524342.39745
      2322.464  
  24836255.790   130515402.83446     -3507.676    24836256.950   101700316.21245
     -2733.254  
  23008924.487   120912718.08748        33.405    23008923.769    94217709.93346
        26.031  
  21653648.402   113790723.40949      2305.918    21653650.607    88668124.42148
      1796.730  
  21362617.303   112261352.91248     -2226.105    21362619.423    87476404.24948
     -1734.633  
  21080804.522   110780402.06349     -2516.511    21080804.142    86322392.87947
     -1960.921  
  20383032.618   107113580.21149        43.488    20383034.391    83465143.86149
        33.882  
  19573976.106   104781073.54909     -1001.440    19573979.417    81496426.93808
      -778.902  
  19950754.692   106535917.04505      1178.769    19950759.723    82861289.47306
       916.819  
  22792916.360   121627369.99206     -3396.977    22792923.312    94599092.56406
     -2642.102  
  22332468.672   119044625.42107      4334.151    22332476.075    92590295.83206
      3371.008  
  21693482.659   115882718.22708     -2912.168    21693488.283    90131038.05007
     -2265.020  
  22312854.753   119358732.57305     -3185.495    22312859.049    92834583.71505
     -2477.613  
  20388750.726   109180855.66609      2389.901    20388753.829    84918468.08007
      1858.813  
  22346935.253   119499101.28903       806.207    22346941.615    92943775.58807
       627.050  
 20 09 28 09 16 35.0000000  0 13G11G12G21G32G24G20G10R 3R13R 2R14R12
                                R 4
  23902555.748   125608742.93247       334.039    23902548.212    97876935.79644
       260.292  
  23569393.036   123857997.97247      2979.581    23569393.822    96512731.57346
      2321.749  
  23008893.293   120912554.19248        31.589    23008892.572    94217582.21446
        24.612  
  21651454.620   113779195.00749      2305.144    21651456.833    88659141.25247
      1796.210  
  21364736.127   112272487.50148     -2227.953    21364738.257    87485080.55048
     -1736.066  
  21083199.493   110792987.68849     -2518.073    21083199.100    86332199.86247
     -1962.140  
  20382992.141   107113367.46949        41.117    20382993.911    83464978.10349
        32.039  
  19574912.151   104786084.52309     -1003.285    19574915.502    81500324.36208
      -780.335  
  19949653.193   106530034.79005      1174.151    19949658.170    82856714.40307
       913.229  
  22796099.444   121644354.72106     -3396.945    22796106.491    94612302.87606
     -2642.077  
  22328403.479   119022955.71707      4333.066    22328410.879    92573441.62306
      3370.164  
  21696209.372   115897284.02508     -2914.655    21696215.008    90142367.00507
     -2266.956  
  20386519.536   109168907.80509      2388.992    20386522.659    84909175.30207
      1858.102  
 20 09 28 09 16 40.0000000  0 13G11G12G21G32G24G20G10R 3R13R 2R14R12
                                R 4
  23902239.836   125607081.95945       330.651    23902232.534    97875641.52443
       257.651  
  23566559.218   123843106.15748      2977.043    23566560.065    96501127.59445
      2319.773  
  23008864.739   120912404.23247        28.125    23008864.012    94217465.36144
        21.910  
  21649262.175   113767673.62849      2303.328    21649264.386    88650163.54747
      1794.797  
  21366857.383   112283634.83649     -2231.145    21366859.515    87493766.78047
     -1738.558  
  21085596.710   110805585.08548     -2521.039    21085596.305    86342015.98546
     -1964.452  
  20382954.427   107113169.28149        37.938    20382956.190    83464823.66948
        29.562  
  19575850.593   104791108.13708     -1006.241    19575853.964    81504231.62207
      -782.637  
  19948555.889   106524175.28005      1169.277    19948560.869    82852156.99206
       909.434  
  22799283.202   121661344.17707     -3398.660    22799290.305    94625516.85606
     -2643.409  
  22324339.576   119001293.01806      4331.727    22324346.992    92556592.86606
      3369.121  
  21698939.175   115911866.14308     -2918.293    21698944.805    90153708.65607
     -2269.785  
  20384289.975   109156968.35708      2386.604    20384293.058    84899889.06407
      1856.249  
 20 09 28 09 16 45.0000000  0 13G11G12G21G32G24G20G10R 3R13R 2R14R12
                                R 4
  23901927.241   125605439.54347       326.492    23901920.507    97874361.76343
       254.413  
  23563727.374   123828224.59148      2975.308    23563728.100    96489531.54644
      2318.417  
  23008839.157   120912269.64148        25.464    23008838.446    94217360.48645
        19.844  
  21647071.358   113756160.62249      2301.847    21647073.560    88641192.38647
      1793.648  
  21368981.365   112294796.43648     -2233.671    21368983.474    87502464.12947
     -1740.527  
  21087996.445   110818195.84049     -2523.358    21087996.083    86351842.55046
     -1966.257  
  20382919.779   107112987.20249        34.972    20382921.541    83464681.78848
        27.245  
  19576791.717   104796145.95808     -1008.773    19576795.067    81508149.91108
      -784.604  
  19947463.043   106518340.10505      1164.488    19947468.122    82847618.53106
       905.711  
  22802468.210   121678340.05207     -3399.702    22802475.015    94638735.89705
     -2644.132  
  22320277.305   118979639.04406      4329.980    22320284.760    92539750.91206
      3367.765  
  21701672.358   115926466.25108     -2921.655    21701677.983    90165064.29507
     -2272.401  
  20382062.209   109145038.74208      2385.077    20382065.297    84890610.48807
      1855.063  
 20 09 28 09 16 50.0000000  0 13G11G12G21G32G24G20G10R 3R13R 2R14R12
                                R 4
  23901617.840   125603813.25545       323.472    23901610.353    97873094.60941
       252.069  
  23560897.008   123813350.75948      2974.085    23560897.861    96477941.56645
      2317.468  
  23008816.025   120912148.01848        22.761    23008815.352    94217265.69845
        17.733  
  21644881.647   113744653.61049      2300.762    21644883.821    88632225.89647
      1792.800  
  21371107.630   112305970.00748     -2236.187    21371109.718    87511170.80847
     -1742.488  
  21090398.247   110830817.39649     -2525.594    21090397.885    86361677.52446
     -1968.000  
  20382887.706   107112818.69249        32.140    20382889.484    83464550.48848
        25.038  
  19577734.962   104801195.37508     -1011.167    19577738.344    81512077.24908
      -786.465  
  19946374.273   106512526.53905      1160.370    19946379.423    82843096.87706
       902.511  
  22805653.972   121695339.61107     -3400.249    22805660.643    94651957.78105
     -2644.645  
  22316216.228   118957991.03106      4329.190    22316223.617    92522913.59605
      3367.151  
  21704408.395   115941081.67108     -2924.604    21704414.022    90176431.81907
     -2274.699  
  20379835.805   109133116.47908      2383.616    20379838.903    84881337.63207
      1853.926  
 20 09 28 09 16 55.0000000  0 13G11G12G21G32G24G20G10R 3R13R 2R14R12
                                R 4
  23901311.548   125602203.90147       319.745    23901303.903    97871840.40343
       249.125  
  23558068.251   123798485.51448      2971.831    23558069.329    96466358.26245
      2315.715  
  23008795.454   120912040.01248        19.938    23008794.773    94217181.55845
        15.534  
  21642693.230   113733153.31149      2299.062    21642695.371    88623264.62447
      1791.472  
  21373236.261   112317156.09849     -2238.758    21373238.354    87519887.24747
     -1744.487  
  21092802.248   110843450.54149     -2527.968    21092801.899    86371521.52947
     -1969.851  
  20382858.369   107112664.52649        29.167    20382860.145    83464430.35049
        22.722  
  19578680.516   104806257.09509     -1013.772    19578683.907    81516014.13708
      -788.496  
  19945289.876   106506735.54305      1155.809    19945294.965    82838592.77706
       898.961  
  22808840.556   121712343.86306     -3401.340    22808847.555    94665183.30406
     -2645.647  
  22312156.386   118936350.04007      4327.319    22312163.810    92506081.72506
      3365.694  
  21707147.432   115955713.17808     -2928.246    21707153.073    90187811.89207
     -2277.523  
  20377610.920   109121202.41509      2381.871    20377614.018    84872071.13007
      1852.563  
 20 09 28 09 17  0.0000000  0 13G11G12G21G32G24G20G10R 3R13R 2R14R12
                                R 4
  23901008.664   125600612.51248       316.944    23901000.747    97870600.34344
       246.960  
  23555241.320   123783629.88847      2970.242    23555242.401    96454782.46345
      2314.472  
  23008777.739   120911946.85948        17.421    23008777.053    94217108.99546
        13.577  
  21640506.286   113721660.87349      2298.022    21640508.422    88614309.46647
      1790.664  
  21375367.517   112328355.98648     -2241.098    21375369.648    87528614.44548
     -1746.309  
  21095208.684   110856096.34949     -2530.086    21095208.334    86381375.38647
     -1971.500  
  20382831.976   107112525.82649        26.562    20382833.755    83464322.28748
        20.699  
  19579628.644   104811332.40409     -1015.965    19579632.020    81519961.61008
      -790.195  
  19944209.880   106500968.24005      1150.948    19944214.933    82834107.09506
       895.262  
  22812028.058   121729353.86106     -3402.273    22812035.360    94678413.25405
     -2646.223  
  22308098.048   118914717.03107      4326.078    22308105.466    92489256.01806
      3364.723  
  21709889.697   115970361.86308     -2931.223    21709895.328    90199205.30107
     -2279.843  
  20375387.766   109109297.68409      2380.304    20375390.893    84862811.89307
      1851.347  
 20 09 28 09 17  5.0000000  0 13G11G12G21G32G24G20G10R 3R13R 2R14R12
                                R 4
  23900708.885   125599037.10348       313.440    23900700.904    97869372.75443
       244.233  
  23552415.872   123768781.87448      2968.953    23552416.783    96443212.59546
      2313.469  
  23008762.429   120911866.49647        15.159    23008761.779    94217046.35845
        11.809  
  21638320.478   113710174.31249      2296.667    21638322.606    88605358.91447
      1789.612  
  21377501.020   112339567.62048     -2243.488    21377503.163    87537350.77048
     -1748.176  
  21097617.150   110868752.83149     -2532.410    21097616.808    86391237.58847
     -1973.304  
  20382808.147   107112400.60549        23.563    20382809.909    83464224.70648
        18.355  
  19580578.909   104816419.21709     -1018.461    19580582.272    81523918.02308
      -792.137  
  19943133.926   106495222.57805      1146.909    19943138.973    82829638.25806
       892.042  
  22815216.520   121746367.47907     -3402.917    22815223.258    94691646.08806
     -2646.710  
  22304040.888   118893090.02607      4324.640    22304048.290    92472435.05307
      3363.608  
  21712634.749   115985025.69007     -2934.484    21712640.397    90210610.50007
     -2282.378  
  20373166.012   109097400.28809      2378.672    20373169.146    84853558.36108
      1850.073  
 20 09 28 09 17 10.0000000  0 13G11G12G21G32G24G20G10R 3R13R 2R14R12
                                R 4
  23900412.127   125597477.97347       310.168    23900403.983    97868157.91143
       241.691  
  23549591.926   123753941.84348      2967.065    23549592.789    96431648.90345
      2311.992  
  23008749.617   120911799.10947        12.129    23008748.905    94216993.86144
         9.452  
  21636135.790   113698693.79448      2295.344    21636137.920    88596413.05347
      1788.577  
  21379636.760   112350791.07449     -2245.960    21379638.940    87546096.32548
     -1750.098  
  21100027.670   110881420.16949     -2534.581    21100027.312    86401108.23247
     -1975.004  
  20382786.937   107112289.05349        20.839    20382788.683    83464137.78748
        16.238  
  19581531.369   104821517.80809     -1021.066    19581534.723    81527883.58508
      -794.168  
  19942062.054   106489498.78305      1142.188    19942067.068    82825186.41906
       888.367  
  22818405.625   121763384.93806     -3404.094    22818412.356    94704881.93306
     -2647.625  
  22299984.876   118871469.38307      4323.190    22299992.323    92455619.01007
      3362.479  
  21715382.692   115999704.89708     -2937.542    21715388.356    90222027.67807
     -2284.753  
  20370945.620   109085510.31909      2377.042    20370948.771    84844310.60908
      1848.809  
 20 09 28 09 17 15.0000000  0 14G11G12G21G32G24G20G10R 3R13R 2R14R12
                                R 4R20
  23900118.756   125595937.60847       306.246    23900110.666    97866957.60944
       238.632  
  23546769.942   123739112.27648      2964.766    23546770.988    96420093.41446
      2310.206  
  23008739.783   120911747.39747         9.077    23008739.014    94216953.54844
         7.069  
  21633952.771   113687222.01447      2293.586    21633954.903    88587474.02345
      1787.214  
  21381775.280   112362029.03848     -2248.762    21381777.452    87554853.17547
     -1752.285  
  21102440.756   110894100.95749     -2537.397    21102440.395    86410989.34247
     -1977.203  
  20382768.804   107112193.79449        17.715    20382770.556    83464063.56348
        13.804  
  19582486.505   104826630.75909     -1023.777    19582489.858    81531860.33008
      -796.269  
  19940994.711   106483799.47906      1137.727    19940999.758    82820753.63106
       884.898  
  22821595.899   121780409.13006     -3404.539    22821603.094    94718122.87006
     -2647.991  
  22295930.558   118849857.59007      4322.112    22295937.991    92438809.84006
      3361.645  
  21718134.052   116014402.07308     -2940.804    21718139.685    90233458.79006
     -2287.300  
  20368727.161   109073630.53908      2375.104    20368730.322    84835070.78607
      1847.305  
  22340326.511   119463765.24614       764.296           0.000           0.0000 
         0.000  
 20 09 28 09 17 20.0000000  0 13G11G12G21G32G24G20G10R 3R13R 2R14R12
                                R 4
  23899828.468   125594414.04445       303.715    23899820.507    97865770.49044
       236.680  
  23543949.595   123724291.22548      2963.226    23543950.654    96408544.58546
      2309.008  
  23008732.551   120911709.23447         5.652    23008731.836    94216923.84044
         4.405  
  21631771.000   113675756.76148      2292.195    21631773.153    88578540.06046
      1786.121  
  21383916.149   112373279.32049     -2251.559    21383918.326    87563619.63148
     -1754.460  
  21104855.990   110906793.06549     -2539.769    21104855.647    86420879.30047
     -1979.047  
  20382753.377   107112112.69649        14.762    20382755.112    83464000.35348
        11.500  
  19583443.975   104831756.01208     -1026.645    19583447.297    81535846.63008
      -798.504  
  19939931.638   106478122.54105      1132.898    19939936.650    82816338.23706
       881.011  
  22824787.004   121797437.47707     -3406.151    22824794.245    94731367.14206
     -2649.234  
  22291877.487   118828252.66107      4320.063    22291884.938    92422006.03506
      3360.047  
  21720888.390   116029115.12808     -2944.397    21720893.982    90244902.29507
     -2290.085  
  20366510.181   109061758.74308      2373.655    20366513.377    84825837.19507
      1846.180  
 20 09 28 09 17 25.0000000  0 13G11G12G21G32G24G20G10R 3R13R 2R14R12
                                R 4
  23899541.406   125592907.36544       300.797    23899533.953    97864596.37743
       234.387  
  23541130.888   123709478.75848      2961.984    23541131.798    96397002.34445
      2308.030  
  23008727.928   120911684.72548         3.874    23008727.398    94216904.72945
         3.016  
  21629590.508   113664298.32149      2291.339    21629592.666    88569611.39547
      1785.457  
  21386059.392   112384542.14048     -2253.761    21386061.569    87572395.85747
     -1756.183  
  21107273.432   110919496.75049     -2541.500    21107273.083    86430778.26646
     -1980.394  
  20382740.697   107112046.02949        12.176    20382742.429    83463948.41648
         9.487  
  19584403.722   104836893.61408     -1028.676    19584407.037    81539842.54608
      -800.086  
  19938872.687   106472468.23905      1129.050    19938877.801    82811940.46506
       878.151  
  22827979.021   121814470.60106     -3406.714    22827985.755    94744615.15705
     -2649.468  
  22287825.776   118806654.72706      4319.128    22287833.192    92405207.65106
      3359.323  
  21723645.701   116043844.09208     -2947.094    21723651.287    90256358.17607
     -2292.179  
  20364294.776   109049895.25508      2372.191    20364297.951    84816610.02307
      1845.034  
 20 09 28 09 17 30.0000000  0 13G11G12G21G32G24G20G10R 3R13R 2R14R12
                                R 4
  23899257.606   125591416.92145       296.644    23899250.193    97863435.11644
       231.160  
  23538313.707   123694674.36847      2960.315    23538314.609    96385466.48745
      2306.737  
  23008725.753   120911673.26448         1.449    23008725.213    94216895.75146
         1.125  
  21627411.204   113652846.00149      2290.164    21627413.369    88560687.53547
      1784.543  
  21388204.920   112395817.02548     -2255.699    21388207.099    87581181.47247
     -1757.679  
  21109692.944   110932211.37149     -2543.710    21109692.631    86440685.75347
     -1982.116  
  20382730.635   107111993.12049         9.492    20382732.368    83463907.18748
         7.395  
  19585365.686   104842043.11208     -1030.832    19585369.000    81543847.68008
      -801.765  
  19937817.896   106466835.93005      1124.203    19937823.039    82807559.76706
       874.375  
  22831171.764   121831507.59407     -3407.645    22831178.599    94757866.14306
     -2650.394  
  22283775.255   118785063.20507      4317.983    22283782.653    92388414.26706
      3358.433  
  21726405.890   116058588.55908     -2950.175    21726411.500    90267826.07607
     -2294.586  
  20362080.735   109038039.32608      2370.796    20362083.931    84807388.74107
      1843.949  
 20 09 28 09 17 35.0000000  0 13G11G12G21G32G24G20G10R 3R13R 2R14R12
                                R 4
  23898976.770   125589942.65145       293.159    23898969.548    97862286.20243
       228.422  
  23535498.064   123679877.97448      2958.473    23535499.103    96373936.86844
      2305.309  
  23008726.070   120911674.83548        -0.926    23008725.493    94216896.99145
        -0.723  
  21625233.076   113641399.80149      2288.844    21625235.222    88551768.41947
      1783.516  
  21390352.712   112407103.81348     -2258.229    21390354.894    87589976.36548
     -1759.663  
  21112114.534   110944936.81649     -2546.026    21112114.217    86450601.68247
     -1983.922  
  20382723.154   107111953.93149         6.483    20382724.903    83463876.65148
         5.055  
  19586329.819   104847204.29008     -1033.167    19586333.146    81547861.93908
      -803.573  
  19936767.276   106461225.40005      1119.835    19936772.370    82803196.03206
       870.983  
  22834365.357   121848548.78106     -3408.479    22834372.475    94771120.35206
     -2651.046  
  22279725.880   118763478.06907      4316.800    22279733.347    92371625.84306
      3357.511  
  21729168.933   116073348.17708     -2953.035    21729174.566    90279305.76707
     -2296.809  
  20359868.129   109026190.94908      2369.168    20359871.347    84798173.34307
      1842.687  
 20 09 28 09 17 40.0000000  0 13G11G12G21G32G24G20G10R 3R13R 2R14R12
                                R 4
  23898699.340   125588486.43747       289.500    23898692.456    97861151.46444
       225.570  
  23532684.321   123665091.58947      2956.398    23532685.355    96362414.94345
      2303.676  
  23008729.230   120911691.40748        -5.156    23008728.591    94216909.92946
        -4.020  
  21623056.459   113629961.63049      2286.839    21623058.607    88542855.54747
      1781.948  
  21392503.130   112418404.33548     -2261.531    21392505.322    87598781.97947
     -1762.229  
  21114538.540   110957675.05649     -2548.999    21114538.246    86460527.58247
     -1986.237  
  20382718.683   107111930.40949         3.117    20382720.433    83463858.31848
         2.430  
  19587296.562   104852379.18009     -1036.476    19587299.865    81551886.87908
      -806.147  
  19935721.130   106455638.75706      1114.995    19935726.175    82798850.88206
       867.218  
  22837559.891   121865595.77106     -3410.015    22837566.820    94784379.10205
     -2652.237  
  22275678.094   118741901.34007      4314.487    22275685.595    92354843.94907
      3355.714  
  21731935.201   116088125.08108     -2957.059    21731940.845    90290798.93207
     -2299.933  
  20357657.329   109014352.15409      2366.793    20357660.538    84788965.40307
      1840.840  
 20 09 28 09 17 45.0000000  0 13G11G12G21G32G24G20G10R 3R13R 2R14R12
                                R 4
  23898425.363   125587048.86346       285.702    23898418.927    97860031.31345
       222.624  
  23529872.499   123650315.43147      2954.188    23529873.443    96350901.07246
      2301.965  
  23008735.263   120911723.27147        -8.125    23008734.769    94216934.75744
        -6.327  
  21620881.458   113618531.92149      2285.144    21620883.595    88533949.29647
      1780.633  
  21394656.248   112429719.01348     -2264.269    21394658.450    87607598.61548
     -1764.367  
  21116965.055   110970426.44449     -2551.675    21116964.747    86470463.73047
     -1988.319  
  20382717.286   107111922.90749         0.059    20382718.999    83463852.47549
         0.043  
  19588265.917   104857568.18409     -1039.183    19588269.207    81555922.77108
      -808.253  
  19934679.502   106450076.39705      1110.124    19934684.509    82794524.60306
       863.429  
  22840755.708   121882648.82106     -3411.245    22840762.300    94797642.62606
     -2653.190  
  22271631.965   118720333.26007      4312.910    22271639.460    92338068.79607
      3354.483  
  21734704.767   116102919.64108     -2960.699    21734710.402    90302305.80907
     -2302.766  
  20355448.390   109002523.26009      2364.863    20355451.558    84779765.14107
      1839.335  
 20 09 28 09 17 50.0000000  0 13G11G12G21G32G24G20G10R 3R13R 2R14R12
                                R 4
  23898154.751   125585628.69147       282.348    23898149.057    97858924.64945
       220.007  
  23527062.444   123635548.55348      2952.714    23527063.403    96339394.42746
      2300.816  
  23008744.028   120911769.33248       -10.219    23008743.494    94216970.64045
        -7.960  
  21618707.841   113607109.55049      2283.633    21618709.974    88525048.74547
      1779.453  
  21396811.840   112441046.75848     -2266.910    21396814.039    87616425.42448
     -1766.425  
  21119393.861   110983189.90649     -2553.965    21119393.543    86480409.27347
     -1990.105  
  20382718.724   107111930.37149        -3.104    20382720.437    83463858.30249
        -2.418  
  19589237.679   104862770.16809     -1041.797    19589240.973    81559968.75408
      -810.284  
  19933642.251   106444537.15706      1105.691    19933647.181    82790216.31106
       859.980  
  22843952.480   121899707.09606     -3412.112    22843959.343    94810910.16606
     -2653.875  
  22267587.257   118698772.97107      4311.133    22267594.783    92321299.68706
      3353.102  
  21737477.423   116117730.63908     -2963.688    21737483.071    90313825.45907
     -2305.094  
  20353241.068   108990703.21609      2362.983    20353244.238    84770571.79307
      1837.874  
 20 09 28 09 17 55.0000000  0 13G11G12G21G32G24G20G10R 3R13R 2R14R12
                                R 4
  23897887.043   125584223.84547       279.371    23897881.859    97857829.98544
       217.687  
  23524253.785   123620788.85747      2951.566    23524254.729    96327893.34846
      2299.913  
  23008755.095   120911827.51848       -12.167    23008754.522    94217015.98746
        -9.479  
  21616535.226   113595692.38349      2283.089    21616537.361    88516152.25747
      1779.031  
  21398969.480   112452385.35948     -2268.535    21398971.719    87625260.69848
     -1767.690  
  21121824.558   110995963.30949     -2555.511    21121824.254    86490362.56747
     -1991.313  
  20382722.591   107111950.65949        -5.270    20382724.294    83463874.09549
        -4.109  
  19590211.499   104867982.97609     -1043.468    19590214.746    81564023.15908
      -811.589  
  19932608.864   106439018.96105      1101.480    19932613.786    82785924.38306
       856.707  
  22847149.774   121916768.31706     -3412.378    22847156.770    94824179.92405
     -2654.085  
  22263543.603   118677218.11206      4310.441    22263551.138    92304534.82405
      3352.565  
  21740252.731   116132555.92708     -2966.233    21740258.421    90325356.25007
     -2307.070  
  20351035.020   108978889.83109      2362.261    20351038.155    84761383.59907
      1837.316  
 20 09 28 09 18  0.0000000  0 13G11G12G21G32G24G20G10R 3R13R 2R14R12
                                R 4
  23897622.425   125582835.36346       275.781    23897617.980    97856748.06945
       214.894  
  23521446.695   123606037.33947      2949.336    23521447.675    96316398.68046
      2298.184  
  23008768.666   120911898.93048       -16.039    23008768.119    94217071.63546
       -12.495  
  21614363.793   113584281.48649      2281.409    21614365.925    88507260.65448
      1777.723  
  21401129.423   112463735.90548     -2271.487    21401131.656    87634105.28148
     -1769.996  
  21124257.349   111008747.65049     -2558.210    21124257.009    86500324.38647
     -1993.413  
  20382729.071   107111984.80649        -8.409    20382730.793    83463900.70849
        -6.554  
  19591187.513   104873207.74609     -1046.269    19591190.778    81568086.87508
      -813.765  
  19931579.697   106433522.95305      1096.523    19931584.545    82781649.71106
       852.742  
  22850347.805   121933833.46406     -3413.581    22850354.469    94837452.87506
     -2654.999  
  22259501.231   118655670.09007      4308.948    22259508.750    92287775.26906
      3351.409  
  21743030.947   116147396.59908     -2969.940    21743036.648    90336898.99207
     -2309.957  
  20348830.375   108967084.21709      2360.133    20348833.527    84752201.46107
      1835.659  
 20 09 28 09 18  5.0000000  0 14G11G12G21G32G24G20G10R 3R13R 2R14R12
                                R19R 4
  23897360.788   125581462.35946       272.718    23897356.890    97855678.16845
       212.504  
  23518640.979   123591293.17648      2947.905    23518641.897    96304909.73646
      2297.069  
  23008784.569   120911982.59148       -18.246    23008783.976    94217136.81547
       -14.222  
  21612193.390   113572875.97649      2280.203    21612195.521    88498373.24148
      1776.781  
  21403291.473   112475097.55548     -2273.746    21403293.683    87642958.51248
     -1771.784  
  21126692.063   111021542.06049     -2560.203    21126691.698    86510294.05947
     -1994.965  
  20382738.061   107112031.95749       -10.930    20382739.765    83463937.44849
        -8.520  
  19592165.532   104878443.37609     -1048.655    19592168.838    81572159.03208
      -815.625  
  19930554.364   106428048.07705      1092.176    19930559.271    82777391.48306
       849.469  
  22853546.432   121950902.01306     -3414.551    22853553.137    94850728.40906
     -2655.765  
  22255459.856   118634127.53607      4307.477    22255467.399    92271019.94607
      3350.258  
  21745811.858   116162251.66508     -2972.827    21745817.539    90348452.92707
     -2312.202  
  22369894.594   119663851.41315     -3238.445    22369898.438    93071900.28916
     -2518.797  
  20346627.034   108955285.45509      2358.714    20346630.184    84743024.64907
      1834.555  
 20 09 28 09 18 10.0000000  0 15G11G12G21G32G24G20G10R 3R13R 2R14R12
                                R19R 4R20
  23897102.762   125580108.29746       269.089    23897099.535    97854623.06145
       209.676  
  23515837.346   123576559.89047      2945.555    23515838.174    96293429.21246
      2295.230  
  23008803.477   120912081.95548       -20.949    23008802.865    94217214.25346
       -16.324  
  21610024.670   113561479.30749      2278.555    21610026.794    88489492.73048
      1775.495  
  21405456.254   112486473.61848     -2276.538    21405458.483    87651822.97547
     -1773.930  
  21129129.317   111034349.95049     -2562.894    21129128.958    86520274.23147
     -1997.063  
  20382750.159   107112095.56349       -14.288    20382751.869    83463987.01249
       -11.132  
  19593146.309   104883693.55609     -1051.405    19593149.615    81576242.50108
      -817.765  
  19929533.753   106422597.94605      1087.688    19929538.637    82773152.49306
       845.980  
  22856746.364   121967976.93606     -3415.476    22856753.215    94864008.86006
     -2656.487  
  22251420.259   118612594.27407      4305.702    22251427.797    92254271.88007
      3348.878  
  21748596.124   116177124.58808     -2976.145    21748601.796    90360020.75507
     -2314.780  
  22372921.942   119680051.93304     -3241.094    22372927.343    93084500.71506
     -2520.854  
  20344425.612   108943497.03409      2356.847    20344428.772    84733855.87807
      1833.104  
  22332718.943   119423083.07014       713.851           0.000           0.0000 
         0.000  
 20 09 28 09 18 15.0000000  0 15G11G12G21G32G24G20G10R 3R13R 2R14R12
                                R19R 4R20
  23896848.171   125578772.07146       265.352    23896845.385    97853581.86045
       206.766  
  23513035.554   123561836.24747      2943.570    23513036.396    96281956.27246
      2293.694  
  23008825.155   120912195.96848       -24.348    23008824.530    94217303.09546
       -18.973  
  21607857.428   113550090.40549      2276.992    21607859.550    88480618.25947
      1774.277  
  21407623.617   112497863.06348     -2279.159    21407625.815    87660697.86948
     -1775.969  
  21131568.941   111047170.26349     -2565.316    21131568.582    86530264.08347
     -1998.952  
  20382765.187   107112174.53449       -17.296    20382766.897    83464048.54949
       -13.480  
  19594129.588   104888957.09409     -1053.968    19594132.896    81580336.36508
      -819.758  
  19928517.565   106417171.43305      1083.340    19928522.419    82768931.87706
       842.598  
  22859947.218   121985057.49106     -3416.624    22859954.076    94877293.71305
     -2657.382  
  22247382.215   118591069.32107      4304.413    22247389.772    92237530.25407
      3347.879  
  21751383.534   116192014.36808     -2979.707    21751389.195    90371601.69807
     -2317.555  
  22375953.402   119696267.23404     -3243.851    22375958.494    93097112.61206
     -2522.996  
  20342225.927   108931717.91609      2354.863    20342229.092    84724694.34907
      1831.559  
  22332052.712   119419522.18504       710.137           0.000           0.0000 
         0.000  
 20 09 28 09 18 20.0000000  0 15G11G12G21G32G24G20G10R 3R13R 2R14R12
                                R19R 4R20
  23896596.764   125577452.88546       261.965    23896594.558    97852553.95145
       204.133  
  23510235.474   123547121.63648      2942.016    23510236.395    96270490.36146
      2292.480  
  23008849.490   120912323.84648       -26.565    23008848.856    94217402.73546
       -20.702  
  21605691.520   113538708.50949      2275.547    21605693.640    88471749.25348
      1773.151  
  21409793.357   112509265.18448     -2281.719    21409795.559    87669582.63748
     -1777.965  
  21134010.782   111060002.22149     -2567.641    21134010.428    86540263.00647
     -2000.761  
  20382783.000   107112268.11349       -20.269    20382784.690    83464121.46949
       -15.793  
  19595115.236   104894233.37709     -1056.566    19595118.550    81584440.14308
      -821.773  
  19927505.619   106411767.73005      1078.222    19927510.480    82764728.99907
       838.616  
  22863149.049   122002142.82607     -3417.621    22863155.650    94890582.30906
     -2658.136  
  22243345.540   118569551.69907      4302.813    22243353.095    92220794.34307
      3346.632  
  21754173.946   116206920.15708     -2982.883    21754179.604    90383195.08807
     -2320.019  
  22378987.681   119712496.67504     -3247.472    22378992.424    93109735.48206
     -2525.815  
  20340027.878   108919947.33909      2353.160    20340031.013    84715539.45907
      1830.230  
  22331391.177   119415984.22104       705.121    22331396.762    92879120.49917
       548.425  
 20 09 28 09 18 25.0000000  0 15G11G12G21G32G24G20G10R 3R13R 2R14R12
                                R19R 4R20
  23896348.343   125576149.57846       259.043    23896346.871    97851538.37445
       201.847  
  23507436.876   123532414.83947      2940.870    23507437.745    96259030.48446
      2291.582  
  23008876.240   120912464.42348       -29.401    23008875.599    94217512.27846
       -22.913  
  21603526.706   113527332.40049      2274.586    21603528.839    88462884.75348
      1772.406  
  21411965.276   112520678.69448     -2283.800    21411967.485    87678476.28048
     -1779.590  
  21136454.606   111072844.60049     -2569.609    21136454.266    86550270.05247
     -2002.297  
  20382803.345   107112375.08849       -22.785    20382805.055    83464204.82849
       -17.754  
  19596103.021   104899521.03709     -1058.750    19596106.330    81588552.76708
      -823.477  
  19926497.658   106406385.58906      1074.460    19926502.586    82760542.89107
       835.690  
  22866351.677   122019231.66106     -3418.039    22866358.263    94903873.65406
     -2658.477  
  22239310.041   118548040.31107      4301.620    22239317.594    92204063.27807
      3345.706  
  21756967.143   116221840.62908     -2985.487    21756972.762    90394799.89607
     -2322.051  
  22382023.530   119728738.95204     -3250.023    22382028.756    93122368.37106
     -2527.800  
  20337831.153   108908183.97809      2351.944    20337834.274    84706390.18107
      1829.288  
  22330733.587   119412468.01104       701.875    22330739.192    92876385.67707
       545.901  
 20 09 28 09 18 30.0000000  0 15G11G12G21G32G24G20G10R 3R13R 2R14R12
                                R19R 4R20
  23896103.367   125574864.47346       255.636    23896102.667    97850537.02245
       199.199  
  23504640.211   123517718.17448      2938.551    23504641.014    96247578.55746
      2289.781  
  23008905.840   120912620.00048       -32.605    23008905.197    94217633.50847
       -25.409  
  21601363.459   113515964.45949      2272.999    21601365.593    88454026.62348
      1771.167  
  21414139.806   112532105.96248     -2286.680    21414142.022    87687380.64748
     -1781.831  
  21138900.875   111085699.77149     -2572.026    21138900.537    86560287.05847
     -2004.180  
  20382826.709   107112497.83649       -25.785    20382828.420    83464300.47449
       -20.097  
  19597093.377   104904822.45809     -1061.401    19597096.680    81592676.09508
      -825.539  
  19925494.187   106401027.48406      1069.156    19925499.200    82756375.47906
       831.566  
  22869555.160   122036326.56105     -3419.206    22869561.981    94917169.61606
     -2659.397  
  22235276.197   118526537.52507      4300.120    22235283.707    92187338.90107
      3344.539  
  21759763.487   116236778.26108     -2988.940    21759769.126    90406418.05307
     -2324.734  
  22385062.701   119744996.49805     -3253.206    22385067.889    93135013.10506
     -2530.280  
  20335636.239   108896430.34209      2350.077    20335639.351    84697248.46507
      1827.840  
  22330080.245   119408975.91904       695.594    22330086.164    92873669.61707
       541.015  
 20 09 28 09 18 35.0000000  0 15G11G12G21G32G24G20G10R 3R13R 2R14R12
                                R19R 4R20
  23895861.530   125573596.20746       252.121    23895861.612    97849548.75645
       196.457  
  23501845.232   123503030.33548      2936.788    23501845.994    96236133.48146
      2288.401  
  23008938.032   120912789.20248       -35.386    23008937.441    94217765.35346
       -27.578  
  21599201.480   113504603.27749      2271.789    21599203.632    88445173.75547
      1770.226  
  21416316.704   112543545.57548     -2288.987    21416318.899    87696294.62648
     -1783.633  
  21141349.292   111098566.32149     -2574.195    21141348.957    86570312.93147
     -2005.871  
  20382852.792   107112634.96649       -28.577    20382854.507    83464407.32949
       -22.273  
  19598086.063   104910136.28909     -1063.820    19598089.340    81596809.07508
      -827.418  
  19924494.908   106395691.88605      1065.125    19924500.014    82752225.56906
       828.430  
  22872759.562   122053425.86307     -3419.949    22872766.156    94930469.04105
     -2660.007  
  22231243.683   118505041.89707      4298.698    22231251.171    92170620.09706
      3343.434  
  21762562.834   116251731.68208     -2991.984    21762568.454    90418048.49707
     -2327.098  
  22388104.213   119761267.69304     -3255.394    22388109.801    93147668.49006
     -2531.976  
  20333442.865   108884684.98609      2348.418    20333445.998    84688113.19707
      1826.546  
  22329431.470   119405506.47304       691.624    22329437.352    92870971.16007
       537.930  
 20 09 28 09 18 40.0000000  0 15G11G12G21G32G24G20G10R 3R13R 2R14R12
                                R19R 4R20
  23895622.953   125572344.88246       247.979    23895623.754    97848573.70645
       193.230  
  23499051.921   123488351.38747      2934.163    23499052.706    96224695.33746
      2286.358  
  23008972.849   120912972.13648       -38.414    23008972.253    94217907.90446
       -29.933  
  21597040.815   113493248.96849      2269.722    21597042.988    88436326.24847
      1768.612  
  21418495.965   112554997.69848     -2292.062    21418498.182    87705218.36148
     -1786.022  
  21143799.920   111111444.36649     -2577.199    21143799.535    86580347.76147
     -2008.211  
  20382881.634   107112786.56349       -32.254    20382883.356    83464525.45749
       -25.136  
  19599081.030   104915462.48709     -1067.003    19599084.327    81600951.67508
      -829.887  
  19923499.966   106390379.01605      1060.261    19923505.079    82748093.34406
       824.647  
  22875965.004   122070529.59306     -3421.848    22875971.380    94943772.03406
     -2661.430  
  22227212.520   118483553.65107      4296.417    22227220.017    92153907.02506
      3341.659  
  21765365.083   116266700.79208     -2995.848    21765370.708    90429691.12907
     -2330.109  
  22391148.718   119777552.58604     -3259.339    22391154.102    93160334.50905
     -2535.042  
  20331251.064   108872948.08309      2346.214    20331254.207    84678984.49807
      1824.831  
  22328786.646   119402059.77804       687.222    22328792.720    92868290.39406
       534.503  
 20 09 28 09 18 45.0000000  0 15G11G12G21G32G24G20G10R 3R13R 2R14R12
                                R19R 4R20
  23895387.803   125571111.31446       245.047    23895389.198    97847612.48645
       190.944  
  23496260.445   123473682.14448      2933.003    23496261.182    96213264.76345
      2285.457  
  23009010.439   120913169.60948       -40.734    23009009.808    94218061.77646
       -31.746  
  21594881.598   113481902.33049      2268.820    21594883.811    88427484.71647
      1767.910  
  21420677.736   112566462.95148     -2294.141    21420679.916    87714152.32548
     -1787.645  
  21146252.883   111124334.70949     -2579.012    21146252.492    86590392.17947
     -2009.624  
  20382913.397   107112953.44749       -34.464    20382915.120    83464655.49849
       -26.859  
  19600078.504   104920801.98009     -1068.925    19600081.775    81605104.61608
      -831.391  
  19922509.481   106385089.66106      1055.796    19922514.538    82743979.40306
       821.175  
  22879171.103   122087638.88805     -3421.929    22879177.860    94957079.21006
     -2661.511  
  22223182.929   118462073.56907      4295.313    22223190.405    92137200.31206
      3340.797  
  21768170.430   116281686.51608     -2998.398    21768176.074    90441346.69007
     -2332.089  
  22394196.173   119793852.28805     -3261.008    22394201.070    93173012.02705
     -2536.347  
  20329060.982   108861220.29409      2345.007    20329064.126    84669862.88807
      1823.895  
  22328146.662   119398636.90104       682.266    22328152.507    92865628.16706
       530.652  
 20 09 28 09 18 50.0000000  0 15G11G12G21G32G24G20G10R 3R13R 2R14R12
                                R19R 4R20
  23895155.849   125569893.63945       241.516    23895157.454    97846663.62745
       188.190  
  23493470.472   123459020.76847      2931.227    23493471.156    96201840.29446
      2284.069  
  23009050.431   120913379.76848       -43.835    23009049.823    94218225.53946
       -34.155  
  21592723.507   113470561.54649      2267.191    21592725.725    88418647.74448
      1766.645  
  21422861.651   112577939.53348     -2296.816    21422863.829    87723095.11448
     -1789.730  
  21148707.843   111137235.48349     -2581.473    21148707.441    86600444.72147
     -2011.543  
  20382947.714   107113133.78549       -37.714    20382949.446    83464796.02349
       -29.390  
  19601078.111   104926152.92309     -1071.706    19601081.383    81609266.45908
      -833.554  
  19921523.000   106379821.94206      1051.104    19921528.072    82739882.29406
       817.526  
  22882377.936   122104751.63407     -3423.070    22882384.779    94970389.02306
     -2662.398  
  22219154.538   118440599.91907      4293.698    22219161.975    92120498.59406
      3339.543  
  21770978.545   116296686.96308     -3001.800    21770984.205    90453013.70907
     -2334.733  
  22397245.858   119810164.67004     -3264.582    22397250.602    93185699.43105
     -2539.128  
  20326872.302   108849499.92209      2343.016    20326875.407    84660747.04407
      1822.344  
  22327510.406   119395235.58604       677.808    22327516.401    92862982.71106
       527.184  
 20 09 28 09 18 55.0000000  0 15G11G12G21G32G24G20G10R 3R13R 2R14R12
                                R19R 4R20
  23894926.927   125568691.67746       238.827    23894928.560    97845727.03244
       186.102  
  23490681.982   123444367.21748      2929.815    23490682.725    96190421.97746
      2282.973  
  23009092.818   120913602.45448       -45.565    23009092.176    94218399.06146
       -35.508  
  21590566.503   113459226.44849      2266.397    21590568.729    88409815.20648
      1766.023  
  21425047.701   112589427.30448     -2298.676    21425049.864    87732046.62448
     -1791.180  
  21151164.740   111150146.50449     -2583.288    21151164.308    86610505.24547
     -2012.956  
  20382984.556   107113327.42249       -40.241    20382986.293    83464946.90549
       -31.362  
  19602079.840   104931515.19709     -1073.688    19602083.093    81613437.11508
      -835.090  
  19920540.538   106374575.71105      1046.750    19920545.630    82735801.89706
       814.141  
  22885585.654   122121867.56607     -3423.628    22885592.106    94983701.52305
     -2662.812  
  22215127.235   118419132.40707      4292.738    22215134.706    92103801.65606
      3338.796  
  21773789.356   116311701.90508     -3004.413    21773795.017    90464691.99107
     -2336.769  
  22400297.521   119826489.51104     -3266.754    22400302.250    93198396.54505
     -2540.809  
  20324684.977   108837786.79709      2341.776    20324688.065    84651636.84107
      1821.383  
  22326878.317   119391855.95804       673.191    22326884.377    92860354.10406
       523.589  
 20 09 28 09 19  0.0000000  0 15G11G12G21G32G24G20G10R 3R13R 2R14R12
                                R19R 4R20
  23894701.307   125567506.91246       235.417    23894702.719    97844803.84645
       183.440  
  23487895.284   123429722.92648      2927.812    23487896.099    96179010.83345
      2281.410  
  23009137.847   120913839.14248       -48.656    23009137.240    94218583.49846
       -37.914  
  21588410.863   113447898.51549      2264.832    21588413.096    88400988.25048
      1764.800  
  21427236.167   112600927.76748     -2301.433    21427238.313    87741008.01848
     -1793.327  
  21153623.848   111163069.23649     -2585.797    21153623.422    86620574.90447
     -2014.910  
  20383024.218   107113535.81749       -43.234    20383025.934    83465109.29449
       -33.690  
  19603083.927   104936890.15009     -1076.395    19603087.171    81617617.63308
      -837.199  
  19919562.377   106369352.60705      1042.078    19919567.526    82731739.48506
       810.504  
  22888794.048   122138988.64005     -3424.371    22888800.748    94997017.89106
     -2663.410  
  22211101.398   118397672.52607      4291.164    22211108.875    92087110.65206
      3337.570  
  21776603.178   116326732.83408     -3007.895    21776608.840    90476382.71907
     -2339.472  
  22403351.941   119842828.38105     -3268.730    22403356.720    93211104.52505
     -2542.352  
  20322499.285   108826082.36109      2340.152    20322502.338    84642533.39607
      1820.116  
  22326250.788   119388499.52904       669.199    22326256.653    92857743.54006
       520.484  
 20 09 28 09 19  5.0000000  0 15G11G12G21G32G24G20G10R 3R13R 2R14R12
                                R19R 4R20
  23894479.103   125566340.28446       231.956    23894480.614    97843894.80144
       180.745  
  23485110.508   123415088.76547      2925.590    23485111.296    96167607.59346
      2279.680  
  23009185.717   120914090.73248       -51.258    23009185.071    94218779.54346
       -39.945  
  21586256.769   113436578.67449      2263.327    21586259.018    88392167.59847
      1763.632  
  21429427.212   112612441.79048     -2303.953    21429429.350    87749979.98247
     -1795.293  
  21156085.380   111176004.61049     -2588.285    21156084.963    86630654.41347
     -2016.847  
  20383066.857   107113759.91649       -46.272    20383068.586    83465283.91449
       -36.062  
  19604090.570   104942278.82009     -1078.938    19604093.820    81621808.82108
      -839.171  
  19918588.828   106364153.56205      1037.863    19918593.920    82727695.78406
       807.223  
  22892003.505   122156115.16707     -3425.694    22892010.369    95010338.38806
     -2664.444  
  22207077.184   118376221.32407      4289.582    22207084.665    92070426.39906
      3336.340  
  21779420.197   116341780.72108     -3011.082    21779425.864    90488086.62307
     -2341.956  
  22406409.147   119859182.40104     -3272.167    22406413.953    93223824.31405
     -2545.023  
  20320315.362   108814387.55609      2338.226    20320318.424    84633437.44107
      1818.621  
  22325627.486   119385166.89504       664.839    22325633.372    92855151.48207
       517.093  
 20 09 28 09 19 10.0000000  0 15G11G12G21G32G24G20G10R 3R13R 2R14R12
                                R19R 4R20
  23894260.064   125565190.00746       228.582    23894261.384    97842998.46545
       178.116  
  23482327.363   123400463.14548      2923.960    23482328.049    96156211.03946
      2278.409  
  23009236.082   120914355.59048       -54.589    23009235.479    94218985.92646
       -42.542  
  21584103.893   113425265.23649      2261.933    21584106.143    88383351.93647
      1762.546  
  21431620.515   112623967.77048     -2306.425    21431622.648    87758961.26548
     -1797.218  
  21158548.999   111188950.92349     -2590.492    21158548.581    86640742.45247
     -2018.569  
  20383112.156   107113997.99649       -49.120    20383113.893    83465469.43749
       -38.280  
  19605099.443   104947679.46309     -1081.460    19605102.692    81626009.32608
      -841.136  
  19917619.351   106358976.76706      1032.597    19917624.490    82723669.39706
       803.132  
  22895213.953   122173245.70507     -3426.858    22895220.409    95023662.24505
     -2665.324  
  22203054.269   118354777.11407      4287.852    22203061.782    92053747.58107
      3334.996  
  21782240.054   116356843.79708     -3014.188    21782245.696    90499802.34807
     -2344.371  
  22409468.867   119875549.40005     -3274.128    22409473.468    93236554.19405
     -2546.547  
  20318132.927   108802700.71209      2336.503    20318135.981    84624347.67607
      1817.280  
  22325008.533   119381856.76004       659.684    22325014.343    92852576.95807
       513.086  
 20 09 28 09 19 15.0000000  0 15G11G12G21G32G24G20G10R 3R13R 2R14R12
                                R19R 4R20
  23894044.099   125564055.60546       225.519    23894045.250    97842114.52645
       175.727  
  23479545.701   123385845.41248      2922.832    23479546.393    96144820.55946
      2277.522  
  23009288.851   120914632.95448       -56.543    23009288.246    94219202.06146
       -44.059  
  21581952.095   113413957.52049      2261.043    21581954.334    88374540.73347
      1761.851  
  21433815.976   112635504.93148     -2308.437    21433818.097    87767951.25948
     -1798.785  
  21161014.554   111201907.50349     -2592.276    21161014.160    86650838.49447
     -2019.956  
  20383159.996   107114249.43049       -51.519    20383161.738    83465665.35649
       -40.148  
  19606110.460   104953091.51509     -1083.395    19606113.701    81630218.69808
      -842.645  
  19916653.869   106353821.36706      1029.164    19916659.071    82719659.64006
       800.457  
  22898424.833   122190380.16805     -3427.237    22898431.501    95036989.03306
     -2665.636  
  22199032.561   118333339.17507      4287.101    22199040.052    92037073.64307
      3334.413  
  21785062.613   116371921.30908     -3016.883    21785068.223    90511529.30407
     -2346.464  
  22412530.641   119891928.86104     -3276.839    22412535.650    93249293.76105
     -2548.655  
  20315951.826   108791021.10809      2335.309    20315954.884    84615263.54307
      1816.351  
  22324393.562   119378568.20004       655.434    22324399.361    92850019.20007
       509.781  
 20 09 28 09 19 20.0000000  0 15G11G12G21G32G24G20G10R 3R13R 2R14R12
                                R19R 4R20
  23893831.338   125562938.50545       221.327    23893832.370    97841244.10146
       172.464  
  23476765.795   123371236.97347      2921.004    23476766.629    96133437.39146
      2276.109  
  23009344.326   120914924.45048       -59.930    23009343.670    94219429.19746
       -46.703  
  21579801.682   113402657.05549      2259.159    21579803.936    88365735.17748
      1760.383  
  21436013.846   112647054.81448     -2311.609    21436015.975    87776951.17047
     -1801.258  
  21163482.346   111214875.83849     -2595.151    21163481.959    86660943.68747
     -2022.199  
  20383210.653   107114515.72849       -55.121    20383212.428    83465872.86149
       -42.957  
  19607123.863   104958516.30809     -1086.554    19607127.097    81634437.98108
      -845.101  
  19915692.762   106348689.10606      1024.198    19915697.966    82715667.89207
       796.597  
  22901636.636   122207518.87007     -3428.354    22901643.532    95050319.02906
     -2666.512  
  22195012.348   118311909.11707      4284.948    22195019.855    92020405.83707
      3332.737  
  21787888.176   116387014.86408     -3020.476    21787893.791    90523268.73507
     -2349.261  
  22415595.272   119908322.41104     -3280.391    22415600.079    93262044.30206
     -2551.418  
  20313772.400   108779350.32209      2332.948    20313775.448    84606186.27007
      1814.516  
  22323782.771   119375302.74504       650.796    22323788.728    92847479.40407
       506.175  
 20 09 28 09 19 25.0000000  0 15G11G12G21G32G24G20G10R 3R13R 2R14R12
                                R19R 4R20
  23893622.117   125561840.50845       218.226    23893623.215    97840388.51945
       170.046  
  23473988.072   123356639.96948      2919.026    23473988.925    96122063.15845
      2274.570  
  23009402.852   120915231.94148       -62.672    23009402.181    94219668.79346
       -48.840  
  21577653.028   113391365.77249      2257.953    21577655.277    88356936.77847
      1759.445  
  21438214.496   112658619.24948     -2313.808    21438216.606    87785962.41948
     -1802.973  
  21165952.753   111227857.85149     -2597.194    21165952.346    86671059.53947
     -2023.793  
  20383264.511   107114798.78449       -57.722    20383266.292    83466093.42449
       -44.983  
  19608140.040   104963955.88709     -1088.987    19608143.257    81638668.76508
      -846.992  
  19914736.380   106343581.99006      1019.245    19914741.577    82711695.69807
       792.745  
  22904849.899   122224664.61506     -3429.343    22904856.356    95063654.68905
     -2667.257  
  22190993.990   118290488.85207      4283.815    22191001.463    92003745.64407
      3331.854  
  21790717.066   116402126.28608     -3023.539    21790722.657    90535022.06107
     -2351.645  
  22418662.930   119924731.75505     -3282.574    22418667.767    93274807.12106
     -2553.116  
  20311594.986   108767690.36509      2331.464    20311598.027    84597117.42107
      1813.363  
  22323176.727   119372062.67904       646.445    22323182.846    92844959.37007
       502.788  
 20 09 28 09 19 30.0000000  0 15G11G12G21G32G24G20G10R 3R13R 2R14R12
                                R19R 4R20
  23893416.001   125560758.80245       214.608    23893417.168    97839545.63545
       167.227  
  23471211.962   123342051.38048      2916.815    23471212.724    96110695.38946
      2272.840  
  23009463.864   120915552.46848       -65.331    23009463.200    94219918.56046
       -50.906  
  21575505.562   113380080.70249      2256.405    21575507.785    88348143.22148
      1758.238  
  21440417.347   112670195.30648     -2316.429    21440419.457    87794982.72748
     -1805.012  
  21168425.204   111240850.60549     -2599.585    21168424.815    86681183.75947
     -2025.655  
  20383321.006   107115095.66549       -60.730    20383322.795    83466324.76249
       -47.327  
  19609158.379   104969407.17109     -1091.445    19609161.595    81642908.65308
      -848.905  
  19913784.153   106338496.92906      1014.984    19913789.294    82707740.65306
       789.434  
  22908063.611   122241814.50406     -3430.199    22908070.080    95076993.49206
     -2667.937  
  22186976.854   118269075.31707      4281.999    22186984.327    91987090.68907
      3330.445  
  21793548.751   116417252.60608     -3026.858    21793554.321    90546786.97707
     -2354.223  
  22421733.025   119941154.25304     -3285.738    22421737.734    93287580.14106
     -2555.581  
  20309419.015   108756038.20609      2329.625    20309422.070    84588054.63507
      1811.930  
  22322574.787   119368844.61604       641.132    22322581.063    92842456.44807
       498.659  
 20 09 28 09 19 35.0000000  0 15G11G12G21G32G24G20G10R 3R13R 2R14R12
                                R19R 4R20
  23893213.217   125559694.10445       211.469    23893214.392    97838715.98845
       164.777  
  23468437.579   123327471.83847      2914.934    23468438.396    96099334.73246
      2271.378  
  23009527.500   120915886.78148       -67.672    23009526.841    94220179.06546
       -52.734  
  21573359.411   113368802.60249      2255.168    21573361.634    88339355.09247
      1757.273  
  21442622.579   112681783.81748     -2318.714    21442624.691    87804012.72847
     -1806.793  
  21170899.819   111253854.79649     -2601.804    21170899.443    86691316.88847
     -2027.382  
  20383380.269   107115407.12949       -63.444    20383382.064    83466567.46249
       -49.441  
  19610179.077   104974871.01509     -1093.719    19610182.286    81647158.30608
      -850.675  
  19912836.129   106333434.65806      1010.870    19912841.293    82703803.33406
       786.233  
  22911278.428   122258968.72907     -3430.940    22911285.248    95090335.60506
     -2668.523  
  22182961.176   118247669.49307      4280.879    22182968.644    91970441.72607
      3329.574  
  21796383.387   116432394.59808     -3029.871    21796388.942    90558564.08307
     -2356.566  
  22424805.630   119957590.39904     -3287.640    22424810.266    93300363.83106
     -2557.059  
  20307244.645   108744394.52209      2328.164    20307247.679    84578998.43907
      1810.793  
  22321977.270   119365649.61104       636.691    22321983.580    92839971.43907
       495.198  
 20 09 28 09 19 40.0000000  0 15G11G12G21G32G24G20G10R 3R13R 2R14R12
                                R19R 4R20
  23893013.410   125558644.29446       208.781    23893014.624    97837897.97445
       162.688  
  23465664.536   123312899.46148      2913.730    23465665.465    96087979.66746
      2270.440  
  23009593.356   120916232.86248       -70.516    23009592.689    94220448.73546
       -54.949  
  21571214.205   113357529.43249      2254.229    21571216.421    88330570.80448
      1756.542  
  21444829.760   112693382.63248     -2320.671    21444831.873    87813050.77148
     -1808.320  
  21173376.214   111266868.37149     -2603.542    21173375.828    86701457.33347
     -2028.737  
  20383441.924   107115731.12549       -65.983    20383443.720    83466819.93049
       -51.418  
  19611201.743   104980345.36409     -1095.933    19611204.940    81651416.13308
      -852.395  
  19911892.005   106328393.28005      1006.089    19911897.191    82699882.26606
       782.491  
  22914493.641   122276125.46706     -3431.604    22914500.687    95103679.71205
     -2669.034  
  22178946.548   118226269.20707      4279.430    22178954.000    91953797.07207
      3328.445  
  21799220.534   116447550.16108     -3032.309    21799226.094    90570351.73807
     -2358.464  
  22427880.367   119974037.98004     -3290.698    22427885.061    93313156.37606
     -2559.438  
  20305071.498   108732757.41409      2326.815    20305074.526    84569947.36107
      1809.828  
  22321383.667   119362475.28304       632.699    22321389.980    92837502.51907
       492.098  
 20 09 28 09 19 45.0000000  0 15G11G12G21G32G24G20G10R 3R13R 2R14R12
                                R19R 4R20
  23892818.038   125557617.36145       203.629    23892819.066    97837097.75545
       158.672  
  23462894.351   123298342.07048      2910.542    23462895.167    96076636.22945
      2267.957  
  23009662.949   120916598.54048       -74.714    23009662.270    94220733.68846
       -58.218  
  21569071.441   113346269.10549      2251.097    21569073.647    88321796.53248
      1754.101  
  21447040.396   112704999.60048     -2325.047    21447042.508    87822102.94947
     -1811.730  
  21175855.911   111279899.23349     -2607.633    21175855.516    86711611.24147
     -2031.926  
  20383507.458   107116075.53949       -70.612    20383509.259    83467088.30449
       -55.023  
  19612227.872   104985838.21709     -1100.164    19612231.052    81655688.35408
      -855.683  
  19910953.365   106323380.61705       999.918    19910958.481    82695983.52907
       777.715  
  22917710.757   122293292.80706     -3434.101    22917716.937    95117032.09605
     -2670.965  
  22174934.470   118204882.57507      4276.305    22174941.911    91937163.03707
      3326.015  
  21802061.775   116462727.27808     -3037.226    21802067.275    90582156.16407
     -2362.288  
  22430958.664   119990505.10505     -3294.848    22430963.360    93325964.12406
     -2562.664  
  20302900.996   108721134.63109      2323.483    20302904.053    84560907.42107
      1807.156  
  22320795.520   119359329.88404       626.359    22320801.806    92835056.10507
       487.167  
 20 09 28 09 19 50.0000000  0 15G11G12G21G32G24G20G10R 3R13R 2R14R12
                                R19R 4R20
  23892625.576   125556605.93546       200.867    23892626.447    97836309.64144
       156.519  
  23460125.575   123283792.33548      2909.730    23460126.400    96065298.77946
      2267.324  
  23009734.863   120916976.54848       -76.550    23009734.190    94221028.24946
       -59.647  
  21566929.722   113335014.26249      2250.780    21566931.906    88313026.52348
      1753.852  
  21449253.083   112716627.38248     -2326.277    21449255.179    87831163.56247
     -1812.683  
  21178337.485   111292940.05549     -2608.917    21178337.109    86721772.91847
     -2032.926  
  20383575.492   107116433.06149       -72.516    20383577.301    83467366.89149
       -56.503  
  19613256.056   104991342.13609     -1101.660    19613259.238    81659969.18208
      -856.852  
  19910018.724   106318389.21805       996.354    19910023.745    82692101.33306
       774.940  
  22920928.536   122310463.11706     -3433.926    22920934.836    95130386.84906
     -2670.827  
  22170923.554   118183501.97507      4275.929    22170930.960    91920533.69507
      3325.723  
  21804905.599   116477918.50608     -3039.438    21804911.111    90593971.56007
     -2364.012  
  22434039.378   120006984.44304     -3297.242    22434044.050    93338781.38306
     -2564.526  
  20300731.839   108709519.05409      2322.706    20300734.920    84551873.08807
      1806.550  
  22320211.296   119356205.93404       622.895    22320217.610    92832626.35907
       484.468  
 20 09 28 09 19 55.0000000  0 15G11G12G21G32G24G20G10R 3R13R 2R14R12
                                R19R 4R20
  23892435.535   125555607.32546       197.835    23892436.418    97835531.50245
       154.155  
  23457357.817   123269247.67048      2907.809    23457358.643    96053965.30746
      2265.828  
  23009808.605   120917364.18848       -79.184    23009807.932    94221330.30446
       -61.702  
  21564788.556   113323762.29449      2249.499    21564790.736    88304258.75948
      1752.851  
  21451467.332   112728263.27448     -2328.605    21451469.407    87840230.48647
     -1814.500  
  21180820.448   111305988.14549     -2610.979    21180820.108    86731940.25747
     -2034.535  
  20383645.523   107116801.04649       -75.180    20383647.334    83467653.63449
       -58.582  
  19614285.780   104996854.33009     -1103.910    19614288.970    81664256.44408
      -858.602  
  19909087.552   106313416.49905       991.535    19909092.509    82688233.66806
       771.195  
  22924146.280   122327634.05106     -3434.766    22924153.283    95143741.91206
     -2671.504  
  22166913.252   118162124.93607      4274.483    22166920.669    91903907.11907
      3324.597  
  21807751.529   116493121.07808     -3042.391    21807757.071    90605795.77907
     -2366.309  
  22437121.739   120023473.09204     -3298.964    22437126.439    93351605.86605
     -2565.866  
  20298563.520   108697907.83109      2321.270    20298566.584    84542842.13907
      1805.434  
  22319630.588   119353100.62604       618.023    22319636.901    92830211.11807
       480.680  
 20 09 28 09 20  0.0000000  0 15G11G12G21G32G24G20G10R 3R13R 2R14R12
                                R19R 4R20
  23892248.817   125554625.80346       194.258    23892249.471    97834766.67344
       151.366  
  23454591.852   123254712.36348      2905.960    23454592.768    96042639.10445
      2264.387  
  23009884.992   120917765.72848       -81.902    23009884.320    94221643.19446
       -63.820  
  21562648.722   113312517.45449      2248.195    21562650.892    88295496.55148
      1751.839  
  21453683.947   112739911.66948     -2331.160    21453686.015    87849307.15847
     -1816.492  
  21183305.607   111319047.77449     -2613.082    21183305.286    86742116.58347
     -2036.171  
  20383718.336   107117183.74449       -78.090    20383720.167    83467951.84349
       -60.848  
  19615317.869   105002379.24709     -1106.370    19615321.071    81668553.60008
      -860.515  
  19908160.602   106308466.76005       987.477    19908165.575    82684383.87606
       768.039  
  22927365.089   122344809.51407     -3435.699    22927371.994    95157100.50705
     -2672.227  
  22162904.428   118140755.68107      4273.063    22162911.848    91887286.60207
      3323.491  
  21810600.427   116508339.35208     -3045.335    21810605.934    90617632.21507
     -2368.594  
  22440206.675   120039975.44904     -3301.550    22440211.339    93364441.02005
     -2567.878  
  20296396.841   108686305.36709      2319.660    20296399.899    84533818.00607
      1804.179  
  22319054.268   119350018.38004       613.929    22319060.523    92827813.82307
       477.500  
 20 09 28 09 20  5.0000000  0 15G11G12G21G32G24G20G10R 3R13R 2R14R12
                                R19R 4R20
  23892065.408   125553661.79246       190.781    23892065.938    97834015.51045
       148.660  
  23451827.705   123240186.80048      2904.398    23451828.620    96031320.50546
      2263.167  
  23009964.100   120918181.47748       -84.417    23009963.419    94221967.15546
       -65.781  
  21560510.333   113301280.05449      2246.749    21560512.487    88286740.13948
      1750.715  
  21455903.015   112751572.91948     -2333.437    21455905.062    87858393.84747
     -1818.262  
  21185793.027   111332119.28749     -2615.315    21185792.725    86752302.16847
     -2037.914  
  20383794.022   107117581.50549       -81.070    20383795.866    83468261.78449
       -63.176  
  19616352.405   105007917.20009     -1108.848    19616355.607    81672860.89708
      -862.440  
  19907238.038   106303540.45005       983.026    19907243.036    82680552.30407
       764.577  
  22930584.789   122361989.97806     -3436.706    22930590.749    95170463.28805
     -2672.972  
  22158897.181   118119394.67307      4271.453    22158904.550    91870672.49907
      3322.241  
  21813452.301   116523573.64308     -3048.253    21813457.856    90629481.11207
     -2370.863  
  22443294.268   120056491.67704     -3303.813    22443298.964    93377286.97306
     -2569.636  
  20294231.826   108674711.93309      2317.878    20294234.909    84524800.89507
      1802.792  
  22318482.366   119346959.53904       609.594    22318488.506    92825434.73407
       474.128  
 20 09 28 09 20 10.0000000  0 15G11G12G21G32G24G20G10R 3R13R 2R14R12
                                R19R 4R20
  23891885.344   125552715.27046       188.258    23891885.477    97833277.92844
       146.688  
  23449065.439   123225671.02447      2902.039    23449066.303    96020009.49846
      2261.328  
  23010045.939   120918611.51048       -87.104    23010045.234    94222302.23846
       -67.879  
  21558373.366   113290050.18149      2245.417    21558375.529    88277989.59148
      1749.676  
  21458124.498   112763246.85748     -2335.741    21458126.539    87867490.42248
     -1820.062  
  21188282.729   111345202.72849     -2617.581    21188282.412    86762497.05247
     -2039.680  
  20383872.583   107117994.38149       -83.777    20383874.426    83468583.50549
       -65.280  
  19617389.376   105013468.18209     -1111.262    19617392.585    81677178.32908
      -864.319  
  19906319.860   106298637.64805       978.520    19906324.891    82676739.01407
       761.066  
  22933805.231   122379175.71806     -3437.375    22933811.849    95183829.86107
     -2673.534  
  22154891.474   118098041.90607      4269.905    22154898.814    91854064.80407
      3321.039  
  21816307.227   116538824.05408     -3051.675    21816312.733    90641342.53607
     -2373.530  
  22446384.540   120073022.07804     -3307.241    22446389.075    93390143.93006
     -2572.305  
  20292068.530   108663127.67709      2316.210    20292071.631    84515790.92107
      1801.448  
  22317914.572   119343924.19304       605.034    22317920.884    92823073.92207
       470.582  
 20 09 28 09 20 15.0000000  0 15G11G12G21G32G24G20G10R 3R13R 2R14R12
                                R19R 4R20
  23891708.276   125551784.52047       184.043    23891708.175    97832552.65944
       143.405  
  23446304.689   123211163.31047      2900.531    23446305.515    96008704.84446
      2260.156  
  23010130.162   120919054.13848       -89.973    23010129.452    94222647.15746
       -70.109  
  21556237.515   113278826.14549      2243.905    21556239.659    88269243.59348
      1748.499  
  21460348.099   112774931.98948     -2338.495    21460350.144    87876595.71548
     -1822.206  
  21190774.385   111358296.40649     -2620.117    21190774.039    86772699.90947
     -2041.651  
  20383953.709   107118420.70049       -86.992    20383955.552    83468915.70349
       -67.784  
  19618428.458   105019030.50209     -1113.973    19618431.673    81681504.57908
      -866.426  
  19905405.891   106293756.54005       973.479    19905410.818    82672942.60106
       757.151  
  22937026.508   122396364.60507     -3438.569    22937033.626    95197198.90206
     -2674.460  
  22150886.942   118076695.68507      4268.233    22150894.320    91837462.20107
      3319.737  
  21819164.800   116554088.75808     -3054.477    21819170.341    90653215.08707
     -2375.706  
  22449477.144   120089564.80204     -3309.906    22449481.595    93403010.50405
     -2574.371  
  20289906.623   108651550.82509      2314.362    20289909.729    84506786.70507
      1800.059  
  22317351.046   119340910.58204       600.456    22317357.311    92820730.01207
       467.022  
 20 09 28 09 20 20.0000000  0 15G11G12G21G32G24G20G10R 3R13R 2R14R12
                                R19R 4R20
  23891534.734   125550871.92347       180.996    23891534.503    97831841.52844
       141.027  
  23443545.952   123196666.01748      2898.344    23443546.759    95997408.23346
      2258.444  
  23010217.243   120919511.65648       -92.761    23010216.530    94223003.66446
       -72.280  
  21554103.190   113267610.22649      2242.487    21554105.334    88260503.92148
      1747.395  
  21462574.246   112786630.50248     -2341.019    21462576.296    87885711.43547
     -1824.176  
  21193268.413   111371402.58249     -2622.405    21193268.083    86782912.50947
     -2043.438  
  20384037.822   107118862.71749       -89.836    20384039.658    83469260.13549
       -70.003  
  19619470.102   105024606.50409     -1116.253    19619473.309    81685841.46808
      -868.202  
  19904496.238   106288899.35905       969.328    19904501.224    82669164.79406
       753.917  
  22940248.841   122413559.27405     -3439.078    22940255.294    95210572.61204
     -2674.652  
  22146884.123   118055358.34707      4266.710    22146891.484    91820866.50207
      3318.554  
  21822025.508   116569370.04908     -3057.867    21822031.044    90665100.52707
     -2378.343  
  22452572.462   120106122.10404     -3312.647    22452576.724    93415888.36706
     -2576.511  
  20287746.525   108639983.75609      2312.574    20287749.647    84497790.10207
      1798.668  
  22316791.996   119337921.15004       595.202    22316798.222    92818404.87806
       462.934  
 20 09 28 09 20 25.0000000  0 15G11G12G21G32G24G20G10R 3R13R 2R14R12
                                R19R 4R20
  23891364.366   125549976.07547       177.430    23891363.871    97831143.47745
       138.257  
  23440788.910   123182177.78847      2896.675    23440789.755    95986118.70146
      2257.147  
  23010306.907   120919982.75448       -95.464    23010306.190    94223370.74646
       -74.390  
  21551970.178   113256401.13849      2241.117    21551972.302    88251769.57147
      1746.324  
  21464802.713   112798341.11648     -2343.269    21464804.737    87894836.59147
     -1825.926  
  21195764.567   111384519.98749     -2624.621    21195764.219    86793133.86147
     -2045.163  
  20384124.665   107119319.17349       -92.836    20384126.526    83469615.81249
       -72.343  
  19620514.068   105030194.93909     -1119.015    19620517.284    81690188.03108
      -870.347  
  19903590.962   106284064.85605       965.129    19903595.885    82665404.62707
       750.656  
  22943471.680   122430758.52707     -3440.464    22943478.071    95223949.80006
     -2675.926  
  22142882.724   118034028.63407      4265.233    22142890.072    91804276.73807
      3317.405  
  21824889.026   116584666.69808     -3060.854    21824894.603    90676997.92607
     -2380.668  
  22455670.176   120122692.66104     -3315.378    22455674.450    93428776.56905
     -2578.637  
  20285588.027   108628425.12509      2310.694    20285591.148    84488800.06207
      1797.207  
  22316237.132   119334954.35704       591.215    22316243.374    92816097.38007
       459.831  
 20 09 28 09 20 30.0000000  0 15G11G12G21G32G24G20G10R 3R13R 2R14R12
                                R19R 4R20
  23891196.988   125549095.90247       174.128    23891196.171    97830457.61844
       135.679  
  23438033.378   123167697.46548      2894.324    23438034.281    95974835.40246
      2255.323  
  23010398.919   120920466.27548       -98.488    23010398.210    94223747.52246
       -76.742  
  21549838.225   113245197.65249      2239.469    21549840.350    88243039.58548
      1745.039  
  21467033.220   112810062.60148     -2346.051    21467035.255    87903970.21847
     -1828.094  
  21198262.627   111397647.35149     -2627.043    21198262.279    86803362.96747
     -2047.050  
  20384214.036   107119788.82349       -95.858    20384215.898    83469981.77649
       -74.694  
  19621560.081   105035794.38709     -1121.616    19621563.315    81694543.15708
      -872.370  
  19902689.616   106279251.81705       959.477    19902694.559    82661661.15807
       746.258  
  22946695.597   122447960.81007     -3441.297    22946702.414    95237329.33507
     -2676.566  
  22138882.534   118012705.31207      4263.038    22138889.859    91787691.94407
      3315.694  
  21827755.194   116599977.32008     -3064.477    21827760.774    90688906.18007
     -2383.483  
  22458770.282   120139275.13604     -3318.520    22458774.406    93441674.04705
     -2581.073  
  20283430.867   108616873.72709      2308.999    20283434.014    84479815.64208
      1795.890  
  22315686.167   119332009.03404       586.543    22315692.549    92813806.58507
       456.199  
 20 09 28 09 20 35.0000000  0 15G11G12G21G32G24G20G10R 3R13R 2R14R12
                                R19R 4R20
  23891033.070   125548233.76047       171.269    23891032.076    97829785.83145
       133.457  
  23435279.866   123153227.66248      2893.569    23435280.720    95963560.21546
      2254.727  
  23010493.763   120920964.68548      -100.706    23010493.052    94224135.88146
       -78.476  
  21547707.819   113234002.32449      2238.625    21547709.942    88234315.95248
      1744.382  
  21469266.284   112821797.46148     -2347.894    21469268.316    87913114.26147
     -1829.438  
  21200763.055   111410787.19249     -2628.741    21200762.721    86813601.79747
     -2048.375  
  20384306.394   107120274.22549       -98.094    20384308.266    83470360.01049
       -76.441  
  19622608.671   105041407.51009     -1123.461    19622611.909    81698908.92008
      -873.805  
  19901792.730   106274462.84006       955.859    19901797.737    82657936.39907
       743.441  
  22949920.288   122465168.62704     -3441.574    22949927.488    95250713.18405
     -2676.788  
  22134883.970   117991390.90307      4262.715    22134891.319    91771114.08707
      3315.444  
  21830624.482   116615304.57108     -3066.593    21830630.084    90700827.38107
     -2385.133  
  22461872.913   120155872.27504     -3320.272    22461877.024    93454582.91605
     -2582.438  
  20281275.573   108605332.16209      2307.824    20281278.702    84470838.87807
      1794.973  
  22315139.989   119329087.90604       582.172    22315146.266    92811534.58907
       452.796  
 20 09 28 09 20 40.0000000  0 15G11G12G21G32G24G20G10R 3R13R 2R14R12
                                R19R 4R20
  23890871.993   125547387.07547       167.496    23890870.709    97829126.09444
       130.516  
  23432527.840   123138765.66947      2891.098    23432528.648    95952291.13146
      2252.804  
  23010590.922   120921475.32148      -103.839    23010590.233    94224533.79046
       -80.913  
  21545578.459   113222812.49449      2237.093    21545580.590    88225596.61348
      1743.190  
  21471501.378   112833542.93248     -2350.605    21471503.388    87922266.57247
     -1831.589  
  21203265.367   111423936.86849     -2631.242    21203265.018    86823848.28847
     -2050.323  
  20384401.255   107120772.72449      -101.339    20384403.128    83470748.45449
       -78.965  
  19623659.333   105047031.66209     -1126.238    19623662.556    81703283.26408
      -875.964  
  19900899.882   106269695.26705       950.801    19900904.916    82654228.28607
       739.508  
  22953145.352   122482379.62507     -3442.851    22953151.962    95264099.44605
     -2677.776  
  22130886.571   117970082.85707      4260.534    22130893.972    91754541.17407
      3313.750  
  21833496.410   116630645.74008     -3070.030    21833501.974    90712759.39607
     -2387.805  
  22464977.919   120172481.33905     -3323.210    22464981.952    93467501.05006
     -2584.727  
  20279121.607   108593797.67909      2305.840    20279124.705    84461867.61707
      1793.430  
  22314597.765   119326188.10904       577.574    22314604.032    92809279.18207
       449.219  
 20 09 28 09 20 45.0000000  0 15G11G12G21G32G24G20G10R 3R13R 2R14R12
                                R19R 4R20
  23890714.720   125546560.28546       163.335    23890713.255    97828481.84444
       127.272  
  23429778.141   123124315.93148      2888.550    23429778.945    95941031.64846
      2250.823  
  23010691.266   120922002.63648      -107.261    23010690.586    94224944.69046
       -83.586  
  21543450.987   113211632.61449      2234.940    21543453.122    88216885.01748
      1741.512  
  21473739.357   112845303.58748     -2353.812    21473741.375    87931430.72347
     -1834.145  
  21205770.388   111437100.81049     -2634.390    21205770.033    86834105.90547
     -2052.772  
  20384499.456   107121288.77449      -105.183    20384501.314    83471150.56949
       -81.964  
  19624712.866   105052671.37009     -1129.796    19624716.100    81707669.70108
      -878.733  
  19900011.928   106264953.61205       945.546    19900016.942    82650540.33507
       735.425  
  22956372.313   122499597.87007     -3444.691    22956378.923    95277491.53406
     -2679.190  
  22126891.278   117948785.60207      4258.202    22126898.671    91737976.65407
      3311.938  
  21836371.772   116646005.25008     -3074.003    21836377.314    90724705.68107
     -2390.895  
  22468085.734   120189106.52404     -3326.905    22468089.862    93480431.74905
     -2587.601  
  20276969.808   108582274.82809      2303.354    20276972.894    84452905.40108
      1791.500  
  22314060.442   119323314.30404       571.835    22314066.667    92807044.02307
       444.762  
 20 09 28 09 20 50.0000000  0 15G11G12G21G32G24G20G10R 3R13R 2R14R12
                                R19R 4R20
  23890560.818   125545751.05546       160.852    23890559.191    97827851.25744
       125.340  
  23427030.356   123109876.19347      2887.261    23427031.096    95929779.88446
      2249.808  
  23010794.340   120922544.32548      -109.026    23010793.679    94225366.77347
       -84.961  
  21541324.975   113200460.34749      2234.379    21541327.120    88208179.36148
      1741.074  
  21475979.756   112857076.99948     -2355.215    21475981.764    87940604.80448
     -1835.234  
  21208277.661   111450276.67949     -2635.765    21208277.330    86844372.80247
     -2053.848  
  20384600.542   107121820.02049      -107.065    20384602.407    83471564.52949
       -83.430  
  19625768.878   105058324.18909     -1131.229    19625772.094    81712066.33608
      -879.851  
  19899128.423   106260235.55605       942.117    19899133.411    82646870.74007
       732.758  
  22959600.070   122516821.48405     -3444.371    22959607.076    95290887.63006
     -2678.969  
  22122897.555   117927496.87907      4257.617    22122904.927    91721418.77407
      3311.480  
  21839250.089   116661380.76508     -3075.969    21839255.665    90736664.41307
     -2392.425  
  22471196.397   120205745.65904     -3327.999    22471200.394    93493373.29106
     -2588.448  
  20274819.728   108570761.28209      2302.383    20274822.820    84443950.41907
      1790.742  
  22313527.389   119320463.92204       567.683    22313533.685    92804827.06407
       441.531  
 20 09 28 09 20 55.0000000  0 15G11G12G21G32G24G20G10R 3R13R 2R14R12
                                R19R 4R20
  23890409.592   125544956.07646       157.319    23890407.775    97827231.83045
       122.590  
  23424283.834   123095443.02747      2885.683    23424284.563    95918533.29346
      2248.589  
  23010899.525   120923097.01348      -111.785    23010898.835    94225797.43447
       -87.108  
  21539199.781   113189292.34649      2233.012    21539201.929    88199477.02948
      1740.007  
  21478221.952   112868859.84748     -2357.926    21478223.983    87949786.25247
     -1837.258  
  21210786.598   111463461.20049     -2637.972    21210786.243    86854646.44747
     -2055.566  
  20384703.893   107122363.13149      -110.108    20384705.757    83471987.73149
       -85.805  
  19626826.677   105063986.76209     -1133.683    19626829.896    81716470.56108
      -881.758  
  19898248.647   106255537.59805       937.269    19898253.642    82643216.77507
       728.987  
  22962827.785   122534046.69207     -3445.359    22962834.716    95304284.87605
     -2679.738  
  22118904.830   117906213.25107      4256.008    22118912.161    91704864.85707
      3310.227  
  21842130.785   116676768.80208     -3078.847    21842136.336    90748632.88007
     -2394.663  
  22474308.962   120222395.47004     -3331.895    22474312.944    93506323.13705
     -2591.472  
  20272670.723   108559253.54809      2300.702    20272673.833    84434999.96508
      1789.433  
  22312998.286   119317633.85504       563.641    22313004.490    92802625.88507
       438.383  
 20 09 28 09 21  0.0000000  0 15G11G12G21G32G24G20G10R 3R13R 2R14R12
                                R19R 4R20
  23890261.846   125544179.29246       153.323    23890259.812    97826626.50944
       119.469  
  23421539.304   123081020.55048      2883.117    23421540.102    95907295.02646
      2246.590  
  23011007.561   120923664.74748      -115.128    23011006.897    94226239.83546
       -89.714  
  21537076.163   113178132.65849      2230.831    21537078.294    88190781.16248
      1738.309  
  21480466.698   112880656.09748     -2360.688    21480468.717    87958978.12547
     -1839.500  
  21213297.944   111476658.31949     -2640.789    21213297.578    86864929.91347
     -2057.761  
  20384810.260   107122922.12549      -113.551    20384812.115    83472423.31149
       -88.479  
  19627887.072   105069663.17109     -1136.941    19627890.290    81720885.54908
      -884.288  
  19897373.450   106250863.81605       932.354    19897378.386    82639581.61307
       725.159  
  22966057.007   122551277.56407     -3446.789    22966063.618    95317686.83106
     -2680.820  
  22114913.790   117884938.85507      4253.719    22114921.118    91688318.11207
      3308.448  
  21845014.642   116692173.50508     -3082.729    21845020.130    90760614.32007
     -2397.679  
  22477424.264   120239059.73605     -3334.460    22477428.156    93519284.21606
     -2593.472  
  20270523.615   108547755.85509      2298.519    20270526.721    84426057.31908
      1787.737  
  22312473.583   119314827.96604       558.948    22312479.802    92800443.55107
       434.737  
 20 09 28 09 21  5.0000000  0 15G11G12G21G32G24G20G10R 3R13R 2R14R12
                                R19R 4R20
  23890117.314   125543419.36446       149.933    23890115.083    97826034.36945
       116.832  
  23418796.521   123066607.31647      2881.757    23418797.323    95896063.92846
      2245.523  
  23011118.182   120924246.09248      -117.531    23011117.517    94226692.83946
       -91.581  
  21534953.847   113166979.84249      2230.008    21534955.977    88182090.65848
      1737.667  
  21482713.725   112892464.33648     -2362.754    21482715.757    87968179.35048
     -1841.105  
  21215811.390   111489866.56649     -2642.598    21215811.030    86875222.04747
     -2059.171  
  20384919.391   107123495.61349      -116.147    20384921.246    83472870.18649
       -90.507  
  19628949.770   105075351.91109     -1138.851    19628952.993    81725310.12108
      -885.777  
  19896502.446   106246212.73505       928.315    19896507.389    82635964.11007
       722.022  
  22969286.877   122568513.08005     -3447.397    22969293.982    95331092.16506
     -2681.319  
  22110924.229   117863672.18607      4252.788    22110931.533    91671777.38307
      3307.726  
  21847901.271   116707593.39008     -3085.496    21847906.779    90772607.56007
     -2399.835  
  22480541.969   120255737.16904     -3336.375    22480545.837    93532255.53806
     -2594.961  
  20268378.092   108536266.67309      2297.020    20268381.183    84417121.29207
      1786.569  
  22311953.140   119312045.02104       554.601    22311959.391    92798279.06107
       431.354  
 20 09 28 09 21 10.0000000  0 15G11G12G21G32G24G20G10R 3R13R 2R14R12
                                R19R 4R20
  23889976.001   125542676.41447       146.672    23889973.588    97825455.47044
       114.289  
  23416055.566   123052203.53247      2879.409    23416056.362    95884840.24546
      2243.703  
  23011231.422   120924841.23448      -120.617    23011230.792    94227156.58746
       -93.987  
  21532832.888   113155834.09549      2228.313    21532835.029    88173405.66848
      1736.348  
  21484963.107   112904284.85748     -2365.574    21484965.121    87977390.14948
     -1843.296  
  21218327.004   111503086.14749     -2645.223    21218326.642    86885523.02547
     -2061.215  
  20385031.310   107124083.74849      -119.194    20385033.172    83473328.47249
       -92.879  
  19630014.821   105081053.30509     -1141.750    19630018.055    81729744.54108
      -888.027  
  19895635.747   106241584.70606       922.917    19895640.716    82632364.53607
       717.823  
  22972517.545   122585752.82907     -3448.698    22972524.648    95344500.72505
     -2682.336  
  22106936.128   117842413.52107      4250.500    22106943.458    91655242.88007
      3305.944  
  21850790.754   116723028.64508     -3088.762    21850796.290    90784612.75707
     -2402.375  
  22483662.044   120272427.96504     -3339.444    22483666.029    93545237.27306
     -2597.347  
  20266234.196   108524786.20909      2295.086    20266237.274    84408192.04608
      1785.065  
  22311437.099   119309285.07704       550.027    22311443.255    92796132.42007
       427.797  
 20 09 28 09 21 15.0000000  0 15G11G12G21G32G24G20G10R 3R13R 2R14R12
                                R19R 4R20
  23889838.029   125541950.90147       143.440    23889835.412    97824890.12944
       111.770  
  23413316.506   123037809.67748      2877.984    23413317.241    95873624.25146
      2242.586  
  23011347.367   120925450.56148      -123.227    23011346.737    94227631.39346
       -96.022  
  21530713.340   113144695.83049      2227.030    21530715.481    88164726.50748
      1735.347  
  21487214.860   112916117.96048     -2367.542    21487216.877    87986610.74648
     -1844.839  
  21220844.825   111516317.44649     -2647.323    21220844.482    86895833.12847
     -2062.855  
  20385146.096   107124686.95549      -121.983    20385147.951    83473798.50549
       -95.054  
  19631082.279   105086767.55209     -1144.030    19631085.524    81734188.95508
      -889.804  
  19894773.438   106236980.02006       919.109    19894778.408    82628783.12107
       714.863  
  22975749.354   122602997.62707     -3449.004    22975755.802    95357913.52605
     -2682.539  
  22102949.591   117821163.28607      4249.401    22102956.947    91638714.92707
      3305.090  
  21853683.212   116738479.63708     -3091.715    21853688.740    90796630.19307
     -2404.671  
  22486784.840   120289132.31705     -3342.117    22486788.692    93558229.53806
     -2599.429  
  20264091.977   108513314.91109      2293.491    20264095.091    84399269.93207
      1783.828  
  22310925.188   119306548.44104       545.125    22310931.437    92794003.91907
       423.979  
 20 09 28 09 21 20.0000000  0 15G11G12G21G32G24G20G10R 3R13R 2R14R12
                                R19R 4R20
  23889703.366   125541242.67747       139.976    23889700.630    97824338.25044
       109.069  
  23410579.312   123023425.68647      2876.265    23410580.083    95862415.95446
      2241.246  
  23011466.035   120926074.00848      -125.902    23011465.373    94228117.18547
       -98.108  
  21528595.199   113133564.98449      2225.663    21528597.351    88156053.11848
      1734.285  
  21489468.990   112927963.58748     -2369.996    21489471.018    87995841.10647
     -1846.753  
  21223364.897   111529560.42149     -2649.511    21223364.549    86906152.31947
     -2064.559  
  20385263.740   107125305.17949      -124.820    20385265.596    83474280.23949
       -97.262  
  19632152.186   105092494.75409     -1146.332    19632155.414    81738643.44908
      -891.593  
  19893915.481   106232398.61206       914.152    19893920.451    82625219.80807
       711.008  
  22978981.879   122620247.22206     -3450.160    22978988.831    95371329.82606
     -2683.469  
  22098964.679   117799921.36907      4247.801    22098971.992    91622193.45506
      3303.843  
  21856578.586   116753946.23608     -3094.542    21856584.135    90808659.76907
     -2406.871  
  22489910.000   120305850.41005     -3344.358    22489914.013    93571232.48805
     -2601.175  
  20261951.477   108501852.69209      2291.749    20261954.603    84390354.87607
      1782.473  
  22310417.772   119303835.15504       541.105    22310423.994    92791893.58707
       420.858  
 20 09 28 09 21 25.0000000  0 14G11G12G21G32G24G20G10R 3R13R 2R14R12
                                R19R 4
  23889571.493   125540549.30547       136.831    23889568.896    97823797.97944
       106.620  
  23407843.520   123009048.94247      2874.273    23407844.286    95851213.32546
      2239.698  
  23011586.882   120926709.06648      -128.480    23011586.189    94228612.03246
      -100.117  
  21526478.003   113122439.04349      2224.395    21526480.141    88147383.56048
      1733.292  
  21491724.988   112939819.03248     -2372.453    21491727.011    88005079.11347
     -1848.667  
  21225886.689   111542812.55749     -2651.737    21225886.362    86916478.65947
     -2066.292  
  20385383.747   107125935.88349      -127.652    20385385.623    83474771.69949
       -99.472  
  19633224.023   105098232.47509     -1148.819    19633227.261    81743106.12108
      -893.531  
  19893061.352   106227838.01606       909.520    19893066.399    82621672.68107
       707.402  
  22982214.847   122637499.14206     -3451.015    22982222.286    95384747.86406
     -2684.145  
  22094980.817   117778685.33107      4246.222    22094988.149    91605676.53407
      3302.616  
  21859476.438   116769426.00808     -3097.444    21859481.972    90820699.58807
     -2409.128  
  22493037.340   120322579.44405     -3346.976    22493041.244    93584243.94805
     -2603.206  
  20259812.225   108490397.09709      2290.222    20259815.345    84381444.97308
      1781.285  
 20 09 28 09 21 30.0000000  0 14G11G12G21G32G24G20G10R 3R13R 2R14R12
                                R19R 4
  23889443.094   125539874.06347       133.300    23889440.422    97823271.80744
       103.867  
  23405109.716   122994682.89248      2872.199    23405110.509    95840019.02846
      2238.077  
  23011710.570   120927359.05148      -131.484    23011709.813    94229118.53246
      -102.456  
  21524362.368   113111321.30849      2222.656    21524364.492    88138720.39448
      1731.941  
  21493983.535   112951687.80748     -2375.155    21493985.579    88014327.51047
     -1850.770  
  21228410.854   111556077.10349     -2654.280    21228410.519    86926814.65847
     -2068.273  
  20385506.772   107126582.38249      -130.999    20385508.648    83475275.46749
      -102.081  
  19634298.434   105103983.78809     -1151.629    19634301.662    81747579.36308
      -895.710  
  19892211.837   106223301.49706       905.222    19892216.856    82618144.28407
       704.062  
  22985448.926   122654756.77707     -3452.371    22985455.637    95398170.50303
     -2685.176  
  22090998.666   117757458.44207      4244.469    22091006.029    91589166.75407
      3301.254  
  21862377.335   116784922.11108     -3100.922    21862382.891    90832752.11607
     -2411.831  
  22496167.428   120339322.77404     -3350.241    22496171.254    93597266.53005
     -2605.746  
  20257674.804   108478951.30509      2288.094    20257677.933    84372542.69508
      1779.628  
 20 09 28 09 21 35.0000000  0 14G11G12G21G32G24G20G10R 3R13R 2R14R12
                                R19R 4
  23889318.120   125539216.88447       129.851    23889315.489    97822759.72544
       101.184  
  23402377.943   122980327.42247      2870.383    23402378.763    95828832.95146
      2236.660  
  23011837.070   120928023.87548      -133.933    23011836.348    94229636.57846
      -104.363  
  21522248.289   113100211.71749      2221.546    21522250.400    88130063.57148
      1731.073  
  21496244.626   112963569.85648     -2377.434    21496246.636    88023586.25247
     -1852.546  
  21230937.362   111569353.99149     -2656.191    21230937.032    86937160.27747
     -2069.761  
  20385632.785   107127244.61849      -133.679    20385634.675    83475791.49249
      -104.168  
  19635375.358   105109748.71109     -1153.976    19635378.598    81752063.19008
      -897.539  
  19891366.715   106218788.96606       900.460    19891371.813    82614634.54307
       700.358  
  22988683.984   122672020.01207     -3452.710    22988690.198    95411597.50706
     -2685.438  
  22087018.275   117736240.74707      4243.035    22087025.632    91572664.11607
      3300.137  
  21865281.316   116800434.53308     -3103.750    21865286.848    90844817.32807
     -2414.031  
  22499300.035   120356080.35804     -3352.266    22499303.865    93610300.21605
     -2607.315  
  20255539.216   108467515.41909      2286.468    20255542.363    84363648.12008
      1778.362  
 20 09 28 09 21 40.0000000  0 14G11G12G21G32G24G20G10R 3R13R 2R14R12
                                R19R 4
  23889196.172   125538575.57647       126.370    23889193.640    97822259.99544
        98.473  
  23399647.741   122965980.39547      2868.223    23399648.585    95817653.48746
      2234.984  
  23011966.007   120928701.38248      -136.828    23011965.250    94230164.50746
      -106.624  
  21520135.356   113089108.11649      2219.921    21520137.448    88121411.41848
      1729.808  
  21498507.779   112975462.86748     -2379.819    21498509.792    88032853.53147
     -1854.410  
  21233465.819   111582641.09549     -2658.668    21233465.504    86947513.85447
     -2071.690  
  20385761.383   107127920.40549      -136.574    20385763.265    83476318.08049
      -106.426  
  19636454.447   105115525.12609     -1156.527    19636457.689    81756555.96008
      -899.547  
  19890525.840   106214298.36606       896.128    19890530.861    82611141.85907
       696.987  
  22991919.747   122689286.60107     -3453.824    22991926.350    95425027.05207
     -2686.316  
  22083039.170   117715030.07007      4241.296    22083046.558    91556166.93207
      3298.785  
  21868187.909   116815961.09108     -3106.640    21868193.445    90856893.54307
     -2416.280  
  22502434.960   120372849.87704     -3354.863    22502438.791    93623343.13105
     -2609.347  
  20253405.057   108456087.15909      2284.840    20253408.203    84354759.48307
      1777.098  
 20 09 28 09 21 45.0000000  0 15G11G12G21G32G24G20G10R 3R13R 2R14R12
                                R19R 4R20
  23889077.489   125537951.29747       122.753    23889075.175    97821773.52344
        95.648  
  23396919.407   122951642.96547      2866.145    23396920.288    95806481.47446
      2233.362  
  23012097.553   120929392.72548      -139.901    23012096.757    94230703.19346
      -109.020  
  21518023.765   113078011.66449      2218.194    21518025.848    88112764.83148
      1728.464  
  21500773.233   112987367.94148     -2382.433    21500775.236    88042130.20847
     -1856.445  
  21235996.420   111595939.52249     -2661.105    21235996.125    86957876.26347
     -2073.593  
  20385892.792   107128610.96049      -139.941    20385894.674    83476856.17649
      -109.051  
  19637535.906   105121314.22809     -1159.409    19637539.142    81761058.59608
      -901.762  
  19889689.144   106209830.95806       890.909    19889694.245    82607667.21006
       692.929  
  22995156.422   122706557.87006     -3455.203    22995163.341    95438460.17405
     -2687.394  
  22079061.553   117693827.50907      4239.429    22079068.983    91539676.06007
      3297.335  
  21871097.350   116831502.92808     -3110.211    21871102.924    90868981.63507
     -2419.058  
  22505572.165   120389632.65304     -3358.179    22505576.183    93636396.39605
     -2611.926  
  20251272.579   108444667.80609      2282.640    20251275.711    84345877.76307
      1775.387  
  22307944.404   119290603.47314       517.336           0.000           0.0000 
         0.000  
 20 09 28 09 21 50.0000000  0 15G11G12G21G32G24G20G10R 3R13R 2R14R12
                                R19R 4R20
  23888962.174   125537344.75347       119.734    23888959.901    97821300.90444
        93.300  
  23394193.081   122937315.87148      2864.105    23394193.917    95795317.53145
      2231.772  
  23012231.853   120930098.56548      -142.645    23012231.107    94231253.20946
      -111.151  
  21515913.668   113066923.02449      2216.996    21515915.751    88104124.33748
      1727.530  
  21503041.142   112999285.88548     -2384.961    21503043.168    88051416.91747
     -1858.413  
  21238529.302   111609249.90749     -2663.401    21238528.998    86968247.98447
     -2075.383  
  20386027.123   107129316.90549      -142.789    20386029.003    83477406.26349
      -111.270  
  19638619.805   105127116.48709     -1161.858    19638623.060    81765571.46508
      -903.672  
  19888856.961   106205387.36606       886.144    19888862.119    82604211.08907
       689.222  
  22998394.025   122723834.21407     -3455.858    22998400.115    95451897.39205
     -2687.883  
  22075085.628   117672633.77807      4237.843    22075093.080    91523192.05707
      3296.102  
  21874009.796   116847060.63008     -3113.202    21874015.380    90881082.06507
     -2421.383  
  22508711.982   120406429.24304     -3360.487    22508716.069    93649460.41305
     -2613.718  
  20249141.886   108433257.97509      2280.987    20249144.984    84337003.45307
      1774.097  
  22307462.855   119288027.88504       512.937           0.000           0.0000 
         0.000  
 20 09 28 09 21 55.0000000  0 15G11G12G21G32G24G20G10R 3R13R 2R14R12
                                R19R 4R20
  23888849.692   125536752.93447       117.000    23888847.557    97820839.71645
        91.160  
  23391468.139   122922996.10947      2862.840    23391468.951    95784159.25245
      2230.780  
  23012368.344   120930815.86248      -144.723    23012367.603    94231812.13646
      -112.769  
  21513804.475   113055839.20749      2216.070    21513806.579    88095487.59748
      1726.808  
  21505310.924   113011213.70048     -2386.804    21505312.956    88060711.31847
     -1859.844  
  21241063.911   111622569.27349     -2664.953    21241063.582    86978626.71347
     -2076.590  
  20386163.811   107130035.24149      -145.124    20386165.705    83477966.00649
      -113.089  
  19639705.628   105132929.04809     -1163.727    19639708.880    81770092.34308
      -905.125  
  19888028.767   106200964.45006       882.156    19888033.864    82600771.04307
       686.117  
  23001632.066   122741112.73706     -3456.273    23001638.193    95465336.30606
     -2688.203  
  22071110.838   117651445.90707      4236.563    22071118.278    91506712.61607
      3295.104  
  21876924.680   116862631.29408     -3115.465    21876930.233    90893192.58107
     -2423.145  
  22511853.862   120423236.62104     -3362.519    22511858.147    93662532.80205
     -2615.297  
  20247012.368   108421854.60009      2279.805    20247015.478    84328134.16607
      1773.180  
  22306984.918   119285473.14305       508.511           0.000           0.0000 
         0.000  
 20 09 28 09 22  0.0000000  0 15G11G12G21G32G24G20G10R 3R13R 2R14R12
                                R19R 4R20
  23888740.731   125536179.68747       112.417    23888738.644    97820393.04745
        87.598  
  23388745.235   122908687.46447      2860.144    23388746.039    95773009.75746
      2228.694  
  23012507.765   120931548.52848      -148.405    23012507.079    94232383.07846
      -115.640  
  21511696.959   113044764.07249      2213.757    21511699.029    88086857.62748
      1725.008  
  21507583.305   113023155.11348     -2389.937    21507585.361    88070016.31247
     -1862.288  
  21243600.946   111635901.48249     -2668.058    21243600.623    86989015.44047
     -2079.011  
  20386303.609   107130769.85149      -148.918    20386305.490    83478538.43049
      -116.043  
  19640794.132   105138755.89209     -1167.160    19640797.390    81774624.33208
      -907.797  
  19887205.058   106196566.07906       876.785    19887210.178    82597350.10006
       681.945  
  23004871.182   122758397.50306     -3457.938    23004877.927    95478779.90406
     -2689.522  
  22067137.863   117630267.74808      4234.406    22067145.297    91490240.72607
      3293.425  
  21879842.697   116878218.72408     -3119.683    21879848.210    90905316.13907
     -2426.425  
  22514998.657   120440058.80905     -3365.897    22515002.739    93675616.71205
     -2617.925  
  20244884.792   108410461.65209      2277.090    20244887.919    84319272.98807
      1771.042  
  22306511.795   119282942.92304       502.409           0.000           0.0000 
         0.000  
 20 09 28 09 22  5.0000000  0 16G11G12G25G21G32G24G20G10R 3R13R 2R14
                                R12R19R 4R20
  23888635.193   125535624.61147       109.313    23888633.102    97819960.52944
        85.176  
  23386024.470   122894389.81147      2858.844    23386025.291    95761868.71745
      2227.671  
  24567325.973   129102163.38717      3700.027           0.000           0.0000 
         0.000  
  23012650.049   120932296.17048      -150.695    23012649.342    94232965.62346
      -117.429  
  21509591.007   113033697.25149      2212.977    21509593.084    88078234.13548
      1724.398  
  21509858.169   113035109.60448     -2391.784    21509860.225    88079331.50247
     -1863.734  
  21246140.356   111649246.10949     -2669.605    21246140.006    86999413.84947
     -2080.214  
  20386446.419   107131520.35249      -151.227    20386448.313    83479123.23749
      -117.839  
  19641885.196   105144596.41709     -1169.109    19641888.450    81779166.96408
      -909.308  
  19886385.934   106192191.96806       872.730    19886391.041    82593948.01506
       678.891  
  23008111.292   122775687.82105     -3458.039    23008118.217    95492227.87603
     -2689.593  
  22063166.651   117609099.07507      4232.852    22063174.079    91473776.20907
      3292.218  
  21882763.767   116893822.49208     -3122.074    21882769.282    90917452.39807
     -2428.285  
  22518145.932   120456895.17004     -3367.999    22518150.292    93688711.63105
     -2619.562  
  20242759.096   108399078.73709      2275.948    20242762.233    84310419.61207
      1770.160  
  22306043.145   119280436.87004       499.336           0.000           0.0000 
         0.000  
 20 09 28 09 22 10.0000000  0 15G11G12G21G32G24G20G10R 3R13R 2R14R12
                                R19R 4R20
  23888532.374   125535083.79247       106.113    23888530.376    97819539.10144
        82.684  
  23383305.008   122880098.96847      2857.261    23383305.763    95750733.01946
      2226.437  
  23012794.404   120933054.85648      -153.378    23012793.724    94233556.81346
      -119.520  
  21507485.894   113022634.80849      2211.719    21507487.956    88069614.04948
      1723.418  
  21512134.840   113047073.49548     -2394.265    21512136.870    88088654.01147
     -1865.659  
  21248681.402   111662599.30449     -2671.977    21248681.017    87009818.92947
     -2082.058  
  20386591.513   107132282.83049      -154.163    20386593.401    83479717.38049
      -120.133  
  19642978.100   105150446.71909     -1171.452    19642981.328    81783717.19708
      -911.129  
  19885570.582   106187838.00306       868.371    19885575.669    82590561.60207
       675.398  
  23011351.979   122792980.08807     -3459.051    23011358.150    95505677.48506
     -2690.367  
  22059196.434   117587935.74207      4231.742    22059203.886    91457315.84707
      3291.354  
  21885687.110   116909438.62408     -3124.867    21885692.645    90929598.26907
     -2430.457  
  22521295.261   120473741.83004     -3371.015    22521299.420    93701814.60005
     -2621.906  
  20240634.587   108387701.90509      2274.395    20240637.683    84301570.96907
      1768.973  
  22305578.262   119277951.18104       494.461           0.000           0.0000 
         0.000  
 20 09 28 09 22 15.0000000  0 16G11G12G25G21G32G24G20G10R 3R13R 2R14
                                R12R19R 4R20
  23888432.790   125534559.88147       103.136    23888430.959    97819130.85044
        80.362  
  23380587.370   122865817.75148      2854.953    23380588.103    95739604.84246
      2224.647  
  24560284.487   129065162.25456      3700.144    24560289.964   100570271.44255
      2883.234  
  23012941.367   120933827.21248      -155.914    23012940.706    94234158.64946
      -121.496  
  21505382.114   113011579.43249      2210.292    21505384.196    88060999.47248
      1722.301  
  21514413.774   113059049.37548     -2396.515    21514415.813    88097985.87247
     -1867.414  
  21251224.569   111675963.70449     -2674.137    21251224.176    87020232.74147
     -2083.745  
  20386739.390   107133059.92949      -156.968    20386741.277    83480322.90949
      -122.316  
  19644073.329   105156309.56909     -1173.832    19644076.565    81788277.19108
      -912.980  
  19884759.559   106183507.00106       863.511    19884764.635    82587193.04807
       671.608  
  23014593.283   122810276.55805     -3460.250    23014599.656    95519130.28505
     -2691.309  
  22055227.777   117566780.66407      4230.188    22055235.239    91440861.92407
      3290.147  
  21888613.316   116925069.82708     -3127.898    21888618.855    90941755.87407
     -2432.812  
  22524447.095   120490601.39404     -3373.914    22524451.267    93714927.57205
     -2624.160  
  20238511.664   108376333.90509      2272.711    20238514.783    84292729.19507
      1767.645  
  22305117.659   119275488.38004       490.020    22305123.828    92769848.99317
       381.121  
 20 09 28 09 22 20.0000000  0 16G11G12G25G21G32G24G20G10R 3R13R 2R14
                                R12R19R 4R20
  23888336.653   125534054.17947        99.246    23888334.909    97818736.79144
        77.331  
  23377871.789   122851547.43048      2852.718    23377872.578    95728485.15946
      2222.902  
  24556764.470   129046663.72346      3699.066    24556768.208   100555857.03445
      2882.394  
  23013091.210   120934614.55248      -159.034    23013090.520    94234772.17246
      -123.921  
  21503279.926   113000532.38849      2208.515    21503282.016    88052391.39648
      1720.921  
  21516695.233   113071038.55448     -2399.050    21516697.269    88107328.08547
     -1869.395  
  21253770.100   111689340.52949     -2676.776    21253769.693    87030656.23747
     -2085.805  
  20386890.287   107133852.96149      -160.258    20386892.186    83480940.85349
      -124.878  
  19645171.141   105162186.18109     -1176.766    19645174.374    81792847.89308
      -915.262  
  19883953.036   106179200.18106       858.280    19883958.112    82583843.29607
       667.547  
  23017835.744   122827578.95006     -3461.272    23017842.343    95532587.60706
     -2692.121  
  22051260.922   117545635.06007      4228.308    22051268.378    91424415.34607
      3288.684  
  21891542.544   116940717.32708     -3131.000    21891548.099    90953926.15007
     -2435.226  
  22527601.334   120507475.28904     -3375.855    22527605.617    93728051.70305
     -2625.667  
  20236390.619   108364975.96209      2270.476    20236393.768    84283895.24308
      1765.926  
  22304661.595   119273049.81904       485.421    22304667.800    92767952.37607
       377.555  
 20 09 28 09 22 25.0000000  0 16G11G12G25G21G32G24G20G10R 3R13R 2R14
                                R12R19R 4R20
  23888243.989   125533566.66247        95.476    23888242.278    97818356.92044
        74.394  
  23375158.285   122837287.99648      2850.824    23375159.087    95717373.89846
      2221.421  
  24553244.956   129028167.55046      3699.016    24553248.580   100541444.43545
      2882.352  
  23013243.889   120935416.88448      -161.859    23013243.232    94235397.37747
      -126.125  
  21501179.308   112989493.66349      2207.116    21501181.410    88043789.79548
      1719.832  
  21518979.221   113083040.96248     -2401.586    21518981.252    88116680.61347
     -1871.371  
  21256317.990   111702729.75149     -2678.862    21256317.584    87041089.39447
     -2087.429  
  20387044.210   107134661.86249      -163.262    20387046.108    83481571.16849
      -127.218  
  19646271.509   105168076.59509     -1179.308    19646274.752    81797429.32408
      -917.241  
  19883151.040   106174917.72006       853.972    19883156.141    82580512.50606
       664.198  
  23021079.386   122844886.89807     -3462.148    23021085.859    95546049.33905
     -2692.780  
  22047295.794   117524498.85307      4226.558    22047303.275    91407976.08607
      3287.324  
  21894474.811   116956381.12908     -3134.151    21894480.388    90966109.10607
     -2437.679  
  22530758.453   120524363.27704     -3378.546    22530762.670    93741186.80305
     -2627.761  
  20234271.465   108353628.04909      2268.719    20234274.627    84275069.09507
      1764.477  
  22304210.066   119270635.60504       480.382    22304216.332    92766074.63107
       373.625  
 20 09 28 09 22 30.0000000  0 16G11G12G25G21G32G24G20G10R 3R13R 2R14
                                R12R19R 4R20
  23888154.675   125533096.56547        92.128    23888152.874    97817990.60644
        71.784  
  23372446.698   122823038.63847      2848.711    23372447.544    95706270.55346
      2219.781  
  24549725.420   129009673.07546      3698.559    24549730.010   100527033.16546
      2881.988  
  23013399.280   120936233.43948      -164.832    23013398.613    94236033.63646
      -128.444  
  21499080.139   112978462.51749      2205.269    21499082.253    88035194.10248
      1718.390  
  21521265.558   113095055.74448     -2404.226    21521267.574    88126042.78348
     -1873.422  
  21258868.102   111716130.64749     -2681.227    21258867.702    87051531.64047
     -2089.269  
  20387201.025   107135485.93149      -166.448    20387202.930    83482213.30049
      -129.699  
  19647374.367   105173980.15609     -1182.089    19647377.585    81802020.97708
      -919.405  
  19882353.428   106170658.73806       849.304    19882358.555    82577199.96507
       660.569  
  23024323.916   122862199.86306     -3463.358    23024330.014    95559515.07105
     -2693.715  
  22043332.303   117503371.40407      4224.476    22043339.808    91391543.64007
      3285.703  
  21897409.996   116972060.51607     -3137.348    21897415.594    90978304.18206
     -2440.163  
  22533918.053   120541264.69604     -3381.378    22533922.254    93754332.33605
     -2629.965  
  20232154.064   108342289.46409      2266.809    20232157.218    84266250.19608
      1763.074  
  22303763.217   119268244.88104       475.769    22303769.233    92764215.15207
       370.034  
 20 09 28 09 22 35.0000000  0 16G11G12G25G21G32G24G20G10R 3R13R 2R14
                                R12R19R 4R20
  23888068.360   125532642.44447        89.237    23888066.628    97817636.75544
        69.535  
  23369736.793   122808798.05248      2847.644    23369737.551    95695174.05245
      2218.952  
  24546206.079   128991178.87846      3699.007    24546210.593   100512622.14645
      2882.348  
  23013557.106   120937062.75648      -167.011    23013556.443    94236679.86546
      -130.144  
  21496982.145   112967437.48249      2204.526    21496984.252    88026603.16848
      1717.809  
  21523553.990   113107081.53648     -2406.141    21523556.006    88135413.52947
     -1874.914  
  21261420.145   111729541.72649     -2682.901    21261419.754    87061981.83247
     -2090.574  
  20387360.445   107136323.71749      -168.749    20387362.341    83482866.12249
      -131.496  
  19648479.356   105179895.19009     -1184.004    19648482.556    81806621.56108
      -920.890  
  19881559.934   106166421.74106       845.437    19881565.102    82573904.52306
       657.558  
  23027568.795   122879516.22206     -3463.449    23027575.219    95572983.28206
     -2693.804  
  22039370.193   117482251.25207      4223.531    22039377.713    91375116.85507
      3284.969  
  21900347.831   116987753.81308     -3139.945    21900353.426    90990510.07307
     -2442.183  
  22537079.778   120558177.82304     -3383.897    22537083.985    93767486.99405
     -2631.926  
  20230038.139   108330958.78009      2265.538    20230041.278    84257437.43907
      1762.194  
  22303320.352   119265876.15304       472.371    22303326.263    92762372.84507
       367.402  
 20 09 28 09 22 40.0000000  0 16G11G12G25G21G32G24G20G10R 3R13R 2R14
                                R12R19R 4R20
  23887985.006   125532203.91547        85.761    23887983.446    97817295.04445
        66.823  
  23367028.483   122794565.84748      2845.191    23367029.196    95684084.01146
      2217.031  
  24542686.702   128972684.55046      3698.625    24542690.946   100498211.00045
      2882.050  
  23013717.296   120937904.46748      -170.020    23013716.624    94237335.74746
      -132.484  
  21494885.245   112956418.23149      2202.886    21494887.358    88018016.73848
      1716.530  
  21525844.449   113119117.97648     -2408.651    21525846.474    88144792.58047
     -1876.871  
  21263974.072   111742962.63849     -2685.566    21263973.653    87072439.68747
     -2092.652  
  20387522.407   107137174.83249      -171.913    20387524.302    83483529.32849
      -133.965  
  19649586.421   105185821.42609     -1186.867    19649589.621    81811230.86208
      -923.116  
  19880770.618   106162206.40306       840.543    19880775.690    82570625.92907
       653.750  
  23030814.603   122896835.88007     -3464.602    23030821.222    95586454.08606
     -2694.699  
  22035409.380   117461138.04707      4221.640    22035416.919    91358695.49307
      3283.499  
  21903288.215   117003460.81408     -3142.883    21903293.801    91002726.62607
     -2444.468  
  22540243.522   120575102.62604     -3386.374    22540247.895    93780650.71405
     -2633.847  
  20227923.631   108319635.62509      2263.547    20227926.760    84248630.54907
      1760.535  
  22302881.477   119263529.13504       467.086    22302887.367    92760547.39307
       363.289  
 20 09 28 09 22 45.0000000  0 16G11G12G25G21G32G24G20G10R 3R13R 2R14
                                R12R19R 4R20
  23887905.047   125531783.47947        82.124    23887903.699    97816967.43145
        63.987  
  23364322.222   122780344.50747      2843.289    23364323.023    95673002.46646
      2215.550  
  24539167.925   128954192.72146      3697.988    24539171.843   100483801.80144
      2881.550  
  23013880.319   120938761.09448      -172.835    23013879.644    94238003.25347
      -134.676  
  21492789.940   112945407.26649      2201.301    21492792.034    88009436.76948
      1715.301  
  21528137.386   113131167.47448     -2411.191    21528139.402    88154181.79947
     -1878.852  
  21266530.356   111756395.91049     -2688.055    21266529.965    87082907.17047
     -2094.593  
  20387687.395   107138041.82249      -175.074    20387689.286    83484204.90749
      -136.426  
  19650696.047   105191761.30909     -1189.539    19650699.241    81815850.77208
      -925.194  
  19879985.813   106158015.39906       835.484    19879990.842    82567366.26106
       649.816  
  23034061.394   122914160.94106     -3465.476    23034068.034    95599929.15405
     -2695.370  
  22031450.388   117440034.33207      4219.773    22031457.919    91342281.50407
      3282.046  
  21906231.608   117019183.92307     -3146.022    21906237.198    91014955.70407
     -2446.909  
  22543410.107   120592041.65504     -3389.667    22543414.564    93793825.47805
     -2636.421  
  20225810.991   108308322.50309      2261.351    20225814.114    84239831.45207
      1758.828  
  22302447.020   119261206.42804       461.781    22302453.006    92758740.82907
       359.159  
 20 09 28 09 22 50.0000000  0 16G11G12G25G21G32G24G20G10R 3R13R 2R14
                                R12R19R 4R20
  23887828.545   125531381.27347        78.637    23887827.468    97816654.00045
        61.265  
  23361618.047   122766134.09547      2841.063    23361618.880    95661929.48046
      2213.824  
  24535649.503   128935703.35446      3698.065    24535653.472   100469394.53345
      2881.613  
  23014046.183   120939632.68448      -175.425    23014045.477    94238682.40746
      -136.699  
  21490696.209   112934404.63649      2199.917    21490698.305    88000863.29748
      1714.222  
  21530432.835   113143230.11048     -2413.563    21530434.852    88163581.25147
     -1880.703  
  21269088.987   111769841.54049     -2690.046    21269088.568    87093384.28347
     -2096.144  
  20387855.391   107138924.70749      -177.940    20387857.284    83484892.86549
      -138.659  
  19651808.286   105197715.05209     -1191.925    19651811.443    81820481.46108
      -927.055  
  19879205.509   106153848.62006       831.237    19879210.533    82564125.43906
       646.519  
  23037309.109   122931491.83906     -3466.445    23037315.628    95613408.71805
     -2696.132  
  22027493.191   117418940.21107      4218.194    22027500.717    91325874.97307
      3280.819  
  21909178.095   117034923.30708     -3149.292    21909183.636    91027197.44607
     -2449.453  
  22546579.250   120608994.50104     -3391.257    22546583.569    93807011.05405
     -2637.645  
  20223700.263   108297019.49109      2259.836    20223703.366    84231040.22807
      1757.647  
  22302017.222   119258907.92104       456.870    22302023.188    92756953.12707
       355.344  
 20 09 28 09 22 55.0000000  0 16G11G12G25G21G32G24G20G10R 3R13R 2R14
                                R12R19R 4R20
  23887754.977   125530994.10947        75.648    23887754.115    97816352.34845
        58.944  
  23358915.354   122751931.59948      2839.813    23358916.154    95650862.64646
      2212.848  
  24532131.010   128917213.36046      3698.258    24532134.952   100454986.72045
      2881.753  
  23014214.297   120940516.13148      -177.913    23014213.577    94239370.81246
      -138.633  
  21488603.474   112923407.23649      2198.991    21488605.554    87992293.89548
      1713.504  
  21532730.193   113155302.77448     -2415.453    21532732.201    88172988.51348
     -1882.175  
  21271649.371   111783296.45349     -2691.891    21271648.953    87103868.62947
     -2097.582  
  20388025.830   107139820.40049      -180.362    20388027.730    83485590.80949
      -140.547  
  19652922.469   105203679.36409     -1193.793    19652925.625    81825120.36508
      -928.508  
  19878429.146   106149702.94506       826.882    19878434.166    82560901.02606
       643.132  
  23040557.410   122948825.08507     -3467.031    23040563.868    95626890.12306
     -2696.581  
  22023537.181   117397852.45307      4216.894    22023544.718    91309473.39607
      3279.808  
  21912126.906   117050675.73707     -3151.534    21912132.505    91039449.35106
     -2451.195  
  22549750.485   120625958.28104     -3394.011    22549754.908    93820205.06205
     -2639.789  
  20221590.777   108285723.47709      2258.547    20221593.915    84222254.44207
      1756.648  
  22301591.234   119256630.40904       453.007    22301597.308    92755181.71706
       352.336  
 20 09 28 09 23  0.0000000  0 16G11G12G25G21G32G24G20G10R 3R13R 2R14
                                R12R19R 4R20
  23887684.619   125530623.74647        72.395    23887683.817    97816063.73845
        56.406  
  23356214.535   122737738.79148      2837.648    23356215.382    95639803.28246
      2211.151  
  24528612.596   128898724.56146      3697.422    24528616.703   100440579.88945
      2881.108  
  23014385.001   120941413.15348      -180.957    23014384.268    94240069.79246
      -141.003  
  21486512.057   112912416.83249      2197.210    21486514.142    87983729.94348
      1712.112  
  21535029.808   113167387.30348     -2418.215    21535031.812    88182405.03547
     -1884.324  
  21274211.855   111796762.36549     -2694.445    21274211.424    87114361.55347
     -2099.565  
  20388199.046   107140730.65949      -183.652    20388200.940    83486300.10749
      -143.109  
  19654038.988   105209656.14809     -1196.773    19654042.138    81829768.97108
      -930.827  
  19877657.067   106145580.08506       822.101    19877662.088    82557694.36206
       639.409  
  23043806.470   122966162.47206     -3467.668    23043813.044    95640374.78306
     -2697.073  
  22019582.718   117376772.94107      4214.781    22019590.242    91293078.22807
      3278.163  
  21915078.522   117066442.89307     -3154.934    21915084.140    91051712.68607
     -2453.839  
  22552924.207   120642934.86604     -3396.815    22552928.395    93833409.06705
     -2642.124  
  20219482.959   108274436.20509      2256.305    20219486.090    84213475.45607
      1754.898  
  22301169.547   119254375.86404       448.605    22301175.724    92753428.16807
       348.910  
 20 09 28 09 23  5.0000000  0 15G11G12G25G21G32G24G20G10R 3R13R 2R14
                                R12R 4R20
  23887618.017   125530272.97047        68.457    23887617.245    97815790.42145
        53.343  
  23353516.052   122723558.29647      2835.327    23353516.941    95628753.61546
      2209.358  
  24525094.973   128880239.70346      3696.976    24525099.294   100426176.15945
      2880.766  
  23014558.838   120942326.58148      -184.102    23014558.095    94240781.55446
      -143.457  
  21484422.498   112901436.18449      2195.534    21484424.588    87975173.60048
      1710.805  
  21537332.175   113179486.22748     -2420.836    21537334.176    88191832.76847
     -1886.370  
  21276776.952   111810242.03949     -2696.867    21276776.499    87124865.19947
     -2101.452  
  20388375.560   107141658.24549      -186.862    20388377.452    83487022.89749
      -145.608  
  19655158.351   105215648.12309     -1199.542    19655161.489    81834429.39608
      -932.977  
  19876889.766   106141482.89706       817.246    19876894.802    82554507.66406
       635.633  
  23047056.878   122983507.27306     -3469.390    23047063.539    95653865.13706
     -2698.421  
  22015630.395   117355704.48907      4213.081    22015637.821    91276691.67107
      3276.839  
  21918033.498   117082227.62707     -3158.293    21918039.058    91063989.69307
     -2456.452  
  20217377.290   108263160.54109      2254.382    20217380.455    84204705.49808
      1753.409  
  22300752.882   119252146.95404       444.285    22300758.920    92751694.59807
       345.554  
 20 09 28 09 23 10.0000000  0 15G11G12G25G21G32G24G20G10R 3R13R 2R14
                                R12R 4R20
  23887554.274   125529937.18847        65.339    23887553.468    97815528.76644
        50.910  
  23350819.117   122709385.80548      2833.305    23350819.915    95617710.18345
      2207.777  
  24521577.317   128861754.29546      3696.660    24521581.717   100411771.95345
      2880.516  
  23014734.905   120943251.78848      -186.409    23014734.126    94241502.49646
      -145.258  
  21482333.936   112890460.75249      2194.188    21482336.027    87966621.32148
      1709.757  
  21539636.431   113191595.14548     -2423.058    21539638.433    88201268.28547
     -1888.102  
  21279343.813   111823730.92449     -2699.027    21279343.340    87135376.01547
     -2103.140  
  20388554.518   107142598.61249      -189.815    20388556.384    83487755.65449
      -147.913  
  19656279.706   105221650.73009     -1201.948    19656282.827    81839098.09208
      -934.851  
  19876126.460   106137406.76005       812.922    19876131.467    82551337.34207
       632.273  
  23050307.708   123000854.22806     -3469.784    23050314.288    95667357.20405
     -2698.726  
  22011679.220   117334642.50507      4211.382    22011686.648    91260310.13507
      3275.519  
  21920990.818   117098025.28607     -3161.323    21920996.436    91076276.76007
     -2458.812  
  20215272.910   108251891.80409      2252.655    20215276.099    84195940.92708
      1752.065  
  22300339.978   119249939.22204       439.141    22300346.084    92749977.46607
       341.551  
 20 09 28 09 23 15.0000000  0 15G11G12G25G21G32G24G20G10R 3R13R 2R14
                                R12R 4R20
  23887493.914   125529619.24447        61.516    23887493.035    97815281.02144
        47.929  
  23348124.219   122695224.02248      2831.051    23348124.900    95606674.98446
      2206.007  
  24518060.043   128843271.05047      3695.898    24518064.428   100397369.43344
      2879.926  
  23014913.746   120944191.60648      -189.468    23014912.951    94242234.81646
      -147.640  
  21480246.907   112879493.34149      2192.465    21480248.999    87958075.29048
      1708.413  
  21541943.112   113203716.80348     -2425.805    21541945.094    88210713.73847
     -1890.238  
  21281912.955   111837231.85349     -2701.605    21281912.473    87145896.21847
     -2105.152  
  20388736.423   107143554.56349      -192.887    20388738.287    83488500.54949
      -150.305  
  19657403.554   105227666.80409     -1204.683    19657406.687    81843777.25808
      -936.980  
  19875367.610   106133354.60805       807.909    19875372.615    82548185.67307
       628.370  
  23053559.639   123018206.65906     -3471.253    23053566.115    95680853.55406
     -2699.863  
  22007729.739   117313589.79907      4209.344    22007737.186    91243935.81807
      3273.934  
  21923951.136   117113838.74307     -3164.366    21923956.762    91088576.11107
     -2461.179  
  20213170.378   108240632.87609      2250.679    20213173.574    84187183.98708
      1750.527  
  22299931.427   119247755.39203       433.487    22299937.699    92748278.90907
       337.151  
 20 09 28 09 23 20.0000000  0 15G11G12G25G21G32G24G20G10R 3R13R 2R14
                                R12R 4R20
  23887436.903   125529318.96147        58.254    23887436.101    97815047.04045
        45.390  
  23345431.254   122681072.64347      2828.875    23345431.959    95595647.99746
      2204.328  
  24514543.314   128824789.92447      3695.895    24514547.623   100382968.57745
      2879.921  
  23015095.337   120945145.87148      -192.022    23015094.543    94242978.40846
      -149.629  
  21478161.379   112868533.78549      2191.250    21478163.458    87949535.38148
      1707.468  
  21544252.210   113215851.09948     -2427.976    21544254.181    88220169.03147
     -1891.934  
  21284484.343   111850744.58849     -2703.555    21284483.853    87156425.62047
     -2106.668  
  20388921.265   107144525.94649      -195.612    20388923.143    83489257.47049
      -152.426  
  19658529.852   105233695.99609     -1206.984    19658533.006    81848466.63008
      -938.769  
  19874613.285   106129326.36906       803.340    19874618.233    82545052.60107
       624.757  
  23056812.432   123035564.18506     -3472.140    23056818.956    95694353.83306
     -2700.559  
  22003782.039   117292546.30607      4207.745    22003789.476    91227568.66907
      3272.690  
  21926914.349   117129667.81807     -3167.297    21926919.983    91100887.61307
     -2463.456  
  20211069.687   108229383.64209      2249.125    20211072.845    84178434.58908
      1749.320  
  22299527.663   119245595.34904       429.906    22299533.773    92746598.89907
       334.370  
 20 09 28 09 23 25.0000000  0 16G11G12G25G21G32G24G20G10R 3R13R 2R14
                                R12R19R 4R20
  23887382.677   125529033.28347        54.992    23887381.837    97814824.43244
        42.848  
  23342739.764   122666928.86348      2827.473    23342740.517    95584626.92846
      2203.230  
  24511026.430   128806307.85346      3696.180    24511030.736   100368566.95345
      2880.140  
  23015279.098   120946111.54348      -194.754    23015278.280    94243730.87146
      -151.761  
  21476076.757   112857579.05049      2189.984    21476078.842    87940999.22648
      1706.480  
  21546563.088   113227994.84648     -2430.250    21546565.066    88229631.69047
     -1893.706  
  21287057.414   111864266.10749     -2705.625    21287056.943    87166961.86747
     -2108.281  
  20389108.479   107145509.73149      -198.496    20389110.351    83490024.05849
      -154.672  
  19659658.066   105239735.41809     -1209.328    19659661.220    81853163.95408
      -940.625  
  19873862.805   106125318.81505       798.719    19873867.741    82541935.62006
       621.227  
  23060065.652   123052923.70506     -3472.589    23060072.139    95707855.68806
     -2700.906  
  21999835.454   117271508.90807      4206.245    21999842.901    91211206.25807
      3271.523  
  21929879.931   117145509.36207     -3170.034    21929885.561    91113208.81507
     -2465.586  
  22568829.482   120728018.89214     -3409.374    22568833.652    93899587.13915
     -2651.738  
  20208970.202   108218140.93609      2247.391    20208973.350    84169690.26508
      1747.968  
  22299127.547   119243455.99704       425.480    22299133.719    92744934.96007
       330.925  
 20 09 28 09 23 30.0000000  0 16G11G12G25G21G32G24G20G10R 3R13R 2R14
                                R12R19R 4R20
  23887331.619   125528764.50347        52.070    23887330.747    97814615.01044
        40.574  
  23340050.150   122652794.91048      2825.879    23340050.913    95573613.41946
      2201.979  
  24507509.669   128787827.15146      3695.723    24507513.946   100354166.43945
      2879.789  
  23015465.467   120947090.91648      -197.210    23015464.656    94244494.02046
      -153.671  
  21473993.483   112846631.40549      2188.727    21473995.583    87932468.60048
      1705.499  
  21548876.226   113240150.44048     -2432.362    21548878.207    88239103.58447
     -1895.347  
  21289632.578   111877798.65649     -2707.651    21289632.090    87177506.69747
     -2109.863  
  20389298.473   107146508.15449      -201.276    20389300.345    83490802.05049
      -156.839  
  19660788.619   105245787.32609     -1211.727    19660791.760    81857870.99508
      -942.496  
  19873116.624   106121334.21806       794.425    19873121.555    82538836.49207
       617.886  
  23063319.559   123070287.49306     -3473.472    23063326.144    95721360.83006
     -2701.598  
  21995890.462   117250479.88307      4204.804    21995897.912    91194850.36307
      3270.401  
  21932848.296   117161365.61907     -3172.676    21932853.915    91125541.45607
     -2467.641  
  22572017.481   120745071.63304     -3412.031    22572021.351    93912850.37205
     -2653.808  
  20206872.343   108206907.11909      2245.738    20206875.499    84160952.85307
      1746.679  
  22298731.799   119241339.59904       421.140    22298737.950    92743288.84307
       327.547  
 20 09 28 09 23 35.0000000  0 16G11G12G25G21G32G24G20G10R 3R13R 2R14
                                R12R19R 4R20
  23887283.968   125528513.56347        48.194    23887282.975    97814419.45244
        37.550  
  23337362.552   122638671.67147      2823.050    23337363.298    95562608.33746
      2199.785  
  24503993.277   128769348.76046      3695.077    24503997.670   100339767.72045
      2879.284  
  23015654.613   120948084.97948      -200.417    23015653.822    94245268.62346
      -156.168  
  21471911.756   112835691.85749      2186.722    21471913.850    87923944.28148
      1703.941  
  21551191.757   113252318.63448     -2435.234    21551193.745    88248585.29147
     -1897.590  
  21292210.019   111891343.23049     -2710.444    21292209.530    87188060.91147
     -2112.038  
  20389491.448   107147522.24449      -204.675    20389493.321    83491592.25349
      -159.491  
  19661921.666   105251852.77109     -1214.668    19661924.828    81862588.56108
      -944.746  
  19872374.950   106117373.71906       789.398    19872379.867    82535756.10907
       613.977  
  23066574.505   123087656.53506     -3474.793    23066581.190    95734870.07206
     -2702.620  
  21991947.218   117229460.32807      4202.608    21991954.677    91178501.83207
      3268.695  
  21935819.545   117177237.71707     -3176.133    21935825.211    91137886.41507
     -2470.327  
  22575207.893   120762137.99804     -3415.468    22575211.919    93926124.22406
     -2656.477  
  20204776.377   108195683.22209      2243.469    20204779.516    84152223.15508
      1744.922  
  22298340.627   119239247.17104       415.405    22298346.675    92741661.42007
       323.093  
 20 09 28 09 23 40.0000000  0 16G11G12G25G21G32G24G20G10R 3R13R 2R14
                                R12R19R 4R20
  23887239.592   125528280.08447        45.108    23887238.423    97814237.55245
        35.148  
  23334676.945   122624558.86848      2821.382    23334677.638    95551611.41146
      2198.488  
  24500477.173   128750872.25846      3695.401    24500481.696   100325370.45945
      2879.535  
  23015846.457   120949093.22148      -202.827    23015845.683    94246054.26146
      -158.050  
  21469831.478   112824759.95449      2185.680    21469833.579    87915425.91848
      1703.129  
  21553509.642   113264499.20548     -2437.269    21553511.630    88258076.64447
     -1899.176  
  21294789.651   111904899.35149     -2712.233    21294789.186    87198624.11147
     -2113.434  
  20389687.315   107148551.53249      -207.257    20389689.187    83492394.29549
      -161.503  
  19663057.168   105257931.29609     -1216.980    19663060.347    81867316.30208
      -946.538  
  19871637.630   106113436.72306       785.323    19871642.580    82532694.00707
       610.808  
  23069830.423   123105030.64606     -3475.132    23069837.031    95748383.27305
     -2702.887  
  21988005.673   117208449.74207      4201.358    21988013.132    91162160.27507
      3267.722  
  21938793.674   117193124.98007     -3178.656    21938799.317    91150243.17507
     -2472.288  
  22578400.657   120779217.44305     -3417.749    22578404.494    93939408.17705
     -2658.261  
  20202682.194   108184468.78009      2242.206    20202685.293    84143500.82207
      1743.937  
  22297953.795   119237178.35604       411.187    22297959.818    92740052.36707
       319.812  
 20 09 28 09 23 45.0000000  0 16G11G12G25G21G32G24G20G10R 3R13R 2R14
                                R12R19R 4R20
  23887198.305   125528063.05447        41.987    23887197.030    97814068.42844
        32.714  
  23331993.119   122610455.51648      2819.874    23331993.880    95540621.77946
      2197.305  
  24496961.398   128732396.76746      3694.964    24496965.768   100310973.97546
      2879.190  
  23016040.849   120950114.76048      -205.546    23016040.076    94246850.26846
      -160.168  
  21467752.480   112813834.74349      2184.351    21467754.574    87906912.77248
      1702.093  
  21555829.709   113276691.20648     -2439.516    21555831.691    88267576.90847
     -1900.926  
  21297371.336   111918466.09949     -2714.410    21297370.889    87209195.59547
     -2115.128  
  20389885.897   107149595.09049      -210.156    20389887.770    83493207.45749
      -163.761  
  19664194.968   105264021.89909     -1219.241    19664198.122    81872053.43608
      -948.304  
  19870904.590   106109522.35906       781.180    19870909.539    82529649.50406
       607.563  
  23073087.000   123122408.67506     -3475.793    23073093.492    95761899.51406
     -2703.397  
  21984065.642   117187447.25007      4199.503    21984073.106    91145825.01507
      3266.281  
  21941770.564   117209026.61307     -3181.718    21941776.151    91162611.11107
     -2474.676  
  22581595.574   120796308.96904     -3419.523    22581599.803    93952701.63106
     -2659.633  
  20200589.583   108173262.88009      2240.250    20200592.670    84134785.12307
      1742.417  
  22297571.090   119235132.08104       407.714    22297577.145    92738460.81207
       317.112  
 20 09 28 09 23 50.0000000  0 16G11G12G25G21G32G24G20G10R 3R13R 2R14
                                R12R19R 4R20
  23887160.462   125527864.50147        38.141    23887159.185    97813913.73944
        29.718  
  23329311.496   122596363.64947      2817.479    23329312.281    95529641.11046
      2195.437  
  24493446.140   128713924.27746      3694.370    24493450.632   100296579.83446
      2878.729  
  23016238.131   120951151.54448      -208.699    23016237.393    94247658.15346
      -162.621  
  21465675.137   112802918.26549      2182.733    21465677.238    87898406.43148
      1700.832  
  21558152.309   113288896.61548     -2442.187    21558154.303    88277087.61547
     -1903.008  
  21299955.419   111932045.48549     -2716.956    21299954.951    87219776.93047
     -2117.113  
  20390087.584   107150654.93049      -213.222    20390089.458    83494033.30549
      -166.152  
  19665335.418   105270126.66209     -1221.930    19665338.550    81876801.58108
      -950.395  
  19870176.131   106105632.61906       776.140    19870181.108    82526624.15206
       603.664  
  23076344.803   123139792.59707     -3477.176    23076351.402    95775420.33006
     -2704.472  
  21980127.544   117166454.90807      4197.741    21980134.984    91129497.65207
      3264.910  
  21944750.438   117224944.60107     -3185.199    21944756.084    91174991.76807
     -2477.383  
  22584793.197   120813414.78504     -3421.983    22584797.329    93966006.15305
     -2661.538  
  20198498.920   108162067.56809      2238.222    20198502.025    84126077.65907
      1740.835  
  22297193.086   119233110.47304       402.066    22297199.108    92736888.47807
       312.723  
 20 09 28 09 23 55.0000000  0 16G11G12G25G21G32G24G20G10R 3R13R 2R14
                                R12R19R 4R20
  23887125.654   125527681.86547        34.789    23887124.307    97813771.42144
        27.108  
  23326631.580   122582280.59547      2815.898    23326632.354    95518667.35146
      2194.214  
  24489930.989   128695452.19046      3694.155    24489935.403   100282186.02845
      2878.563  
  23016437.834   120952200.96148      -210.941    23016437.098    94248475.88246
      -164.375  
  21463598.953   112792007.87749      2181.370    21463601.069    87889904.83548
      1699.820  
  21560476.963   113301112.72448     -2444.413    21560478.950    88286606.65647
     -1904.742  
  21302541.400   111945634.84749     -2718.815    21302540.912    87230366.03847
     -2118.562  
  20390291.857   107151728.42549      -216.116    20390293.730    83494869.79749
      -168.405  
  19666477.987   105276242.80009     -1224.395    19666481.104    81881558.58008
      -952.308  
  19869451.760   106101764.89506       771.069    19869456.809    82523615.92906
       599.722  
  23079603.223   123157179.77106     -3477.625    23079610.024    95788943.66306
     -2704.828  
  21976190.816   117145470.09207      4196.289    21976198.266    91113176.13707
      3263.780  
  21947732.889   117240876.25407     -3187.672    21947738.515    91187383.05007
     -2479.304  
  22587993.091   120830532.09305     -3424.390    22587997.456    93979319.56005
     -2663.426  
  20196409.755   108150880.12109      2236.843    20196412.848    84117376.31208
      1739.766  
  22296819.137   119231110.92104       397.754    22296825.174    92735333.20707
       309.352  
 20 09 28 09 24  0.0000000  0 16G11G12G25G21G32G24G20G10R 3R13R 2R14
                                R12R19R 4R20
  23887093.974   125527515.88947        31.562    23887092.685    97813642.12045
        24.598  
  23323953.532   122568207.29548      2813.949    23323954.203    95507701.17846
      2192.691  
  24486416.106   128676981.29346      3694.602    24486420.509   100267793.12445
      2878.910  
  23016640.093   120953263.83548      -213.613    23016639.340    94249304.09146
      -166.457  
  21461524.070   112781104.38749      2180.058    21461526.198    87881408.61248
      1698.745  
  21562803.754   113313340.15648     -2446.448    21562805.754    88296134.52647
     -1906.324  
  21305129.435   111959235.03249     -2720.933    21305128.934    87240963.58647
     -2120.210  
  20390498.887   107152816.37549      -218.917    20390500.752    83495717.54949
      -170.590  
  19667622.851   105282371.21909     -1226.805    19667625.937    81886325.13008
      -954.113  
  19868731.737   106097919.97906       766.656    19868736.758    82520625.44406
       596.289  
  23082862.180   123174570.97506     -3478.253    23082869.065    95802470.11405
     -2705.316  
  21972255.662   117124493.47507      4194.761    21972263.085    91096860.99907
      3262.594  
  21950718.012   117256822.27507     -3190.569    21950723.644    91199785.51407
     -2481.554  
  22591195.403   120847661.51704     -3426.609    22591199.429    93992642.45705
     -2665.141  
  20194322.212   108139701.42709      2235.016    20194325.300    84108681.77907
      1738.343  
  22296449.521   119229133.92204       393.160    22296455.442    92733795.57106
       305.792  
 20 09 28 09 24  5.0000000  0 16G11G12G25G21G32G24G20G10R 3R13R 2R14
                                R12R19R 4R20
  23887065.629   125527367.37247        27.558    23887064.259    97813526.34644
        21.465  
  23321277.456   122554144.51448      2811.152    23321278.098    95496743.16046
      2190.508  
  24482901.602   128658512.44946      3693.241    24482906.006   100253401.82145
      2877.851  
  23016845.055   120954340.95348      -217.327    23016844.348    94250143.40946
      -169.347  
  21459450.661   112770208.61149      2178.155    21459452.795    87872918.40648
      1697.265  
  21565132.898   113325579.88748     -2449.362    21565134.889    88305671.97947
     -1908.597  
  21307719.676   111972846.77949     -2723.862    21307719.193    87251570.14147
     -2122.495  
  20390708.816   107153919.59149      -222.347    20390710.688    83496577.19949
      -173.262  
  19668770.139   105288512.74409     -1229.874    19668773.225    81891101.86908
      -956.574  
  19868016.203   106094098.72306       761.421    19868021.145    82517653.35606
       592.214  
  23086122.214   123191967.17007     -3480.223    23086128.725    95816000.53605
     -2706.836  
  21968322.264   117103526.12307      4192.229    21968329.674    91080553.07307
      3260.624  
  21953705.960   117272783.48507     -3194.031    21953711.615    91212199.78307
     -2484.250  
  22594400.121   120864804.06904     -3430.430    22594404.235    94005975.51905
     -2668.125  
  20192236.452   108128532.30409      2232.723    20192239.545    84099994.68207
      1736.523  
  22296084.180   119227180.71704       388.233    22296090.191    92732276.41207
       301.956  
 20 09 28 09 24 10.0000000  0 16G11G12G25G21G32G24G20G10R 3R13R 2R14
                                R12R19R 4R20
  23887040.704   125527237.07947        23.956    23887039.269    97813424.82945
        18.667  
  23318603.510   122540092.86747      2809.379    23318604.155    95485793.87445
      2189.132  
  24479387.524   128640046.37646      3692.766    24479392.033   100239012.72045
      2877.483  
  23017052.849   120955433.03948      -219.542    23017052.142    94250994.38546
      -171.078  
  21457378.868   112759321.26449      2176.823    21457380.986    87864434.75948
      1696.226  
  21567464.538   113337832.67548     -2451.679    21567466.526    88315219.60847
     -1910.430  
  21310312.249   111986470.81049     -2725.937    21310311.752    87262186.26847
     -2124.105  
  20390921.793   107155038.82049      -225.410    20390923.662    83497449.32549
      -175.644  
  19669919.981   105294668.09709     -1232.316    19669923.089    81895889.36608
      -958.469  
  19867305.202   106090301.82806       757.050    19867310.102    82514700.22107
       588.815  
  23089383.373   123209368.99506     -3480.758    23089389.983    95829535.31206
     -2707.258  
  21964390.654   117082568.61807      4190.612    21964398.080    91064252.80507
      3259.367  
  21956696.954   117288760.71007     -3196.855    21956702.584    91224626.51007
     -2486.445  
  22597607.445   120881960.34204     -3432.569    22597611.321    94019319.31305
     -2669.777  
  20190152.633   108117373.48709      2230.878    20190155.724    84091315.61108
      1735.128  
  22295723.488   119225251.68205       382.780    22295729.446    92730776.02907
       297.715  
 20 09 28 09 24 15.0000000  0 16G11G12G25G21G32G24G20G10R 3R13R 2R14
                                R12R19R 4R20
  23887018.676   125527121.84847        21.401    23887017.230    97813335.02144
        16.671  
  23315931.126   122526049.48648      2807.866    23315931.770    95474851.00046
      2187.948  
  24475873.561   128621579.96746      3693.370    24475877.977   100224623.31044
      2877.953  
  23017262.942   120956537.02648      -222.179    23017262.214    94251854.62746
      -173.132  
  21455308.084   112748439.28149      2175.687    21455310.201    87855955.30248
      1695.340  
  21569798.055   113350095.42348     -2453.641    21569800.056    88324774.99347
     -1911.933  
  21312906.572   112000104.03949     -2727.663    21312906.071    87272809.56947
     -2125.453  
  20391137.227   107156170.93749      -227.793    20391139.097    83498331.49549
      -177.500  
  19671071.847   105300834.12209     -1234.395    19671074.956    81900685.16708
      -960.085  
  19866598.192   106086526.21706       753.151    19866603.038    82511763.64107
       585.784  
  23092644.806   123226773.28606     -3481.227    23092651.867    95843071.90606
     -2707.636  
  21960460.332   117061617.91507      4189.328    21960467.769    91047957.82207
      3258.366  
  21959690.303   117304750.77008     -3199.570    21959695.958    91237063.22807
     -2488.555  
  22600816.688   120899127.34304     -3434.328    22600820.590    94032671.37905
     -2671.151  
  20188070.119   108106221.78109      2229.472    20188073.237    84082642.06208
      1734.030  
  22295366.722   119223343.99004       379.972    22295372.714    92729292.30507
       295.535  
 20 09 28 09 24 20.0000000  0 16G11G12G25G21G32G24G20G10R 3R13R 2R14
                                R12R19R 4R20
  23886999.867   125527023.13247        17.722    23886998.281    97813258.08544
        13.804  
  23313260.598   122512015.73548      2805.410    23313261.203    95463915.59746
      2186.030  
  24472359.743   128603114.73346      3692.555    24472364.058   100210234.83745
      2877.315  
  23017475.555   120957654.34548      -225.265    23017474.850    94252725.27346
      -175.530  
  21453238.602   112737564.08149      2173.995    21453240.712    87847481.12248
      1694.022  
  21572133.766   113362369.60648     -2456.414    21572135.772    88334339.29747
     -1914.094  
  21315502.916   112013747.91749     -2730.089    21315502.445    87283441.16447
     -2127.343  
  20391355.393   107157317.40549      -231.078    20391357.263    83499224.84749
      -180.066  
  19672226.008   105307012.31109     -1237.012    19672229.077    81905490.41908
      -962.124  
  19865895.399   106082773.34006       747.890    19865900.238    82508844.73907
       581.691  
  23095907.132   123244181.67907     -3482.156    23095914.263    95856611.71705
     -2708.355  
  21956531.570   117040675.49507      4187.375    21956538.996    91031669.28207
      3256.848  
  21962686.386   117320755.09007     -3202.554    21962691.998    91249511.02307
     -2490.878  
  22604028.167   120916306.46604     -3437.362    22604032.120    94046032.91906
     -2673.511  
  20185989.235   108095078.74209      2227.469    20185992.346    84073975.25808
      1732.477  
  22295014.153   119221458.92504       374.742    22295020.204    92727826.14107
       291.465  
 20 09 28 09 24 25.0000000  0 16G11G12G25G21G32G24G20G10R 3R13R 2R14
                                R12R19R 4R20
  23886984.385   125526942.05847        14.339    23886982.750    97813194.95544
        11.179  
  23310592.114   122497992.76147      2803.348    23310592.694    95452988.65646
      2184.434  
  24468846.303   128584651.82346      3692.479    24468850.715   100195848.16245
      2877.258  
  23017690.916   120958786.07348      -227.589    23017690.171    94253607.13246
      -177.347  
  21451170.626   112726696.82749      2172.796    21451172.744    87839013.14048
      1693.089  
  21574471.821   113374656.16748     -2458.395    21574473.818    88343913.23947
     -1915.637  
  21318101.497   112027403.55349     -2732.109    21318101.029    87294081.92947
     -2128.917  
  20391576.509   107158479.37849      -233.832    20391578.371    83500130.27949
      -182.211  
  19673382.621   105313203.75309     -1239.409    19673385.691    81910305.98808
      -963.984  
  19865197.015   106079044.19706       743.589    19865201.883    82505944.29806
       578.347  
  23099170.476   123261594.97906     -3483.030    23099177.075    95870155.47205
     -2709.015  
  21952604.582   117019742.50607      4185.757    21952612.009    91015388.08307
      3255.589  
  21965685.281   117336774.74007     -3205.331    21965690.934    91261970.75707
     -2493.038  
  22607241.958   120933498.64404     -3440.020    22607245.978    94059404.60705
     -2675.573  
  20183910.181   108083945.53709      2225.851    20183913.292    84065316.10008
      1731.284  
  22294666.206   119219597.76304       370.155    22294672.151    92726378.57507
       287.898  
 20 09 28 09 24 30.0000000  0 16G11G12G25G21G32G24G20G10R 3R13R 2R14
                                R12R19R 4R20
  23886972.244   125526878.25147        10.460    23886970.489    97813145.22044
         8.148  
  23307925.590   122483980.14248      2801.145    23307926.169    95442069.77546
      2182.715  
  24465333.250   128566190.76046      3691.438    24465337.612   100181462.93345
      2876.445  
  23017908.947   120959931.80548      -230.551    23017908.184    94254499.92046
      -179.647  
  21449104.083   112715837.06849      2170.808    21449106.194    87830550.99448
      1691.539  
  21576812.150   113386954.67848     -2461.168    21576814.147    88353496.49247
     -1917.765  
  21320702.236   112041070.49549     -2734.879    21320701.785    87304731.49747
     -2131.074  
  20391800.486   107159656.38249      -237.250    20391802.347    83501047.42549
      -184.870  
  19674541.634   105319408.07209     -1242.445    19674544.702    81915131.56908
      -966.352  
  19864503.053   106075338.48005       738.366    19864507.906    82503062.07407
       574.284  
  23102434.546   123279012.90106     -3484.559    23102441.216    95883702.77406
     -2710.211  
  21948679.296   116998818.42607      4183.629    21948686.700    90999113.81107
      3253.934  
  21968686.955   117352809.33207     -3208.866    21968692.633    91274442.09407
     -2495.788  
  22610458.154   120950703.56004     -3442.188    22610462.379    94072786.19105
     -2677.262  
  20181832.895   108072821.67009      2223.559    20181835.989    84056664.20708
      1729.390  
  22294322.476   119217759.87504       364.515    22294328.454    92724949.12607
       283.511  
 20 09 28 09 24 35.0000000  0 16G11G12G25G21G32G24G20G10R 3R13R 2R14
                                R12R19R 4R20
  23886963.401   125526831.66047         8.108    23886961.175    97813108.95344
         6.324  
  23305261.058   122469977.96248      2799.733    23305261.574    95431158.98546
      2181.612  
  24461820.570   128547731.65946      3691.543    24461824.935   100167079.23645
      2876.531  
  23018129.653   120961091.65148      -233.667    23018128.903    94255403.69546
      -182.078  
  21447038.967   112704984.87449      2169.918    21447041.091    87822094.74348
      1690.844  
  21579154.768   113399265.21848     -2463.207    21579156.757    88363089.12047
     -1919.386  
  21323305.142   112054748.79749     -2736.577    21323304.687    87315389.91347
     -2132.402  
  20392027.341   107160848.51749      -239.737    20392029.211    83501976.36149
      -186.813  
  19675703.045   105325625.28909     -1244.522    19675706.138    81919967.18108
      -967.965  
  19863813.491   106071656.29106       734.448    19863818.344    82500198.15606
       571.440  
  23105699.440   123296435.65606     -3484.812    23105706.533    95897253.70806
     -2710.426  
  21944755.730   116977903.54707      4182.229    21944763.118    90982846.69507
      3252.847  
  21971691.464   117368858.91107     -3211.180    21971697.111    91286925.10707
     -2497.586  
  22613677.030   120967921.41104     -3444.507    22613680.916    94086177.85206
     -2679.065  
  20179757.344   108061707.25109      2222.218    20179760.451    84048019.66508
      1728.409  
  22293983.148   119215945.46104       360.617    22293989.132    92723537.87307
       280.472  
 20 09 28 09 24 40.0000000  0 16G11G12G25G21G32G24G20G10R 3R13R 2R14
                                R12R19R 4R20
  23886957.580   125526800.66047         4.765    23886955.100    97813084.79744
         3.714  
  23302598.160   122455984.46748      2797.961    23302598.651    95420255.01045
      2180.238  
  24458308.024   128529272.79247      3691.495    24458312.188   100152695.71845
      2876.491  
  23018352.708   120962263.81648      -235.921    23018352.002    94256317.06346
      -183.840  
  21444974.967   112694138.51449      2168.640    21444977.099    87813643.04048
      1689.852  
  21581499.341   113411586.06648     -2465.202    21581501.336    88372689.77847
     -1920.941  
  21325909.861   112068436.72049     -2738.624    21325909.413    87326055.83047
     -2133.995  
  20392256.748   107162054.02749      -242.496    20392258.605    83502915.72449
      -188.957  
  19676866.570   105331853.75909     -1246.933    19676869.661    81924811.54708
      -969.839  
  19863128.003   106067995.82006       729.495    19863132.856    82497351.12606
       567.386  
  23108965.001   123313861.12907     -3485.344    23108972.183    95910806.80806
     -2710.835  
  21940833.504   116956995.97408      4180.668    21940840.874    90966585.25807
      3251.629  
  21974698.415   117384921.69407     -3213.948    21974704.158    91299418.38307
     -2499.741  
  22616897.507   120985150.03904     -3447.277    22616901.770    94099577.86805
     -2681.222  
  20177683.226   108050600.47209      2220.483    20177686.339    84039381.06308
      1727.043  
  22293647.808   119214152.68304       355.663    22293653.864    92722143.51507
       276.628  
 20 09 28 09 24 45.0000000  0 16G11G12G25G21G32G24G20G10R 3R13R 2R14
                                R12R19R 4R20
  23886954.962   125526786.31048         1.171    23886952.269    97813073.61043
         0.909  
  23299937.158   122442000.83948      2795.613    23299937.649    95409358.71746
      2178.401  
  24454795.720   128510815.26246      3691.159    24454799.953   100138313.20045
      2876.227  
  23018578.328   120963449.42548      -238.378    23018577.618    94257240.92446
      -185.749  
  21442912.290   112683299.10049      2167.063    21442914.421    87805196.74948
      1688.620  
  21583846.092   113423918.38648     -2467.550    21583848.099    88382299.38347
     -1922.770  
  21328516.635   112082135.34449     -2740.835    21328516.158    87336730.07847
     -2135.718  
  20392488.913   107163274.03049      -245.487    20392490.771    83503866.37449
      -191.293  
  19678032.347   105338094.44209     -1249.319    19678035.480    81929665.41208
      -971.694  
  19862446.786   106064358.22106       725.121    19862451.644    82494521.88506
       563.875  
  23112231.530   123331290.98606     -3486.296    23112238.270    95924363.43605
     -2711.555  
  21936912.890   116936096.89107      4179.015    21936920.246    90950330.42307
      3250.343  
  21977708.036   117400998.67107     -3217.047    21977713.755    91311922.68907
     -2502.151  
  22620120.561   121002390.82904     -3448.090    22620124.674    94112987.38106
     -2681.852  
  20175610.782   108039502.53609      2218.652    20175613.870    84030749.33608
      1725.625  
  22293316.848   119212382.79604       351.434    22293322.885    92720766.93107
       273.332  
 20 09 28 09 24 50.0000000  0 16G11G12G25G21G32G24G20G10R 3R13R 2R14
                                R12R19R 4R20
  23886955.714   125526789.29748        -2.022    23886952.695    97813075.95044
        -1.578  
  23297278.149   122428027.68448      2793.832    23297278.671    95398470.58346
      2177.016  
  24451283.659   128492359.72146      3691.163    24451288.066   100123932.29844
      2876.234  
  23018806.623   120964649.12348      -241.112    23018805.943    94258175.74846
      -187.882  
  21440851.053   112672467.26249      2165.742    21440853.177    87796756.36148
      1687.590  
  21586195.156   113436262.73748     -2469.890    21586197.151    88391918.35947
     -1924.594  
  21331125.569   112095845.29349     -2742.852    21331125.097    87347413.15647
     -2137.288  
  20392723.958   107164509.17149      -248.394    20392725.802    83504828.81949
      -193.559  
  19679200.579   105344348.02109     -1251.840    19679203.686    81934529.30708
      -973.656  
  19861769.987   106060744.15406       720.637    19861774.854    82491710.94806
       560.632  
  23115498.533   123348725.34006     -3487.065    23115505.349    95937923.49806
     -2712.167  
  21932993.954   116915206.97808      4177.133    21933001.339    90934082.72307
      3248.883  
  21980720.507   117417090.59607     -3219.727    21980726.145    91324438.63207
     -2504.233  
  22623345.811   121019644.33604     -3451.835    22623350.115    94126406.76605
     -2684.762  
  20173540.083   108028414.07009      2216.910    20173543.185    84022124.97408
      1724.261  
  22292990.264   119210636.28004       347.476    22292996.306    92719408.52007
       270.254  
 20 09 28 09 24 55.0000000  0 16G11G12G25G21G32G24G20G10R 3R13R 2R14
                                R12R19R 4R20
  23886959.581   125526808.49048        -5.609    23886956.415    97813090.93143
        -4.366  
  23294620.928   122414063.98748      2791.578    23294621.443    95387589.80246
      2175.257  
  24447771.784   128473905.22946      3690.086    24447776.309   100109552.20946
      2875.394  
  23019037.396   120965861.87748      -244.070    23019036.723    94259120.75747
      -190.187  
  21438791.059   112661642.01049      2164.042    21438793.200    87788321.10048
      1686.265  
  21588546.292   113448618.04148     -2472.456    21588548.332    88401545.86447
     -1926.593  
  21333736.474   112109565.66249     -2745.418    21333736.003    87358104.34647
     -2139.288  
  20392961.678   107165758.42549      -251.511    20392963.521    83505802.27049
      -195.983  
  19680371.020   105350613.51009     -1254.551    19680374.133    81939402.46708
      -975.765  
  19861097.430   106057152.54806       715.776    19861102.248    82488917.48107
       556.714  
  23118766.367   123366163.53307     -3488.331    23118773.443    95951486.45606
     -2713.160  
  21929076.589   116894325.18708      4175.339    21929083.971    90917841.34107
      3247.487  
  21983735.517   117433196.42407     -3222.808    21983741.235    91336965.38807
     -2506.628  
  22626573.333   121036909.43305     -3453.930    22626577.726    94139835.14706
     -2686.397  
  20171470.946   108017333.99609      2214.909    20171474.069    84013507.14508
      1722.679  
  22292667.829   119208912.26304       341.894    22292673.902    92718067.63407
       265.917  
 20 09 28 09 25  0.0000000  0 16G11G12G25G21G32G24G20G10R 3R13R 2R14
                                R12R19R 4R20
  23886967.053   125526846.75948        -9.753    23886963.703    97813120.74244
        -7.601  
  23291966.032   122400112.57048      2789.136    23291966.555    95376718.60746
      2173.358  
  24444260.645   128455454.50746      3689.812    24444265.259   100095175.01545
      2875.180  
  23019271.186   120967090.51048      -247.101    23019270.523    94260078.12646
      -192.546  
  21436732.874   112650826.14749      2162.358    21436734.997    87779893.16548
      1684.956  
  21590900.070   113460987.22848     -2475.151    21590902.103    88411184.19147
     -1928.694  
  21336349.878   112123299.15849     -2747.800    21336349.377    87368805.77047
     -2141.148  
  20393202.640   107167024.62849      -254.729    20393204.478    83506788.91849
      -198.495  
  19681544.225   105356893.86509     -1257.304    19681547.355    81944287.18508
      -977.934  
  19860429.685   106053586.32806       710.706    19860434.403    82486143.76206
       552.772  
  23122035.681   123383608.18807     -3489.499    23122042.739    95965054.52906
     -2714.059  
  21925161.241   116873454.36708      4173.190    21925168.646    90901608.49107
      3245.816  
  21986753.654   117449318.93007     -3226.160    21986759.415    91349505.10607
     -2509.237  
  22629803.491   121054189.06805     -3457.468    22629807.760    94153274.85706
     -2689.145  
  20169403.949   108006265.29009      2212.772    20169407.066    84004898.15208
      1721.046  
  22292350.296   119207213.42804       337.546    22292356.222    92716746.33107
       262.534  
 20 09 28 09 25  5.0000000  0 16G11G12G25G21G32G24G20G10R 3R13R 2R14
                                R12R19R 4R20
  23886977.615   125526901.13848       -12.758    23886974.068    97813163.12443
        -9.941  
  23289312.916   122386170.53948      2787.207    23289313.445    95365854.72045
      2171.854  
  24440749.816   128437004.75846      3689.894    24440754.321   100080798.59244
      2875.242  
  23019507.427   120968332.03148      -250.176    23019506.792    94261045.54746
      -194.940  
  21434675.893   112640016.69949      2161.202    21434678.020    87771470.21848
      1684.055  
  21593255.908   113473367.23948     -2477.229    21593257.926    88420830.95747
     -1930.308  
  21338965.211   112137042.76649     -2749.828    21338964.719    87379515.06547
     -2142.726  
  20393446.246   107168304.78649      -257.469    20393448.092    83507786.44349
      -200.629  
  19682719.636   105363185.86709     -1259.710    19682722.754    81949180.96508
      -979.776  
  19859766.028   106050042.37206       705.875    19859770.750    82483387.35406
       549.016  
  23125305.379   123401056.14105     -3490.378    23125312.405    95978625.16905
     -2714.738  
  21921247.420   116852591.62107      4171.530    21921254.828    90885381.92407
      3244.523  
  21989774.361   117465455.12407     -3228.995    21989780.135    91362055.47507
     -2511.444  
  22633035.765   121071480.27204     -3459.828    22633040.483    94166723.57005
     -2690.980  
  20167338.487   107995204.83409      2211.102    20167341.606    83996295.58308
      1719.745  
  22292036.743   119205536.90904       332.434    22292042.700    92715442.35307
       258.555  
 20 09 28 09 25 10.0000000  0 16G11G12G25G21G32G24G20G10R 3R13R 2R14
                                R12R19R 4R20
  23886991.321   125526972.06948       -15.598    23886987.711    97813218.39644
       -12.155  
  23286661.681   122372238.36048      2785.789    23286662.196    95354998.48546
      2170.745  
  24437239.199   128418556.27646      3689.949    24437243.703   100066423.16945
      2875.285  
  23019746.217   120969586.88248      -252.344    23019745.575    94262023.35646
      -196.632  
  21432620.233   112629214.13249      2159.922    21432622.361    87763052.64048
      1683.054  
  21595613.891   113485758.46248     -2479.237    21595615.912    88430486.45147
     -1931.878  
  21341582.552   112150797.01949     -2751.694    21341582.072    87390232.65647
     -2144.183  
  20393692.609   107169599.37049      -260.093    20393694.443    83508795.21049
      -202.675  
  19683897.297   105369490.10309     -1261.793    19683900.446    81954084.25808
      -981.434  
  19859106.596   106046521.13906       701.957    19859111.329    82480648.62107
       545.965  
  23128575.686   123418508.15806     -3490.273    23128582.701    95992198.92606
     -2714.664  
  21917335.196   116831737.39207      4170.362    21917342.617    90869161.98507
      3243.616  
  21992797.767   117481605.36907     -3231.102    21992803.489    91374616.78207
     -2513.077  
  22636270.195   121088783.16704     -3461.770    22636274.703    94180181.38406
     -2692.487  
  20165274.676   107984153.15709      2209.507    20165277.791    83987699.83708
      1718.507  
  22291727.481   119203883.26604       329.038    22291733.469    92714156.18907
       255.917  
 20 09 28 09 25 15.0000000  0 16G11G12G25G21G32G24G20G10R 3R13R 2R14
                                R12R19R 4R20
  23887007.963   125527058.33648       -19.175    23887004.342    97813285.62444
       -14.940  
  23284012.057   122358314.68148      2783.688    23284012.606    95344148.92046
      2169.112  
  24433728.550   128400107.90846      3689.476    24433732.888   100052047.84345
      2874.921  
  23019987.307   120970853.81748      -254.813    23019986.671    94263010.57046
      -198.558  
  21430565.638   112618417.19849      2158.601    21430567.765    87754639.44448
      1682.026  
  21597973.779   113498159.72648     -2481.370    21597975.809    88440149.77447
     -1933.534  
  21344201.658   112164560.57349     -2753.722    21344201.181    87400957.50347
     -2145.761  
  20393941.467   107170907.12649      -263.141    20393943.294    83509814.24249
      -205.047  
  19685077.034   105375805.20709     -1264.285    19685080.153    81958996.00708
      -983.331  
  19858451.224   106043021.45806       697.788    19858455.960    82477926.65007
       542.726  
  23131846.915   123435962.90407     -3491.535    23131853.774    96005774.84306
     -2715.637  
  21913424.350   116810890.35307      4168.453    21913431.745    90852947.62907
      3242.129  
  21995823.550   117497768.43407     -3234.078    21995829.225    91387188.05207
     -2515.394  
  22639506.935   121106096.70404     -3463.999    22639511.792    94193647.41705
     -2694.233  
  20163212.256   107973108.92809      2207.913    20163215.360    83979109.88508
      1717.265  
  22291422.162   119202250.93204       323.425    22291428.247    92712886.60807
       251.554  
 20 09 28 09 25 20.0000000  0 16G11G12G25G21G32G24G20G10R 3R13R 2R14
                                R12R19R 4R20
  23887028.021   125527162.70848       -22.733    23887024.598    97813366.97244
       -17.711  
  23281364.639   122344402.52848      2781.199    23281365.176    95333308.29246
      2167.168  
  24430218.445   128381662.52646      3688.750    24430222.940   100037674.81545
      2874.280  
  23020231.239   120972135.75048      -257.977    23020230.609    94264009.48946
      -201.019  
  21428512.672   112607628.75349      2156.699    21428514.787    87746232.87448
      1680.543  
  21600336.090   113510573.78548     -2484.065    21600338.112    88449823.07147
     -1935.637  
  21346823.097   112178336.29849     -2756.379    21346822.622    87411691.83147
     -2147.832  
  20394193.370   107172230.88549      -266.355    20394195.197    83510845.74348
      -207.554  
  19686259.347   105382134.15609     -1267.199    19686262.469    81963918.52308
      -985.602  
  19857800.517   106039546.34206       692.452    19857805.184    82475223.78806
       538.573  
  23135119.139   123453423.27406     -3492.984    23135126.007    96019355.13706
     -2716.769  
  21909515.426   116790053.49107      4166.367    21909522.789    90836741.18907
      3240.508  
  21998852.240   117513947.30707     -3237.206    21998857.972    91399771.61007
     -2517.832  
  22642746.110   121123423.76005     -3466.684    22642750.403    94207124.03306
     -2696.308  
  20161151.809   107962075.20309      2205.699    20161154.897    83970528.09808
      1715.542  
  22291121.378   119200642.91504       319.371    22291127.577    92711635.92507
       248.397  
 20 09 28 09 25 25.0000000  0 16G11G12G25G21G32G24G20G10R 3R13R 2R14
                                R12R19R 4R20
  23887051.265   125527283.88748       -25.832    23887047.878    97813461.39444
       -20.129  
  23278719.104   122330500.36548      2779.440    23278719.616    95322475.45046
      2165.800  
  24426708.722   128363218.80746      3688.906    24426713.270   100023303.08745
      2874.473  
  23020477.781   120973431.30548      -260.573    23020477.166    94265019.00346
      -203.046  
  21426461.039   112596847.41349      2155.746    21426463.159    87737831.83248
      1679.801  
  21602700.589   113522999.28148     -2485.934    21602702.620    88459505.27547
     -1937.093  
  21349446.579   112192122.78749     -2758.159    21349446.123    87422434.53547
     -2149.218  
  20394448.073   107173569.32749      -269.000    20394449.893    83511888.68249
      -209.613  
  19687443.965   105388475.53909     -1269.363    19687447.092    81968850.70708
      -987.316  
  19857154.016   106036094.24906       688.073    19857158.696    82472538.82907
       535.163  
  23138391.894   123470887.75906     -3493.020    23138398.871    96032938.58105
     -2716.800  
  21905608.124   116769225.40507      4164.839    21905615.466    90820541.58007
      3239.320  
  22001883.662   117530140.39907     -3239.577    22001889.323    91412366.24107
     -2519.675  
  22645987.501   121140762.92403     -3468.984    22645992.287    94220610.04605
     -2698.102  
  20159092.981   107951050.46109      2204.202    20159096.113    83961953.30308
      1714.379  
  22290824.954   119199057.92704       314.438    22290831.223    92710403.16707
       244.563  
 20 09 28 09 25 30.0000000  0 16G11G12G25G21G32G24G20G10R 3R13R 2R14
                                R12R19R 4R20
  23887077.665   125527421.68348       -29.863    23887074.384    97813568.77644
       -23.270  
  23276075.487   122316608.19148      2776.749    23276075.995    95311650.41946
      2163.706  
  24423199.331   128344776.42846      3687.871    24423203.857   100008932.43845
      2873.664  
  23020726.833   120974740.17748      -263.679    23020726.223    94266038.91246
      -205.464  
  21424410.745   112586073.01749      2153.430    21424412.876    87729436.20348
      1677.995  
  21605067.242   113535436.03548     -2488.992    21605069.254    88469196.24647
     -1939.476  
  21352072.086   112205919.89049     -2761.198    21352071.653    87433185.51747
     -2151.586  
  20394705.531   107174922.21649      -272.703    20394707.348    83512942.88549
      -212.499  
  19688630.903   105394829.18909     -1272.469    19688634.007    81973792.43408
      -989.792  
  19856511.728   106032664.84506       683.187    19856516.457    82469871.51906
       531.366  
  23141665.452   123488356.21706     -3494.551    23141672.330    96046525.11805
     -2717.992  
  21901702.451   116748405.93707      4162.405    21901709.782    90804348.66907
      3237.426  
  22004917.681   117546347.58707     -3243.390    22004923.336    91424971.83107
     -2522.636  
  22649231.192   121158113.79305     -3472.089    22649235.422    94234105.14206
     -2700.515  
  20157035.814   107940034.58109      2201.620    20157038.976    83953385.40108
      1712.370  
  22290532.824   119197495.61804       308.750    22290539.083    92709188.02307
       240.137  
 20 09 28 09 25 35.0000000  0 15G11G12G25G21G32G24G20G10R 3R13R 2R14
                                R12R 4R20
  23887107.530   125527577.56148       -32.929    23887104.323    97813690.24844
       -25.660  
  23273434.058   122302727.45048      2774.831    23273434.554    95300834.28646
      2162.211  
  24419690.335   128326337.02846      3687.737    24419694.855    99994564.09945
      2873.566  
  23020978.725   120976063.97248      -266.273    23020978.133    94267070.44446
      -207.484  
  21422362.043   112575307.01449      2152.426    21422364.176    87721047.11848
      1677.214  
  21607436.290   113547885.43048     -2491.026    21607438.304    88478897.07947
     -1941.059  
  21354699.881   112219729.04749     -2762.839    21354699.423    87443945.89247
     -2152.866  
  20394966.010   107176291.04749      -275.265    20394967.828    83514009.50749
      -214.496  
  19689820.351   105401196.45909     -1274.671    19689823.467    81978744.75608
      -991.413  
  19855874.020   106029259.73906       678.847    19855878.775    82467223.10606
       527.991  
  23144940.157   123505830.14206     -3495.238    23144946.887    96060116.03006
     -2718.507  
  21897798.664   116727596.58707      4160.749    21897805.989    90788163.63307
      3236.140  
  22007954.614   117562570.27407     -3245.910    22007960.278    91437589.47007
     -2524.601  
  20154980.609   107929029.08209      2200.167    20154983.778    83944825.57208
      1711.242  
  22290245.293   119195957.68904       305.102    22290251.484    92707991.86307
       237.301  
 20 09 28 09 25 40.0000000  0 15G11G12G25G21G32G24G20G10R 3R13R 2R14
                                R12R 4R20
  23887140.502   125527749.98648       -36.241    23887137.414    97813824.59344
       -28.242  
  23270794.473   122288856.58748      2773.156    23270794.956    95290025.85346
      2160.906  
  24416181.678   128307899.10046      3687.523    24416186.203    99980196.84845
      2873.391  
  23021233.177   120977401.09648      -268.914    23021232.541    94268112.35546
      -209.547  
  21420314.650   112564547.91949      2151.051    21420316.789    87712663.41048
      1676.144  
  21609807.457   113560346.02948     -2493.366    21609809.469    88488606.63547
     -1942.815  
  21357329.697   112233548.79049     -2765.051    21357329.237    87454714.50847
     -2154.590  
  20395229.234   107177674.32549      -278.137    20395231.064    83515087.38448
      -216.730  
  19691012.094   105407575.98509     -1277.140    19691015.215    81983706.60708
      -993.335  
  19855240.604   106025877.55106       674.266    19855245.386    82464592.52006
       524.430  
  23148215.531   123523307.97705     -3496.456    23148222.457    96073709.86006
     -2719.469  
  21893896.477   116706795.86207      4159.258    21893903.798    90771985.30007
      3234.977  
  22010994.182   117578807.03707     -3248.913    22010999.833    91450218.06207
     -2526.938  
  20152927.073   107918032.39709      2198.358    20152930.232    83936272.59708
      1709.836  
  22289961.877   119194442.41404       300.766    22289968.124    92706813.33307
       233.929  
 20 09 28 09 25 45.0000000  0 15G11G12G25G21G32G24G20G10R 3R13R 2R14
                                R12R19R 4
  23887176.427   125527938.14748       -38.953    23887173.435    97813971.21944
       -30.351  
  23268156.636   122274994.81848      2771.726    23268157.108    95279224.49445
      2159.784  
  24412673.083   128289461.68547      3687.776    24412677.621    99965830.07245
      2873.593  
  23021490.012   120978750.77248      -271.003    23021489.374    94269164.04446
      -211.171  
  21418268.427   112553794.88649      2150.245    21418270.555    87704284.42448
      1675.516  
  21612180.587   113572816.88348     -2495.031    21612182.579    88498324.18447
     -1944.183  
  21359961.350   112247378.22249     -2766.730    21359960.884    87465490.69347
     -2155.894  
  20395495.036   107179071.18749      -280.569    20395496.878    83516175.84849
      -218.624  
  19692205.931   105413966.81209     -1279.109    19692209.076    81988677.25208
      -994.866  
  19854611.295   106022517.26206       670.172    19854616.114    82461978.96806
       521.246  
  23151491.333   123540788.78506     -3495.957    23151498.476    96087305.96306
     -2719.090  
  21889995.785   116686002.88407      4158.000    21890003.084    90755812.99707
      3234.000  
  22014036.169   117595056.88107     -3251.254    22014041.844    91462856.82407
     -2528.758  
  22658975.818   121210241.28615     -3478.035    22658980.233    94274650.67916
     -2705.137  
  20150875.006   107907043.67409      2197.187    20150878.167    83927725.81608
      1708.921  
 20 09 28 09 25 50.0000000  0 15G11G12G25G21G32G24G20G10R 3R13R 2R14
                                R12R19R 4
  23887215.454   125528143.08148       -43.019    23887212.714    97814130.93344
       -33.522  
  23265520.722   122261143.24348      2768.905    23265521.205    95268431.10046
      2157.594  
  24409164.848   128271026.03546      3686.520    24409169.442    99951464.63845
      2872.612  
  23021749.446   120980114.04648      -274.507    23021748.814    94270226.34746
      -213.901  
  21416223.539   112543049.02149      2147.917    21416225.688    87695911.03448
      1673.703  
  21614555.890   113585299.24848     -2498.254    21614557.917    88508050.70247
     -1946.690  
  21362595.049   112261218.43549     -2769.664    21362594.602    87476275.26747
     -2158.184  
  20395763.648   107180482.75349      -284.250    20395765.484    83517275.77448
      -221.492  
  19693402.131   105420370.09909     -1282.433    19693405.255    81993657.58208
      -997.452  
  19853986.355   106019180.08706       664.573    19853991.176    82459383.38907
       516.890  
  23154768.114   123558273.78606     -3497.949    23154775.037    96100905.40405
     -2720.632  
  21886096.763   116665218.77608      4155.211    21886104.041    90739647.59407
      3231.832  
  22017080.869   117611320.96907     -3254.827    22017086.486    91475506.67107
     -2531.535  
  22662228.368   121227640.17503     -3481.844    22662233.011    94288183.23705
     -2708.090  
  20148824.653   107896064.03109      2194.422    20148827.812    83919186.09708
      1706.773  
 20 09 28 09 25 55.0000000  0 14G11G12G25G21G32G24G20G10R 3R13R 2R14
                                R12R 4
  23887258.105   125528367.30747       -46.581    23887255.713    97814305.63144
       -36.301  
  23262887.237   122247304.34348      2766.765    23262887.758    95257647.57346
      2155.925  
  24405657.446   128252594.54347      3686.238    24405661.908    99937102.46545
      2872.394  
  23022011.916   120981493.33148      -277.246    23022011.266    94271301.10846
      -216.038  
  21414180.496   112532312.75349      2146.594    21414182.644    87687545.11148
      1672.655  
  21616933.841   113597795.49248     -2500.538    21616935.843    88517788.03847
     -1948.477  
  21365231.262   112275071.88949     -2771.699    21365230.841    87487070.16147
     -2159.770  
  20396035.513   107181911.44749      -287.276    20396037.362    83518389.04249
      -223.852  
  19694601.119   105426788.34809     -1284.972    19694604.237    81998649.55008
      -999.425  
  19853366.253   106015868.49306       660.102    19853371.013    82456807.70206
       513.409  
  23158046.197   123575765.67206     -3498.690    23158052.834    96114510.23006
     -2721.203  
  21882199.864   116644446.08207      4153.559    21882207.094    90723491.06207
      3230.546  
  22020128.642   117627601.74707     -3257.905    22020134.318    91488169.49307
     -2533.930  
  20146776.437   107885095.99009      2192.749    20146779.608    83910655.40208
      1705.414  
 20 09 28 09 26  0.0000000  0 15G11G12G25G21G32G24G20G10R 3R13R 2R14
                                R12R19R 4
  23887303.885   125528608.26047       -49.976    23887301.811    97814493.39444
       -38.945  
  23260255.687   122233475.58047      2764.819    23260256.218    95246871.92046
      2154.405  
  24402150.409   128234164.72246      3686.046    24402154.739    99922741.54045
      2872.241  
  23022276.941   120982886.07948      -279.789    23022276.298    94272386.36946
      -218.015  
  21412138.786   112521583.55849      2145.379    21412140.947    87679184.70648
      1671.722  
  21619313.955   113610303.07648     -2502.628    21619315.964    88527534.20347
     -1950.105  
  21367869.527   112288936.00349     -2773.800    21367869.071    87497873.36547
     -2161.405  
  20396310.159   107183354.74949      -290.046    20396312.014    83519513.69449
      -226.012  
  19695802.398   105433218.88909     -1287.417    19695805.509    82003651.08208
     -1001.270  
  19852750.403   106012579.73406       655.258    19852755.120    82454249.78206
       509.641  
  23161324.668   123593261.31406     -3499.507    23161331.663    96128117.93306
     -2721.847  
  21878304.598   116623682.21507      4151.956    21878311.825    90707341.39807
      3229.301  
  22023179.039   117643896.51707     -3260.335    22023184.718    91500843.20507
     -2535.816  
  22668741.063   121262479.95114     -3485.824    22668745.890    94315279.94415
     -2711.215  
  20144729.937   107874136.98109      2190.972    20144733.092    83902131.73308
      1704.089  
 20 09 28 09 26  5.0000000  0 15G11G12G25G21G32G24G20G10R 3R13R 2R14
                                R12R19R 4
  23887352.653   125528864.97347       -53.019    23887350.835    97814693.45344
       -41.313  
  23257625.902   122219656.03248      2763.004    23257626.418    95236103.48446
      2152.991  
  24398643.460   128215735.60946      3685.648    24398647.914    99908381.20745
      2871.929  
  23022544.353   120984291.37348      -282.066    23022543.724    94273481.40046
      -219.793  
  21410098.267   112510860.52849      2144.094    21410100.432    87670829.10548
      1670.723  
  21621696.066   113622821.15448     -2504.847    21621698.068    88537288.55247
     -1951.828  
  21370509.647   112302809.86549     -2775.659    21370509.201    87508684.16547
     -2162.855  
  20396587.414   107184811.73649      -292.800    20396589.269    83520649.00749
      -228.155  
  19697005.797   105439660.90009     -1289.585    19697008.923    82008661.53408
     -1003.015  
  19852138.684   106009313.12605       650.863    19852143.368    82451709.09506
       506.351  
  23164603.983   123610760.30306     -3500.026    23164611.199    96141728.19206
     -2722.253  
  21874410.871   116602926.33607      4150.261    21874418.048    90691197.95007
      3227.980  
  22026231.942   117660204.54207     -3263.070    22026237.562    91513527.22307
     -2537.949  
  22672000.474   121279915.88004     -3487.624    22672004.855    94328841.30706
     -2712.586  
  20142684.922   107863186.08009      2189.312    20142688.081    83893614.36808
      1702.813  
 20 09 28 09 26 10.0000000  0 15G11G12G25G21G32G24G20G10R 3R13R 2R14
                                R12R 4R20
  23887404.724   125529139.16847       -56.488    23887403.173    97814907.11244
       -44.019  
  23254998.200   122205847.48748      2760.836    23254998.709    95225343.61246
      2151.305  
  24395136.866   128197308.99246      3685.175    24395141.489    99894022.85945
      2871.569  
  23022814.502   120985710.98448      -285.211    23022813.866    94274587.58946
      -222.245  
  21408059.235   112500145.40549      2142.422    21408061.413    87662479.66348
      1669.417  
  21624080.468   113635351.27448     -2507.023    21624082.449    88547052.28947
     -1953.468  
  21373151.921   112316695.16949     -2778.008    21373151.470    87519503.87646
     -2164.683  
  20396867.603   107186284.13749      -295.745    20396869.458    83521796.33449
      -230.456  
  19698211.657   105446116.05808     -1292.105    19698214.801    82013682.21308
     -1004.977  
  19851531.416   106006070.35205       646.340    19851536.086    82449186.93706
       502.707  
  23167884.361   123628263.99906     -3500.863    23167891.397    96155342.20005
     -2722.895  
  21870518.947   116582180.12607      4148.671    21870526.092    90675062.02107
      3226.745  
  22029287.613   117676527.39107     -3265.859    22029293.249    91526222.77507
     -2540.112  
  20140641.750   107852244.98809      2187.417    20140644.902    83885104.63008
      1701.320  
  22288352.068   119185834.76314       274.121    22288358.435    92700120.27517
       213.203  
 20 09 28 09 26 15.0000000  0 15G11G12G25G21G32G24G20G10R 3R13R 2R14
                                R12R 4R20
  23887459.902   125529430.07347       -59.832    23887458.639    97815133.76844
       -46.624  
  23252372.431   122192049.10548      2758.054    23252372.936    95214591.63746
      2149.133  
  24391630.737   128178884.12646      3684.512    24391635.347    99879665.82244
      2871.047  
  23023087.219   120987144.08848      -288.425    23023086.586    94275704.29946
      -224.746  
  21406021.566   112489437.38349      2140.551    21406023.746    87654135.75748
      1667.961  
  21626466.997   113647892.59748     -2509.847    21626468.973    88556824.73847
     -1955.729  
  21375796.247   112330591.13349     -2780.590    21375795.766    87530331.88947
     -2166.698  
  20397150.582   107187771.17549      -299.249    20397152.417    83522955.06749
      -233.188  
  19699419.849   105452583.54408     -1295.180    19699422.973    82018712.47808
     -1007.366  
  19850928.475   106002850.67705       641.401    19850933.153    82446682.75006
       498.866  
  23171165.417   123645771.99905     -3502.573    23171172.173    96168959.57805
     -2724.218  
  21866628.638   116561442.81207      4146.253    21866635.819    90658933.00507
      3224.863  
  22032345.923   117692864.33407     -3269.383    22032351.602    91538929.27507
     -2542.855  
  20138600.275   107841312.98509      2185.031    20138603.428    83876601.96308
      1699.465  
  22288098.884   119184481.49604       267.785    22288105.403    92699067.72807
       208.273  
 20 09 28 09 26 20.0000000  0 15G11G12G25G21G32G24G20G10R 3R13R 2R14
                                R12R 4R20
  23887518.516   125529738.96247       -63.547    23887517.562    97815374.45544
       -49.519  
  23249748.844   122178262.18548      2756.585    23249749.344    95203848.62146
      2147.992  
  24388125.155   128160462.20146      3684.647    24388129.707    99865311.06444
      2871.152  
  23023362.731   120988591.91248      -290.926    23023362.137    94276832.47846
      -226.694  
  21403985.480   112478737.71149      2139.507    21403987.667    87645798.35348
      1667.147  
  21628855.915   113660446.47848     -2511.656    21628857.905    88566606.98347
     -1957.137  
  21378442.834   112344499.01249     -2782.390    21378442.353    87541169.18847
     -2168.101  
  20397436.571   107189274.08649      -301.772    20397438.411    83524126.16449
      -235.152  
  19700630.581   105459064.71508     -1297.343    19700633.695    82023753.38808
     -1009.050  
  19850330.083   105999655.26706       637.101    19850334.754    82444197.42906
       495.354  
  23174447.166   123663285.44605     -3502.487    23174454.082    96182581.12305
     -2724.160  
  21862740.251   116540715.64207      4144.737    21862747.457    90642811.88607
      3223.683  
  22035407.079   117709216.60407     -3271.711    22035412.735    91551647.70507
     -2544.667  
  20136560.745   107830391.35909      2183.586    20136563.893    83868107.37108
      1698.344  
  22287850.249   119183152.27804       264.144    22287856.861    92698033.88407
       205.441  
 20 09 28 09 26 25.0000000  0 15G11G12G25G21G32G24G20G10R 3R13R 2R14
                                R12R 4R20
  23887580.109   125530063.82347       -66.758    23887579.549    97815627.59245
       -52.020  
  23247127.090   122164484.80748      2754.210    23247127.508    95193113.01746
      2146.140  
  24384619.804   128142041.36546      3683.362    24384624.387    99850957.17745
      2870.147  
  23023640.683   120990052.53148      -293.577    23023640.052    94277970.61746
      -228.765  
  21401950.629   112468044.46349      2137.632    21401952.803    87637465.95948
      1665.687  
  21631246.867   113673011.01748     -2514.313    21631248.842    88576397.53347
     -1959.203  
  21381091.321   112358416.84449     -2784.777    21381090.857    87552014.24547
     -2169.961  
  20397725.207   107190790.94149      -305.090    20397727.066    83525308.12848
      -237.730  
  19701843.484   105465557.57309     -1300.051    19701846.616    82028803.38908
     -1011.151  
  19849735.818   105996482.24006       631.890    19849740.557    82441729.52206
       491.468  
  23177729.779   123680801.81805     -3504.563    23177736.909    96196204.91805
     -2725.777  
  21858853.396   116519996.83207      4142.550    21858860.642    90626697.27107
      3221.984  
  22038470.686   117725582.18407     -3274.765    22038476.405    91564376.48507
     -2547.039  
  20134522.759   107819478.04009      2181.573    20134525.908    83859619.23708
      1696.714  
  22287605.779   119181845.36404       258.621    22287612.490    92697017.41907
       201.148  
 20 09 28 09 26 30.0000000  0 16G11G12G25G21G32G24G20G10R 3R13R 2R14
                                R12R19R 4R20
  23887645.080   125530406.62547       -69.874    23887644.832    97815894.72844
       -54.448  
  23244507.467   122150718.87648      2752.409    23244507.987    95182386.36146
      2144.737  
  24381114.994   128123623.43446      3683.555    24381119.609    99836605.57445
      2870.301  
  23023921.432   120991527.87748      -296.340    23023920.792    94279120.23346
      -230.917  
  21399917.352   112457359.55249      2136.543    21399919.548    87629140.05848
      1664.839  
  21633640.184   113685587.94948     -2516.234    21633642.153    88586197.73947
     -1960.784  
  21383742.062   112372346.55249     -2786.741    21383741.582    87562868.55047
     -2171.492  
  20398016.877   107192323.64749      -307.776    20398018.731    83526502.44848
      -239.828  
  19703058.981   105472064.09809     -1302.371    19703062.089    82033864.01808
     -1012.960  
  19849146.113   105993333.46306       627.976    19849150.871    82439280.48006
       488.425  
  23181013.540   123698323.78006     -3504.577    23181020.673    96209833.13206
     -2725.784  
  21854968.507   116499288.15607      4141.101    21854975.717    90610590.52207
      3220.855  
  22041537.172   117741962.92807     -3277.429    22041542.946    91577117.07007
     -2549.116  
  22688332.345   121367278.90714     -3501.320    22688340.658    94396820.77015
     -2723.241  
  20132486.728   107808575.12309      2179.953    20132489.858    83851139.19208
      1695.460  
  22287366.038   119180562.58004       254.862    22287372.600    92696019.68707
       198.223  
 20 09 28 09 26 35.0000000  0 15G11G12G25G21G32G24G20G10R 3R13R 2R14
                                R12R 4R20
  23887712.961   125530764.99747       -72.977    23887713.075    97816173.95445
       -56.867  
  23241889.627   122136962.16148      2750.398    23241890.153    95171666.86146
      2143.167  
  24377610.355   128105206.21347      3683.386    24377614.914    99822254.49545
      2870.172  
  23024204.549   120993015.63548      -299.004    23024203.903    94280279.52746
      -232.991  
  21397885.202   112446680.62749      2135.257    21397887.418    87620818.82347
      1663.836  
  21636035.439   113698175.13248     -2518.597    21636037.414    88596005.93447
     -1962.546  
  21386394.607   112386285.76849     -2788.854    21386394.126    87573730.27847
     -2173.137  
  20398311.113   107193869.86849      -310.683    20398312.967    83527707.29249
      -242.093  
  19704276.525   105478581.83208     -1304.827    19704279.657    82038933.36708
     -1014.867  
  19848560.507   105990206.54905       623.113    19848565.293    82436848.43806
       484.645  
  23184297.458   123715848.52005     -3505.960    23184304.518    96223463.43305
     -2726.870  
  21851085.080   116478587.40207      4139.063    21851092.281    90594489.94607
      3219.269  
  22044606.075   117758356.51907     -3280.328    22044611.851    91589867.63307
     -2551.370  
  20130452.167   107797680.11109      2178.241    20130455.278    83842665.29708
      1694.187  
  22287130.083   119179301.69504       250.152    22287136.801    92695038.99907
       194.562  
 20 09 28 09 26 40.0000000  0 14G11G12G25G21G32G24G20G10R 3R13R 2R14
                                R12R 4
  23887785.371   125531159.54555       -76.905    23887785.773    97816489.04554
       -59.926  
  23239275.145   122123222.89948      2748.171    23239275.647    95160960.95946
      2141.438  
  24374107.433   128086798.01546      3682.839    24374111.820    99807910.47045
      2869.750  
  23024491.571   120994524.00648      -301.535    23024490.906    94281454.87846
      -234.964  
  21395855.799   112436016.07549      2133.706    21395858.021    87612508.78148
      1662.628  
  21638434.173   113710780.68948     -2520.875    21638436.187    88605828.44447
     -1964.320  
  21389050.566   112400242.89549     -2791.180    21389050.070    87584605.95547
     -2174.949  
  20398609.508   107195437.97249      -313.672    20398611.361    83528929.19848
      -244.418  
  19705497.761   105485119.29909     -1307.309    19705500.902    82044018.06108
     -1016.801  
  19847980.606   105987109.94306       618.292    19847985.377    82434439.97006
       480.890  
  23187583.785   123733384.80507     -3506.425    23187590.671    96237102.78306
     -2727.218  
  21847204.712   116457902.94908      4137.397    21847211.929    90578402.06507
      3217.979  
  22047678.990   117774771.51207     -3283.340    22047684.745    91602634.85906
     -2553.707  
  20128420.681   107786801.56509      2176.261    20128423.778    83834204.20608
      1692.648  
 20 09 28 09 26 45.0000000  0 14G11G12G25G21G32G24G20G10R 3R13R 2R14
                                R12R 4
  23887858.860   125531547.29745       -79.479    23887859.324    97816791.19242
       -61.941  
  23236660.454   122109482.60848      2747.074    23236660.920    95150254.27746
      2140.582  
  24370602.692   128068380.28546      3683.352    24370606.978    99793558.97845
      2870.144  
  23024779.049   120996034.68448      -303.465    23024778.320    94282632.04345
      -236.465  
  21393825.617   112425347.36649      2132.956    21393827.842    87604195.50948
      1662.043  
  21640832.933   113723386.22648     -2522.305    21640834.918    88615650.94147
     -1965.476  
  21391706.407   112414199.30749     -2792.397    21391705.902    87595481.07947
     -2175.898  
  20398908.548   107197009.44149      -315.781    20398910.402    83530153.71948
      -246.066  
  19706719.166   105491657.63709     -1309.019    19706722.310    82049103.43208
     -1018.128  
  19847402.900   105984024.83406       614.902    19847407.636    82432040.44506
       478.253  
  23190868.922   123750913.42707     -3506.026    23190875.759    96250736.18006
     -2726.909  
  21843323.900   116437216.03508      4136.453    21843331.096    90562312.25307
      3217.241  
  22050752.338   117791188.97407     -3284.843    22050758.067    91615403.99107
     -2554.883  
  20126388.757   107775920.70109      2175.210    20126391.847    83825741.31408
      1691.832  
 20 09 28 09 26 50.0000000  0 15G11G12G25G21G32G24G20G10R 3R13R 2R14
                                R12R19R 4
  23887937.297   125531960.86045       -86.194    23887937.918    97817113.49244
       -67.159  
  23234049.438   122095761.71948      2740.824    23234049.893    95139562.68346
      2135.706  
  24367099.909   128049973.53846      3678.749    24367104.370    99779216.07545
      2866.554  
  23025070.832   120997567.95248      -310.097    23025070.091    94283826.79746
      -241.637  
  21391798.520   112414694.89549      2127.589    21391800.738    87595894.88648
      1657.863  
  21643235.520   113736012.02948     -2528.742    21643237.513    88625489.22947
     -1970.383  
  21394365.973   112428175.45549     -2798.547    21394365.503    87606371.57847
     -2180.691  
  20399212.105   107198604.64549      -322.730    20399213.944    83531396.73549
      -251.480  
  19707944.634   105498217.57109     -1315.616    19707947.761    82054205.60008
     -1023.262  
  19846831.227   105980972.00706       605.926    19846835.926    82429666.03007
       471.277  
  23194156.290   123768455.73206     -3511.351    23194163.415    96264380.14206
     -2731.063  
  21839446.511   116416547.49808      4130.515    21839453.703    90546236.73207
      3212.624  
  22053830.033   117807629.65307     -3291.695    22053835.798    91628191.19207
     -2560.211  
  22701438.561   121437405.20514     -3512.577    22701444.064    94451331.68916
     -2732.008  
  20124360.263   107765058.23709      2169.409    20124363.375    83817292.73808
      1687.319  
 20 09 28 09 26 55.0000000  0 15G11G12G25G21G32G24G20G10R 3R13R 2R14
                                R12R19R 4
  23888019.944   125532396.39345       -87.597    23888020.671    97817452.85241
       -68.257  
  23231441.396   122082056.46048      2741.159    23231441.817    95128883.29746
      2135.973  
  24363598.541   128031573.88346      3680.288    24363603.134    99764878.69245
      2867.758  
  23025366.164   120999119.99548      -310.718    23025365.419    94285036.17846
      -242.121  
  21389773.775   112404054.85249      2128.352    21389775.998    87587603.94548
      1658.457  
  21645641.244   113748654.29048     -2528.414    21645643.232    88635340.33947
     -1970.194  
  21397028.582   112442167.49449     -2798.339    21397028.085    87617274.46647
     -2180.526  
  20399519.464   107200219.79249      -323.414    20399521.296    83532655.29249
      -252.015  
  19709173.431   105504795.29209     -1315.668    19709176.542    82059321.60808
     -1023.301  
  19846264.958   105977947.53905       603.585    19846269.534    82427313.67206
       469.503  
  23197445.364   123786007.23406     -3510.027    23197452.507    96278031.25205
     -2730.031  
  21835571.874   116395893.31408      4130.851    21835579.018    90530172.37507
      3212.882  
  22056911.347   117824089.63807     -3292.188    22056917.147    91640993.39407
     -2560.594  
  22704722.620   121454970.48704     -3513.387    22704727.659    94464993.61806
     -2732.625  
  20122334.515   107754210.26309      2169.758    20122337.600    83808855.42608
      1687.590  
 20 09 28 09 27  0.0000000  0 13G12G25G21G32G24G20G10R 3R13R 2R14R12
                                R 4
  23228833.559   122068352.28048      2740.477    23228833.954    95118204.72046
      2135.438  
  24360095.722   128013166.78646      3682.023    24360100.415    99750535.51745
      2869.109  
  23025662.340   121000676.31848      -311.902    23025661.661    94286248.89346
      -243.043  
  21387748.626   112393412.68549      2128.602    21387750.857    87579311.36248
      1658.652  
  21648047.358   113761298.50348     -2529.297    21648049.346    88645192.97547
     -1970.878  
  21399691.434   112456160.84649     -2798.918    21399690.945    87628178.37247
     -2180.979  
  20399827.834   107201840.32149      -324.886    20399829.671    83533918.03849
      -253.163  
  19710402.758   105511375.97809     -1316.508    19710405.870    82064439.91908
     -1023.953  
  19845701.097   105974936.77405       600.894    19845705.707    82424971.96406
       467.358  
  23200733.668   123803553.34806     -3508.883    23200740.304    96291678.29705
     -2729.124  
  21831697.168   116375238.76307      4130.694    21831704.256    90514107.73307
      3212.761  
  22059993.530   117840554.04207     -3293.527    22059999.295    91653799.04207
     -2561.636  
  20120308.693   107743362.01809      2169.582    20120311.767    83800417.90408
      1687.452  
 20 09 28 09 27  5.0000000  0 14G11G12G25G21G32G24G20G10R 3R13R 2R14
                                R12R 4
  23888190.632   125533289.89457       -92.836    23888192.130    97818152.97755
       -72.352  
  23226226.931   122054654.44748      2738.285    23226227.314    95107531.12346
      2133.733  
  24356592.614   127994757.61146      3681.370    24356597.259    99736190.70945
      2868.602  
  23025960.301   121002242.11348      -314.691    23025959.642    94287468.98146
      -245.218  
  21385724.094   112382773.69649      2126.784    21385726.310    87571021.24448
      1657.234  
  21650454.846   113773949.87648     -2531.594    21650456.824    88655051.19447
     -1972.695  
  21402355.539   112470160.84449     -2801.344    21402355.057    87639087.46647
     -2182.867  
  20400138.245   107203471.54349      -327.980    20400140.082    83535189.11649
      -255.573  
  19711633.625   105517964.86909     -1319.347    19711636.730    82069564.61108
     -1026.163  
  19845140.821   105971944.96305       595.690    19845145.452    82422645.00107
       463.315  
  23204021.833   123821099.44206     -3509.746    23204028.438    96305325.27406
     -2729.801  
  21827823.337   116354589.40707      4128.547    21827830.484    90498047.13107
      3211.094  
  22063077.566   117857028.25107     -3296.492    22063083.323    91666612.31107
     -2563.941  
  20118283.811   107732518.83509      2167.562    20118286.881    83791984.32308
      1685.883  
 20 09 28 09 27 10.0000000  0 14G11G12G25G21G32G24G20G10R 3R13R 2R14
                                R12R 4
  23888281.131   125533766.62747       -97.184    23888282.862    97818524.44845
       -75.730  
  23223623.113   122040971.35748      2735.645    23223623.496    95096868.98646
      2131.672  
  24353090.675   127976354.67046      3680.227    24353095.138    99721850.76745
      2867.710  
  23026261.669   121003825.74648      -318.065    23026260.969    94288702.99147
      -247.843  
  21383701.737   112372146.17349      2124.753    21383703.953    87562740.06148
      1655.651  
  21652865.270   113786616.67848     -2534.531    21652867.212    88664921.42347
     -1974.964  
  21405022.489   112484175.76049     -2804.199    21405022.027    87650008.16647
     -2185.093  
  20400452.270   107205121.75449      -331.656    20400454.100    83536475.00049
      -258.433  
  19712867.659   105524570.72109     -1322.390    19712870.765    82074702.49308
     -1028.530  
  19844585.643   105968980.59206       590.805    19844590.321    82420339.38307
       459.516  
  23207311.445   123838653.97306     -3511.335    23207318.403    96318978.72706
     -2731.050  
  21823952.103   116333953.58307      4126.140    21823959.240    90481997.04207
      3209.215  
  22066165.001   117873520.74807     -3299.714    22066170.739    91679439.81307
     -2566.445  
  20116261.464   107721689.28709      2164.925    20116264.539    83783561.34308
      1683.831  
 20 09 28 09 27 15.0000000  0 15G11G12G25G21G32G24G20G10R 3R13R 2R14
                                R12R19R 4
  23888374.636   125534259.09446      -100.222    23888376.630    97818908.19145
       -78.097  
  23221021.075   122027297.64748      2734.008    23221021.486    95086214.12846
      2130.390  
  24349588.862   127957952.64846      3680.117    24349593.227    99707511.52546
      2867.621  
  23026565.394   121005421.89448      -320.245    23026564.726    94289946.73446
      -249.546  
  21381680.551   112361524.86049      2123.800    21381682.793    87554463.71848
      1654.910  
  21655277.642   113799293.77948     -2536.289    21655279.576    88674799.68447
     -1976.328  
  21407691.266   112498200.28049     -2805.730    21407690.827    87660936.36547
     -2186.289  
  20400768.894   107206785.65449      -333.937    20400770.723    83537771.54949
      -260.211  
  19714103.776   105531187.78609     -1324.222    19714106.896    82079849.09908
     -1029.952  
  19844034.665   105966038.30406       586.605    19844039.310    82418050.93507
       456.250  
  23210601.727   123856211.70206     -3511.917    23210608.875    96332634.68806
     -2731.503  
  21820082.386   116313325.84507      4124.897    21820089.511    90465953.26807
      3208.253  
  22069254.869   117890026.20507     -3302.194    22069260.624    91692277.38607
     -2568.379  
  22717873.045   121525299.60814     -3520.550    22717878.978    94519696.66615
     -2738.211  
  20114240.646   107710867.89909      2163.742    20114243.716    83775144.71508
      1682.909  
 20 09 28 09 27 20.0000000  0 14G11G12G25G21G32G24G20G10R 3R13R 2R14
                                R12R 4
  23888472.712   125534775.51747      -105.305    23888474.908    97819310.59445
       -82.059  
  23218422.385   122013641.59648      2729.952    23218422.809    95075573.10246
      2127.237  
  24346088.786   127939559.78046      3677.605    24346093.179    99693179.44545
      2865.667  
  23026873.067   121007038.79048      -324.933    23026872.427    94291206.65346
      -253.199  
  21379662.116   112350917.97749      2120.367    21379664.357    87546198.62448
      1652.234  
  21657693.520   113811989.23948     -2540.323    21657695.458    88684692.25447
     -1979.473  
  21410363.456   112512242.67149     -2809.870    21410363.025    87671878.47347
     -2189.516  
  20401089.695   107208471.50749      -338.969    20401091.544    83539085.19749
      -264.136  
  19715343.641   105537824.75209     -1329.043    19715346.736    82085011.18008
     -1033.702  
  19843489.474   105963126.51405       579.797    19843494.026    82415786.21507
       450.953  
  23213894.185   123873780.51607     -3514.727    23213901.110    96346299.33905
     -2733.680  
  21816215.762   116292714.69007      4120.933    21816222.914    90449922.38307
      3205.172  
  22072348.688   117906552.83107     -3306.855    22072354.451    91705131.43007
     -2572.004  
  20112222.902   107700063.09909      2159.711    20112225.995    83766740.97708
      1679.769  
 20 09 28 09 27 25.0000000  0 14G11G12G25G21G32G24G20G10R 3R13R 2R14
                                R12R 4
  23888573.364   125535305.26147      -107.229    23888575.756    97819723.39345
       -83.554  
  23215825.073   121999992.68848      2728.952    23215825.494    95064937.59746
      2126.457  
  24342588.471   127921165.50146      3678.836    24342592.959    99678846.25645
      2866.629  
  23027182.673   121008665.81348      -326.543    23027182.018    94292474.47146
      -254.449  
  21377644.416   112340314.92049      2120.163    21377646.656    87537936.50448
      1652.102  
  21660110.890   113824692.57448     -2541.593    21660112.845    88694590.95347
     -1980.465  
  21413037.009   112526292.28749     -2810.702    21413036.594    87682826.22847
     -2190.163  
  20401412.653   107210168.66349      -340.647    20401414.495    83540407.65749
      -265.444  
  19716585.149   105544470.61409     -1330.016    19716588.254    82090180.18508
     -1034.461  
  19842947.793   105960234.37306       576.152    19842952.406    82413536.77206
       448.117  
  23217186.765   123891350.04207     -3513.999    23217193.369    96359964.56506
     -2733.104  
  21812350.220   116272109.30108      4120.430    21812357.384    90433895.98407
      3204.777  
  22075444.456   117923089.86807     -3308.616    22075450.187    91717993.55907
     -2573.370  
  20110206.260   107689264.07209      2159.156    20110209.354    83758341.74008
      1679.292  
 20 09 28 09 27 30.0000000  0 14G11G12G25G21G32G24G20G10R 3R13R 2R14
                                R12R 4
  23888676.571   125535848.33746      -110.492    23888678.992    97820146.56544
       -86.097  
  23213229.069   121986350.75548      2727.315    23213229.485    95054307.52746
      2125.180  
  24339087.912   127902769.78346      3678.706    24339092.456    99664511.93844
      2866.523  
  23027494.216   121010302.91848      -328.852    23027493.533    94293750.13546
      -256.245  
  21375627.415   112329715.60549      2119.074    21375629.666    87529677.30148
      1651.227  
  21662529.731   113837403.60948     -2543.348    21662531.696    88704495.65147
     -1981.831  
  21415711.918   112540349.05849     -2812.480    21415711.491    87693779.54747
     -2191.546  
  20401737.755   107211877.08749      -343.152    20401739.598    83541738.89849
      -267.395  
  19717828.321   105551125.37809     -1332.391    19717831.419    82095356.11008
     -1036.308  
  19842409.828   105957361.92506       571.991    19842414.467    82411302.64706
       444.878  
  23220479.399   123908920.16906     -3514.516    23220486.067    96373630.20006
     -2733.516  
  21808485.753   116251509.67107      4118.859    21808492.947    90417874.05407
      3203.558  
  22078542.177   117939637.24007     -3311.051    22078547.869    91730863.74507
     -2575.265  
  20108190.706   107678470.77809      2157.738    20108193.775    83749946.95808
      1678.237  
 20 09 28 09 27 35.0000000  0 14G11G12G25G21G32G24G20G10R 3R13R 2R14
                                R12R 4
  23888783.134   125536408.76647      -114.284    23888785.762    97820583.24045
       -89.058  
  23210635.237   121972719.98348      2724.604    23210635.661    95043686.18846
      2123.073  
  24335587.787   127884376.72146      3677.729    24335592.360    99650179.69245
      2865.769  
  23027808.448   121011954.22248      -332.081    23027807.748    94295036.85746
      -258.770  
  21373611.932   112319124.19849      2117.133    21373614.175    87521424.26648
      1649.715  
  21664950.797   113850126.42448     -2546.288    21664952.775    88714409.53747
     -1984.124  
  21418388.961   112554417.07449     -2815.133    21418388.535    87704741.62847
     -2193.612  
  20402065.788   107213600.91049      -346.789    20402067.638    83543082.13748
      -270.227  
  19719073.956   105557793.29909     -1335.229    19719077.058    82100542.27208
     -1038.515  
  19841876.296   105954513.14206       566.969    19841880.981    82409086.92606
       440.977  
  23223772.761   123926495.08606     -3516.132    23223779.785    96387299.50906
     -2734.781  
  21804623.182   116230919.99607      4116.512    21804630.349    90401859.87207
      3201.729  
  22081642.664   117956199.04907     -3314.276    22081648.304    91743745.15106
     -2577.769  
  20106176.985   107667687.45509      2155.273    20106180.075    83741559.93408
      1676.289  
 20 09 28 09 27 40.0000000  0 15G11G12G25G21G32G24G20G10R 3R13R 2R14
                                R12R 4R20
  23888893.104   125536986.84947      -116.979    23888895.785    97821033.67044
       -91.160  
  23208043.564   121959100.61648      2722.851    23208043.983    95033073.70346
      2121.703  
  24332088.190   127865986.62045      3677.315    24332092.829    99635849.76146
      2865.441  
  23028125.414   121013619.94948      -334.499    23028124.726    94296334.82946
      -260.652  
  21371598.005   112308540.90949      2116.042    21371600.236    87513177.55148
      1648.862  
  21667374.154   113862861.28648     -2547.948    21667376.129    88724332.79747
     -1985.417  
  21421068.199   112568496.56949     -2816.961    21421067.795    87715712.65647
     -2195.039  
  20402396.783   107215340.33249      -349.226    20402398.639    83544437.53049
      -272.128  
  19720322.048   105564474.52609     -1337.437    19720325.167    82105738.77708
     -1040.292  
  19841347.259   105951688.27005       562.784    19841351.974    82406889.80706
       437.722  
  23227067.287   123944074.96307     -3516.050    23227074.321    96400972.74506
     -2734.710  
  21800762.481   116210340.47108      4115.277    21800769.671    90385853.58907
      3200.770  
  22084745.854   117972775.63707     -3316.746    22084751.476    91756638.05106
     -2579.695  
  20104165.172   107656914.31809      2153.726    20104168.268    83733180.82908
      1675.121  
  22284460.354   119165024.36114       189.922    22284468.352    92683940.42417
       147.715  
 20 09 28 09 27 45.0000000  0 15G11G12G25G21G32G24G20G10R 3R13R 2R14
                                R12R 4R20
  23889006.155   125537580.96547      -120.367    23889008.909    97821496.64644
       -93.793  
  23205453.745   121945491.11748      2721.046    23205454.093    95022468.91246
      2120.301  
  24328588.949   127847597.89246      3676.960    24328593.760    99621520.90644
      2865.164  
  23028444.839   121015298.56948      -336.914    23028444.160    94297642.85546
      -262.531  
  21369585.311   112297964.19849      2114.757    21369587.541    87504935.96548
      1647.863  
  21669799.521   113875606.64548     -2550.081    21669801.492    88734264.25247
     -1987.081  
  21423749.331   112582586.00949     -2818.777    21423748.925    87726691.43547
     -2196.453  
  20402730.471   107217093.84549      -352.008    20402732.322    83545803.90848
      -274.297  
  19721572.368   105571167.58309     -1339.710    19721575.494    82110944.49208
     -1041.996  
  19840822.429   105948885.98805       558.308    19840827.189    82404710.25506
       434.233  
  23230362.491   123961658.24206     -3517.069    23230369.221    96414648.67905
     -2735.495  
  21796903.447   116189769.58707      4113.594    21796910.621    90369854.02807
      3199.460  
  22087851.473   117989365.32707     -3319.238    22087857.076    91769541.13606
     -2581.632  
  20102154.975   107646149.77409      2152.051    20102158.073    83724808.40908
      1673.816  
  22284284.518   119164086.65304       185.211    22284293.006    92683211.10807
       144.054  
 20 09 28 09 27 50.0000000  0 15G11G12G25G21G32G24G20G10R 3R13R 2R14
                                R12R 4R20
  23889122.315   125538191.29747      -124.073    23889125.099    97821972.23444
       -96.679  
  23202865.857   121931891.67448      2718.520    23202866.145    95011871.97746
      2118.331  
  24325090.004   127829210.65247      3676.805    24325094.880    99607193.17244
      2865.039  
  23028766.744   121016990.22548      -339.918    23028766.078    94298961.02646
      -264.875  
  21367573.924   112287394.25349      2112.852    21367576.132    87496699.64348
      1646.378  
  21672226.893   113888362.60048     -2552.769    21672228.877    88744203.95647
     -1989.175  
  21426432.391   112596685.58849     -2821.190    21426431.989    87737678.10147
     -2198.335  
  20403066.867   107218861.61449      -355.319    20403068.710    83547181.38948
      -276.874  
  19722824.920   105577872.59409     -1342.672    19722828.045    82116159.49408
     -1044.301  
  19840301.963   105946106.38405       553.319    19840306.646    82402548.35106
       430.358  
  23233658.139   123979245.16906     -3517.866    23233664.858    96428327.35906
     -2736.128  
  21793046.089   116169207.60607      4111.272    21793053.239    90353861.37907
      3197.656  
  22090959.651   118005968.34707     -3322.301    22090965.137    91782454.60006
     -2584.012  
  20100146.387   107635394.03309      2149.883    20100149.508    83716442.83608
      1672.132  
  22284113.227   119163171.33404       180.890    22284121.805    92682499.21507
       140.690  
 20 09 28 09 27 55.0000000  0 15G11G12G25G21G32G24G20G10R 3R13R 2R14
                                R12R19R 4
  23889241.961   125538819.76047      -127.176    23889244.726    97822461.96344
       -99.098  
  23200280.239   121918304.16248      2716.617    23200280.529    95001284.34346
      2116.847  
  24321591.696   127810826.98347      3676.589    24321596.539    99592868.23745
      2864.866  
  23029091.501   121018696.80548      -342.387    23029090.813    94300290.82446
      -266.796  
  21365564.164   112276832.92449      2111.761    21365566.372    87488470.04548
      1645.526  
  21674656.634   113901131.06748     -2554.652    21674658.642    88754153.40647
     -1990.640  
  21429117.736   112610797.14049     -2823.305    21429117.332    87748674.10246
     -2199.979  
  20403406.336   107220645.50549      -358.151    20403408.172    83548571.43348
      -279.082  
  19724080.018   105584591.32809     -1344.797    19724083.169    82121385.17808
     -1045.956  
  19839786.036   105943351.33205       549.046    19839790.715    82400405.53706
       427.034  
  23236954.920   123996837.45307     -3518.765    23236961.771    96442010.20806
     -2736.823  
  21789190.715   116148656.32307      4109.574    21789197.842    90337877.05507
      3196.336  
  22094070.662   118022586.49507     -3325.008    22094076.090    91795379.83206
     -2586.117  
  22744276.471   121666543.51314     -3540.484    22744281.414    94629548.32016
     -2753.710  
  20098139.838   107624649.02209      2148.241    20098142.939    83708085.61008
      1670.809  
 20 09 28 09 28  0.0000000  0 14G11G12G25G21G32G24G20G10R 3R13R 2R14
                                R12R 4
  23889364.645   125539464.06348      -130.702    23889367.509    97822963.98844
      -101.852  
  23197696.436   121904726.34348      2714.206    23197696.750    94990704.20046
      2114.960  
  24318093.568   127792444.35146      3675.722    24318098.297    99578544.11545
      2864.198  
  23029418.654   121020415.97348      -345.550    23029417.959    94301630.43046
      -269.266  
  21363555.609   112266277.92849      2109.965    21363557.817    87480245.37948
      1644.128  
  21677088.337   113913909.81748     -2557.043    21677090.374    88764110.88147
     -1992.499  
  21431804.902   112624918.28949     -2825.508    21431804.496    87759677.58747
     -2201.698  
  20403748.424   107222443.19349      -361.265    20403750.262    83549972.23148
      -281.508  
  19725337.288   105591321.59009     -1347.641    19725340.423    82126619.82508
     -1048.124  
  19839274.283   105940618.47605       544.074    19839278.932    82398279.98506
       423.164  
  23240252.521   124014432.86706     -3519.707    23240259.249    96455695.55806
     -2737.550  
  21785336.956   116128113.52308      4107.284    21785344.076    90321899.33507
      3194.554  
  22097184.030   118039217.45407     -3327.930    22097189.506    91808315.01307
     -2588.394  
  20096134.846   107613912.38209      2146.168    20096137.940    83699734.89108
      1669.241  
 20 09 28 09 28  5.0000000  0 14G11G12G25G21G32G24G20G10R 3R13R 2R14
                                R12R 4
  23889490.596   125540125.41047      -134.301    23889493.457    97823479.35344
      -104.647  
  23195114.710   121891159.40447      2711.999    23195115.031    94980132.58646
      2113.249  
  24314595.911   127774064.26146      3675.789    24314600.625    99564221.98245
      2864.250  
  23029748.434   121022149.01048      -348.229    23029747.769    94302980.85546
      -271.348  
  21361548.498   112255730.52349      2108.585    21361550.690    87472026.62148
      1643.054  
  21679522.230   113926700.03948     -2559.476    21679524.249    88774077.28647
     -1994.402  
  21434494.152   112639050.33049     -2827.801    21434493.762    87770689.55846
     -2203.484  
  20404093.392   107224255.98049      -364.296    20404095.216    83551384.79148
      -283.866  
  19726596.964   105598064.67409     -1350.081    19726600.080    82131864.44508
     -1050.065  
  19838766.845   105937909.09906       538.542    19838771.544    82396172.69006
       418.862  
  23243550.685   124032032.84605     -3520.147    23243557.465    96469384.44305
     -2737.897  
  21781484.956   116107580.44708      4105.519    21781492.133    90305929.17307
      3193.183  
  22100299.972   118055862.51007     -3330.707    22100305.428    91821261.16806
     -2590.550  
  20094131.643   107603185.41509      2144.210    20094134.748    83691391.69808
      1667.718  
 20 09 28 09 28 10.0000000  0 14G11G12G25G21G32G24G20G10R 3R13R 2R14
                                R12R 4
  23889619.552   125540802.60647      -137.203    23889622.508    97824007.01144
      -106.914  
  23192534.822   121877602.19148      2710.566    23192535.160    94969568.56946
      2112.132  
  24311098.535   127755685.42546      3675.651    24311103.238    99549900.80145
      2864.140  
  23030080.628   121023894.73348      -350.479    23030080.013    94304341.15046
      -273.104  
  21359542.603   112245189.50449      2107.444    21359544.795    87463812.84948
      1642.163  
  21681958.076   113939500.46748     -2561.319    21681960.088    88784051.63847
     -1995.840  
  21437185.238   112653192.02349     -2829.313    21437184.880    87781709.04847
     -2204.664  
  20404440.989   107226082.61549      -366.827    20404442.806    83552808.14548
      -285.843  
  19727858.786   105604819.20909     -1352.155    19727861.892    82137117.97408
     -1051.676  
  19838263.522   105935221.75606       535.140    19838268.292    82394082.53607
       416.218  
  23246849.276   124049635.78806     -3521.023    23246856.165    96483075.55506
     -2738.582  
  21777634.630   116087055.85908      4103.855    21777641.761    90289965.61907
      3191.886  
  22103418.321   118072520.35707     -3332.952    22103423.814    91834217.28007
     -2592.296  
  20092130.020   107592466.84709      2142.800    20092133.124    83683055.03708
      1666.621  
 20 09 28 09 28 15.0000000  0 14G11G12G25G21G32G24G20G10R 3R13R 2R14
                                R12R 4
  23889752.025   125541498.31947      -140.550    23889755.009    97824549.14244
      -109.520  
  23189957.324   121864057.50148      2708.003    23189957.705    94959014.26145
      2110.132  
  24307601.786   127737310.41846      3674.766    24307606.500    99535582.64945
      2863.452  
  23030415.735   121025655.76048      -353.319    23030415.111    94305713.38446
      -275.315  
  21357538.438   112234657.54349      2105.679    21357540.622    87455606.12748
      1640.789  
  21684396.393   113952313.84948     -2563.722    21684398.394    88794036.09347
     -1997.711  
  21439878.672   112667346.05349     -2831.761    21439878.324    87792738.15847
     -2206.569  
  20404791.737   107227925.80449      -370.050    20404793.546    83554244.40148
      -288.351  
  19729123.283   105611588.09809     -1354.918    19729126.376    82142382.66208
     -1053.828  
  19837764.942   105932559.42606       529.883    19837769.724    82392011.84006
       412.195  
  23250149.327   124067244.67907     -3522.300    23250156.131    96496771.38606
     -2739.566  
  21773786.380   116066542.48808      4101.784    21773793.492    90274010.78407
      3190.276  
  22106539.611   118089193.66407     -3335.938    22106545.105    91847185.39707
     -2594.621  
  20090130.513   107581759.51209      2140.663    20090133.612    83674727.10908
      1664.960  
 20 09 28 09 28 20.0000000  0 15G11G12G25G21G32G24G20G10R 3R13R 2R14
                                R12R 4R20
  23889887.844   125542211.30548      -143.929    23889890.645    97825104.70644
      -112.152  
  23187381.953   121850523.93048      2705.940    23187382.368    94948468.65646
      2108.530  
  24304105.664   127718938.26247      3674.300    24304110.408    99521266.70445
      2863.090  
  23030753.546   121027430.87848      -356.163    23030752.929    94307096.59746
      -277.530  
  21355535.756   112224133.40949      2104.312    21355537.932    87447405.50948
      1639.722  
  21686836.892   113965138.72348     -2565.952    21686838.885    88804029.49747
     -1999.448  
  21442574.211   112681511.20449     -2833.855    21442573.868    87803775.92947
     -2208.202  
  20405145.393   107229784.31549      -372.944    20405147.208    83555692.58648
      -290.609  
  19730390.190   105618370.01209     -1357.375    19730393.295    82147657.48208
     -1055.738  
  19837270.809   105929920.90806       525.762    19837275.600    82389959.66307
       408.797  
  23253450.159   124084858.11706     -3522.961    23253457.002    96510470.72906
     -2740.086  
  21769940.012   116046039.18108      4099.894    21769947.111    90258063.77807
      3188.808  
  22109663.493   118105881.32007     -3338.710    22109669.121    91860164.68107
     -2596.776  
  20088132.825   107571062.04609      2138.690    20088135.937    83666406.86408
      1663.425  
  22283178.244   119158167.68714       151.762    22283186.433    92678609.04217
       118.035  
 20 09 28 09 28 25.0000000  0 16G11G12G25G21G32G24G20G10R 3R13R 2R14
                                R12R19R 4R20
  23890026.570   125542939.78148      -147.160    23890029.094    97825672.35144
      -114.672  
  23184808.393   121836999.81148      2703.979    23184808.798    94937930.40946
      2106.999  
  24300609.768   127700566.99047      3673.910    24300614.357    99506951.39844
      2862.785  
  23031093.694   121029218.30648      -358.530    23031093.073    94308489.40146
      -279.378  
  21353534.226   112213615.33249      2102.925    21353536.402    87439209.61048
      1638.645  
  21689279.256   113977973.40348     -2567.765    21689281.253    88814030.55247
     -2000.854  
  21445271.526   112695685.66149     -2835.688    21445271.199    87814820.95346
     -2209.629  
  20405501.625   107231656.35649      -375.729    20405503.446    83557151.32148
      -292.780  
  19731659.213   105625163.10009     -1359.604    19731662.300    82152940.99408
     -1057.476  
  19836780.806   105927304.35406       520.906    19836785.604    82387924.56607
       405.145  
  23256751.334   124102474.31906     -3523.555    23256758.282    96524172.17106
     -2740.551  
  21766095.195   116025544.11008      4098.179    21766102.267    90242123.17507
      3187.472  
  22112789.808   118122581.31607     -3341.320    22112795.357    91873153.56806
     -2598.805  
  22764168.255   121772949.67515     -3553.288    22764174.347    94712313.24916
     -2763.667  
  20086136.668   107560372.71909      2137.063    20086139.774    83658092.94508
      1662.159  
  22283037.123   119157414.55004       148.973    22283045.624    92678023.30507
       115.870  
 20 09 28 09 28 30.0000000  0 15G11G12G25G21G32G24G20G10R 3R13R 2R14
                                R12R 4R20
  23890168.400   125543684.63648      -150.711    23890170.594    97826252.77143
      -117.438  
  23182236.820   121823486.10448      2701.601    23182237.179    94927400.24646
      2105.144  
  24297114.149   127682197.51046      3674.137    24297118.660    99492637.54045
      2862.965  
  23031436.333   121031018.88548      -361.449    23031435.708    94309892.43546
      -281.652  
  21351534.024   112203104.16949      2101.488    21351536.195    87431019.09548
      1637.523  
  21691723.635   113990818.76248     -2570.081    21691725.620    88824039.92147
     -2002.663  
  21447970.771   112709870.28649     -2837.805    21447970.435    87825873.90447
     -2211.280  
  20405860.606   107233542.78249      -378.726    20405862.413    83558621.26448
      -295.117  
  19732930.489   105631968.30909     -1362.273    19732933.571    82158233.93508
     -1059.546  
  19836295.049   105924710.53306       516.766    19836299.865    82385907.15107
       401.930  
  23260053.231   124120094.21907     -3524.019    23260060.133    96537876.51506
     -2740.905  
  21762252.091   116005058.14108      4096.429    21762259.147    90226189.65607
      3186.112  
  22115918.616   118139294.62707     -3343.875    22115924.110    91886152.81507
     -2600.797  
  20084142.189   107549692.37209      2135.187    20084145.295    83649786.01208
      1660.703  
  22282900.620   119156684.07803       143.562    22282909.014    92677455.15807
       111.659  
 20 09 28 09 28 35.0000000  0 15G11G12G25G21G32G24G20G10R 3R13R 2R14
                                R12R 4R20
  23890313.479   125544446.40448      -154.051    23890315.383    97826846.37544
      -120.039  
  23179667.285   121809983.23148      2699.402    23179667.656    94916878.54146
      2103.434  
  24293619.008   127663830.48446      3673.440    24293623.552    99478325.59545
      2862.421  
  23031781.580   121032833.17148      -364.222    23031780.935    94311306.17246
      -283.813  
  21349535.254   112192600.49749      2099.921    21349537.414    87422834.42148
      1636.305  
  21694170.178   114003675.40548     -2572.487    21694172.156    88834058.07847
     -2004.538  
  21450672.047   112724065.61749     -2840.168    21450671.698    87836935.19047
     -2213.121  
  20406222.435   107235444.17649      -381.769    20406224.244    83560102.86949
      -297.483  
  19734204.094   105638786.04509     -1364.867    19734207.180    82163536.61508
     -1061.566  
  19835813.662   105922140.04806       512.066    19835818.481    82383907.88706
       398.164  
  23263356.027   124137718.31906     -3525.347    23263362.850    96551584.17406
     -2741.938  
  21758410.813   115984581.90508      4094.410    21758417.829    90210263.70407
      3184.543  
  22119049.984   118156021.80007     -3346.815    22119055.459    91899162.84507
     -2603.078  
  20082149.515   107539021.60309      2133.128    20082152.596    83641486.52408
      1659.101  
  22282768.350   119155976.76804       140.109    22282776.714    92676905.00207
       108.969  
 20 09 28 09 28 40.0000000  0 15G11G12G25G21G32G24G20G10R 3R13R 2R14
                                R12R 4R20
  23890461.708   125545225.01348      -157.285    23890463.379    97827453.08344
      -122.558  
  23177099.815   121796491.18048      2697.464    23177100.183    94906365.29646
      2101.926  
  24290124.289   127645465.77046      3672.503    24290128.808    99464015.42245
      2861.688  
  23032129.442   121034661.10148      -366.819    23032128.792    94312730.52746
      -285.839  
  21347537.882   112182104.20349      2098.796    21347540.022    87414655.49648
      1635.425  
  21696618.836   114016543.15448     -2574.519    21696620.815    88844084.89747
     -2006.120  
  21453375.356   112738271.57549     -2842.034    21453375.001    87848004.76447
     -2214.577  
  20406587.096   107237360.45149      -384.621    20406588.908    83561596.07449
      -299.707  
  19735480.058   105645616.32109     -1367.121    19735483.125    82168849.05008
     -1063.332  
  19835336.687   105919592.93106       507.397    19835341.489    82381926.80106
       394.644  
  23266659.638   124155346.49106     -3525.765    23266666.427    96565294.96406
     -2742.265  
  21754571.313   115964115.27608      4092.363    21754578.352    90194345.22907
      3182.949  
  22122183.866   118172762.65407     -3349.234    22122189.424    91912183.49806
     -2604.965  
  20080158.569   107528360.39409      2131.445    20080161.678    83633194.48008
      1657.788  
  22282640.424   119155292.66004       135.168    22282648.723    92676372.91807
       105.125  
 20 09 28 09 28 45.0000000  0 16G11G12G25G 1G21G32G24G20G10R 3R13R 2
                                R14R12R 4R20
  23890613.382   125546021.81147      -161.151    23890614.776    97828073.96444
      -125.578  
  23174534.669   121783011.37148      2694.690    23174534.989    94895861.56646
      2099.757  
  24286630.308   127627104.83847      3671.973    24286634.799    99449708.22745
      2861.277  
  24460110.353   128538739.15817      2651.406           0.000           0.0000 
         0.000  
  23032480.139   121036504.02848      -369.930    23032479.489    94314166.57346
      -288.261  
  21345542.184   112171616.73949      2096.543    21345544.333    87406483.45148
      1633.668  
  21699069.886   114029423.41748     -2577.164    21699071.856    88854121.46747
     -2008.180  
  21456080.937   112752489.55749     -2844.694    21456080.583    87859083.70147
     -2216.647  
  20406954.849   107239293.00649      -388.065    20406956.660    83563101.95849
      -302.394  
  19736758.646   105652460.60609     -1370.198    19736761.702    82174172.38208
     -1065.715  
  19834864.378   105917070.45406       502.195    19834869.118    82379964.87406
       390.598  
  23269964.219   124172980.30606     -3527.422    23269971.072    96579010.12606
     -2743.559  
  21750733.901   115943659.64408      4089.901    21750740.916    90178435.30707
      3181.034  
  22125320.649   118189518.69407     -3352.629    22125326.139    91925215.97906
     -2607.605  
  20078169.724   107517710.09409      2129.046    20078172.810    83624910.91408
      1655.926  
  22282517.227   119154633.12204       130.609    22282525.348    92675859.94307
       101.582  
 20 09 28 09 28 50.0000000  0 16G11G12G25G 1G21G32G24G20G10R 3R13R 2
                                R14R12R 4R20
  23890768.305   125546835.78247      -164.020    23890769.319    97828708.23144
      -127.812  
  23171971.647   121769542.69448      2692.878    23171972.004    94885366.48046
      2098.347  
  24283136.862   127608746.52746      3671.730    24283141.336    99435403.04944
      2861.093  
  24457589.023   128525488.29447      2649.288    24457591.059   100149746.56555
      2064.383  
  23032833.493   121038360.91548      -372.477    23032832.866    94315613.50046
      -290.245  
  21343547.956   112161137.00349      2095.535    21343550.091    87398317.42748
      1632.883  
  21701523.115   114042315.22448     -2579.202    21701525.100    88864167.03047
     -2009.769  
  21458788.631   112766718.58549     -2846.647    21458788.292    87870171.25247
     -2218.172  
  20407325.494   107241240.75849      -390.840    20407327.313    83564619.69048
      -304.555  
  19738039.641   105659317.81009     -1372.473    19738042.686    82179505.76208
     -1067.479  
  19834396.488   105914571.53806       497.616    19834401.145    82378021.27906
       387.034  
  23273269.596   124190618.52406     -3527.523    23273276.462    96592728.71906
     -2743.637  
  21746898.395   115923214.14508      4088.398    21746905.386    90162533.25607
      3179.867  
  22128460.004   118206288.62707     -3354.956    22128465.513    91938259.26006
     -2609.410  
  20076182.696   107507069.64809      2127.469    20076185.774    83616635.01308
      1654.699  
  22282398.297   119153997.08404       125.917    22282406.378    92675365.25407
        97.937  
 20 09 28 09 28 55.0000000  0 16G11G12G25G 1G21G32G24G20G10R 3R13R 2
                                R14R12R 4R20
  23890925.927   125547664.03147      -167.210    23890926.616    97829353.61644
      -130.297  
  23169410.241   121756082.29048      2691.074    23169410.533    94874877.90146
      2096.949  
  24279643.403   127590388.09146      3671.777    24279647.825    99421097.76645
      2861.120  
  24455066.374   128512246.87045      2646.726    24455070.286   100139428.54446
      2062.382  
  23033188.961   121040228.84848      -374.604    23033188.308    94317069.03846
      -291.897  
  21341554.646   112150662.11949      2094.655    21341556.780    87390155.18348
      1632.199  
  21703977.986   114055215.56348     -2580.929    21703979.930    88874219.24447
     -2011.112  
  21461497.849   112780955.65349     -2848.137    21461497.530    87881265.06747
     -2219.331  
  20407698.487   107243200.84849      -393.211    20407700.305    83566147.03149
      -306.402  
  19739322.482   105666184.92809     -1374.398    19739325.528    82184846.85408
     -1068.977  
  19833932.360   105912093.18505       493.409    19833937.023    82376093.67706
       383.761  
  23276575.291   124208258.18806     -3527.969    23276582.179    96606448.45506
     -2743.980  
  21743064.150   115902775.68308      4087.136    21743071.187    90146636.69107
      3178.882  
  22131601.510   118223069.70807     -3357.453    22131606.935    91951311.20806
     -2611.355  
  20074196.935   107496436.11209      2126.055    20074200.038    83608364.49308
      1653.597  
  22282283.134   119153381.50804       120.519    22282291.232    92674886.47307
        93.738  
 20 09 28 09 29  0.0000000  0 16G11G12G25G 1G21G32G24G20G10R 3R13R 2
                                R14R12R 4R20
  23891086.691   125548508.81847      -170.995    23891087.026    97830011.90744
      -133.242  
  23166850.825   121742632.53348      2688.547    23166851.139    94864397.57846
      2094.972  
  24276150.368   127572031.75446      3670.461    24276154.661    99406794.15745
      2860.098  
  24452547.652   128499017.20946      2644.366    24452552.515   100129119.81945
      2060.558  
  23033546.951   121042110.13148      -378.070    23033546.310    94318534.96646
      -294.604  
  21339562.703   112140194.39049      2092.410    21339564.816    87381998.51648
      1630.449  
  21706434.925   114068126.74048     -2583.858    21706436.836    88884279.89347
     -2013.402  
  21464209.034   112795202.99749     -2851.023    21464208.702    87892366.89647
     -2221.577  
  20408074.252   107245175.54149      -396.815    20408076.085    83567685.75448
      -309.210  
  19740607.587   105673064.29109     -1377.707    19740610.658    82190197.46808
     -1071.555  
  19833472.666   105909637.88505       487.953    19833477.239    82374184.00006
       379.520  
  23279881.809   124225901.93606     -3529.546    23279888.693    96620171.37106
     -2745.207  
  21739231.716   115882346.68308      4084.308    21739238.761    90130747.48107
      3176.684  
  22134745.495   118239864.15607     -3360.698    22134750.914    91964373.55607
     -2613.882  
  20072212.926   107485811.92809      2123.383    20072216.046    83600101.23808
      1651.516  
  22282172.474   119152788.76004       114.745    22282180.386    92674425.45107
        89.246  
 20 09 28 09 29  5.0000000  0 17G11G12G25G 1G21G32G24G20G10R 3R13R 2
                                R14R12R19R 4R20
  23891250.958   125549372.04847      -173.847    23891251.146    97830684.54244
      -135.468  
  23164293.783   121729195.31148      2686.452    23164294.036    94853927.01346
      2093.339  
  24272658.066   127553679.46146      3670.309    24272662.303    99392493.65945
      2859.980  
  24450033.812   128485801.39247      2642.559    24450038.971   100118821.74645
      2059.133  
  23033907.857   121044006.67648      -380.397    23033907.196    94320012.79546
      -296.418  
  21337572.489   112129735.71149      2091.214    21337574.597    87373848.90248
      1629.519  
  21708894.277   114081050.59648     -2585.538    21708896.158    88894350.43647
     -2014.706  
  21466922.532   112809462.52549     -2852.733    21466922.198    87903478.20847
     -2222.914  
  20408453.172   107247166.74649      -399.445    20408454.991    83569237.34249
      -311.261  
  19741895.382   105679957.92509     -1379.636    19741898.447    82195559.18208
     -1072.987  
  19833017.555   105907207.64606       484.065    19833022.120    82372293.82106
       376.495  
  23283189.260   124243551.41006     -3529.922    23283196.259    96633898.71406
     -2745.500  
  21735401.392   115861929.05708      4082.933    21735408.446    90114867.11407
      3175.612  
  22137892.322   118256673.90507     -3363.059    22137897.734    91977447.80406
     -2615.714  
         0.000           0.0000          0.000    22790821.475    94823186.77816
     -2778.190  
  20070231.015   107475198.91809      2122.038    20070234.135    83591846.67808
      1650.477  
  22282066.395   119152220.81904       112.151    22282074.173    92673983.70007
        87.226  
 20 09 28 09 29 10.0000000  0 16G11G12G25G 1G21G32G24G20G10R 3R13R 2
                                R14R12R 4R20
  23891418.118   125550250.60647      -177.214    23891418.168    97831369.16044
      -138.089  
  23161738.532   121715767.46948      2684.699    23161738.813    94843463.80146
      2091.977  
  24269165.867   127535328.04846      3670.332    24269170.233    99378193.87346
      2860.000  
  24447521.572   128472596.16846      2639.938    24447524.573   100108531.92444
      2057.085  
  23034271.058   121045915.31148      -382.964    23034270.441    94321500.03547
      -298.418  
  21335583.395   112119282.95149      2089.937    21335585.511    87365703.89948
      1628.523  
  21711355.416   114093983.96748     -2587.464    21711357.280    88904428.38247
     -2016.210  
  21469637.768   112823731.12449     -2854.582    21469637.422    87914596.59547
     -2224.355  
  20408834.629   107249171.34849      -402.136    20408836.446    83570799.36749
      -313.354  
  19743185.256   105686862.63109     -1382.015    19743188.304    82200929.51008
     -1074.905  
  19832566.551   105904799.12305       479.250    19832571.090    82370420.52906
       372.750  
  23286497.298   124261203.39106     -3530.776    23286504.154    96647628.02306
     -2746.164  
  21731572.639   115841519.64908      4081.066    21731579.705    90098993.14607
      3174.164  
  22141041.356   118273495.73207     -3365.366    22141046.830    91990531.44706
     -2617.511  
  20068250.602   107464593.92909      2120.062    20068253.714    83583598.35708
      1648.937  
  22281964.255   119151674.38304       106.765    22281972.012    92673558.73507
        83.042  
 20 09 28 09 29 15.0000000  0 17G11G12G25G 1G21G32G24G20G10R 3R13R 2
                                R14R12R19R 4R20
  23891588.567   125551146.22947      -181.637    23891588.293    97832067.07343
      -141.531  
  23159185.426   121702350.86648      2681.667    23159185.722    94833009.32246
      2089.612  
  24265674.193   127516979.39646      3668.742    24265678.539    99363896.24945
      2858.766  
  24445011.252   128459403.31347      2636.430    24445012.948   100098251.77244
      2054.352  
  23034636.899   121047837.85048      -386.687    23034636.267    94322998.12446
      -301.315  
  21333595.768   112108837.90249      2087.546    21333597.885    87357564.90448
      1626.659  
  21713818.731   114106928.77548     -2590.527    21713820.617    88914515.24247
     -2018.597  
  21472355.074   112838010.56949     -2857.730    21472354.724    87925723.43346
     -2226.808  
  20409218.974   107251191.12549      -406.043    20409220.798    83572373.22348
      -316.402  
  19744477.491   105693780.15909     -1385.406    19744480.549    82206309.81108
     -1077.542  
  19832119.752   105902414.08705       474.155    19832124.420    82368565.50406
       368.788  
  23289806.203   124278859.84106     -3532.343    23289812.934    96661360.84206
     -2747.379  
  21727745.798   115821120.37008      4078.292    21727752.839    90083127.04907
      3172.003  
  22144192.984   118290331.38007     -3369.358    22144198.452    92003625.83406
     -2620.617  
  22797492.013   121951209.71214     -3576.414    22797495.475    94850941.53116
     -2781.663  
  20066272.057   107453998.81409      2117.430    20066275.130    83575357.71908
      1646.890  
  22281866.530   119151151.30304       101.851    22281874.207    92673151.88807
        79.219  
 20 09 28 09 29 20.0000000  0 16G11G12G25G 1G21G32G24G20G10R 3R13R 2
                                R14R12R 4R20
  23891763.101   125552063.41047      -184.448    23891762.620    97832781.72444
      -143.727  
  23156635.320   121688949.97048      2679.422    23156635.604    94822567.07746
      2087.859  
  24262183.954   127498637.97246      3668.957    24262188.255    99349604.21345
      2858.921  
  24442504.447   128446227.40447      2633.874    24442507.757   100087984.83645
      2052.371  
  23035006.240   121049778.77748      -389.160    23035005.627    94324510.53046
      -303.246  
  21331610.478   112098405.07149      2086.195    21331612.570    87349435.43048
      1625.605  
  21716285.045   114119889.37648     -2592.815    21716286.939    88924614.41747
     -2020.374  
  21475075.286   112852305.34949     -2859.504    21475074.913    87936862.21147
     -2228.187  
  20409607.075   107253230.57849      -408.992    20409608.893    83573962.40849
      -318.699  
  19745772.996   105700715.03709     -1387.886    19745776.043    82211703.60408
     -1079.472  
  19831678.438   105900057.24306       469.280    19831683.074    82366732.40406
       364.995  
  23293116.698   124296525.30805     -3533.504    23293123.485    96675100.63806
     -2748.284  
  21723921.651   115800735.67208      4076.355    21723928.710    90067272.29807
      3170.500  
  22147348.098   118307185.49907     -3371.687    22147353.567    92016734.60706
     -2622.421  
  20064296.183   107443418.22609      2115.621    20064299.273    83567128.37308
      1645.484  
  22281774.096   119150656.51204        97.148    22281781.686    92672767.05107
        75.554  
 20 09 28 09 29 25.0000000  0 16G11G12G25G 1G21G32G24G20G10R 3R13R 2
                                R14R12R 4R20
  23891940.020   125552993.25147      -187.229    23891939.361    97833506.29245
      -145.894  
  23154086.511   121675555.95448      2677.797    23154086.796    94812130.19946
      2086.593  
  24258693.363   127480294.88747      3668.394    24258697.707    99335310.91245
      2858.487  
  24439998.737   128433059.46746      2632.140    24440003.060   100077724.11845
      2051.019  
  23035377.392   121051729.16448      -391.250    23035376.741    94326030.30546
      -304.875  
  21329625.797   112087975.49949      2085.434    21329627.889    87341308.49448
      1625.011  
  21718752.685   114132856.81648     -2594.444    21718754.552    88934718.91047
     -2021.644  
  21477796.703   112866606.49049     -2861.062    21477796.320    87948005.95147
     -2229.401  
  20409997.211   107255280.75649      -411.386    20409999.021    83575559.94748
      -320.566  
  19747070.051   105707658.20809     -1389.844    19747073.077    82217103.84408
     -1080.991  
  19831240.600   105897719.52406       465.312    19831245.290    82364914.19106
       361.909  
  23296427.027   124314190.42106     -3533.495    23296433.959    96688840.11606
     -2748.281  
  21720098.577   115780356.47408      4075.202    21720105.612    90051421.82507
      3169.602  
  22150504.992   118324048.96407     -3373.979    22150510.491    92029850.61806
     -2624.210  
  20062321.289   107432842.88409      2114.265    20062324.403    83558903.10908
      1644.430  
  22281685.125   119150180.43404        93.077    22281692.650    92672396.77107
        72.395  
 20 09 28 09 29 30.0000000  0 16G11G12G25G 1G21G32G24G20G10R 3R13R 2
                                R14R12R 4R20
  23892120.484   125553941.65947      -191.233    23892119.669    97834245.31344
      -149.015  
  23151540.107   121662174.69448      2674.871    23151540.393    94801703.26046
      2084.315  
  24255203.575   127461955.96247      3667.413    24255207.984    99321020.85844
      2857.726  
  24437494.589   128419905.39245      2628.874    24437499.911   100067474.29645
      2048.487  
  23035751.462   121053694.94948      -394.590    23035750.826    94327562.08946
      -307.477  
  21327642.871   112077555.15649      2083.008    21327644.957    87333188.75348
      1623.121  
  21721222.776   114145837.14248     -2597.309    21721224.648    88944833.44747
     -2023.878  
  21480520.469   112880919.91649     -2863.921    21480520.110    87959159.25946
     -2231.633  
  20410390.525   107257347.60349      -415.089    20410392.328    83577170.47848
      -323.448  
  19748369.797   105714615.75909     -1393.003    19748372.813    82222515.27108
     -1083.453  
  19830807.467   105895406.77506       460.147    19830812.172    82363115.38906
       357.894  
  23299738.791   124331861.84507     -3534.960    23299745.640    96702584.54306
     -2749.418  
  21716277.736   115759989.02408      4072.461    21716284.718    90035580.48407
      3167.468  
  22153664.768   118340927.79707     -3377.229    22153670.223    92042978.60406
     -2626.737  
  20060348.539   107422278.99109      2111.722    20060351.664    83550686.75508
      1642.449  
  22281600.860   119149729.36304        87.477    22281608.304    92672045.93507
        68.039  
 20 09 28 09 29 35.0000000  0 16G11G12G25G 1G21G32G24G20G10R 3R13R 2
                                R14R12R 4R20
  23892304.201   125554907.28647      -194.515    23892303.364    97834997.76144
      -151.570  
  23148995.871   121648804.76848      2673.019    23148996.115    94791285.14546
      2082.870  
  24251714.366   127443619.97946      3667.102    24251718.737    99306733.07145
      2857.476  
  24434993.891   128406763.91346      2627.069    24434998.967   100057234.16145
      2047.063  
  23036128.208   121055674.73148      -397.168    23036127.566    94329104.77646
      -309.484  
  21325661.433   112067142.62749      2081.738    21325663.505    87325075.09748
      1622.132  
  21723695.017   114158828.88648     -2599.430    21723696.909    88954956.88147
     -2025.534  
  21483246.315   112895244.27149     -2865.937    21483245.942    87970321.08547
     -2233.203  
  20410786.735   107259429.73249      -417.749    20410788.544    83578792.91548
      -325.522  
  19749671.921   105721586.25609     -1395.195    19749674.961    82227936.77108
     -1085.151  
  19830378.822   105893117.77206       455.398    19830383.509    82361335.06006
       354.199  
  23303051.219   124349537.31506     -3535.238    23303058.010    96716332.16806
     -2749.628  
  21712458.774   115739631.74508      4070.551    21712465.741    90019747.06307
      3165.983  
  22156827.126   118357820.51207     -3379.640    22156832.560    92056117.38706
     -2628.608  
  20058377.648   107411725.02009      2109.977    20058380.785    83542478.11208
      1641.090  
  22281521.062   119149301.77204        83.289    22281528.351    92671713.36807
        64.777  
 20 09 28 09 29 40.0000000  0 15G11G12G25G 1G21G32G24G20G10R 3R13R 2
                                R14R12R 4
  23892490.748   125555887.75347      -197.840    23892489.767    97835761.74044
      -154.163  
  23146453.389   121635443.84248      2671.030    23146453.559    94780874.05546
      2081.324  
  24248225.263   127425284.52747      3666.890    24248229.497    99292445.71645
      2857.315  
  24432495.471   128393632.69347      2625.285    24432499.910   100047002.00445
      2045.667  
  23036507.159   121057666.12948      -399.543    23036506.538    94330656.51046
      -311.336  
  21323681.034   112056735.59049      2080.691    21323683.106    87316965.72648
      1621.315  
  21726168.982   114171829.62648     -2601.223    21726170.905    88965087.32647
     -2026.929  
  21485973.783   112909577.18149     -2867.659    21485973.417    87981489.57647
     -2234.543  
  20411185.411   107261524.79349      -420.499    20411187.222    83580425.43648
      -327.668  
  19750976.039   105728567.33309     -1397.409    19750979.076    82233366.49508
     -1086.875  
  19829954.162   105890850.17405       451.305    19829958.876    82359571.37106
       351.012  
  23306363.830   124367215.16505     -3535.965    23306370.794    96730081.57606
     -2750.203  
  21708641.269   115719282.32708      4068.815    21708648.243    90003919.74207
      3164.636  
  22159991.643   118374724.69907     -3381.949    22159997.051    92069265.08306
     -2630.410  
  20056408.188   107401178.65009      2108.355    20056411.333    83534275.38208
      1639.832  
 20 09 28 09 29 45.0000000  0 16G11G12G25G 1G21G32G24G20G10R 3R13R 2
                                R14R12R19R 4
  23892680.294   125556883.97647      -201.104    23892679.135    97836538.04344
      -156.707  
  23143912.747   121622092.89648      2668.969    23143912.907    94770470.72845
      2079.714  
  24244736.476   127406950.63946      3666.398    24244740.701    99278159.58445
      2856.937  
  24429998.746   128380512.62546      2622.895    24430003.525   100036778.60044
      2043.816  
  23036888.499   121059670.11648      -402.258    23036887.914    94332218.05746
      -313.452  
  21321701.870   112046334.98349      2079.315    21321703.944    87308861.35848
      1620.241  
  21728644.838   114184840.30748     -2603.464    21728646.748    88975225.52147
     -2028.675  
  21488703.058   112923919.61749     -2869.637    21488702.697    87992665.49347
     -2236.085  
  20411586.725   107263633.74349      -423.371    20411588.541    83582068.77048
      -329.901  
  19752282.299   105735559.84609     -1399.922    19752285.337    82238805.11608
     -1088.831  
  19829533.613   105888604.80806       446.245    19829538.378    82357824.98506
       347.081  
  23309677.123   124384895.87405     -3536.573    23309684.151    96743833.20905
     -2750.671  
  21704825.423   115698941.81208      4066.918    21704832.403    89988099.35807
      3163.160  
  22163158.435   118391641.38607     -3384.940    22163163.928    92082422.50506
     -2632.733  
  22817587.766   122058707.78514     -3589.500    22817592.636    94934570.57615
     -2791.832  
  20054440.333   107390640.90809      2106.457    20054443.477    83526079.36408
      1638.355  
 20 09 28 09 29 50.0000000  0 16G11G12G25G 1G21G32G24G20G10R 3R13R 2
                                R14R12R19R 4
  23892873.383   125557898.73047      -204.249    23892872.206    97837328.76344
      -159.155  
  23141374.575   121608754.77948      2666.512    23141374.746    94760077.38346
      2077.800  
  24241248.447   127388620.86245      3665.348    24241252.681    99263876.63241
      2856.112  
  24427504.828   128367406.50147      2620.276    24427509.812   100026566.10544
      2041.781  
  23037272.753   121061689.41548      -405.145    23037272.159    94333791.53746
      -315.699  
  21319724.441   112035943.55449      2077.690    21319726.505    87300764.13748
      1618.976  
  21731123.106   114197863.66348     -2605.711    21731125.027    88985373.59547
     -2030.425  
  21491434.682   112938274.30448     -2871.738    21491434.354    88003850.95146
     -2237.723  
  20411991.199   107265759.33049      -426.522    20411993.029    83583725.07749
      -332.354  
  19753591.252   105742566.77209     -1402.675    19753594.296    82244254.94608
     -1090.973  
  19829117.707   105886384.36205       441.785    19829122.537    82356097.97006
       343.604  
  23312991.790   124402582.32307     -3537.555    23312998.602    96757589.37806
     -2751.425  
  21701011.721   115678612.94706      4064.753    21701018.750    89972288.04104
      3161.479  
  22166328.038   118408573.24407     -3387.429    22166333.645    92095591.73007
     -2634.668  
  22820944.719   122076662.97004     -3592.102    22820949.410    94948535.72506
     -2793.858  
  20052474.591   107380114.57109      2104.406    20052477.751    83517892.21508
      1636.762  
 20 09 28 09 29 55.0000000  0 16G11G12G25G 1G21G32G24G20G10R 3R13R 2
                                R14R12R19R 4
  23893069.618   125558930.16847      -208.069    23893068.394    97838132.46345
      -162.137  
  23138838.448   121595427.46548      2664.526    23138838.653    94749692.47546
      2076.254  
  24237760.952   127370293.73346      3665.378    24237765.696    99249598.79354
      2856.141  
  24425013.375   128354312.54447      2617.644    24425017.018   100016362.90444
      2039.702  
  23037659.580   121063722.23648      -407.870    23037658.984    94335375.55246
      -317.820  
  21317748.423   112025559.51049      2076.277    21317750.489    87292672.68548
      1617.878  
  21733603.441   114210897.97248     -2607.823    21733605.397    88995530.20047
     -2032.073  
  21494168.266   112952639.38749     -2873.875    21494167.969    88015044.52347
     -2239.386  
  20412398.502   107267899.72249      -429.401    20412400.321    83585392.90448
      -334.602  
  19754902.503   105749586.09409     -1404.891    19754905.572    82249714.41708
     -1092.694  
  19828706.186   105884187.05205       436.917    19828711.070    82354388.96706
       339.823  
  23316306.822   124420271.81305     -3538.089           0.000           0.0000 
         0.000  
  21697199.862   115658293.78008      4062.906    21697206.900    89956484.23107
      3160.034  
  22169500.218   118425518.51807     -3390.519    22169505.853    92108771.36306
     -2637.073  
  22824303.251   122094629.16604     -3593.836    22824308.144    94962509.40205
     -2795.215  
  20050510.647   107369597.77409      2102.582    20050513.808    83509712.49408
      1635.339  
 20 09 28 09 30  0.0000000  0 17G11G12G25G 1G21G32G24G20G10R 3R13R 2
                                R14R12R19R 4R20
  23893268.784   125559976.95047      -211.105    23893267.553    97838948.14344
      -164.496  
  23136304.164   121582109.84048      2662.323    23136304.394    94739315.17345
      2074.547  
  24234273.642   127351967.66947      3664.672    24234278.311    99235318.72245
      2855.574  
  24422523.615   128341229.32746      2615.546    24422527.184   100006168.13945
      2038.077  
  23038048.736   121065767.20248      -410.426    23038048.118    94336969.02146
      -319.815  
  21315773.552   112015181.49449      2074.680    21315775.604    87284585.92048
      1616.633  
  21736085.588   114223941.77748     -2609.940    21736087.549    89005694.19847
     -2033.723  
  21496903.580   112967013.52849     -2875.996    21496903.271    88026245.15946
     -2241.035  
  20412808.368   107270053.58349      -432.358    20412810.181    83587071.24248
      -336.902  
  19756215.813   105756616.50309     -1407.534    19756218.918    82255182.50908
     -1094.753  
  19828298.796   105882011.60905       432.554    19828303.670    82352696.94606
       336.425  
  23319622.378   124437965.12906     -3539.168    23319630.243    96785122.02716
     -2752.687  
  21693389.652   115637983.21608      4060.960    21693396.689    89940687.15507
      3158.522  
  22172674.646   118442475.71407     -3392.973    22172680.251    92121960.31806
     -2638.980  
  22827663.664   122112604.92004     -3597.016    22827668.262    94976490.55905
     -2797.676  
  20048548.231   107359089.15609      2100.632    20048551.397    83501539.12208
      1633.819  
  22281184.667   119147507.19714        61.031    22281191.469    92670311.14017
        47.469  
 20 09 28 09 30  5.0000000  0 17G11G12G25G 1G21G32G24G20G10R 3R13R 2
                                R14R12R19R 4R20
  23893471.392   125561041.78847      -214.690    23893470.202    97839777.89344
      -167.293  
  23133772.254   121568804.62448      2659.609    23133772.478    94728947.46246
      2072.422  
  24230787.054   127333645.49447      3664.089    24230791.630    99221041.72246
      2855.136  
  24420036.318   128328159.62146      2612.605    24420040.966    99995984.08445
      2035.809  
  23038440.716   121067827.07248      -413.406    23038440.082    94338574.10946
      -322.136  
  21313800.343   112004812.21049      2073.136    21313802.388    87276505.96448
      1615.429  
  21738570.083   114236997.85348     -2612.476    21738572.044    89015867.76047
     -2035.699  
  21499641.138   112981399.45949     -2878.336    21499640.801    88037454.98046
     -2242.859  
  20413221.324   107272223.64849      -435.601    20413223.147    83588762.20548
      -339.430  
  19757531.727   105763660.78509     -1410.253    19757534.848    82260661.39208
     -1096.906  
  19827896.045   105879860.88306       427.832    19827900.917    82351024.16806
       332.758  
  23322939.345   124455663.60206     -3540.374    23322946.665    96798887.50006
     -2753.633  
  21689581.520   115617683.85608      4058.863    21689588.561    89924898.77307
      3156.894  
  22175851.820   118459447.60907     -3395.629    22175857.478    92135160.68006
     -2641.043  
  22831026.203   122130592.99004     -3599.109    22831031.216    94990481.23306
     -2799.320  
  20046587.838   107348591.49509      2098.512    20046591.033    83493374.27508
      1632.176  
  22281130.291   119147216.77104        55.073    22281137.156    92670085.27607
        42.836  
 20 09 28 09 30 10.0000000  0 17G11G12G25G 1G21G32G24G20G10R 3R13R 2
                                R14R12R19R 4R20
  23893677.061   125562122.64847      -218.211    23893675.973    97840620.11544
      -170.039  
  23131242.280   121555509.64648      2657.519    23131242.466    94718587.76546
      2070.797  
  24227300.786   127315325.09446      3663.930    24227305.294    99206766.10245
      2855.012  
  24417551.533   128315101.45746      2610.218    24417556.206    99985808.87844
      2033.938  
  23038835.138   121069899.74348      -416.035    23038834.479    94340189.19346
      -324.184  
  21311828.398   111994449.63349      2071.616    21311830.449    87268431.23348
      1614.246  
  21741056.489   114250064.03848     -2614.613    21741058.472    89026049.20447
     -2037.359  
  21502380.535   112995795.05649     -2880.351    21502380.201    88048672.33447
     -2244.430  
  20413636.961   107274407.83749      -438.582    20413638.776    83590464.16949
      -341.753  
  19758849.878   105770716.82709     -1412.703    19758852.991    82266149.42308
     -1098.772  
  19827497.448   105877732.67505       423.511    19827502.366    82349368.89906
       329.397  
  23326256.725   124473365.30705     -3541.124    23326263.287    96812655.56005
     -2754.202  
  21685775.108   115597393.66208      4056.690    21685782.159    89909117.52207
      3155.202  
  22179031.354   118476432.10607     -3398.703    22179037.067    92148370.82706
     -2643.441  
  22834390.912   122148591.16404     -3601.348    22834395.442    95004479.82305
     -2801.047  
  20044629.114   107338102.77609      2096.597    20044632.325    83485216.38808
      1630.688  
  22281080.334   119146948.78504        51.077    22281087.034    92669876.84507
        39.727  
 20 09 28 09 30 15.0000000  0 17G11G12G25G 1G21G32G24G20G10R 3R13R 2
                                R14R12R19R 4R20
  23893886.308   125563222.31247      -221.746    23893885.304    97841476.98144
      -172.792  
  23128714.831   121542227.81348      2655.316    23128714.975    94708238.33145
      2069.081  
  24223815.420   127297009.40447      3662.804    24223819.868    99192494.14744
      2854.132  
  24415069.260   128302057.55746      2607.726    24415073.889    99975644.79845
      2031.992  
  23039232.534   121071988.07148      -418.956    23039231.886    94341816.44646
      -326.465  
  21309858.275   111984096.56749      2069.813    21309860.319    87260363.91148
      1612.835  
  21743545.371   114263143.13948     -2616.965    21743547.348    89036240.70547
     -2039.199  
  21505122.304   113010203.14949     -2882.637    21505121.939    88059899.41947
     -2246.214  
  20414055.821   107276608.99049      -441.683    20414057.642    83592179.35348
      -344.167  
  19760170.738   105777787.49609     -1415.343    19760173.851    82271648.83108
     -1100.827  
  19827103.626   105875629.84405       418.151    19827108.581    82347733.36506
       325.226  
  23329574.773   124491073.30005     -3541.956    23329581.489    96826428.36105
     -2754.870  
  21681971.004   115577115.61608      4054.655    21681978.030    89893345.72007
      3153.620  
  22182213.770   118493432.06707     -3401.233    22182219.496    92161593.02206
     -2645.409  
  22837758.227   122166602.46204     -3604.015    22837762.875    95018488.60106
     -2803.132  
  20042672.627   107327625.81309      2094.433    20042675.827    83477067.64208
      1629.003  
  22281035.053   119146705.99004        46.719    22281041.635    92669687.99107
        36.331  
 20 09 28 09 30 20.0000000  0 17G11G12G25G 1G21G32G24G20G10R 3R13R 2
                                R14R12R19R 4R20
  23894098.371   125564336.74047      -224.616    23894097.379    97842345.39145
      -175.027  
  23126189.109   121528955.14448      2653.273    23126189.282    94697895.97945
      2067.483  
  24220330.195   127278694.33047      3662.469    24220334.583    99178222.67645
      2853.870  
  24412588.885   128289023.93747      2605.280    24412593.418    99965488.74645
      2030.093  
  23039632.117   121074087.92848      -421.430    23039631.496    94343452.69146
      -328.390  
  21307889.203   111973748.98949      2068.660    21307891.227    87252300.87048
      1611.941  
  21746035.970   114276231.38848     -2618.711    21746037.968    89046439.34647
     -2040.555  
  21507865.687   113024619.69549     -2884.500    21507865.316    88071133.08847
     -2247.668  
  20414477.147   107278823.04549      -444.430    20414478.962    83593904.59249
      -346.309  
  19761493.577   105784868.72309     -1417.460    19761496.683    82277156.45008
     -1102.468  
  19826713.799   105873548.18906       414.203    19826718.755    82346114.30306
       322.152  
  23332893.654   124508783.08007     -3542.491    23332900.819    96840202.59406
     -2755.281  
  21678168.335   115556845.59308      4052.874    21678175.406    89877580.15907
      3152.233  
  22185398.285   118510443.32707     -3403.741    22185404.019    92174824.00706
     -2647.354  
  22841126.885   122184622.54705     -3605.309    22841131.144    95032504.20405
     -2804.129  
  20040717.523   107317156.44709      2092.847    20040720.740    83468924.80608
      1627.770  
  22280993.639   119146484.27904        41.934    22281000.162    92669515.56407
        32.612  
 20 09 28 09 30 25.0000000  0 16G11G12G25G 1G21G32G24G20G10R 3R13R 2
                                R14R12R 4R20
  23894313.817   125565468.88747      -228.113    23894313.002    97843227.58144
      -177.754  
  23123665.689   121515694.51448      2650.905    23123665.775    94687563.04646
      2065.640  
  24216845.626   127260382.82547      3661.855    24216850.001    99163953.95845
      2853.391  
  24410111.378   128276003.55047      2603.190    24410116.019    99955342.99445
      2028.461  
  23040034.465   121076202.27848      -424.257    23040033.855    94345100.25246
      -330.589  
  21305921.716   111963409.80749      2067.109    21305923.738    87244244.36648
      1610.734  
  21748528.859   114289331.54148     -2621.133    21748530.858    89056647.25147
     -2042.445  
  21510611.237   113039047.62849     -2886.742    21510610.858    88082375.62347
     -2249.414  
  20414901.488   107281052.93849      -447.613    20414903.289    83595642.17048
      -348.792  
  19762818.955   105791963.42209     -1420.156    19762822.040    82282674.54908
     -1104.569  
  19826328.450   105871490.82205       409.219    19826333.476    82344514.12807
       318.277  
  23336213.622   124526497.75007     -3543.472    23336221.123    96853980.71306
     -2756.035  
  21674367.754   115536586.39008      4050.737    21674374.827    89861823.01707
      3150.573  
  22188585.508   118527468.93307     -3406.555    22188591.225    92188066.14707
     -2649.542  
  20038764.420   107306697.72909      2090.813    20038767.650    83460790.25208
      1626.188  
  22280956.879   119146286.61404        37.211    22280963.179    92669361.80807
        28.937  
 20 09 28 09 30 30.0000000  0 16G11G12G25G 1G21G32G24G20G10R 3R13R 2
                                R14R12R 4R20
  23894532.265   125566616.89947      -231.215    23894531.414    97844122.13244
      -180.172  
  23121144.215   121502444.08148      2649.156    23121144.288    94677238.07246
      2064.280  
  24213361.349   127242073.01547      3661.956    24213365.675    99149686.59745
      2853.473  
  24407636.003   128262994.58947      2600.621    24407640.702    99945206.13845
      2026.456  
  23040439.206   121078329.30348      -426.679    23040438.618    94346757.65847
      -332.480  
  21303955.481   111953077.17349      2065.858    21303957.481    87236192.96648
      1609.761  
  21751023.608   114302441.47648     -2622.992    21751025.595    89066862.78347
     -2043.895  
  21513358.597   113053485.07049     -2888.559    21513358.202    88093625.56847
     -2250.828  
  20415328.479   107283296.82249      -450.059    20415330.286    83597390.64948
      -350.699  
  19764146.469   105799069.58009     -1422.426    19764149.544    82288201.55708
     -1106.335  
  19825947.267   105869455.89205       404.848    19825952.384    82342931.40506
       314.883  
  23339533.823   124544215.85505     -3543.390    23339541.396    96867761.45506
     -2755.973  
  21670568.911   115516336.35608      4049.145    21670575.953    89846073.00407
      3149.335  
  22191775.065   118544506.91007     -3408.585    22191780.815    92201317.90407
     -2651.125  
  20036812.940   107296247.76709      2089.194    20036816.186    83452662.50608
      1624.925  
  22280924.007   119146111.11204        32.582    22280930.338    92669225.31007
        25.336  
 20 09 28 09 30 35.0000000  0 16G11G12G25G 1G21G32G24G20G10R 3R13R 2
                                R14R12R 4R20
  23894753.695   125567780.55347      -234.703    23894752.800    97845028.88944
      -182.890  
  23118624.659   121489203.78848      2646.382    23118624.706    94666920.96046
      2062.117  
  24209877.386   127223764.85347      3660.905    24209881.723    99135420.52145
      2852.655  
  24405162.606   128249996.76946      2597.902    24405166.881    99935077.97644
      2024.336  
  23040846.352   121080468.77348      -429.543    23040845.739    94348424.78146
      -334.711  
  21301990.453   111942750.94249      2064.117    21301992.465    87228146.55548
      1608.397  
  21753520.178   114315561.06848     -2625.484    21753522.164    89077085.84547
     -2045.836  
  21516107.731   113067931.83549     -2890.695    21516107.343    88104882.77846
     -2252.492  
  20415758.114   107285554.53649      -453.374    20415759.929    83599149.90648
      -353.276  
  19765476.062   105806187.11909     -1425.128    19765479.153    82293737.42208
     -1108.401  
  19825570.381   105867443.21605       399.761    19825575.484    82341366.00006
       310.925  
  23342854.378   124561936.66006     -3544.836    23342861.517    96881544.21905
     -2757.105  
  21666771.711   115496095.30308      4046.762    21666778.778    89830329.97307
      3147.479  
  22194966.908   118561557.07107     -3411.878    22194972.626    92214579.13906
     -2653.688  
  20034863.099   107285806.39609      2087.011    20034866.334    83444541.44308
      1623.229  
  22280895.225   119145957.61004        27.776    22280901.631    92669105.91507
        21.601  
 20 09 28 09 30 40.0000000  0 16G11G12G25G 1G21G32G24G20G10R 3R13R 2
                                R14R12R 4R20
  23894978.607   125568962.75547      -238.128    23894977.940    97845950.07844
      -185.559  
  23116107.558   121475976.42748      2644.273    23116107.613    94656613.91746
      2060.473  
  24206394.340   127205461.13747      3660.266    24206398.685    99121157.87545
      2852.156  
  24402691.942   128237013.12347      2595.327    24402696.009    99924960.82445
      2022.327  
  23041256.405   121082623.61848      -432.616    23041255.830    94350103.88046
      -337.109  
  21300027.211   111932434.00849      2062.308    21300029.219    87220107.39048
      1606.992  
  21756019.148   114328693.31048     -2627.973    21756021.145    89087318.75647
     -2047.773  
  21518859.181   113082390.83549     -2892.996    21518858.796    88116149.51846
     -2254.285  
  20416190.921   107287828.95749      -456.609    20416192.738    83600922.18348
      -355.800  
  19766808.384   105813319.17909     -1427.866    19766811.488    82299284.57608
     -1110.565  
  19825198.180   105865455.68505       395.016    19825203.268    82339820.14306
       307.234  
  23346176.501   124579663.20907     -3546.042    23346183.161    96895331.58706
     -2758.031  
  21662976.789   115475866.10408      4044.434    21662983.818    89814596.16007
      3145.671  
  22198161.568   118578622.37007     -3414.809    22198167.315    92227852.14806
     -2655.964  
  20032915.386   107275376.54509      2084.738    20032918.634    83436429.34108
      1621.464  
  22280871.205   119145829.03704        23.387    22280877.597    92669005.92507
        18.191  
