     2              OBSERVATION DATA    M                   RINEX VERSION / TYPE
LEICA GEO OFFICE 7.0                    31-5-20 14:16       PGM / RUN BY / DATE
                                                            OBSERVER / AGENCY
GGS1353                                                     MARKER NAME
GGS1353                                                     MARKER NUMBER
472680              LEICA GX1230GG      9.02                REC # / TYPE / VERS
                    LEIAX1202GG                             ANT # / TYPE
 -1148910.3398  3863061.3960  4927931.2719                  APPROX POSITION XYZ
        1.4630        0.0000        0.0000                  ANTENNA: DELTA H/E/N
L1PhaOff:   0.0644  L2PhaOff:   0.0640                      COMMENT
     1     1                                                WAVELENGTH FACT L1/2
     6    C1    L1    D1    P2    L2    D2                  # / TYPES OF OBSERV
  2020     5     7     5    10    0.000000                  TIME OF FIRST OBS
  2020     5     7     6    10   35.000000                  TIME OF LAST OBS
    18                                                      LEAP SECONDS
    20                                                      # OF SATELLITES
          C1    L1    D1    P2    L2    D2                  COMMENT
   G 1   728   728   728   728   728   728                  PRN / # OF OBS
   G 2     0     0     0     0     0     0                  PRN / # OF OBS
   G 3     0     0     0     0     0     0                  PRN / # OF OBS
   G 4     0     0     0     0     0     0                  PRN / # OF OBS
   G 5     0     0     0     0     0     0                  PRN / # OF OBS
   G 6     0     0     0     0     0     0                  PRN / # OF OBS
   G 7   728   728   728   728   728   728                  PRN / # OF OBS
   G 8   728   728   728   728   728   728                  PRN / # OF OBS
   G 9     0     0     0     0     0     0                  PRN / # OF OBS
   G10     0     0     0     0     0     0                  PRN / # OF OBS
   G11   728   728   728   728   728   728                  PRN / # OF OBS
   G12     0     0     0     0     0     0                  PRN / # OF OBS
   G13   728   728   728   728   728   728                  PRN / # OF OBS
   G14     0     0     0     0     0     0                  PRN / # OF OBS
   G15     0     0     0     0     0     0                  PRN / # OF OBS
   G16     0     0     0     0     0     0                  PRN / # OF OBS
   G17   678   678   678   678   678   678                  PRN / # OF OBS
   G18     0     0     0     0     0     0                  PRN / # OF OBS
   G19     0     0     0     0     0     0                  PRN / # OF OBS
   G20     0     0     0     0     0     0                  PRN / # OF OBS
   G21     0     0     0     0     0     0                  PRN / # OF OBS
   G22   147   147   147   146   146   146                  PRN / # OF OBS
   G23     0     0     0     0     0     0                  PRN / # OF OBS
   G24     0     0     0     0     0     0                  PRN / # OF OBS
   G25     0     0     0     0     0     0                  PRN / # OF OBS
   G26     0     0     0     0     0     0                  PRN / # OF OBS
   G27   218   218   218   203   203   203                  PRN / # OF OBS
   G28   728   728   728   728   728   728                  PRN / # OF OBS
   G29     0     0     0     0     0     0                  PRN / # OF OBS
   G30   728   728   728   728   728   728                  PRN / # OF OBS
   G31     0     0     0     0     0     0                  PRN / # OF OBS
   G32     0     0     0     0     0     0                  PRN / # OF OBS
   R 1     0     0     0     0     0     0                  PRN / # OF OBS
   R 2   515   515   515   515   515   515                  PRN / # OF OBS
   R 3    41    41    41    40    40    40                  PRN / # OF OBS
   R 4     0     0     0     0     0     0                  PRN / # OF OBS
   R 5     0     0     0     0     0     0                  PRN / # OF OBS
   R 6     0     0     0     0     0     0                  PRN / # OF OBS
   R 7     0     0     0     0     0     0                  PRN / # OF OBS
   R 8     0     0     0     0     0     0                  PRN / # OF OBS
   R 9   728   728   728   728   728   728                  PRN / # OF OBS
   R10   728   728   728     0     0     0                  PRN / # OF OBS
   R11   540   540   540   539   539   539                  PRN / # OF OBS
   R12     0     0     0     0     0     0                  PRN / # OF OBS
   R13     0     0     0     0     0     0                  PRN / # OF OBS
   R14     0     0     0     0     0     0                  PRN / # OF OBS
   R15     0     0     0     0     0     0                  PRN / # OF OBS
   R16    37    37    37    37    37    37                  PRN / # OF OBS
   R17     0     0     0     0     0     0                  PRN / # OF OBS
   R18   147   147   147   147   147   147                  PRN / # OF OBS
   R19   728   728   728   728   728   728                  PRN / # OF OBS
   R20   728   728   728   728   728   728                  PRN / # OF OBS
   R21   362   362   362   361   361   361                  PRN / # OF OBS
   R22     0     0     0     0     0     0                  PRN / # OF OBS
   R23     0     0     0     0     0     0                  PRN / # OF OBS
   R24     0     0     0     0     0     0                  PRN / # OF OBS
                                                            END OF HEADER
 20  5  7  5 10  0.0000000  0 14G 1G30G28G27G 7G 8G11G13R10R18R 9R16
                                R20R19
  21994901.600   115583989.47048      3010.602    21994903.900    90065458.22849
      2345.922  
  20903354.340   109847868.38749       362.203    20903356.100    85595747.82549
       282.234  
  22464094.260   118049616.23349      2381.566    22464092.800    91986708.38946
      1855.766  
  24070248.360   126490007.50346     -3548.039    24070250.480    98563651.26645
     -2764.711  
  21077640.180   110763744.14449     -1766.324    21077639.940    86309407.95849
     -1376.359  
  21419315.160   112559262.61549     -2363.141    21419317.380    87708524.61848
     -1841.414  
  20516242.380   107813582.38248       418.672    20516241.000    84010576.62147
       326.238  
  23638713.180   124222269.61047       198.129    23638713.160    96796575.30545
       154.383  
  19877072.480   105955981.94508      2173.645           0.000           0.00000
         0.000  
  23060252.560   123097193.81706     -4183.277    23060258.600    95742286.46307
     -3253.668  
  19211505.880   102588373.67708      -885.105    19211509.960    79790969.42508
      -688.418  
  23414769.620   125077482.38705     -4046.828    23414775.000    97282515.02504
     -3147.535  
  20463579.640   109427967.05505      3046.039    20463585.420    85110657.09908
      2369.137  
  19673980.140   105242525.91506     -1652.945    19673982.920    81855306.04507
     -1285.625  
 20  5  7  5 10  5.0000000  0 14G 1G30G28G27G 7G 8G11G13R10R18R 9R16
                                R20R19
  21992037.880   115568940.57048      3009.102    21992040.180    90053731.82049
      2344.754  
  20903011.040   109846064.20849       359.621    20903012.780    85594341.97049
       280.219  
  22461828.460   118037709.30849      2381.473    22461827.000    91977430.26246
      1855.691  
  24073624.000   126507746.64847     -3547.648    24073626.080    98577473.97046
     -2764.406  
  21079321.800   110772581.11149     -1768.496    21079321.580    86316293.90349
     -1378.055  
  21421564.180   112571081.23549     -2364.141    21421566.380    87717733.92348
     -1842.191  
  20515845.360   107811496.17548       415.996    20515844.000    84008951.01347
       324.152  
  23638526.160   124221286.81447       195.195    23638526.200    96795809.48945
       152.102  
  19875034.660   105945119.14808      2171.586           0.000           0.00000
         0.000  
  23064171.120   123118111.61007     -4183.629    23064177.220    95758555.85006
     -3253.938  
  19212336.100   102592806.80208      -888.004    19212340.160    79794417.41408
      -690.691  
  23418557.920   125097718.64805     -4047.109    23418563.300    97298254.31804
     -3147.754  
  20460732.740   109412743.31805      3043.477    20460738.500    85098816.41908
      2367.148  
  19675526.300   105250796.96506     -1655.875    19675529.120    81861739.07507
     -1287.906  
 20  5  7  5 10 10.0000000  0 14G 1G30G28G27G 7G 8G11G13R10R18R 9R16
                                R20R19
  21989176.380   115553903.32048      3005.707    21989178.660    90042014.48149
      2342.109  
  20902670.780   109844276.08749       355.477    20902672.520    85592948.62649
       276.992  
  22459563.360   118025806.18349      2379.871    22459561.980    91968155.10546
      1854.445  
  24076999.920   126525487.49547     -3548.840    24077001.960    98591297.98046
     -2765.336  
  21081006.140   110781432.46449     -1772.160    21081005.920    86323191.05949
     -1380.906  
  21423814.740   112582907.94749     -2366.605    21423816.940    87726949.54548
     -1844.113  
  20515451.520   107809426.56848       411.645    20515450.140    84007338.32947
       320.758  
  23638342.260   124220320.41847       191.184    23638342.420    96795056.46045
       148.969  
  19872999.360   105934269.89708      2168.082           0.000           0.00000
         0.000  
  23068090.560   123139033.42507     -4185.012    23068096.580    95774828.37106
     -3255.012  
  19213169.580   102597257.40308      -892.367    19213173.620    79797878.98808
      -694.066  
  23422347.080   125117959.32105     -4048.414    23422352.380    97313997.04904
     -3148.770  
  20457888.740   109397534.94505      3039.516    20457894.460    85086987.69008
      2364.066  
  19677075.940   105259086.59006     -1660.180    19677078.800    81868186.56607
     -1291.254  
 20  5  7  5 10 15.0000000  0 14G 1G30G28G27G 7G 8G11G13R10R18R 9R16
                                R20R19
  21986317.600   115538880.45948      3003.578    21986319.900    90030308.36549
      2340.449  
  20902334.120   109842506.77749       352.605    20902335.840    85591569.94049
       274.754  
  22457299.540   118013909.64749      2379.145    22457298.220    91958885.08146
      1853.879  
  24080376.740   126543232.69147     -3548.926    24080378.700    98605125.39545
     -2765.402  
  21082693.760   110790300.99949     -1774.883    21082693.560    86330101.60349
     -1383.031  
  21426067.360   112594745.46649     -2367.988    21426069.560    87736173.58048
     -1845.191  
  20515061.360   107807376.31448       408.625    20515060.040    84005740.72846
       318.406  
  23638162.000   124219373.17447       188.000    23638162.160    96794318.36045
       146.496  
  19870967.160   105923437.11908      2165.402           0.000           0.00000
         0.000  
  23072011.240   123159962.21206     -4185.961    23072017.260    95791106.30706
     -3255.746  
  19214006.900   102601728.42008      -895.848    19214010.920    79801356.44208
      -696.773  
  23426137.600   125138207.24305     -4050.145    23426142.840    97329745.41904
     -3150.117  
  20455048.160   109382344.92905      3036.684    20455053.840    85075173.23408
      2361.863  
  19678629.560   105267397.55706     -1663.793    19678632.440    81874650.64907
     -1294.066  
 20  5  7  5 10 20.0000000  0 14G 1G30G28G27G 7G 8G11G13R10R18R 9R16
                                R20R19
  21983460.740   115523867.48748      3001.297    21983463.020    90018609.95049
      2338.672  
  20902000.180   109840751.78449       349.277    20902001.880    85590202.41449
       272.160  
  22455036.100   118002015.13449      2378.395    22455034.800    91949616.63646
      1853.289  
  24083753.500   126560977.77947     -3549.418    24083755.440    98618952.75146
     -2765.781  
  21084383.780   110799182.10949     -1777.852    21084383.580    86337021.93649
     -1385.344  
  21428321.200   112606589.37049     -2369.723    21428323.380    87745402.59848
     -1846.543  
  20514674.040   107805340.92348       405.195    20514672.720    84004154.71147
       315.734  
  23637984.500   124218440.57947       184.844    23637984.720    96793591.68145
       144.035  
  19868937.160   105912616.03408      2162.742           0.000           0.00000
         0.000  
  23075932.320   123180893.16806     -4186.570    23075938.380    95807385.94506
     -3256.227  
  19214847.160   102606215.15108      -899.246    19214851.140    79804846.11908
      -699.414  
  23429928.620   125158457.72405     -4050.934    23429933.820    97345495.77204
     -3150.730  
  20452210.120   109367168.47704      3033.035    20452215.760    85063369.34108
      2359.027  
  19680186.380   105275725.35806     -1667.891    19680189.260    81881127.83007
     -1297.250  
 20  5  7  5 10 25.0000000  0 14G 1G30G28G27G 7G 8G11G13R10R18R 9R16
                                R20R19
  21980606.180   115508866.73448      2999.016    21980608.460    90006921.05949
      2336.895  
  20901669.380   109839013.36449       346.105    20901671.080    85588847.79649
       269.688  
  22452773.480   117990124.94149      2377.613    22452772.180    91940351.55146
      1852.688  
  24087130.700   126578725.00647     -3549.785    24087132.620    98632781.74546
     -2766.070  
  21086076.640   110808078.13049     -1780.691    21086076.460    86343953.90349
     -1387.555  
  21430576.660   112618441.82949     -2371.500    21430578.860    87754638.27448
     -1847.926  
  20514289.980   107803322.63548       402.160    20514288.680    84002582.01747
       313.367  
  23637810.240   124217524.98647       181.313    23637810.620    96792878.23046
       141.281  
  19866909.780   105901809.08908      2159.922           0.000           0.00000
         0.000  
  23079854.200   123201828.55806     -4187.516    23079860.300    95823669.01706
     -3256.961  
  19215690.800   102610719.96508      -902.781    19215694.740    79808349.86008
      -702.168  
  23433720.500   125178713.06605     -4051.520    23433725.720    97361249.92104
     -3151.188  
  20449375.060   109352008.11105      3030.152    20449380.700    85051577.94708
      2356.785  
  19681746.780   105284072.31406     -1670.840    19681749.660    81887619.90707
     -1299.543  
 20  5  7  5 10 30.0000000  0 14G 1G30G28G27G 7G 8G11G13R10R18R 9R16
                                R20R19
  21977754.100   115493879.03948      2996.414    21977756.380    89995242.34249
      2334.867  
  20901341.920   109837292.40549       342.520    20901343.600    85587506.79549
       266.895  
  22450511.820   117978239.93249      2376.684    22450510.520    91931090.50346
      1851.957  
  24090508.460   126596475.20747     -3550.266    24090510.360    98646613.06846
     -2766.445  
  21087772.480   110816989.88449     -1783.793    21087772.300    86350898.12749
     -1389.973  
  21432833.920   112630303.71349     -2373.277    21432836.080    87763881.29948
     -1849.313  
  20513909.320   107801322.33948       398.340    20513908.040    84001023.34547
       310.395  
  23637639.380   124216627.19747       177.586    23637639.880    96792178.64644
       138.375  
  19864885.240   105891016.99108      2156.879           0.000           0.00000
         0.000  
  23083777.160   123222769.39607     -4188.449    23083783.220    95839956.32306
     -3257.688  
  19216537.980   102615243.69908      -906.582    19216541.880    79811868.32108
      -705.121  
  23437513.520   125198974.18305     -4052.609    23437518.600    97377008.54804
     -3152.039  
  20446543.040   109336864.62104      3027.520    20446548.800    85039799.68308
      2354.738  
  19683310.880   105292439.21605     -1674.914    19683313.780    81894127.49707
     -1302.711  
 20  5  7  5 10 35.0000000  0 14G 1G30G28G27G 7G 8G11G13R10R18R 9R16
                                R20R19
  21974904.180   115478902.50848      2994.176    21974906.440    89983572.32049
      2333.125  
  20901017.400   109835586.98649       339.379    20901019.080    85586177.89349
       264.445  
  22448250.800   117966358.19549      2375.902    22448249.420    91921832.01846
      1851.352  
  24093886.420   126614226.50247     -3550.684    24093888.440    98660445.23145
     -2766.770  
  21089470.960   110825915.43849     -1786.559    21089470.780    86357853.09449
     -1392.129  
  21435092.600   112642173.07849     -2374.773    21435094.760    87773130.16148
     -1850.473  
  20513531.760   107799338.09948       394.980    20513530.440    83999477.18147
       307.773  
  23637471.560   124215745.28947       174.688    23637472.140    96791491.44945
       136.121  
  19862863.140   105880237.94608      2154.391           0.000           0.00000
         0.000  
  23087700.760   123243713.64407     -4189.496    23087706.800    95856246.28106
     -3258.500  
  19217388.380   102619784.46708      -910.082    19217392.220    79815400.02808
      -707.844  
  23441307.140   125219239.03105     -4053.691    23441312.220    97392770.08204
     -3152.875  
  20443713.760   109321736.03405      3024.414    20443719.680    85028033.01908
      2352.320  
  19684878.320   105300824.12605     -1678.855    19684881.260    81900649.09407
     -1305.781  
 20  5  7  5 10 40.0000000  0 14G 1G30G28G27G 7G 8G11G13R10R18R 9R16
                                R20R19
  21972056.840   115463939.60748      2991.395    21972059.080    89971912.92449
      2330.957  
  20900696.320   109833899.57049       335.852    20900697.980    85584863.02449
       261.699  
  22445990.860   117954482.19349      2374.684    22445989.480    91912577.99546
      1850.402  
  24097265.060   126631981.29847     -3551.211    24097267.080    98674280.13446
     -2767.180  
  21091172.520   110834857.25249     -1789.855    21091172.360    86364820.73749
     -1394.695  
  21437353.200   112654052.50149     -2376.684    21437355.340    87782386.85248
     -1851.965  
  20513157.660   107797372.34048       391.410    20513156.400    83997945.42947
       304.996  
  23637307.260   124214881.74047       171.102    23637307.880    96790818.55445
       133.320  
  19860843.940   105869474.60108      2151.395           0.000           0.00000
         0.000  
  23091625.420   123264663.79907     -4190.484    23091631.480    95872540.84206
     -3259.270  
  19218242.380   102624344.79008      -913.766    19218246.220    79818946.94008
      -710.676  
  23445101.820   125239510.19205     -4054.816    23445107.020    97408536.52904
     -3153.750  
  20440887.900   109306624.97105      3020.578    20440893.820    85016279.97008
      2349.340  
  19686449.660   105309229.53505     -1682.934    19686452.560    81907186.63007
     -1308.953  
 20  5  7  5 10 45.0000000  0 14G 1G30G28G27G 7G 8G11G13R10R18R 9R16
                                R20R19
  21969211.620   115448987.95948      2989.012    21969213.860    89960262.29449
      2329.102  
  20900378.180   109832227.72349       332.738    20900379.840    85583560.28049
       259.273  
  22443731.560   117942609.51049      2373.906    22443730.120    91903326.55746
      1849.797  
  24100643.940   126649737.19147     -3551.719    24100645.920    98688115.88846
     -2767.578  
  21092876.720   110843812.90749     -1792.684    21092876.560    86371799.16349
     -1396.898  
  21439615.240   112665939.50749     -2378.340    21439617.360    87791649.45448
     -1853.254  
  20512786.660   107795422.69048       388.465    20512785.380    83996426.21647
       302.695  
  23637146.000   124214034.10347       167.898    23637146.680    96790158.08045
       130.828  
  19858827.260   105858724.43208      2148.516           0.000           0.00000
         0.000  
  23095550.780   123285617.34407     -4190.910    23095556.800    95888838.04106
     -3259.602  
  19219099.600   102628922.06208      -917.242    19219103.380    79822507.04208
      -713.414  
  23448897.400   125259785.13404     -4055.379    23448902.540    97424305.91104
     -3154.191  
  20438064.820   109291528.89105      3017.117    20438070.780    85004538.58508
      2346.648  
  19688024.320   105317652.92805     -1686.504    19688027.220    81913738.16207
     -1311.730  
 20  5  7  5 10 50.0000000  0 14G 1G30G28G27G 7G 8G11G13R10R18R 9R16
                                R20R19
  21966368.800   115434048.81048      2987.383    21966371.020    89948621.39549
      2327.828  
  20900063.260   109830572.76549       330.008    20900064.920    85582270.70049
       257.145  
  22441473.160   117930741.43249      2373.793    22441471.660    91894078.71146
      1849.707  
  24104023.240   126667495.45347     -3551.352    24104025.260    98701953.49946
     -2767.285  
  21094583.800   110852783.66549     -1794.980    21094583.640    86378789.36649
     -1398.691  
  21441878.980   112677835.34449     -2379.402    21441881.060    87800918.92548
     -1854.082  
  20512418.960   107793490.44048       385.324    20512417.720    83994920.57047
       300.254  
  23636988.020   124213203.70547       164.930    23636988.700    96789511.02244
       128.516  
  19856813.260   105847988.64608      2146.484           0.000           0.00000
         0.000  
  23099477.000   123306575.57007     -4191.473    23099483.000    95905138.87006
     -3260.039  
  19219960.260   102633517.65808      -920.316    19219964.000    79826081.38808
      -715.805  
  23452693.780   125280065.19205     -4056.715    23452699.080    97440079.26304
     -3155.230  
  20435244.720   109276449.13504      3014.918    20435250.800    84992809.88608
      2344.938  
  19689602.640   105326095.72106     -1689.730    19689605.520    81920304.77707
     -1314.238  
 20  5  7  5 10 55.0000000  0 14G 1G30G28G27G 7G 8G11G13R10R18R 9R16
                                R20R19
  21963527.820   115419119.39348      2984.473    21963530.020    89936988.08549
      2325.563  
  20899751.000   109828931.83049       326.355    20899752.660    85580992.04349
       254.301  
  22439215.060   117918875.10849      2372.547    22439213.560    91884832.22446
      1848.738  
  24107402.460   126685253.24347     -3552.465    24107404.420    98715790.72046
     -2768.160  
  21096293.220   110861766.70749     -1798.324    21096293.060    86385789.13349
     -1401.297  
  21444143.840   112689737.13249     -2381.426    21444145.900    87810193.04348
     -1855.660  
  20512054.040   107791572.74348       381.645    20512052.800    83993426.26547
       297.387  
  23636832.780   124212387.69247       160.973    23636833.440    96788875.15845
       125.430  
  19854801.380   105837264.42308      2143.059           0.000           0.00000
         0.000  
  23103403.520   123327535.69106     -4192.750    23103409.560    95921441.18606
     -3261.031  
  19220823.800   102638128.79408      -924.309    19220827.500    79829667.82908
      -718.910  
  23456490.600   125300347.40105     -4057.059    23456495.940    97455854.32204
     -3155.492  
  20432427.320   109261382.90205      3011.449    20432433.340    84981091.71108
      2342.234  
  19691184.020   105334554.87506     -1693.707    19691186.880    81926884.11807
     -1317.332  
 20  5  7  5 11  0.0000000  0 14G 1G30G28G27G 7G 8G11G13R10R18R 9R16
                                R20R19
  21960689.700   115404204.98048      2981.695    21960691.900    89925366.47649
      2323.398  
  20899442.440   109827310.23749       322.395    20899444.100    85579728.46449
       251.211  
  22436958.320   117907015.89349      2371.254    22436956.820    91875591.29246
      1847.730  
  24110782.560   126703015.79647     -3553.098    24110784.520    98729631.67846
     -2768.648  
  21098005.980   110870767.33249     -1801.879    21098005.820    86392802.60749
     -1404.066  
  21446410.820   112701650.14049     -2383.703    21446412.880    87819475.91348
     -1857.516  
  20511692.900   107789674.92948       377.563    20511691.680    83991947.44747
       294.199  
  23636681.260   124211591.30247       157.520    23636681.920    96788254.60745
       122.742  
  19852792.740   105826557.24708      2139.684           0.000           0.00000
         0.000  
  23107331.440   123348502.98407     -4194.492    23107337.500    95937749.07206
     -3262.387  
  19221691.240   102642760.78708      -928.391    19221694.920    79833270.48408
      -722.086  
  23460288.840   125320637.20305     -4058.703    23460294.240    97471635.24804
     -3156.777  
  20429613.340   109246335.52105      3007.770    20429619.400    84969388.19908
      2339.375  
  19692769.360   105343035.73605     -1698.367    19692772.280    81933480.34407
     -1320.953  
 20  5  7  5 11  5.0000000  0 14G 1G30G28G27G 7G 8G11G13R10R18R 9R16
                                R20R19
  21957853.880   115389302.49048      2979.512    21957856.060    89913754.14749
      2321.699  
  20899136.960   109825704.87649       319.758    20899138.620    85578477.54049
       249.156  
  22434702.320   117895160.64649      2370.809    22434700.840    91866353.43546
      1847.383  
  24114163.020   126720780.08447     -3552.801    24114164.960    98743473.97246
     -2768.422  
  21099721.500   110879782.39249     -1804.270    21099721.340    86399827.32149
     -1405.930  
  21448679.380   112713571.30649     -2384.758    21448681.420    87828765.13348
     -1858.254  
  20511334.940   107787793.83948       374.910    20511333.720    83990481.65947
       292.133  
  23636532.900   124210811.49947       154.699    23636533.480    96787646.96845
       120.543  
  19850786.740   105815864.03108      2137.656           0.000           0.00000
         0.000  
  23111260.180   123369474.25406     -4194.398    23111266.160    95954060.05607
     -3262.309  
  19222562.040   102647410.42008      -931.480    19222565.660    79836886.86008
      -724.488  
  23464087.840   125340931.45804     -4059.047    23464093.400    97487419.64404
     -3157.039  
  20426802.380   109231303.78205      3004.926    20426808.400    84957696.85108
      2337.164  
  19694358.280   105351535.30906     -1701.453    19694361.180    81940091.12507
     -1323.355  
 20  5  7  5 11 10.0000000  0 14G 1G30G28G27G 7G 8G11G13R10R18R 9R16
                                R20R19
  21955020.220   115374411.45648      2976.832    21955022.400    89902150.74849
      2319.609  
  20898834.460   109824115.26749       316.137    20898836.140    85577238.87349
       246.336  
  22432447.020   117883308.90449      2369.742    22432445.580    91857118.33046
      1846.551  
  24117543.700   126738545.59347     -3553.254    24117545.620    98757317.21045
     -2768.773  
  21101439.660   110888811.41849     -1807.438    21101439.500    86406862.92849
     -1408.398  
  21450949.380   112725500.10849     -2386.754    21450951.380    87838060.29948
     -1859.813  
  20510980.080   107785929.02948       371.125    20510978.860    83989028.56447
       289.184  
  23636387.580   124210047.75447       150.879    23636388.140    96787051.85645
       117.566  
  19848783.220   105805184.13208      2134.469           0.000           0.00000
         0.000  
  23115189.460   123390448.96407     -4195.676    23115195.460    95970373.70607
     -3263.309  
  19223436.020   102652077.33708      -935.195    19223439.600    79840516.69008
      -727.375  
  23467887.700   125361229.54504     -4059.727    23467893.300    97503207.03604
     -3157.574  
  20423994.200   109216287.30205      3001.672    20424000.240    84946017.37708
      2334.633  
  19695950.560   105360053.06106     -1705.223    19695953.500    81946716.04607
     -1326.285  
 20  5  7  5 11 15.0000000  0 14G 1G30G28G27G 7G 8G11G13R10R18R 9R16
                                R20R19
  21952189.000   115359533.32648      2974.465    21952191.180    89890557.40449
      2317.766  
  20898535.260   109822542.85349       312.867    20898536.940    85576013.61949
       243.789  
  22430192.640   117871462.16049      2369.047    22430191.280    91847887.09946
      1846.012  
  24120924.880   126756313.70147     -3553.766    24120926.760    98771162.48645
     -2769.172  
  21103160.760   110897855.87349     -1810.254    21103160.600    86413910.55149
     -1410.590  
  21453221.100   112737438.00149     -2388.348    21453223.100    87847362.55048
     -1861.055  
  20510628.580   107784081.98748       367.930    20510627.360    83987589.30647
       286.695  
  23636245.600   124209301.53147       147.566    23636246.200    96786470.37145
       114.988  
  19846782.480   105794518.92008      2131.688           0.000           0.00000
         0.000  
  23119119.700   123411428.62507     -4196.430    23119125.700    95986691.20407
     -3263.895  
  19224313.480   102656762.83908      -938.883    19224317.060    79844160.96108
      -730.246  
  23471688.500   125381533.25205     -4061.148    23471694.240    97518998.78804
     -3158.680  
  20421189.140   109201287.61305      2998.910    20421195.240    84934350.95608
      2332.484  
  19697546.500   105368590.36606     -1709.387    19697549.460    81953356.17107
     -1329.527  
 20  5  7  5 11 20.0000000  0 14G 1G30G28G27G 7G 8G11G13R10R18R 9R16
                                R20R19
  21949360.220   115344668.02948      2971.902    21949362.420    89878974.06049
      2315.770  
  20898239.320   109820987.57049       309.547    20898240.980    85574801.70949
       241.203  
  22427939.220   117859620.25349      2368.012    22427937.880    91838659.64346
      1845.203  
  24124306.520   126774084.39447     -3554.367    24124308.420    98785009.78445
     -2769.637  
  21104884.780   110906915.64949     -1813.402    21104884.620    86420970.11049
     -1413.043  
  21455494.540   112749384.87749     -2390.188    21455496.540    87856671.80048
     -1862.488  
  20510280.440   107782252.49948       364.266    20510279.220    83986163.73747
       283.844  
  23636107.000   124208572.74148       144.141    23636107.420    96785902.47945
       112.313  
  19844784.480   105783868.59708      2128.734           0.000           0.00000
         0.000  
  23123050.900   123432413.19407     -4197.012    23123056.860    96003012.53207
     -3264.348  
  19225194.440   102661466.91308      -942.516    19225197.980    79847819.68108
      -733.016  
  23475490.260   125401842.05204     -4062.246    23475496.140    97534794.50304
     -3159.531  
  20418387.220   109186304.55705      2995.270    20418393.320    84922697.47408
      2329.652  
  19699146.120   105377147.09405     -1713.230    19699149.060    81960011.40207
     -1332.516  
 20  5  7  5 11 25.0000000  0 14G 1G30G28G27G 7G 8G11G13R10R18R 9R16
                                R20R19
  21946533.420   115329813.10348      2969.629    21946535.620    89867398.79649
      2313.996  
  20897946.160   109819446.89849       306.480    20897947.820    85573601.18749
       238.816  
  22425686.220   117847780.69549      2367.527    22425684.880    91829434.02146
      1844.828  
  24127688.220   126791855.07747     -3554.168    24127690.080    98798857.04145
     -2769.484  
  21106611.240   110915988.20549     -1815.926    21106611.080    86428039.63049
     -1415.012  
  21457769.200   112761338.17549     -2391.406    21457771.200    87865986.06248
     -1863.438  
  20509935.180   107780438.09848       361.414    20509933.900    83984749.92147
       281.617  
  23635971.220   124207858.87647       141.184    23635971.500    96785346.21945
       110.008  
  19842788.740   105773230.31108      2126.305           0.000           0.00000
         0.000  
  23126982.460   123453399.94207     -4197.656    23126988.400    96019335.55607
     -3264.848  
  19226078.380   102666187.00208      -945.691    19226081.900    79851490.86108
      -735.543  
  23479292.400   125422153.55304     -4062.738    23479298.500    97550592.30504
     -3159.914  
  20415587.860   109171335.58605      2991.984    20415594.040    84911054.94808
      2327.098  
  19700748.880   105385720.71205     -1716.473    19700751.800    81966679.77407
     -1335.039  
 20  5  7  5 11 30.0000000  0 14G 1G30G28G27G 7G 8G11G13R10R18R 9R16
                                R20R19
  21943708.580   115314968.48448      2967.680    21943710.780    89855831.56949
      2312.477  
  20897655.760   109817920.81049       303.551    20897657.400    85572412.02149
       236.527  
  22423433.660   117835943.47049      2366.922    22423432.280    91820210.21046
      1844.352  
  24131069.920   126809625.81047     -3554.547    24131071.780    98812704.37945
     -2769.777  
  21108340.120   110925073.54349     -1818.594    21108339.940    86435119.11149
     -1417.090  
  21460045.080   112773297.96649     -2392.734    21460047.080    87875305.37848
     -1864.473  
  20509592.760   107778638.78248       358.094    20509591.500    83983347.86047
       279.035  
  23635838.320   124207159.91248       137.922    23635838.340    96784801.57344
       107.473  
  19840795.340   105762604.33808      2123.664           0.000           0.00000
         0.000  
  23130914.480   123474389.04907     -4198.289    23130920.400    96035660.40207
     -3265.340  
  19226965.320   102670923.07008      -949.043    19226968.800    79855174.46808
      -738.168  
  23483095.160   125442467.71605     -4063.043    23483101.320    97566392.18504
     -3160.148  
  20412791.240   109156380.66305      2989.461    20412797.400    84899423.34308
      2325.133  
  19702354.740   105394311.28005     -1720.414    19702357.720    81973361.32507
     -1338.105  
 20  5  7  5 11 35.0000000  0 14G 1G30G28G27G 7G 8G11G13R10R18R 9R16
                                R20R19
  21940886.300   115300137.40848      2965.016    21940888.520    89844274.89349
      2310.402  
  20897368.740   109816412.49449       300.055    20897370.380    85571236.70649
       233.805  
  22421182.160   117824111.74249      2366.008    22421180.720    91810990.68146
      1843.641  
  24134452.220   126827399.65947     -3554.941    24134454.100    98826554.12545
     -2770.086  
  21110072.040   110934174.80249     -1821.727    21110071.840    86442210.99949
     -1419.531  
  21462322.800   112785267.30849     -2394.641    21462324.760    87884632.14648
     -1865.953  
  20509253.840   107776857.71448       354.367    20509252.580    83981960.01147
       276.125  
  23635708.860   124206479.03848       134.617    23635708.680    96784271.01844
       104.895  
  19838804.860   105751993.99908      2120.797           0.000           0.00000
         0.000  
  23134847.460   123495383.46707     -4199.164    23134853.380    96051989.40807
     -3266.016  
  19227855.880   102675678.48308      -952.906    19227859.340    79858873.11808
      -741.152  
  23486899.140   125462787.84604     -4064.020    23486905.280    97582196.74304
     -3160.902  
  20409997.780   109141443.12805      2985.742    20410004.000    84887805.26808
      2322.242  
  19703964.400   105402921.87005     -1724.031    19703967.360    81980058.45007
     -1340.918  
 20  5  7  5 11 40.0000000  0 14G 1G30G28G27G 7G 8G11G13R10R18R 9R16
                                R20R19
  21938066.500   115285319.15448      2962.613    21938068.700    89832728.19949
      2308.531  
  20897084.980   109814921.24649       296.859    20897086.620    85570074.70349
       231.316  
  22418931.580   117812284.85149      2365.004    22418930.060    91801774.92246
      1842.855  
  24137834.960   126845175.99348     -3555.320    24137836.780    98840405.80745
     -2770.383  
  21111806.860   110943291.27749     -1824.543    21111806.660    86449314.73849
     -1421.727  
  21464602.180   112797245.47549     -2396.316    21464604.140    87893965.76648
     -1867.262  
  20508918.280   107775094.24548       351.051    20508916.980    83980585.87747
       273.543  
  23635582.680   124205815.54048       131.063    23635582.300    96783753.99844
       102.121  
  19836817.120   105741398.34908      2117.969           0.000           0.00000
         0.000  
  23138781.320   123516382.60707     -4200.082    23138787.240    96068322.05806
     -3266.734  
  19228749.880   102680452.38008      -956.414    19228753.320    79862586.14708
      -743.883  
  23490704.280   125483113.15304     -4065.293    23490710.200    97598005.30104
     -3161.898  
  20407207.400   109126522.20905      2982.473    20407213.720    84876200.10908
      2319.695  
  19705577.660   105411551.88406     -1727.574    19705580.660    81986770.68307
     -1343.672  
 20  5  7  5 11 45.0000000  0 14G 1G30G28G27G 7G 8G11G13R10R18R 9R16
                                R20R19
  21935249.020   115270513.19448      2959.809    21935251.240    89821191.10049
      2306.344  
  20896804.360   109813446.51849       293.137    20896805.980    85568925.55249
       228.414  
  22416681.780   117800462.17249      2364.082    22416680.240    91792562.44345
      1842.137  
  24141218.040   126862954.19947     -3555.891    24141219.820    98854258.94546
     -2770.828  
  21113544.440   110952422.39549     -1827.766    21113544.240    86456429.89149
     -1424.238  
  21466883.160   112809232.03049     -2398.152    21466885.080    87903305.94348
     -1868.695  
  20508585.920   107773347.72348       347.598    20508584.640    83979224.94747
       270.852  
  23635459.720   124205168.81648       127.605    23635459.120    96783250.06044
        99.430  
  19834832.000   105730816.73208      2114.801           0.000           0.00000
         0.000  
  23142715.940   123537385.90507     -4201.070    23142721.900    96084657.96106
     -3267.500  
  19229647.240   102685244.13108      -960.090    19229650.640    79866313.06208
      -746.742  
  23494509.980   125503443.11704     -4066.160    23494516.020    97613817.48304
     -3162.574  
  20404419.980   109111617.31705      2979.363    20404426.460    84864607.42508
      2317.281  
  19707194.520   105420200.59605     -1731.750    19707197.460    81993497.45107
     -1346.922  
 20  5  7  5 11 50.0000000  0 14G 1G30G28G27G 7G 8G11G13R10R18R 9R16
                                R20R19
  21932433.660   115255718.29048      2958.016    21932435.880    89809662.60149
      2304.941  
  20896526.640   109811987.05549       290.387    20896528.240    85567788.31049
       226.270  
  22414432.560   117788642.53549      2363.809    22414431.020    91783352.34746
      1841.930  
  24144601.260   126880733.05347     -3555.746    24144603.000    98868112.59445
     -2770.715  
  21115284.600   110961566.95349     -1830.059    21115284.380    86463555.51649
     -1426.023  
  21469165.480   112821225.72949     -2399.215    21469167.420    87912651.67648
     -1869.523  
  20508256.540   107771616.97748       344.496    20508255.280    83977876.31247
       268.434  
  23635339.700   124204537.68948       124.691    23635338.960    96782758.26244
        97.160  
  19832849.340   105720248.23008      2112.434           0.000           0.00000
         0.000  
  23146651.140   123558392.13407     -4201.391    23146657.100    96100996.13006
     -3267.754  
  19230547.720   102690052.63808      -963.250    19230551.120    79870053.01208
      -749.199  
  23498316.400   125523776.33504     -4067.641    23498322.440    97629632.21004
     -3163.723  
  20401635.480   109096727.17605      2976.824    20401641.920    84853026.21508
      2315.309  
  19708814.620   105428866.82205     -1735.297    19708817.540    82000237.85907
     -1349.676  
 20  5  7  5 11 55.0000000  0 14G 1G30G28G27G 7G 8G11G13R10R18R 9R16
                                R20R19
  21929620.720   115240936.07348      2954.926    21929622.920    89798143.99649
      2302.539  
  20896252.160   109810544.49049       286.590    20896253.740    85566664.23449
       223.313  
  22412184.220   117776827.53749      2362.211    22412182.720    91774145.87946
      1840.684  
  24147984.900   126898514.12847     -3556.758    24147986.660    98881967.97545
     -2771.504  
  21117027.600   110970726.51449     -1833.742    21117027.380    86470692.83449
     -1428.895  
  21471449.480   112833228.09849     -2401.684    21471451.400    87922004.16648
     -1871.445  
  20507930.480   107769903.57848       340.523    20507929.200    83976541.20447
       265.344  
  23635222.960   124203923.72448       120.855    23635222.020    96782279.84044
        94.168  
  19830869.420   105709694.34808      2109.090           0.000           0.00000
         0.000  
  23150587.080   123579402.78007     -4202.508    23150593.100    96117337.72106
     -3268.621  
  19231451.640   102694879.45708      -967.512    19231455.000    79873807.20008
      -752.512  
  23502123.660   125544114.46504     -4068.172    23502129.780    97645450.74004
     -3164.137  
  20398854.120   109081853.58205      2972.566    20398860.480    84841457.86408
      2311.992  
  19710438.300   105437552.25706     -1739.164    19710441.200    82006993.19607
     -1352.688  
 20  5  7  5 12  0.0000000  0 14G 1G30G28G27G 7G 8G11G13R10R18R 9R16
                                R20R19
  21926810.540   115226168.60948      2951.863    21926812.760    89786636.88849
      2300.152  
  20895981.280   109809120.85449       282.793    20895982.840    85565554.90049
       220.355  
  22409937.160   117765019.23349      2360.906    22409935.700    91764944.60846
      1839.668  
  24151369.360   126916299.51147     -3557.738    24151371.000    98895826.70745
     -2772.266  
  21118773.860   110979903.13349     -1837.238    21118773.640    86477843.44449
     -1431.617  
  21473735.480   112845241.07549     -2403.793    21473737.420    87931364.93148
     -1873.090  
  20507608.120   107768209.59948       336.645    20507606.840    83975221.22047
       262.316  
  23635109.860   124203329.01548       117.059    23635108.740    96781816.44045
        91.211  
  19828892.660   105699157.05108      2105.605           0.000           0.00000
         0.000  
  23154524.360   123600420.08706     -4204.180    23154530.340    96133684.51806
     -3269.918  
  19232359.380   102699726.70808      -971.699    19232362.720    79877577.28108
      -755.770  
  23505932.360   125564459.54704     -4069.773    23505938.460    97661274.68104
     -3165.383  
  20396076.120   109066998.48205      2969.223    20396082.500    84829903.90208
      2309.395  
  19712065.860   105446258.86005     -1743.258    19712068.820    82013764.99407
     -1355.871  
 20  5  7  5 12  5.0000000  0 14G 1G30G28G27G 7G 8G11G13R10R18R 9R16
                                R20R19
  21924002.760   115211413.54648      2950.188    21924004.980    89775139.43649
      2298.844  
  20895713.540   109807713.80249       280.164    20895715.100    85564458.49949
       218.305  
  22407690.940   117753215.24149      2360.805    22407689.480    91755746.68846
      1839.590  
  24154754.140   126934086.74547     -3556.961    24154755.840    98909686.88945
     -2771.660  
  21120522.900   110989094.42749     -1839.344    21120522.680    86485005.48749
     -1433.258  
  21476023.080   112857262.43949     -2404.801    21476025.000    87940732.22548
     -1873.875  
  20507289.000   107766532.70748       334.035    20507287.740    83973914.55147
       260.289  
  23634999.980   124202751.17448       114.430    23634998.620    96781366.14444
        89.156  
  19826918.560   105688634.17608      2103.535           0.000           0.00000
         0.000  
  23158462.340   123621441.43906     -4204.230    23158468.380    96150034.45206
     -3269.965  
  19233270.480   102704591.98209      -974.484    19233273.820    79881361.38108
      -757.938  
  23509741.920   125584809.38304     -4069.379    23509748.020    97677102.29804
     -3165.082  
  20393301.240   109052159.64705      2966.727    20393307.580    84818362.59208
      2307.453  
  19713697.040   105454984.17505     -1746.750    19713699.940    82020551.35207
     -1358.250  
 20  5  7  5 12 10.0000000  0 14G 1G30G28G27G 7G 8G11G13R10R18R 9R16
                                R20R19
  21921196.920   115196668.82848      2947.402    21921199.180    89763650.04849
      2296.676  
  20895448.560   109806321.28949       276.488    20895450.100    85563373.42149
       215.441  
  22405445.160   117741413.53749      2359.617    22405443.720    91746550.56946
      1838.664  
  24158138.960   126951873.90847     -3557.895    24158140.660    98923547.00045
     -2772.391  
  21122274.340   110998298.35149     -1842.605    21122274.120    86492177.37249
     -1435.801  
  21478311.860   112869290.05949     -2406.688    21478313.780    87950104.39148
     -1875.344  
  20506972.740   107764870.81548       330.422    20506971.500    83972619.57047
       257.473  
  23634892.900   124202188.10548       110.707    23634891.380    96780927.38744
        86.262  
  19824946.780   105678123.43708      2100.395           0.000           0.00000
         0.000  
  23162400.760   123642464.88806     -4205.328    23162406.800    96166386.00306
     -3270.816  
  19234184.560   102709473.15308      -978.320    19234187.900    79885157.84508
      -760.918  
  23513551.960   125605161.74604     -4072.328    23513558.060    97692931.89504
     -3167.371  
  20390528.980   109037334.91905      2962.648    20390535.280    84806832.25408
      2304.281  
  19715331.220   105463726.12305     -1750.590    19715334.160    82027350.64707
     -1361.574  
 20  5  7  5 12 15.0000000  0 14G 1G30G28G27G 7G 8G11G13R10R18R 9R16
                                R20R19
  21918393.640   115181937.49848      2945.145    21918395.900    89752171.10149
      2294.918  
  20895186.920   109804946.34349       273.375    20895188.460    85562302.03149
       213.016  
  22403200.400   117729617.13949      2358.848    22403198.900    91737358.56646
      1838.059  
  24161524.300   126969663.88747     -3558.094    24161526.020    98937409.32146
     -2772.543  
  21124028.780   111007517.91449     -1845.309    21124028.540    86499361.44149
     -1437.906  
  21480602.420   112881326.99149     -2408.234    21480604.340    87959483.82548
     -1876.547  
  20506659.920   107763226.92948       327.199    20506658.700    83971338.63047
       254.961  
  23634789.160   124201642.82948       107.344    23634787.380    96780502.50544
        83.645  
  19822977.840   105667628.06308      2097.703           0.000           0.00000
         0.000  
  23166340.100   123663493.30206     -4205.883    23166346.140    96182741.44007
     -3271.246  
  19235102.220   102714373.29108      -981.797    19235105.540    79888969.06308
      -763.648  
  23517362.960   125625519.62704     -4072.031    23517369.100    97708765.76704
     -3167.145  
  20387760.000   109022527.26205      2959.902    20387766.160    84795315.19408
      2302.145  
  19716969.080   105472487.77005     -1754.273    19716972.040    82034165.26107
     -1364.438  
 20  5  7  5 12 20.0000000  0 14G 1G30G28G27G 7G 8G11G13R10R18R 9R16
                                R20R19
  21915593.000   115167219.95948      2942.555    21915595.240    89740702.88949
      2292.898  
  20894928.700   109803589.31149       269.973    20894930.240    85561244.60149
       210.363  
  22400956.720   117717826.45049      2357.867    22400955.220    91728171.01546
      1837.301  
  24164910.240   126987457.12247     -3558.781    24164911.980    98951274.18245
     -2773.082  
  21125786.260   111016753.51549     -1848.398    21125786.020    86506558.00749
     -1440.313  
  21482894.840   112893373.63749     -2409.949    21482896.740    87968870.82148
     -1877.887  
  20506350.600   107761601.47148       323.582    20506349.380    83970072.03147
       252.137  
  23634688.920   124201115.78348       103.859    23634686.920    96780091.81544
        80.930  
  19821011.880   105657148.45608      2094.660           0.000           0.00000
         0.000  
  23170280.540   123684527.25906     -4206.777    23170286.540    96199101.17607
     -3271.941  
  19236023.500   102719292.85609      -985.539    19236026.820    79892795.38808
      -766.535  
  23521175.140   125645883.46404     -4073.188    23521181.260    97724604.30204
     -3168.039  
  20384994.120   109007737.32605      2956.117    20385000.360    84783811.91308
      2299.199  
  19718610.740   105481269.59205     -1757.570    19718613.700    82040995.56307
     -1367.004  
 20  5  7  5 12 25.0000000  0 14G 1G30G28G27G 7G 8G11G13R10R18R 9R16
                                R20R19
  21912794.460   115152513.52748      2940.082    21912796.700    89729243.33649
      2290.969  
  20894673.380   109802247.50649       266.848    20894674.920    85560199.03949
       207.930  
  22398713.600   117706038.75649      2357.156    22398712.080    91718985.79946
      1836.746  
  24168296.280   127005250.86647     -3559.168    24168298.000    98965139.42945
     -2773.383  
  21127546.260   111026002.41449     -1851.180    21127546.040    86513764.94149
     -1442.480  
  21485188.600   112905427.26449     -2411.457    21485190.500    87978263.25448
     -1879.063  
  20506044.240   107759991.71948       320.418    20506043.060    83968817.67947
       249.676  
  23634591.580   124200604.23747       100.832    23634589.400    96779693.20445
        78.566  
  19819048.340   105646681.71508      2091.930           0.000           0.00000
         0.000  
  23174221.400   123705563.85906     -4207.902    23174227.420    96215462.96807
     -3272.816  
  19236947.920   102724229.12208      -988.984    19236951.220    79896634.69708
      -769.215  
  23524987.940   125666250.52504     -4073.633    23524993.980    97740445.34804
     -3168.387  
  20382231.120   108992962.01105      2953.691    20382237.280    84772320.00508
      2297.316  
  19720255.660   105490068.73005     -1761.699    19720258.600    82047839.34407
     -1370.211  
 20  5  7  5 12 30.0000000  0 14G 1G30G28G27G 7G 8G11G13R10R18R 9R16
                                R20R19
  21909998.080   115137818.46948      2937.559    21910000.320    89717792.65049
      2289.008  
  20894421.000   109800921.24849       263.426    20894422.560    85559165.59149
       205.262  
  22396471.100   117694254.31849      2356.422    22396469.580    91709803.12446
      1836.172  
  24171682.480   127023045.41547     -3559.203    24171684.180    98979005.30746
     -2773.410  
  21129308.840   111035264.85049     -1853.988    21129308.600    86520982.42049
     -1444.672  
  21487483.720   112917488.12349     -2413.129    21487485.600    87987661.32148
     -1880.363  
  20505740.960   107758398.03348       316.965    20505739.820    83967575.85247
       246.980  
  23634497.240   124200108.50047        97.102    23634494.920    96779306.90844
        75.660  
  19817087.320   105636228.34608      2089.195           0.000           0.00000
         0.000  
  23178162.840   123726603.40307     -4208.230    23178168.840    96231827.04507
     -3273.070  
  19237875.460   102729182.22808      -992.516    19237878.780    79900487.11508
      -771.961  
  23528801.460   125686621.01204     -4074.469    23528807.360    97756289.04404
     -3169.035  
  20379470.840   108978201.97005      2950.203    20379477.060    84760839.98608
      2294.602  
  19721904.000   105498885.59805     -1765.152    19721906.820    82054696.90407
     -1372.898  
 20  5  7  5 12 35.0000000  0 14G 1G30G28G27G 7G 8G11G13R10R18R 9R16
                                R20R19
  21907204.220   115123136.67348      2934.895    21907206.480    89706352.29349
      2286.930  
  20894171.940   109799612.33249       259.992    20894173.480    85558145.65049
       202.586  
  22394229.560   117682474.97249      2355.277    22394228.060    91700624.41546
      1835.277  
  24175069.160   127040842.55747     -3559.813    24175070.860    98992873.19746
     -2773.883  
  21131074.360   111044542.71849     -1857.254    21131074.120    86528211.92149
     -1447.215  
  21489780.560   112929558.06749     -2415.051    21489782.440    87997066.46848
     -1881.859  
  20505441.080   107756822.22648       313.246    20505439.960    83966347.95947
       244.086  
  23634406.240   124199630.33948        93.543    23634403.840    96778934.29444
        72.887  
  19815129.100   105625790.13108      2085.977           0.000           0.00000
         0.000  
  23182105.180   123747647.80406     -4209.430    23182111.180    96248194.90007
     -3274.004  
  19238806.540   102734154.09208      -996.406    19238809.860    79904354.11608
      -774.988  
  23532615.880   125706996.85204     -4077.055    23532621.820    97772136.89704
     -3171.051  
  20376713.840   108963458.90805      2946.809    20376720.040    84749373.15908
      2291.961  
  19723555.840   105507721.82605     -1769.254    19723558.640    82061569.52707
     -1376.086  
 20  5  7  5 12 40.0000000  0 14G 1G30G28G27G 7G 8G11G13R10R18R 9R16
                                R20R19
  21904412.580   115108466.59748      2932.934    21904414.860    89694921.07249
      2285.402  
  20893925.880   109798319.29449       256.938    20893927.420    85557138.09049
       200.207  
  22391988.700   117670699.23449      2354.762    22391987.220    91691448.51346
      1834.875  
  24178456.120   127058640.82347     -3559.691    24178457.840    99006741.97445
     -2773.789  
  21132842.520   111053834.45449     -1859.707    21132842.280    86535452.23949
     -1449.125  
  21492078.820   112941635.43649     -2416.270    21492080.700    88006477.41248
     -1882.809  
  20505144.300   107755262.75248       310.129    20505143.180    83965132.78247
       241.656  
  23634318.340   124199168.29348        90.762    23634315.840    96778574.26644
        70.723  
  19813173.460   105615365.50108      2083.586           0.000           0.00000
         0.000  
  23186048.160   123768695.44006     -4209.371    23186054.140    96264565.27307
     -3273.961  
  19239740.860   102739143.25008      -999.523    19239744.160    79908234.57208
      -777.438  
  23536431.000   125727376.52304     -4076.934    23536436.920    97787987.74704
     -3170.953  
  20373959.680   108948731.30205      2944.496    20373965.880    84737918.35908
      2290.164  
  19725211.060   105516575.95205     -1772.621    19725213.820    82068456.07007
     -1378.711  
 20  5  7  5 12 45.0000000  0 14G 1G30G28G27G 7G 8G11G13R10R18R 9R16
                                R20R19
  21901623.660   115093810.67748      2929.848    21901625.920    89683500.87849
      2282.996  
  20893683.280   109797044.45149       253.406    20893684.840    85556144.70049
       197.457  
  22389749.000   117658929.50749      2353.543    22389747.540    91682277.30946
      1833.930  
  24181843.680   127076442.55047     -3560.430    24181845.480    99020613.43345
     -2774.363  
  21134613.760   111063142.43849     -1863.078    21134613.540    86542705.20749
     -1451.754  
  21494378.980   112953722.73049     -2418.258    21494380.820    88015896.07848
     -1884.359  
  20504851.060   107753721.88948       306.598    20504849.960    83963932.11047
       238.902  
  23634233.880   124198724.72947        86.996    23634231.320    96778228.62445
        67.789  
  19811220.840   105604957.03408      2080.328           0.000           0.00000
         0.000  
  23189992.120   123789748.71606     -4210.934    23189998.160    96280940.03907
     -3275.172  
  19240678.840   102744152.06408     -1003.586    19240682.140    79912130.31108
      -780.570  
  23540247.320   125747762.30103     -4077.578    23540253.160    97803843.33404
     -3171.453  
  20371208.880   108934021.58905      2940.371    20371215.100    84726477.47508
      2286.957  
  19726869.980   105525450.36905     -1776.180    19726872.800    82075358.39607
     -1381.473  
 20  5  7  5 12 50.0000000  0 14G 1G30G28G27G 7G 8G11G13R10R18R 9R16
                                R20R19
  21898837.000   115079166.66648      2927.520    21898839.260    89672089.96149
      2281.184  
  20893443.740   109795785.63149       250.129    20893445.300    85555163.79949
       194.902  
  22387510.020   117647163.55149      2352.734    22387508.560    91673109.03846
      1833.301  
  24185231.480   127094245.54947     -3561.000    24185233.240    99034485.89046
     -2774.809  
  21136387.680   111072464.45049     -1865.867    21136387.460    86549969.10749
     -1453.926  
  21496680.600   112965817.68349     -2419.855    21496682.400    88025320.71748
     -1885.605  
  20504560.980   107752197.51148       303.176    20504559.860    83962744.28547
       236.242  
  23634152.520   124198297.40847        83.789    23634150.040    96777895.63644
        65.285  
  19809270.840   105594562.44708      2077.445           0.000           0.00000
         0.000  
  23193936.660   123810805.34406     -4211.852    23193942.780    96297317.40207
     -3275.887  
  19241620.080   102749178.29208     -1007.008    19241623.380    79916039.59908
      -783.203  
  23544064.320   125768152.12404     -4078.500    23544070.240    97819702.07604
     -3172.172  
  20368461.020   108919327.63505      2937.199    20368467.240    84715048.85308
      2284.488  
  19728532.400   105534342.85205     -1780.629    19728535.160    82082274.77407
     -1384.934  
 20  5  7  5 12 55.0000000  0 14G 1G30G28G27G 7G 8G11G13R10R18R 9R16
                                R20R19
  21896052.860   115064535.84948      2925.078    21896055.100    89660689.32649
      2279.281  
  20893207.460   109794544.10049       246.434    20893209.060    85554196.37049
       192.027  
  22385271.980   117635402.59849      2351.758    22385270.560    91663944.66146
      1832.539  
  24188619.740   127112051.02247     -3561.242    24188621.500    99048360.26846
     -2774.996  
  21138164.520   111081801.73149     -1869.000    21138164.260    86557244.90449
     -1456.367  
  21498983.880   112977921.49049     -2421.605    21498985.700    88034752.25148
     -1886.969  
  20504274.260   107750690.82448       299.594    20504273.140    83961570.24347
       233.445  
  23634074.460   124197887.66747        80.137    23634071.880    96777576.34344
        62.441  
  19807323.680   105584182.95108      2074.258           0.000           0.00000
         0.000  
  23197882.200   123831866.67206     -4212.816    23197888.300    96313698.42507
     -3276.641  
  19242564.800   102754223.18308     -1010.824    19242568.120    79919963.39908
      -786.199  
  23547882.280   125788547.01803     -4080.152    23547888.200    97835564.75304
     -3173.457  
  20365716.360   108904650.52805      2933.926    20365722.540    84703633.33608
      2281.941  
  19730198.380   105543254.69805     -1784.180    19730201.120    82089206.20707
     -1387.699  
 20  5  7  5 13  0.0000000  0 14G 1G30G28G27G 7G 8G11G13R10R18R 9R16
                                R20R19
  21893270.920   115049916.83948      2922.598    21893273.200    89649297.89249
      2277.348  
  20892974.220   109793318.41349       243.469    20892975.840    85553241.29049
       189.711  
  22383034.660   117623645.28149      2351.246    22383033.200    91654783.11746
      1832.141  
  24192008.240   127129857.57147     -3561.379    24192009.960    99062235.50546
     -2775.105  
  21139943.980   111091152.85749     -1871.430    21139943.740    86564531.49349
     -1458.262  
  21501288.600   112990032.76849     -2422.844    21501290.420    88044189.61048
     -1887.941  
  20503990.640   107749200.44648       296.387    20503989.520    83960408.91447
       230.945  
  23633999.440   124197493.97847        76.863    23633997.000    96777269.57744
        59.891  
  19805379.040   105573817.09108      2071.977           0.000           0.00000
         0.000  
  23201828.220   123852931.12006     -4213.367    23201834.400    96330081.89107
     -3277.066  
  19243512.740   102759285.31108     -1014.086    19243516.100    79923900.60308
      -788.738  
  23551700.940   125808945.63303     -4080.160    23551706.880    97851430.32404
     -3173.465  
  20362974.680   108889989.10305      2930.754    20362980.780    84692230.00708
      2279.477  
  19731867.740   105552184.38905     -1787.590    19731870.440    82096151.52207
     -1390.352  
 20  5  7  5 13  5.0000000  0 13G 1G30G28G27G 7G 8G11G13R10R18R 9R20
                                R19
  21890491.560   115035311.15948      2919.543    21890493.860    89637916.84849
      2274.969  
  20892744.280   109792110.11249       239.680    20892745.920    85552299.75449
       186.758  
  22380798.300   117611893.09349      2349.703    22380796.860    91645625.56846
      1830.934  
  24195397.180   127147666.71847     -3562.352    24195398.920    99076112.74645
     -2775.863  
  21141726.380   111100519.36449     -1875.031    21141726.120    86571830.06449
     -1461.066  
  21503595.040   113002153.13449     -2425.313    21503596.840    88053634.04748
     -1889.859  
  20503710.400   107747727.87248       292.395    20503709.280    83959261.44947
       227.836  
  23633927.700   124197117.82047        73.125    23633925.340    96776976.48144
        56.984  
  19803437.320   105563466.53808      2068.234           0.000           0.00000
         0.000  
  23205775.220   123874000.39206     -4214.656    23205781.360    96346469.09306
     -3278.070  
  19244464.260   102764366.29208     -1018.379    19244467.580    79927852.48008
      -792.078  
  20360236.060   108875344.62305      2926.941    20360242.180    84680839.85608
      2276.512  
  19733540.640   105561133.51605     -1792.195    19733543.380    82103111.95307
     -1393.934  
 20  5  7  5 13 10.0000000  0 13G 1G30G28G27G 7G 8G11G13R10R18R 9R20
                                R19
  21887714.960   115020720.05148      2916.961    21887717.260    89626547.16049
      2272.957  
  20892517.880   109790920.43049       236.457    20892519.540    85551372.72749
       184.250  
  22378563.140   117600147.28549      2348.867    22378561.660    91636472.99546
      1830.281  
  24198786.880   127165479.65947     -3562.605    24198788.660    99089992.95446
     -2776.059  
  21143511.940   111109902.49049     -1877.965    21143511.660    86579141.59149
     -1463.352  
  21505903.440   113014283.73449     -2426.777    21505905.220    88063086.46348
     -1891.000  
  20503433.800   107746274.36448       288.957    20503432.660    83958128.84147
       225.156  
  23633859.520   124196760.56547        69.816    23633857.380    96776698.09244
        54.398  
  19801498.660   105553132.60208      2065.473           0.000           0.00000
         0.000  
  23209723.340   123895075.51106     -4215.145    23209729.460    96362860.84206
     -3278.449  
  19245419.500   102769467.31408     -1021.871    19245422.840    79931819.93908
      -794.730  
  20357500.960   108860718.55805      2923.832    20357507.040    84669464.03808
      2274.090  
  19735217.460   105570103.27605     -1795.496    19735220.160    82110088.43707
     -1396.496  
 20  5  7  5 13 15.0000000  0 13G 1G30G28G27G 7G 8G11G13R10R18R 9R20
                                R19
  21884940.600   115006140.69448      2914.465    21884942.920    89615186.62849
      2271.012  
  20892294.500   109789746.53149       233.047    20892296.160    85550457.99749
       181.590  
  22376328.640   117588405.02149      2347.977    22376327.120    91627323.18346
      1829.594  
  24202176.720   127183293.57047     -3562.918    24202178.560    99103873.91745
     -2776.305  
  21145300.100   111119299.35249     -1880.852    21145299.820    86586463.81749
     -1465.602  
  21508213.240   113026421.73149     -2428.379    21508215.020    88072544.64048
     -1892.246  
  20503160.300   107744837.05148       285.863    20503159.140    83957008.86347
       222.750  
  23633794.400   124196419.31047        66.703    23633792.440    96776432.17545
        51.973  
  19799562.560   105542812.18208      2062.590           0.000           0.00000
         0.000  
  23213672.140   123916153.77706     -4216.203    23213678.140    96379255.04306
     -3279.273  
  19246377.940   102774585.49008     -1025.398    19246381.300    79935800.74108
      -797.543  
  20354768.700   108846107.96005      2920.445    20354774.780    84658100.24308
      2271.457  
  19736897.560   105579090.73205     -1799.379    19736900.260    82117078.67807
     -1399.520  
 20  5  7  5 13 20.0000000  0 13G 1G30G28G27G 7G 8G11G13R10R18R 9R20
                                R19
  21882168.520   114991573.34448      2912.094    21882170.860    89603835.45049
      2269.164  
  20892074.180   109788588.66049       229.699    20892075.840    85549555.76249
       178.984  
  22374094.860   117576666.51749      2347.199    22374093.300    91618176.29546
      1828.988  
  24205566.800   127201108.64747     -3563.422    24205568.680    99117755.78145
     -2776.695  
  21147090.940   111128710.20149     -1883.766    21147090.640    86593796.94049
     -1467.875  
  21510524.500   113038567.32749     -2430.113    21510526.240    88082008.74548
     -1893.598  
  20502889.920   107743416.19548       282.258    20502888.740    83955901.70246
       219.941  
  23633732.320   124196094.29447        63.051    23633730.700    96776178.91644
        49.125  
  19797629.040   105532505.61708      2059.820           0.000           0.00000
         0.000  
  23217621.380   123937235.19806     -4217.250    23217627.400    96395651.69106
     -3280.086  
  19247339.680   102779721.03709     -1029.102    19247343.020    79939795.04908
      -800.418  
  20352039.400   108831513.10705      2916.969    20352045.460    84646748.69308
      2268.750  
  19738581.060   105588096.03805     -1803.621    19738583.700    82124082.80507
     -1402.820  
 20  5  7  5 13 25.0000000  0 13G 1G30G28G27G 7G 8G11G13R10R18R 9R20
                                R19
  21879398.860   114977018.79048      2909.980    21879401.220    89592494.24249
      2267.516  
  20891857.020   109787447.61149       227.035    20891858.700    85548666.62649
       176.906  
  22371861.980   117564932.62549      2346.625    22371860.400    91609033.00646
      1828.535  
  24208957.300   127218925.72747     -3563.223    24208959.180    99131639.21845
     -2776.543  
  21148884.560   111138135.80349     -1886.188    21148884.280    86601141.56549
     -1469.762  
  21512837.340   113050721.30749     -2431.227    21512839.080    88091479.37748
     -1894.465  
  20502622.840   107742012.64848       279.375    20502621.680    83954808.02647
       217.691  
  23633673.480   124195786.31547        60.359    23633672.180    96775938.94545
        47.031  
  19795698.320   105522213.85608      2057.137           0.000           0.00000
         0.000  
  23221571.420   123958320.80606     -4217.145    23221577.480    96412051.59806
     -3280.004  
  19248304.800   102784874.79409     -1032.184    19248308.140    79943803.52208
      -802.813  
  20349313.240   108816934.74905      2914.785    20349319.220    84635409.97708
      2267.055  
  19740268.120   105597120.17405     -1806.512    19740270.660    82131101.58007
     -1405.070  
 20  5  7  5 13 30.0000000  0 13G 1G30G28G27G 7G 8G11G13R10R18R 9R20
                                R19
  21876631.080   114962473.91648      2907.379    21876633.420    89581160.58249
      2265.488  
  20891642.480   109786320.23549       223.320    20891644.160    85547788.15249
       174.012  
  22369629.360   117553200.15749      2345.734    22369627.800    91599890.82746
      1827.844  
  24212347.560   127236741.60047     -3563.719    24212349.380    99145521.70645
     -2776.926  
  21150680.400   111147573.02749     -1889.297    21150680.120    86608495.24049
     -1472.184  
  21515151.180   113062880.54549     -2433.059    21515152.900    88100954.10348
     -1895.895  
  20502358.420   107740623.17248       275.887    20502357.280    83953725.32147
       214.977  
  23633617.300   124195492.23647        56.949    23633616.300    96775709.77344
        44.371  
  19793769.760   105511933.59708      2054.246           0.000           0.00000
         0.000  
  23225521.720   123979407.32506     -4218.285    23225527.680    96428452.21606
     -3280.891  
  19249272.720   102790043.56109     -1035.797    19249276.080    79947823.67408
      -805.625  
  20346589.480   108802369.74905      2910.375    20346595.480    84624081.65308
      2263.625  
  19741957.980   105606159.82105     -1810.379    19741960.540    82138132.41807
     -1408.074  
 20  5  7  5 13 35.0000000  0 13G 1G30G28G27G 7G 8G11G13R10R18R 9R20
                                R19
  21873866.280   114947944.74448      2904.879    21873868.640    89569839.15149
      2263.543  
  20891431.700   109785212.55549       220.031    20891433.380    85546925.02249
       171.449  
  22367398.160   117541475.15349      2344.727    22367396.620    91590754.46546
      1827.059  
  24215738.720   127254562.32147     -3564.090    24215740.500    99159407.97945
     -2777.211  
  21152479.600   111157027.90349     -1892.223    21152479.340    86615862.67049
     -1474.465  
  21517467.140   113075050.96549     -2434.645    21517468.860    88110437.54448
     -1897.129  
  20502097.860   107739253.80448       272.344    20502096.660    83952658.28247
       212.211  
  23633564.900   124195218.07047        53.301    23633564.340    96775496.17245
        41.531  
  19791844.600   105501671.09408      2050.984           0.000           0.00000
         0.000  
  23229473.200   124000500.73507     -4218.887    23229479.200    96444858.19106
     -3281.359  
  19250244.600   102795233.39109     -1039.516    19250247.960    79951860.20908
      -808.516  
  20343869.440   108787824.18105      2908.137    20343875.380    84612768.43608
      2261.883  
  19743651.880   105615221.15005     -1814.055    19743654.460    82145180.11907
     -1410.934  
 20  5  7  5 13 40.0000000  0 13G 1G30G28G27G 7G 8G11G13R10R18R 9R20
                                R19
  21871103.600   114933426.83149      2902.145    21871106.000    89558526.50049
      2261.410  
  20891223.780   109784120.11449       216.594    20891225.500    85546073.77049
       168.770  
  22365167.580   117529753.16149      2343.707    22365166.020    91581620.45546
      1826.266  
  24219129.960   127272383.39248     -3564.586    24219131.700    99173294.51745
     -2777.602  
  21154281.300   111166495.92449     -1895.152    21154281.040    86623240.34449
     -1476.746  
  21519784.420   113087228.25149     -2436.492    21519786.120    88119926.34048
     -1898.570  
  20501840.260   107737900.12348       268.789    20501839.040    83951603.47347
       209.445  
  23633515.420   124194959.34347        49.625    23633515.140    96775294.57144
        38.668  
  19789921.860   105491421.70608      2048.301           0.000           0.00000
         0.000  
  23233425.160   124021596.59507     -4219.676    23233431.180    96461266.08006
     -3281.973  
  19251219.600   102800439.89608     -1043.402    19251222.980    79955909.71008
      -811.539  
  20341152.120   108773293.70605      2904.242    20341158.120    84601466.95808
      2258.855  
  19745349.080   105624299.59805     -1818.027    19745351.580    82152241.13207
     -1414.023  
 20  5  7  5 13 45.0000000  0 13G 1G30G28G27G 7G 8G11G13R10R18R 9R20
                                R19
  21868343.440   114918922.07949      2899.852    21868345.840    89547224.09649
      2259.625  
  20891019.160   109783044.77649       213.563    20891020.880    85545235.84249
       166.410  
  22362937.900   117518036.07649      2343.086    22362936.340    91572490.25746
      1825.781  
  24222521.680   127290206.72047     -3564.945    24222523.440    99187182.81245
     -2777.883  
  21156085.880   111175979.00949     -1897.984    21156085.620    86630629.75949
     -1478.953  
  21522103.340   113099414.15349     -2437.957    21522105.020    88129421.84648
     -1899.711  
  20501586.020   107736563.98848       265.672    20501584.760    83950562.32747
       207.012  
  23633469.220   124194717.99847        46.500    23633469.360    96775106.49444
        36.227  
  19788001.940   105481187.37008      2045.578           0.000           0.00000
         0.000  
  23237377.980   124042696.74406     -4220.180    23237383.960    96477677.29506
     -3282.367  
  19252198.040   102805664.86808     -1046.629    19252201.440    79959973.57108
      -814.047  
  20338438.060   108758780.00905      2901.137    20338443.980    84590178.53308
      2256.441  
  19747049.820   105633397.08705     -1821.473    19747052.240    82159316.95407
     -1416.703  
 20  5  7  5 13 50.0000000  0 13G 1G30G28G27G 7G 8G11G13R10R18R 9R20
                                R19
  21865585.540   114904429.19348      2897.680    21865587.940    89535930.94249
      2257.934  
  20890817.540   109781985.27549       210.516    20890819.280    85544410.25249
       164.035  
  22360708.900   117506322.59249      2342.484    22360707.320    91563362.87146
      1825.309  
  24225913.540   127308030.95947     -3564.730    24225915.260    99201071.82645
     -2777.715  
  21157893.080   111185475.84349     -1900.617    21157892.800    86638029.88349
     -1481.004  
  21524423.620   113111607.35949     -2439.250    21524425.300    88138923.04448
     -1900.715  
  20501334.860   107735244.11848       262.563    20501333.600    83949533.86347
       204.594  
  23633426.140   124194492.71247        43.449    23633426.740    96774930.95445
        33.855  
  19786084.600   105470966.74108      2042.902           0.000           0.00000
         0.000  
  23241331.400   124063799.93406     -4220.984    23241337.320    96494090.88906
     -3282.988  
  19253179.720   102810907.00909     -1049.891    19253183.100    79964050.79208
      -816.586  
  20335726.800   108744281.93505      2898.371    20335732.760    84578902.25708
      2254.289  
  19748753.740   105642512.15005     -1824.516    19748756.200    82166406.45007
     -1419.066  
 20  5  7  5 13 55.0000000  0 13G 1G30G28G27G 7G 8G11G13R10R18R 9R20
                                R19
  21862830.000   114889948.73348      2895.047    21862832.420    89524647.46849
      2255.879  
  20890619.040   109780942.16149       207.145    20890620.800    85543597.43649
       161.406  
  22358480.660   117494613.23549      2341.730    22358479.060    91554238.69946
      1824.723  
  24229305.700   127325856.64947     -3565.031    24229307.420    99214961.98045
     -2777.949  
  21159702.980   111194986.93249     -1903.445    21159702.700    86645441.11949
     -1483.207  
  21526745.420   113123808.42249     -2440.762    21526747.100    88148430.36348
     -1901.895  
  20501086.860   107733941.00848       259.195    20501085.600    83948518.44747
       201.969  
  23633386.260   124194283.94047        40.340    23633387.100    96774768.28345
        31.434  
  19784169.960   105460760.50708      2039.969           0.000           0.00000
         0.000  
  23245285.420   124084906.54506     -4221.414    23245291.300    96510507.14406
     -3283.320  
  19254164.680   102816166.91508     -1053.621    19254168.100    79968141.82408
      -819.488  
  20333018.560   108729799.96205      2894.711    20333024.540    84567638.50508
      2251.441  
  19750461.120   105651645.45005     -1828.254    19750463.560    82173510.13007
     -1421.734  
 20  5  7  5 14  0.0000000  0 13G 1G30G28G27G 7G 8G11G13R10R18R 9R20
                                R19
  21860076.620   114875479.66048      2892.500    21860079.040    89513372.87449
      2253.895  
  20890423.440   109779914.34449       203.730    20890425.220    85542796.53849
       158.746  
  22356253.040   117482906.99249      2340.750    22356251.380    91545116.95746
      1823.961  
  24232697.920   127343682.81247     -3565.348    24232699.700    99228852.48045
     -2778.195  
  21161515.400   111204511.21149     -1906.457    21161515.120    86652862.63149
     -1485.555  
  21529068.520   113136016.29749     -2442.484    21529070.180    88157942.98948
     -1903.238  
  20500841.880   107732653.66448       255.668    20500840.620    83947515.32347
       199.219  
  23633349.380   124194090.73147        36.891    23633350.400    96774617.73045
        28.746  
  19782257.780   105450567.54108      2037.074           0.000           0.00000
         0.000  
  23249239.900   124106015.59306     -4222.441    23249245.720    96526925.28606
     -3284.121  
  19255152.780   102821443.46308     -1057.059    19255156.220    79972245.80408
      -822.160  
  20330313.160   108715333.09305      2891.633    20330319.180    84556386.49908
      2249.047  
  19752171.640   105660795.77605     -1832.199    19752174.100    82180627.04807
     -1425.047  
 20  5  7  5 14  5.0000000  0 13G 1G30G28G27G 7G 8G11G13R10R18R 9R20
                                R19
  21857326.000   114861024.89249      2889.395    21857328.400    89502109.41849
      2251.477  
  20890231.320   109778904.75249       200.117    20890233.100    85542009.84149
       155.930  
  22354026.580   117471206.71149      2339.523    22354024.880    91535999.86146
      1823.000  
  24236090.740   127361512.22048     -3566.203    24236092.520    99242745.51945
     -2778.863  
  21163330.880   111214051.58349     -1909.656    21163330.600    86660296.68149
     -1488.047  
  21531393.420   113148233.81349     -2444.488    21531395.120    88167463.13448
     -1904.801  
  20500600.440   107731384.94348       251.930    20500599.120    83946526.72047
       196.309  
  23633316.020   124193915.87747        33.262    23633317.320    96774481.48745
        25.914  
  19780348.660   105440390.87008      2033.762           0.000           0.00000
         0.000  
  23253195.340   124127129.99706     -4223.496    23253201.180    96543347.59006
     -3284.945  
  19256144.580   102826739.64109     -1061.145    19256148.000    79976365.05108
      -825.340  
  20327611.240   108700884.28205      2888.203    20327617.180    84545148.54008
      2246.379  
  19753886.020   105669966.09305     -1835.344    19753888.380    82187759.51707
     -1427.488  
 20  5  7  5 14 10.0000000  0 14G 1G30G28G27G17G 7G 8G11G13R10R18R 9
                                R20R19
  21854577.600   114846582.08349      2887.840    21854580.020    89490855.29049
      2250.266  
  20890042.220   109777911.07249       197.453    20890044.020    85541235.54349
       153.855  
  22351800.800   117459510.12149      2339.176    22351799.080    91526885.63546
      1822.730  
  24239483.780   127379342.59748     -3566.063    24239485.520    99256639.31745
     -2778.754  
  24629702.040   129429968.58446      3275.332    24629706.660   100854535.07748
      2552.207  
  21165148.960   111223605.71649     -1911.906    21165148.700    86667741.45449
     -1489.801  
  21533719.760   113160458.75549     -2445.508    21533721.440    88176989.05848
     -1905.594  
  20500362.120   107730132.54548       249.133    20500360.760    83945550.82347
       194.125  
  23633285.760   124193757.13847        30.375    23633287.180    96774357.80144
        23.668  
  19778442.200   105430228.08608      2031.348           0.000           0.00000
         0.000  
  23257151.380   124148247.40206     -4223.645    23257157.180    96559772.22806
     -3285.063  
  19257139.600   102832053.07009     -1064.141    19257143.020    79980497.71608
      -827.668  
  20324912.240   108686451.08805      2885.523    20324918.100    84533922.73008
      2244.297  
  19755603.640   105679154.14605     -1839.066    19755606.000    82194905.78607
     -1430.391  
 20  5  7  5 14 15.0000000  0 14G 1G30G28G27G17G 7G 8G11G13R10R18R 9
                                R20R19
  21851831.200   114832149.62048      2885.301    21851833.640    89479609.21749
      2248.285  
  20889855.840   109776931.59949       194.355    20889857.640    85540472.31749
       151.441  
  22349575.400   117447815.52849      2338.484    22349573.680    91517772.96546
      1822.195  
  24242876.680   127397172.23147     -3566.086    24242878.420    99270532.53946
     -2778.773  
  24626585.560   129413592.41446      3275.320    24626589.160   100841774.46448
      2552.199  
  21166969.360   111233171.92749     -1914.547    21166969.080    86675195.64749
     -1491.859  
  21536047.200   113172689.44349     -2446.883    21536048.860    88186519.46248
     -1906.664  
  20500126.560   107728894.79748       245.910    20500125.240    83944586.34247
       191.613  
  23633258.280   124193612.75947        27.152    23633259.940    96774245.30345
        21.156  
  19776537.920   105420077.33508      2028.699           0.000           0.00000
         0.000  
  23261107.560   124169366.05006     -4223.891    23261113.420    96576197.83706
     -3285.254  
  19258137.520   102837381.99809     -1067.496    19258140.960    79984642.43608
      -830.277  
  20322215.860   108672031.95505      2882.398    20322221.640    84522707.85408
      2241.867  
  19757324.220   105688358.18205     -1842.234    19757326.600    82202064.47907
     -1432.852  
 20  5  7  5 14 20.0000000  0 14G 1G30G28G27G17G 7G 8G11G13R10R18R 9
                                R20R19
  21849087.640   114817732.11549      2882.082    21849090.080    89468374.80349
      2245.777  
  20889673.040   109775971.01049       190.277    20889674.860    85539723.80449
       148.270  
  22347351.260   117436127.57549      2336.930    22347349.540    91508665.46746
      1820.980  
  24246270.280   127415005.79147     -3567.074    24246272.020    99284428.80845
     -2779.543  
  24623470.980   129397222.00146      3273.375    24623474.700   100829018.29048
      2550.680  
  21168792.940   111242754.82349     -1918.211    21168792.640    86682662.83049
     -1494.715  
  21538376.560   113184930.33849     -2449.266    21538378.240    88196057.82248
     -1908.523  
  20499894.700   107727676.33348       241.754    20499893.380    83943636.89247
       188.379  
  23633234.500   124193487.44247        23.016    23633236.280    96774147.67646
        17.934  
  19774636.880   105409943.66108      2025.176           0.000           0.00000
         0.000  
  23265064.920   124190490.63507     -4225.516    23265070.760    96592628.06506
     -3286.516  
  19259139.280   102842731.18609     -1071.844    19259142.660    79988802.91508
      -833.660  
  20319522.840   108657631.48005      2877.797    20319528.680    84511507.49008
      2238.285  
  19759048.600   105697582.83005     -1847.203    19759051.040    82209239.20307
     -1436.719  
 20  5  7  5 14 25.0000000  0 14G 1G30G28G27G17G 7G 8G11G13R10R18R 9
                                R20R19
  21846346.600   114803327.89449      2879.980    21846349.060    89457150.74249
      2244.141  
  20889493.520   109775027.58149       187.348    20889495.320    85538988.66549
       145.980  
  22345128.060   117424444.54449      2336.605    22345126.340    91499561.82346
      1820.730  
  24249664.320   127432841.53147     -3566.914    24249666.060    99298326.76745
     -2779.422  
  24620356.360   129380855.48046      3273.473    24620360.320   100816265.19948
      2550.766  
  21170619.360   111252352.73349     -1920.621    21170619.060    86690141.71749
     -1496.590  
  21540707.540   113197179.75549     -2450.227    21540709.220    88205602.82048
     -1909.266  
  20499666.180   107726475.42948       238.930    20499664.840    83942701.11847
       186.176  
  23633214.020   124193379.47247        20.336    23633215.860    96774063.52945
        15.844  
  19772738.680   105399825.17308      2022.617           0.000           0.00000
         0.000  
  23269023.080   124211619.49507     -4225.531    23269028.920    96609061.60906
     -3286.527  
  19260144.500   102848098.93209     -1074.980    19260147.860    79992977.82508
      -836.102  
  20316833.020   108643248.12205      2875.414    20316838.920    84500320.43808
      2236.434  
  19760776.500   105706826.35505     -1850.164    19760779.020    82216428.61407
     -1439.020  
 20  5  7  5 14 30.0000000  0 14G 1G30G28G27G17G 7G 8G11G13R10R18R 9
                                R20R19
  21843607.560   114788934.15349      2877.148    21843610.040    89445934.84149
      2241.934  
  20889316.720   109774098.46249       183.914    20889318.520    85538264.67049
       143.305  
  22342905.260   117412763.62749      2335.426    22342903.540    91490459.80846
      1819.813  
  24253058.240   127450676.63247     -3567.348    24253059.980    99312224.25145
     -2779.754  
  24617242.340   129364490.16446      3272.789    24617245.240   100803513.00548
      2550.223  
  21172448.100   111261962.80049     -1923.840    21172447.800    86697630.07749
     -1499.102  
  21543039.660   113209434.98949     -2452.270    21543041.300    88215152.35148
     -1910.863  
  20499440.460   107725289.26248       235.211    20499439.120    83941776.83947
       183.281  
  23633196.320   124193285.99347        16.633    23633198.200    96773990.67445
        12.957  
  19770842.760   105389718.94908      2019.465           0.000           0.00000
         0.000  
  23272981.460   124232749.58007     -4226.770    23272987.300    96625496.12006
     -3287.492  
  19261152.600   102853482.26909     -1078.781    19261155.980    79997164.86208
      -839.055  
  20314145.960   108628878.72805      2872.109    20314151.760    84489144.25408
      2233.863  
  19762507.480   105716085.99505     -1853.555    19762510.000    82223630.55407
     -1441.652  
 20  5  7  5 14 35.0000000  0 14G 1G30G28G27G17G 7G 8G11G13R10R18R 9
                                R20R19
  21840871.180   114774554.33449      2874.883    21840873.640    89434729.79449
      2240.168  
  20889143.300   109773187.15549       180.762    20889145.120    85537554.56049
       140.848  
  22340683.500   117401088.22649      2334.805    22340681.820    91481362.09946
      1819.328  
  24256452.660   127468514.56948     -3567.848    24256454.500    99326123.91545
     -2780.148  
  24614128.920   129348129.55746      3271.617    24614132.420   100790764.48748
      2549.313  
  21174279.800   111271588.47549     -1926.359    21174279.500    86705130.60149
     -1501.063  
  21545373.540   113221699.55149     -2453.480    21545375.160    88224709.15148
     -1911.809  
  20499218.200   107724121.31848       232.027    20499216.880    83940866.75647
       180.801  
  23633182.040   124193210.46248        13.734    23633183.880    96773931.82745
        10.699  
  19768949.820   105379628.61508      2016.727           0.000           0.00000
         0.000  
  23276940.740   124253884.49407     -4227.066    23276946.580    96641934.37906
     -3287.723  
  19262164.360   102858884.82408     -1082.090    19262167.700    80001366.84508
      -841.629  
  20311462.120   108614527.00305      2869.266    20311467.920    84477981.80108
      2231.652  
  19764241.900   105725365.02605     -1857.211    19764244.620    82230847.58207
     -1444.496  
 20  5  7  5 14 40.0000000  0 14G 1G30G28G27G17G 7G 8G11G13R10R18R 9
                                R20R19
  21838137.720   114760189.89749      2869.766    21838140.200    89423536.73049
      2236.180  
  20888973.540   109772295.07349       174.813    20888975.360    85536859.43249
       136.215  
  22338463.080   117389419.84549      2331.324    22338461.360    91472269.85846
      1816.613  
  24259847.900   127486356.68947     -3570.375    24259849.760    99340026.86245
     -2782.113  
  24611016.580   129331774.96446      3267.738    24611020.220   100778020.65448
      2546.285  
  21176114.760   111281231.19749     -1931.906    21176114.460    86712644.40649
     -1505.387  
  21547709.420   113233974.70749     -2457.656    21547711.060    88234274.20948
     -1915.063  
  20498999.680   107722972.98548       225.973    20498998.320    83939971.95147
       176.082  
  23633171.480   124193154.29948         7.676    23633173.280    96773888.06245
         5.980  
  19767060.140   105369555.61008      2011.145           0.000           0.00000
         0.000  
  23280901.180   124275025.66907     -4230.773    23280907.060    96658377.51406
     -3290.605  
  19263179.940   102864307.95909     -1088.234    19263183.260    80005584.83908
      -846.410  
  20308781.900   108600194.52605      2862.930    20308787.660    84466834.32508
      2226.723  
  19765980.480   105734665.03205     -1863.871    19765983.140    82238080.91607
     -1449.680  
 20  5  7  5 14 45.0000000  0 14G 1G30G28G27G17G 7G 8G11G13R10R18R 9
                                R20R19
  21835408.120   114745845.74948      2868.949    21835410.600    89412359.47849
      2235.543  
  20888808.380   109771427.13149       173.336    20888810.200    85536183.11549
       135.066  
  22336244.960   117377763.43849      2332.121    22336243.220    91463186.94046
      1817.234  
  24263244.880   127504207.96047     -3569.184    24263246.840    99353936.93545
     -2781.188  
  24607906.480   129315431.24247      3270.090    24607910.080   100765285.31348
      2548.121  
  21177953.900   111290895.83849     -1932.938    21177953.580    86720175.28949
     -1506.188  
  21550048.260   113246265.38649     -2457.645    21550049.880    88243851.36248
     -1915.051  
  20498785.840   107721849.18248       224.461    20498784.480    83939096.26347
       174.902  
  23633165.580   124193122.46448         6.082    23633167.300    96773863.26846
         4.738  
  19765174.700   105359505.03708      2010.043           0.000           0.00000
         0.000  
  23284863.740   124296178.09406     -4229.453    23284869.640    96674829.40006
     -3289.578  
  19264200.300   102869756.65109     -1090.125    19264203.620    80009822.70708
      -847.879  
  20306106.140   108585886.03705      2861.313    20306111.900    84455705.50008
      2225.465  
  19767723.720   105743990.98505     -1865.852    19767726.520    82245334.43907
     -1451.223  
 20  5  7  5 14 50.0000000  0 14G 1G30G28G27G17G 7G 8G11G13R10R18R 9
                                R20R19
  21832678.720   114731502.76348      2867.473    21832681.240    89401183.12849
      2234.391  
  20888644.160   109770564.15149       171.094    20888646.000    85535510.65749
       133.316  
  22334025.460   117366099.80049      2332.438    22334023.700    91454098.39546
      1817.484  
  24266639.940   127522049.16047     -3568.352    24266641.880    99367839.17545
     -2780.535  
  24604794.940   129299079.42447      3270.336    24604798.440   100752543.64247
      2548.316  
  21179793.560   111300563.24549     -1934.785    21179793.240    86727708.33249
     -1507.629  
  21552386.400   113258552.40049     -2458.027    21552388.040    88253425.65048
     -1915.352  
  20498573.020   107720730.78748       222.148    20498571.640    83938224.78847
       173.102  
  23633160.640   124193095.75848         3.723    23633162.300    96773842.45245
         2.898  
  19763289.760   105349457.23208      2008.203           0.000           0.00000
         0.000  
  23288824.740   124317322.25006     -4229.309    23288830.660    96691274.84606
     -3289.465  
  19265221.840   102875211.47909     -1092.594    19265225.120    80014065.34708
      -849.801  
  20303431.300   108571582.34605      2858.988    20303437.000    84444580.41508
      2223.656  
  19769468.200   105753323.31705     -1867.922    19769471.080    82252592.92207
     -1452.832  
 20  5  7  5 14 55.0000000  0 14G 1G30G28G27G17G 7G 8G11G13R10R18R 9
                                R20R19
  21829951.760   114717172.47348      2864.613    21829954.260    89390016.67249
      2232.168  
  20888483.060   109769717.69449       167.371    20888484.940    85534851.08049
       130.418  
  22331806.740   117354440.46949      2331.145    22331805.000    91445013.20946
      1816.473  
  24270035.340   127539891.88247     -3568.973    24270037.220    99381742.61344
     -2781.020  
  24601684.120   129282730.90647      3269.066    24601687.360   100739804.54848
      2547.324  
  21181635.920   111310244.94449     -1937.938    21181635.600    86735252.51249
     -1510.086  
  21554726.020   113270847.23949     -2460.051    21554727.660    88263006.05048
     -1916.926  
  20498363.380   107719629.24048       218.613    20498362.020    83937366.43847
       170.344  
  23633158.920   124193085.73748         0.055    23633160.540    96773834.65345
         0.043  
  19761407.540   105339423.94908      2004.844           0.000           0.00000
         0.000  
  23292786.460   124338469.75907     -4230.168    23292792.320    96707722.91306
     -3290.129  
  19266246.720   102880684.17709     -1096.402    19266249.980    80018321.88308
      -852.762  
  20300759.440   108557294.95005      2855.262    20300765.200    84433468.00408
      2220.758  
  19771216.140   105762673.83405     -1872.266    19771219.040    82259865.54007
     -1456.207  
 20  5  7  5 15  0.0000000  0 15G 1G30G28G27G17G 7G 8G11G13R10R 2R18
                                R 9R20R19
  21827227.360   114702855.73149      2862.137    21827229.880    89378860.77749
      2230.238  
  20888325.280   109768888.58649       164.047    20888327.180    85534205.02449
       127.828  
  22329589.000   117342786.29049      2330.484    22329587.300    91435932.03746
      1815.961  
  24273431.160   127557736.96347     -3569.180    24273433.020    99395647.84045
     -2781.184  
  24598573.900   129266386.61646      3268.344    24598577.380   100727068.74448
      2546.762  
  21183481.160   111319941.74849     -1940.762    21183480.840    86742808.45849
     -1512.285  
  21557067.320   113283150.77749     -2461.516    21557068.960    88272593.21348
     -1918.066  
  20498157.140   107718545.48648       215.340    20498155.780    83936521.96047
       167.797  
  23633160.520   124193093.19648        -3.043    23633162.020    96773840.45545
        -2.375  
  19759528.240   105329406.19808      2002.148           0.000           0.00000
         0.000  
  23524188.840   125529577.71404      1062.488    23524197.120    97634151.17006
       826.379  
  23296748.880   124359621.49306     -4230.633    23296754.760    96724174.25106
     -3290.492  
  19267275.080   102886175.56509     -1100.000    19267278.320    80022592.96208
      -855.559  
  20298090.700   108543024.77105      2852.434    20298096.600    84422368.98208
      2218.559  
  19772967.680   105772043.22405     -1874.832    19772970.540    82267152.85107
     -1458.203  
 20  5  7  5 15  5.0000000  0 15G 1G30G28G27G17G 7G 8G11G13R10R 2R18
                                R 9R20R19
  21824505.600   114688552.77848      2859.664    21824508.140    89367715.62349
      2228.309  
  20888170.840   109768077.09349       160.734    20888172.760    85533572.69649
       125.246  
  22327372.300   117331137.50849      2329.352    22327370.640    91426855.05846
      1815.078  
  24276827.400   127575584.53747     -3569.559    24276829.320    99409555.02745
     -2781.477  
  24595464.460   129250046.82146      3267.961    24595467.940   100714336.48348
      2546.469  
  21185329.340   111329653.92649     -1943.902    21185329.020    86750376.38449
     -1514.734  
  21559410.320   113295463.31749     -2463.215    21559411.960    88282187.40648
     -1919.387  
  20497954.340   107717479.72348       211.680    20497953.000    83935691.50147
       164.945  
  23633165.500   124193118.35548        -6.355    23633166.880    96773860.07445
        -4.953  
  19757651.920   105319404.29308      1998.926           0.000           0.00000
         0.000  
  23523195.500   125524276.42304      1058.379    23523203.760    97630027.98107
       823.184  
  23300712.180   124380777.84707     -4231.113    23300718.100    96740629.18206
     -3290.871  
  19268307.020   102891685.87709     -1103.750    19268310.200    80026878.75708
      -858.477  
  20295425.260   108528772.03705      2849.148    20295431.260    84411283.52908
      2216.004  
  19774722.780   105781431.93705     -1879.344    19774725.660    82274455.18607
     -1461.762  
 20  5  7  5 15 10.0000000  0 15G 1G30G28G27G17G 7G 8G11G13R10R 2R18
                                R 9R20R19
  21821786.140   114674261.99549      2857.176    21821788.680    89356579.95049
      2226.367  
  20888019.420   109767281.50748       157.781    20888021.380    85532952.75049
       122.941  
  22325156.280   117319492.38949      2328.844    22325154.700    91417780.96246
      1814.684  
  24280223.840   127593432.96347     -3569.516    24280225.900    99423462.88745
     -2781.445  
  24592355.660   129233709.84646      3267.086    24592359.080   100701606.35248
      2545.664  
  21187180.100   111339379.75949     -1946.273    21187179.780    86757954.95249
     -1516.582  
  21561754.680   113307783.01749     -2464.355    21561756.320    88291787.17048
     -1920.277  
  20497754.640   107716430.25048       208.523    20497753.280    83934873.72847
       162.480  
  23633173.540   124193159.62848        -9.641    23633174.780    96773892.22245
        -7.516  
  19755778.240   105309416.37708      1996.539           0.000           0.00000
         0.000  
  23522205.660   125518994.47905      1054.852    23522213.780    97625919.78006
       820.438  
  23304676.040   124401936.94706     -4231.473    23304681.940    96757086.25806
     -3291.148  
  19269342.160   102897213.36809     -1106.773    19269345.300    80031177.92508
      -860.824  
  20292762.640   108514535.23705      2845.438    20292768.900    84400210.46608
      2213.113  
  19776481.160   105790838.09505     -1882.664    19776484.040    82281771.08907
     -1464.293  
 20  5  7  5 15 15.0000000  0 15G 1G30G28G27G17G 7G 8G11G13R10R 2R18
                                R 9R20R19
  21819069.220   114659984.40049      2854.141    21819071.760    89345454.55349
      2224.000  
  20887871.260   109766502.89249       153.996    20887873.220    85532346.03349
       119.992  
  22322941.180   117307852.05749      2327.461    22322939.660    91408710.57146
      1813.605  
  24283620.660   127611283.25447     -3570.422    24283622.660    99437372.17645
     -2782.156  
  24589247.480   129217376.67347      3266.043    24589251.180   100688879.21948
      2544.969  
  21189033.680   111349120.32049     -1949.672    21189033.360    86765544.99749
     -1519.230  
  21564100.620   113320111.12049     -2466.402    21564102.280    88301393.48048
     -1921.875  
  20497558.220   107715398.15648       204.691    20497556.880    83934069.49147
       159.496  
  23633184.840   124193218.00348       -13.480    23633185.920    96773937.70845
       -10.504  
  19753907.340   105299443.39608      1993.090           0.000           0.00000
         0.000  
  23521220.080   125513733.38904      1050.082    23521227.740    97621827.84807
       816.730  
  23308640.540   124423100.02407     -4233.016    23308646.540    96773546.41906
     -3292.348  
  19270380.740   102902759.15909     -1111.023    19270383.840    80035491.31008
      -864.133  
  20290103.480   108500315.27505      2842.070    20290109.680    84389150.49408
      2210.500  
  19778242.800   105800262.70905     -1886.719    19778245.860    82289101.34107
     -1467.453  
 20  5  7  5 15 20.0000000  0 15G 1G30G28G27G17G 7G 8G11G13R10R 2R18
                                R 9R20R19
  21816354.920   114645720.83948      2851.473    21816357.500    89334340.09249
      2221.922  
  20887726.480   109765742.08149       150.531    20887728.440    85531753.19449
       117.293  
  22320727.180   117296217.36649      2326.434    22320725.660    91399644.57946
      1812.801  
  24287018.000   127629136.31047     -3570.672    24287019.960    99451283.63845
     -2782.344  
  24586140.120   129201048.11446      3265.391    24586143.820   100676155.65648
      2544.461  
  21190890.220   111358876.48749     -1952.621    21190889.900    86773147.20149
     -1521.527  
  21566448.320   113332448.34349     -2468.285    21566449.980    88311006.90748
     -1923.340  
  20497365.240   107714384.22848       201.094    20497363.960    83933279.41847
       156.691  
  23633199.560   124193294.34148       -16.785    23633200.520    96773997.18745
       -13.082  
  19752039.440   105289486.45608      1990.027           0.000           0.00000
         0.000  
  23520238.200   125508493.60904      1045.586    23520245.820    97617752.43206
       813.230  
  23312605.920   124444267.64406     -4233.949    23312611.960    96790010.11707
     -3293.074  
  19271422.920   102908324.16309     -1114.777    19271425.960    80039819.64208
      -867.055  
  20287447.560   108486112.95205      2839.094    20287453.800    84378104.24708
      2208.184  
  19780008.220   105809706.86305     -1890.984    19780011.340    82296446.79507
     -1470.770  
 20  5  7  5 15 25.0000000  0 15G 1G30G28G27G17G 7G 8G11G13R10R 2R18
                                R 9R20R19
  21813643.080   114631469.95048      2848.832    21813645.640    89323235.51149
      2219.867  
  20887584.840   109764997.69249       147.191    20887586.800    85531173.15049
       114.691  
  22318513.960   117284586.88549      2325.699    22318512.440    91390581.87246
      1812.234  
  24290415.580   127646990.70047     -3570.965    24290417.520    99465196.14545
     -2782.574  
  24583033.320   129184722.80245      3264.785    24583037.220   100663434.64248
      2543.988  
  21192749.480   111368646.85449     -1955.453    21192749.140    86780760.46849
     -1523.734  
  21568797.480   113344793.28449     -2469.898    21568799.160    88320626.33748
     -1924.602  
  20497175.460   107713387.11448       197.555    20497174.220    83932502.45447
       153.938  
  23633217.400   124193387.22148       -20.379    23633218.160    96774069.55745
       -15.883  
  19750174.300   105279544.29808      1986.957           0.000           0.00000
         0.000  
  23519259.880   125503273.70104      1041.867    23519267.600    97613692.50807
       810.336  
  23316571.860   124465438.55207     -4234.605    23316578.020    96806476.37506
     -3293.586  
  19272468.400   102913906.88809     -1118.398    19272471.400    80044161.76308
      -869.871  
  20284794.840   108471927.05405      2835.012    20284800.960    84367070.78108
      2205.008  
  19781776.980   105819168.95405     -1894.457    19781780.160    82303806.20107
     -1473.469  
 20  5  7  5 15 30.0000000  0 15G 1G30G28G27G17G 7G 8G11G13R10R 2R18
                                R 9R20R19
  21810933.440   114617230.85648      2846.547    21810936.060    89312140.12049
      2218.090  
  20887446.140   109764268.82949       144.066    20887448.120    85530605.20349
       112.254  
  22316301.400   117272959.72849      2324.875    22316299.840    91381521.75446
      1811.590  
  24293813.240   127664845.52147     -3571.277    24293815.220    99479109.01045
     -2782.813  
  24579927.140   129168399.94846      3264.133    24579930.840   100650715.55548
      2543.480  
  21194611.240   111378430.40649     -1958.211    21194610.900    86788384.01549
     -1525.883  
  21571147.920   113357145.03249     -2471.238    21571149.620    88330251.07348
     -1925.645  
  20496988.720   107712405.90448       194.523    20496987.500    83931737.87947
       151.578  
  23633238.200   124193495.70648       -23.453    23633238.860    96774154.10545
       -18.273  
  19748311.740   105269615.72808      1984.164           0.000           0.00000
         0.000  
  23518285.560   125498073.15004      1037.602    23518293.040    97609647.64306
       807.023  
  23320538.260   124486611.64606     -4235.273    23320544.460    96822944.32706
     -3294.105  
  19273517.040   102919506.41009     -1121.836    19273520.020    80048516.94508
      -872.543  
  20282144.820   108457756.62005      2832.117    20282151.020    84356049.33308
      2202.758  
  19783549.080   105828647.96405     -1897.965    19783552.140    82311178.76407
     -1476.199  
 20  5  7  5 15 35.0000000  0 15G 1G30G28G27G17G 7G 8G11G13R10R 2R18
                                R 9R20R19
  21808226.400   114603005.43849      2843.906    21808229.040    89301055.38549
      2216.031  
  20887310.740   109763557.39249       140.578    20887312.740    85530050.83249
       109.539  
  22314089.800   117261337.79949      2323.953    22314088.260    91372465.70146
      1810.867  
  24297211.360   127682702.63447     -3571.281    24297213.320    99493023.61045
     -2782.820  
  24576821.740   129152081.36846      3263.352    24576825.740   100637999.79148
      2542.801  
  21196475.880   111388229.06449     -1961.164    21196475.540    86796019.32649
     -1528.184  
  21573500.040   113369505.51649     -2472.816    21573501.740    88339882.62048
     -1926.875  
  20496805.380   107711442.50148       190.871    20496804.160    83930987.17747
       148.730  
  23633262.320   124193621.74848       -26.797    23633262.840    96774252.30745
       -20.883  
  19746452.060   105259702.63808      1981.125           0.000           0.00000
         0.000  
  23517314.480   125492893.52004      1033.863    23517322.380    97605619.04407
       804.117  
  23324505.520   124507789.07206     -4235.520    23324511.740    96839415.64307
     -3294.297  
  19274569.220   102925124.71209     -1125.324    19274572.140    80052886.73108
      -875.258  
  20279498.220   108443603.51505      2829.242    20279504.300    84345041.37308
      2200.523  
  19785324.740   105838145.88705     -1901.418    19785327.640    82318566.03207
     -1478.699  
 20  5  7  5 15 40.0000000  0 15G 1G30G28G27G17G 7G 8G11G13R10R 2R18
                                R 9R20R19
  21805521.540   114588791.35848      2841.473    21805524.200    89289979.48449
      2214.133  
  20887178.200   109762860.96849       137.480    20887180.220    85529508.16349
       107.125  
  22311878.740   117249718.66849      2323.313    22311877.200    91363411.84646
      1810.375  
  24300609.460   127700559.68047     -3571.875    24300611.400    99506938.19045
     -2783.281  
  24573716.820   129135764.68746      3262.660    24573720.820   100625285.53148
      2542.605  
  21198342.940   111398040.45449     -1963.727    21198342.580    86803664.56149
     -1530.180  
  21575853.360   113381872.25949     -2474.160    21575855.060    88349519.03548
     -1927.922  
  20496624.980   107710494.56748       187.809    20496623.740    83930248.53347
       146.344  
  23633289.320   124193762.90348       -30.172    23633289.700    96774362.29545
       -23.512  
  19744594.840   105249802.69008      1978.480           0.000           0.00000
         0.000  
  23516347.140   125487732.59305      1030.645    23516355.300    97601605.00606
       801.613  
  23328473.060   124528968.20907     -4235.824    23328479.300    96855888.29307
     -3294.535  
  19275624.460   102930759.32809     -1128.844    19275627.300    80057269.21008
      -877.992  
  20276854.380   108429465.34105      2826.195    20276860.400    84334045.01408
      2198.152  
  19787103.280   105847660.25704     -1904.582    19787106.240    82325966.10707
     -1481.340  
 20  5  7  5 15 45.0000000  0 15G 1G30G28G27G17G 7G 8G11G13R10R 2R18
                                R 9R20R19
  21802819.560   114574592.42848      2838.340    21802822.220    89278915.38749
      2211.695  
  20887049.240   109762183.42149       133.605    20887051.300    85528980.20849
       104.105  
  22309668.980   117238106.23849      2321.941    22309667.400    91354363.21146
      1809.305  
  24304008.240   127718420.47447     -3572.555    24304010.180    99520855.68745
     -2783.813  
  24570612.900   129119453.76246      3261.559    24570616.740   100612575.67048
      2541.555  
  21200213.120   111407868.36149     -1967.176    21200212.780    86811322.66449
     -1532.867  
  21578208.620   113394249.14849     -2476.355    21578210.300    88359163.35748
     -1929.633  
  20496448.260   107709565.88948       183.797    20496447.040    83929524.89247
       143.219  
  23633319.920   124193923.05848       -33.871    23633320.260    96774487.10745
       -26.395  
  19742740.880   105239919.92808      1974.883           0.000           0.00000
         0.000  
  23515384.180   125482594.14205      1025.402    23515392.360    97597608.43706
       797.535  
  23332441.720   124550153.07306     -4237.523    23332447.980    96872365.40107
     -3295.855  
  19276683.440   102936414.13109     -1132.961    19276686.260    80061667.38608
      -881.195  
  20274213.920   108415346.13805      2822.109    20274220.040    84323063.42308
      2194.973  
  19788885.640   105857195.05004     -1908.344    19788888.660    82333382.05307
     -1484.266  
 20  5  7  5 15 50.0000000  0 15G 1G30G28G27G17G 7G 8G11G13R10R 2R18
                                R 9R20R19
  21800120.040   114560406.53348      2835.852    21800122.740    89267861.44549
      2209.754  
  20886923.500   109761522.61848       130.320    20886925.560    85528465.29749
       101.543  
  22307460.080   117226498.36449      2321.039    22307458.500    91345318.12046
      1808.602  
  24307407.340   127736282.84147     -3572.699    24307409.220    99534774.40545
     -2783.926  
  24567509.580   129103146.34145      3261.219    24567513.560   100599868.60948
      2541.211  
  21202086.060   111417710.64349     -1969.977    21202085.720    86818991.97349
     -1535.051  
  21580565.420   113406634.09749     -2477.801    21580567.080    88368813.96948
     -1930.758  
  20496274.760   107708654.22748       180.355    20496273.540    83928814.50647
       140.531  
  23633353.700   124194100.03548       -37.133    23633353.880    96774624.99745
       -28.938  
  19740889.680   105230052.16908      1972.035           0.000           0.00000
         0.000  
  23514424.980   125477476.09705      1021.488    23514433.160    97593627.71706
       794.488  
  23336411.000   124571341.33007     -4238.043    23336417.260    96888845.15507
     -3296.258  
  19277745.820   102942087.01509     -1136.559    19277748.600    80066079.62808
      -883.992  
  20271576.560   108401243.52905      2819.156    20271582.780    84312094.73108
      2192.676  
  19790671.480   105866748.14005     -1912.422    19790674.500    82340812.23507
     -1487.441  
 20  5  7  5 15 55.0000000  0 15G 1G30G28G27G17G 7G 8G11G13R10R 2R18
                                R 9R20R19
  21797423.020   114546233.60348      2833.367    21797425.720    89256817.61149
      2207.820  
  20886800.920   109760878.43548       127.258    20886802.980    85527963.32849
        99.156  
  22305252.020   117214894.88349      2320.445    22305250.460    91336276.44946
      1808.141  
  24310806.720   127754146.75447     -3573.094    24310808.620    99548694.32244
     -2784.234  
  24564406.980   129086842.45446      3260.395    24564411.100   100587164.32948
      2540.570  
  21203961.700   111427567.18449     -1972.430    21203961.360    86826672.38949
     -1536.961  
  21582923.680   113419026.79549     -2479.047    21582925.340    88378470.62148
     -1931.730  
  20496104.480   107707759.55448       177.563    20496103.260    83928117.35547
       138.359  
  23633390.680   124194293.74148       -40.469    23633390.720    96774775.93445
       -31.539  
  19739041.260   105220199.17608      1969.230           0.000           0.00000
         0.000  
  23513469.680   125472378.41404      1017.551    23513477.820    97589662.85906
       791.430  
  23340380.840   124592533.04106     -4238.133    23340387.200    96905327.58207
     -3296.328  
  19278811.540   102947777.84509     -1139.758    19278814.300    80070505.82808
      -886.477  
  20268942.360   108387157.54305      2815.879    20268948.620    84301138.96208
      2190.129  
  19792460.800   105876319.19905     -1916.281    19792463.720    82348256.39607
     -1490.441  
 20  5  7  5 16  0.0000000  0 15G 1G30G28G27G17G 7G 8G11G13R10R 2R18
                                R 9R20R19
  21794728.160   114532072.21248      2830.980    21794730.900    89245782.77049
      2205.957  
  20886681.220   109760249.46349       124.145    20886683.280    85527473.22349
        96.730  
  22303044.520   117203294.43749      2319.574    22303043.020    91327237.14046
      1807.457  
  24314206.140   127772010.67947     -3573.137    24314208.020    99562614.30544
     -2784.262  
  24561304.860   129070540.64346      3260.035    24561308.920   100574461.62548
      2540.289  
  21205839.800   111437436.59049     -1975.379    21205839.440    86834362.82949
     -1539.262  
  21585283.140   113431425.92549     -2480.602    21585284.820    88388132.27748
     -1932.941  
  20495937.200   107706880.46348       173.969    20495935.960    83927432.35347
       135.555  
  23633430.580   124194502.75748       -43.539    23633430.420    96774938.80045
       -33.930  
  19737195.420   105210359.70308      1966.281           0.000           0.00000
         0.000  
  23512518.020   125467299.19704      1013.824    23512526.040    97585712.37806
       788.531  
  23344351.100   124613726.75006     -4239.438    23344357.500    96921811.56107
     -3297.344  
  19279880.340   102953485.10809     -1143.375    19279883.100    80074944.80808
      -889.293  
  20266311.020   108373086.62005      2812.434    20266317.260    84290194.91708
      2187.449  
  19794253.180   105885906.87905     -1919.492    19794256.040    82355713.48607
     -1492.938  
 20  5  7  5 16  5.0000000  0 15G 1G30G28G27G17G 7G 8G11G13R10R 2R18
                                R 9R20R19
  21792035.940   114517924.56649      2828.266    21792038.700    89234758.63249
      2203.844  
  20886564.820   109759637.92449       120.680    20886566.920    85526996.69949
        94.031  
  22300838.020   117191699.22549      2318.648    22300836.540    91318201.91246
      1806.738  
  24317605.960   127789876.79948     -3573.453    24317607.820    99576535.88745
     -2784.516  
  24558203.480   129054243.11246      3259.141    24558207.560   100561762.24648
      2539.590  
  21207720.760   111447321.05749     -1978.266    21207720.400    86842065.00749
     -1541.508  
  21587644.260   113443833.69949     -2482.102    21587645.960    88397800.67048
     -1934.105  
  20495773.320   107706019.13448       170.590    20495772.020    83926761.18347
       132.922  
  23633473.840   124194729.31748       -47.023    23633473.520    96775115.33845
       -36.645  
  19735352.480   105200535.90508      1963.270           0.000           0.00000
         0.000  
  23511570.040   125462241.54705      1009.871    23511578.300    97581778.62706
       785.449  
  23348322.120   124634924.30906     -4240.121    23348328.560    96938298.56806
     -3297.871  
  19280952.620   102959211.04409     -1146.965    19280955.360    80079398.31108
      -892.086  
  20263682.900   108359033.28505      2808.922    20263689.220    84279264.56208
      2184.719  
  19796048.980   105895513.24904     -1923.117    19796051.860    82363185.10707
     -1495.762  
 20  5  7  5 16 10.0000000  0 15G 1G30G28G27G17G 7G 8G11G13R10R 2R18
                                R 9R20R19
  21789346.180   114503789.81948      2825.684    21789348.960    89223744.54849
      2201.832  
  20886451.580   109759042.93349       117.375    20886453.680    85526533.06649
        91.457  
  22298632.360   117180108.36749      2317.688    22298630.900    91309170.09146
      1805.992  
  24321006.040   127807744.32447     -3573.762    24321007.900    99590458.64245
     -2784.754  
  24555102.720   129037948.99246      3258.180    24555106.980   100549065.54348
      2538.840  
  21209604.420   111457219.72049     -1981.137    21209604.060    86849778.24949
     -1543.746  
  21590006.840   113456249.17049     -2483.875    21590008.520    88407475.06348
     -1935.492  
  20495612.640   107705174.72348       167.180    20495611.320    83926103.20947
       130.270  
  23633520.220   124194972.52648       -50.398    23633519.740    96775304.84945
       -39.277  
  19733512.320   105190726.88408      1960.363           0.000           0.00000
         0.000  
  23510626.140   125457203.93405      1005.531    23510634.220    97577860.49606
       782.078  
  23352293.680   124656125.24605     -4240.848    23352300.200    96954788.16307
     -3298.441  
  19282028.260   102964954.84609     -1150.480    19282031.000    80083865.71408
      -894.820  
  20261057.960   108344996.47905      2805.586    20261064.260    84268347.04608
      2182.117  
  19797848.040   105905137.65905     -1926.809    19797851.060    82370670.75807
     -1498.633  
 20  5  7  5 16 15.0000000  0 15G 1G30G28G27G17G 7G 8G11G13R10R 2R18
                                R 9R20R19
  21786659.080   114489669.08448      2822.871    21786661.880    89212741.38249
      2199.641  
  20886341.700   109758465.56548       113.805    20886343.820    85526083.16749
        88.676  
  22296427.720   117168522.94549      2316.746    22296426.260    91300142.48546
      1805.258  
  24324406.560   127825614.31747     -3574.023    24324408.420    99604383.29944
     -2784.957  
  24552002.860   129021659.43345      3256.867    24552007.160   100536372.41348
      2537.820  
  21211490.980   111467133.62649     -1984.121    21211490.600    86857503.36649
     -1546.074  
  21592371.100   113468673.53249     -2485.555    21592372.820    88417156.37848
     -1936.801  
  20495455.380   107704348.32748       163.734    20495454.060    83925459.26647
       127.586  
  23633569.960   124195233.40748       -53.750    23633569.280    96775508.14145
       -41.883  
  19731675.180   105180933.80808      1957.176           0.000           0.00000
         0.000  
  23509686.000   125452187.58004      1002.203    23509694.080    97573958.88106
       779.488  
  23356266.200   124677330.44606     -4241.316    23356272.660    96971281.07606
     -3298.805  
  19283107.460   102970717.55609     -1154.211    19283110.180    80088347.81808
      -897.723  
  20258436.260   108330977.28505      2802.340    20258442.600    84257443.22608
      2179.598  
  19799650.820   105914781.12405     -1930.391    19799653.800    82378171.23007
     -1501.418  
 20  5  7  5 16 20.0000000  0 15G 1G30G28G27G17G 7G 8G11G13R10R 2R18
                                R 9R20R19
  21783974.340   114475560.72248      2820.457    21783977.160    89201747.86349
      2197.758  
  20886234.860   109757904.21948       110.652    20886236.980    85525645.75349
        86.223  
  22294223.840   117156941.38049      2315.727    22294222.320    91291117.89346
      1804.457  
  24327807.280   127843485.11847     -3574.301    24327809.080    99618308.59345
     -2785.172  
  24548903.540   129005372.77545      3256.270    24548907.880   100523681.49248
      2537.352  
  21213380.120   111477061.17149     -1987.031    21213379.760    86865239.11349
     -1548.340  
  21594736.720   113481105.05448     -2487.160    21594738.440    88426843.28148
     -1938.047  
  20495301.240   107703538.27948       160.219    20495299.940    83924828.06147
       124.844  
  23633622.800   124195510.42648       -57.250    23633621.980    96775723.97845
       -44.613  
  19729840.700   105171154.99508      1954.250           0.000           0.00000
         0.000  
  23508749.720   125447191.08005       997.203    23508757.680    97570072.73306
       775.602  
  23360239.100   124698538.26406     -4241.859    23360245.620    96987776.04307
     -3299.227  
  19284189.900   102976497.62609     -1157.980    19284192.620    80092843.42608
      -900.656  
  20255817.580   108316974.04205      2799.258    20255823.900    84246551.82408
      2177.199  
  19801456.740   105924441.81404     -1934.629    19801459.780    82385685.10007
     -1504.715  
 20  5  7  5 16 25.0000000  0 15G 1G30G28G27G17G 7G 8G11G13R10R 2R18
                                R 9R20R19
  21781291.900   114461464.41048      2818.176    21781294.720    89190763.72649
      2195.980  
  20886131.000   109757358.53648       107.672    20886133.140    85525220.54149
        83.895  
  22292020.580   117145363.28949      2315.332    22292019.080    91282096.00246
      1804.156  
  24331208.060   127861356.36947     -3574.016    24331209.880    99632234.22945
     -2784.949  
  24545804.700   128989088.66246      3256.422    24545809.160   100510992.60348
      2537.473  
  21215271.800   111487002.00349     -1989.402    21215271.440    86872985.21049
     -1550.188  
  21597103.640   113493543.36348     -2488.289    21597105.380    88436535.46748
     -1938.930  
  20495150.140   107702744.24348       157.297    20495148.860    83924209.34047
       122.570  
  23633678.560   124195803.18648       -60.203    23633677.660    96775952.11145
       -46.910  
  19728008.860   105161390.12408      1951.531           0.000           0.00000
         0.000  
  23507816.980   125442214.02704       993.191    23507825.020    97566201.69206
       772.477  
  23364212.420   124719748.33206     -4242.055    23364218.980    97004272.75907
     -3299.379  
  19285275.500   102982294.57909     -1160.918    19285278.200    80097352.16308
      -902.941  
  20253201.820   108302986.60406      2796.285    20253208.160    84235672.70908
      2174.887  
  19803265.840   105934119.50604     -1936.672    19803268.920    82393212.19807
     -1506.301  
 20  5  7  5 16 30.0000000  0 15G 1G30G28G27G17G 7G 8G11G13R10R 2R18
                                R 9R20R19
  21778612.100   114447382.06148      2815.156    21778614.940    89179790.47149
      2193.629  
  20886030.480   109756830.40048       103.965    20886032.640    85524809.00649
        81.008  
  22289818.360   117133790.58449      2314.113    22289816.860    91273078.32446
      1803.207  
  24334609.280   127879229.96747     -3574.902    24334611.140    99646161.69745
     -2785.641  
  24542706.740   128972808.98045      3255.160    24542711.240   100498307.16348
      2536.707  
  21217166.360   111496958.00449     -1992.633    21217166.020    86880743.13149
     -1552.703  
  21599472.220   113505990.40148     -2490.168    21599473.980    88446234.45148
     -1940.395  
  20495002.480   107701968.10348       153.598    20495001.160    83923604.55247
       119.688  
  23633737.700   124196113.52348       -63.648    23633736.640    96776193.93444
       -49.602  
  19726179.940   105151641.08108      1948.270           0.000           0.00000
         0.000  
  23506888.280   125437258.01505       989.164    23506896.260    97562347.02406
       769.352  
  23368186.540   124740962.58606     -4242.980    23368193.140    97020772.72307
     -3300.102  
  19286364.620   102988110.36609     -1164.945    19286367.320    80101875.54808
      -906.074  
  20250589.360   108289016.62505      2792.320    20250595.700    84224807.17608
      2171.805  
  19805078.520   105943816.15905     -1941.527    19805081.600    82400754.04007
     -1510.082  
 20  5  7  5 16 35.0000000  0 15G 1G30G28G27G17G 7G 8G11G13R10R 2R18
                                R 9R20R19
  21775934.780   114433312.65748      2812.398    21775937.620    89168827.30549
      2191.480  
  20885933.120   109756318.82548       100.465    20885935.280    85524410.37449
        78.285  
  22287617.000   117122222.26449      2313.035    22287615.520    91264064.04546
      1802.359  
  24338010.780   127897104.89647     -3575.418    24338012.580    99660090.20845
     -2786.043  
  24539609.400   128956532.74046      3254.473    24539613.880   100485624.39748
      2535.953  
  21219063.620   111506928.13649     -1995.738    21219063.280    86888512.05549
     -1555.125  
  21601842.280   113518445.16948     -2492.016    21601844.040    88455939.46548
     -1941.836  
  20494858.000   107701208.88248       149.832    20494856.700    83923012.94947
       116.750  
  23633799.980   124196440.49648       -67.340    23633798.840    96776448.70845
       -52.477  
  19724353.860   105141906.96008      1945.172           0.000           0.00000
         0.000  
  23505963.300   125432322.18204       984.789    23505971.300    97558508.03106
       765.941  
  23372161.220   124762180.07106     -4243.965    23372167.900    97037275.20307
     -3300.867  
  19287457.100   102993943.99009     -1168.738    19287459.780    80106412.81008
      -909.023  
  20247980.080   108275063.44505      2788.305    20247986.360    84213954.70508
      2168.680  
  19806894.460   105953530.53704     -1944.547    19806897.600    82408309.66107
     -1512.430  
 20  5  7  5 16 40.0000000  0 15G 1G30G28G27G17G 7G 8G11G13R10R 2R18
                                R 9R20R19
  21773260.080   114419257.16648      2809.633    21773262.960    89157874.97949
      2189.324  
  20885839.060   109755824.71748        97.113    20885841.260    85524025.36049
        75.672  
  22285416.620   117110659.23949      2312.023    22285415.180    91255053.90646
      1801.578  
  24341412.680   127914982.05147     -3575.813    24341414.600    99674020.44645
     -2786.352  
  24536512.940   128940260.89346      3253.973    24536517.480   100472945.02948
      2535.563  
  21220963.740   111516913.33749     -1998.641    21220963.420    86896292.72849
     -1557.387  
  21604214.000   113530908.62848     -2493.637    21604215.740    88465651.25248
     -1943.098  
  20494716.940   107700467.45248       146.508    20494715.600    83922435.21747
       114.160  
  23633865.580   124196784.98248       -70.773    23633864.340    96776717.13145
       -55.152  
  19722530.720   105132188.62908      1942.016           0.000           0.00000
         0.000  
  23505042.280   125427407.61105       981.211    23505050.280    97554685.59106
       763.160  
  23376136.660   124783401.50106     -4244.547    23376143.380    97053780.74606
     -3301.316  
  19288553.060   102999796.40109     -1172.516    19288555.740    80110964.68708
      -911.961  
  20245374.020   108261127.58305      2785.430    20245380.280    84203115.71108
      2166.445  
  19808714.080   105963263.72604     -1948.602    19808717.120    82415879.92307
     -1515.578  
 20  5  7  5 16 45.0000000  0 15G 1G30G28G27G17G 7G 8G11G13R10R 2R18
                                R 9R20R19
  21770587.740   114405213.91948      2807.691    21770590.620    89146932.19749
      2187.813  
  20885748.060   109755346.45748        94.316    20885750.240    85523652.68549
        73.488  
  22283216.960   117099099.87249      2311.805    22283215.540    91246046.61146
      1801.406  
  24344814.700   127932859.78747     -3575.230    24344816.660    99687951.13744
     -2785.898  
  24533416.980   128923991.81346      3254.105    24533421.480   100460267.81648
      2535.664  
  21222866.400   111526911.95449     -2000.797    21222866.080    86904083.85849
     -1559.066  
  21606587.020   113543378.93848     -2494.359    21606588.760    88475368.37448
     -1943.660  
  20494578.940   107699742.19148       143.727    20494577.580    83921870.08347
       111.996  
  23633934.200   124197145.37048       -73.406    23633932.880    96776997.97145
       -57.199  
  19720710.220   105122484.35308      1939.762           0.000           0.00000
         0.000  
  23504124.940   125422512.62105       977.449    23504132.920    97550878.39306
       760.238  
  23380112.580   124804625.39206     -4244.801    23380119.340    97070288.20807
     -3301.516  
  19289652.240   103005665.90009     -1175.309    19289654.920    80115529.85008
      -914.133  
  20242770.940   108247207.69305      2782.977    20242777.180    84192289.13308
      2164.539  
  19810536.780   105973014.18904     -1951.676    19810539.880    82423463.62007
     -1517.969  
 20  5  7  5 16 50.0000000  0 15G 1G30G28G27G17G 7G 8G11G13R10R 2R18
                                R 9R20R19
  21767917.520   114391181.87148      2804.578    21767920.420    89135998.13649
      2185.387  
  20885659.840   109754882.95548        90.699    20885662.020    85523291.51049
        70.672  
  22281017.760   117087543.11149      2310.441    22281016.360    91237041.34346
      1800.340  
  24348216.640   127950737.06047     -3576.027    24348218.580    99701881.47845
     -2786.520  
  24530321.360   128907724.31546      3252.887    24530325.920   100447591.87648
      2534.723  
  21224771.420   111536922.88549     -2004.035    21224771.120    86911884.57849
     -1561.590  
  21608961.160   113555855.10948     -2496.359    21608962.900    88485090.06248
     -1945.219  
  20494443.800   107699032.01548       139.969    20494442.440    83921316.69547
       109.063  
  23634005.580   124197520.57948       -77.059    23634004.200    96777290.32144
       -60.051  
  19718892.200   105112793.28408      1936.422           0.000           0.00000
         0.000  
  23503211.040   125417636.01705       972.824    23503219.040    97547085.46606
       756.637  
  23384088.760   124825850.43106     -4245.883    23384095.520    97086796.56406
     -3302.355  
  19290754.420   103011551.45509     -1179.258    19290757.080    80120107.49808
      -917.203  
  20240170.580   108233302.56505      2778.930    20240176.860    84181474.04408
      2161.391  
  19812362.540   105982780.40705     -1955.563    19812365.580    82431059.56807
     -1520.992  
 20  5  7  5 16 55.0000000  0 15G 1G30G28G27G17G 7G 8G11G13R10R 2R18
                                R 9R20R19
  21765250.580   114377167.03648      2801.563    21765253.500    89125077.48949
      2183.035  
  20885575.580   109754440.19748        86.766    20885577.760    85522946.50649
        67.605  
  22278820.220   117075994.94449      2309.230    22278818.840    91228042.77546
      1799.398  
  24351619.620   127968619.79947     -3577.023    24351621.460    99715816.07545
     -2787.293  
  24527227.340   128891464.57347      3251.406    24527231.800   100434921.94147
      2533.559  
  21226679.920   111546952.10049     -2007.254    21226679.620    86919699.54249
     -1564.098  
  21611337.540   113568343.16048     -2498.402    21611339.300    88494821.01148
     -1946.813  
  20494312.680   107698342.92048       136.090    20494311.320    83920779.75047
       106.043  
  23634080.940   124197916.61248       -80.840    23634079.480    96777598.92444
       -62.996  
  19717077.760   105103121.36708      1932.973           0.000           0.00000
         0.000  
  23502301.860   125412783.98905       968.223    23502309.760    97543311.66206
       753.059  
  23388066.320   124847082.85506     -4246.777    23388073.060    97103310.67107
     -3303.055  
  19291860.740   103017459.00409     -1183.266    19291863.360    80124702.25608
      -920.320  
  20237574.180   108219418.42405      2774.855    20237580.440    84170675.26908
      2158.223  
  19814192.420   105992568.70504     -1959.742    19814195.400    82438672.68607
     -1524.242  
 20  5  7  5 17  0.0000000  0 15G 1G30G28G27G17G 7G 8G11G13R10R 2R18
                                R 9R20R19
  21762586.080   114363165.04149      2799.016    21762589.000    89114166.84849
      2181.051  
  20885494.420   109754013.82748        83.656    20885496.620    85522614.26449
        65.184  
  22276623.480   117064451.02949      2308.332    22276622.080    91219047.52946
      1798.699  
  24355022.820   127986503.66047     -3576.887    24355024.600    99729751.54545
     -2787.188  
  24524133.880   128875208.12646      3250.871    24524138.280   100422254.57648
      2533.145  
  21228591.080   111556995.24049     -2009.996    21228590.780    86927525.36449
     -1566.234  
  21613715.340   113580838.65148     -2499.938    21613717.120    88504557.75748
     -1948.008  
  20494184.720   107697670.54148       132.965    20494183.360    83920255.80847
       103.605  
  23634159.420   124198329.07748       -84.090    23634157.880    96777920.31744
       -65.527  
  19715266.100   105093464.17008      1929.859           0.000           0.00000
         0.000  
  23501396.400   125407952.00105       964.445    23501404.240    97539553.45306
       750.125  
  23392044.400   124868318.16206     -4247.625    23392051.140    97119827.00207
     -3303.711  
  19292970.360   103023384.28609     -1186.867    19292972.980    80129310.80508
      -923.121  
  20234980.860   108205550.66406      2771.555    20234987.100    84159889.23608
      2155.652  
  19816025.680   106002374.59104     -1963.250    19816028.520    82446299.49507
     -1526.973  
 20  5  7  5 17  5.0000000  0 15G 1G30G28G27G17G 7G 8G11G13R10R 2R18
                                R 9R20R19
  21759923.960   114349175.46448      2796.504    21759926.880    89103265.88949
      2179.094  
  20885416.300   109753603.41148        80.402    20885418.520    85522294.46149
        62.648  
  22274427.460   117052910.88049      2307.523    22274426.080    91210055.20946
      1798.070  
  24358426.100   128004388.18747     -3577.113    24358427.880    99743687.51845
     -2787.363  
  24521040.840   128858954.56246      3250.887    24521045.380   100409589.49348
      2533.164  
  21230504.780   111567051.86949     -2012.918    21230504.500    86935361.69449
     -1568.512  
  21616094.440   113593341.08248     -2501.332    21616096.240    88514299.90948
     -1949.094  
  20494059.900   107697014.45548       129.379    20494058.520    83919744.57447
       100.816  
  23634240.900   124198757.49948       -87.535    23634239.240    96778254.15345
       -68.211  
  19713457.140   105083821.29408      1926.945           0.000           0.00000
         0.000  
  23500494.660   125403139.45505       960.746    23500502.380    97535810.35206
       747.242  
  23396023.020   124889555.98006     -4248.098    23396029.720    97136345.30507
     -3304.078  
  19294083.180   103029326.73009     -1190.332    19294085.820    80133932.71008
      -925.816  
  20232390.540   108191698.96806      2768.348    20232396.760    84149115.70308
      2153.160  
  19817861.980   106012197.66504     -1966.039    19817864.840    82453939.66207
     -1529.145  
 20  5  7  5 17 10.0000000  0 15G 1G30G28G27G17G 7G 8G11G13R10R 2R18
                                R 9R20R19
  21757264.040   114335197.56648      2794.676    21757266.980    89092374.02249
      2177.668  
  20885341.080   109753208.18848        77.645    20885343.300    85521986.49349
        60.500  
  22272232.000   117041373.76249      2307.152    22272230.640    91201065.24946
      1797.781  
  24361829.420   128022272.61047     -3576.742    24361831.200    99757623.43044
     -2787.074  
  24517948.240   128842703.16246      3250.199    24517952.720   100396926.07748
      2532.621  
  21232420.900   111577121.19849     -2015.070    21232420.640    86943207.92649
     -1570.188  
  21618474.780   113605849.82248     -2502.316    21618476.580    88524046.98348
     -1949.855  
  20493938.020   107696373.88748       126.590    20493936.620    83919245.43946
        98.641  
  23634325.260   124199201.17448       -90.156    23634323.540    96778599.86344
       -70.254  
  19711650.720   105074192.01408      1924.652           0.000           0.00000
         0.000  
  23499596.360   125398345.99905       957.250    23499604.080    97532082.11006
       744.527  
  23400001.880   124910795.32207     -4247.945    23400008.580    97152864.78706
     -3303.961  
  19295199.080   103035285.54209     -1193.184    19295201.720    80138567.33508
      -928.035  
  20229803.000   108177862.57906      2765.781    20229809.280    84138354.06908
      2151.164  
  19819701.420   106022037.14804     -1969.352    19819704.220    82461592.59307
     -1531.719  
 20  5  7  5 17 15.0000000  0 15G 1G30G28G27G17G 7G 8G11G13R10R 2R18
                                R 9R20R19
  21754606.520   114321232.28148      2791.293    21754609.460    89081491.98649
      2175.035  
  20885268.920   109752829.08748        73.766    20885271.160    85521691.08849
        57.477  
  22270037.320   117029840.58049      2305.648    22270035.940    91192078.36046
      1796.609  
  24365232.880   128040157.84547     -3577.840    24365234.600    99771559.96845
     -2787.930  
  24514856.200   128826454.76645      3248.648    24514860.820   100384265.01648
      2531.418  
  21234339.620   111587204.15349     -2018.484    21234339.380    86951064.76449
     -1572.848  
  21620856.460   113618365.74048     -2504.383    21620858.280    88533799.64548
     -1951.473  
  20493819.260   107695749.73648       122.637    20493817.880    83918759.08347
        95.563  
  23634412.700   124199660.99248       -94.141    23634411.000    96778958.14544
       -73.359  
  19709847.000   105064577.23808      1920.863           0.000           0.00000
         0.000  
  23498701.860   125393572.36205       952.457    23498709.460    97528369.30206
       740.801  
  23403981.280   124932037.30106     -4249.535    23403987.920    97169386.32006
     -3305.199  
  19296318.260   103041261.78909     -1197.523    19296320.880    80143215.52308
      -931.410  
  20227218.540   108164042.34506      2762.098    20227224.840    84127605.00208
      2148.297  
  19821543.940   106031893.67604     -1973.699    19821546.800    82469258.77707
     -1535.098  
 20  5  7  5 17 20.0000000  0 15G 1G30G28G27G17G 7G 8G11G13R10R 2R18
                                R 9R20R19
  21751951.540   114307280.22248      2789.383    21751954.480    89070620.25449
      2173.547  
  20885199.920   109752466.67648        70.996    20885202.180    85521408.69449
        55.316  
  22267843.480   117018311.94749      2305.563    22267842.120    91183095.01246
      1796.539  
  24368636.580   128058044.48347     -3577.223    24368638.240    99785497.58545
     -2787.453  
  24511764.860   128810210.04846      3248.824    24511769.580   100371606.82348
      2531.551  
  21236261.060   111597301.30749     -2020.559    21236260.800    86958932.67449
     -1574.465  
  21623239.660   113630889.46248     -2505.285    21623241.500    88543558.38748
     -1952.176  
  20493703.740   107695142.64548       119.789    20493702.340    83918286.03847
        93.344  
  23634503.320   124200137.54547       -96.715    23634501.600    96779329.50344
       -75.367  
  19708046.120   105054977.51508      1918.738           0.000           0.00000
         0.000  
  23497811.180   125388819.31805       949.336    23497818.740    97524672.48406
       738.367  
  23407961.200   124953282.24606     -4249.516    23407967.800    97185910.15107
     -3305.184  
  19297440.780   103047255.94009     -1200.406    19297443.400    80147877.64308
      -933.652  
  20224637.380   108150239.00006      2758.965    20224643.540    84116869.07408
      2145.863  
  19823389.840   106041768.29604     -1976.395    19823392.760    82476939.04107
     -1537.199  
 20  5  7  5 17 25.0000000  0 15G 1G30G28G27G17G 7G 8G11G13R10R 2R18
                                R 9R20R19
  21749298.960   114293340.78048      2786.520    21749301.900    89059758.35949
      2171.313  
  20885134.020   109752120.39848        67.559    20885136.260    85521138.86149
        52.641  
  22265650.380   117006787.25749      2304.504    22265649.020    91174114.73646
      1795.719  
  24372040.460   128075931.90447     -3577.578    24372042.140    99799435.82145
     -2787.727  
  24508674.100   128793968.30746      3247.938    24508678.700   100358950.91748
      2530.859  
  21238185.080   111607412.12949     -2023.559    21238184.820    86966811.23349
     -1576.805  
  21625624.180   113643420.34648     -2507.031    21625626.060    88553322.70848
     -1953.535  
  20493591.340   107694551.96648       116.344    20493589.920    83917825.75847
        90.652  
  23634596.980   124200630.25447      -100.168    23634595.180    96779713.40244
       -78.063  
  19706247.980   105045392.32708      1915.492           0.000           0.00000
         0.000  
  23496924.140   125384085.96405       944.762    23496931.720    97520990.98806
       734.816  
  23411941.620   124974529.84607     -4249.801    23411948.200    97202436.06107
     -3305.406  
  19298566.540   103053267.46509     -1204.188    19298569.180    80152553.26708
      -936.594  
  20222059.040   108136451.83706      2756.016    20222065.280    84106145.72908
      2143.566  
  19825239.000   106051660.05804     -1979.637    19825241.900    82484632.63407
     -1539.723  
 20  5  7  5 17 30.0000000  0 15G 1G30G28G27G17G 7G 8G11G13R10R 2R18
                                R 9R20R19
  21746649.020   114279415.31048      2783.457    21746652.000    89048907.34549
      2168.926  
  20885071.420   109751791.53348        63.945    20885073.660    85520882.60249
        49.828  
  22263458.280   116995267.85949      2303.090    22263456.960    91165138.59846
      1794.617  
  24375444.700   128093821.40847     -3578.199    24375446.400    99813375.69545
     -2788.211  
  24505584.220   128777730.97345      3246.664    24505588.900   100346298.46548
      2529.867  
  21240111.940   111617537.85249     -2026.883    21240111.700    86974701.40049
     -1579.395  
  21628010.300   113655959.56548     -2508.828    21628012.200    88563093.52448
     -1954.934  
  20493482.320   107693979.04448       112.668    20493480.880    83917379.33547
        87.793  
  23634693.980   124201140.42447      -103.945    23634692.140    96780110.94744
       -80.996  
  19704452.760   105035822.94008      1912.102           0.000           0.00000
         0.000  
  23496041.220   125379373.79705       939.883    23496048.700    97517325.98206
       731.020  
  23415922.800   124995781.26807     -4250.801    23415929.300    97218964.93606
     -3306.184  
  19299695.800   103059297.63209     -1208.043    19299698.420    80157243.39308
      -939.594  
  20219484.040   108122682.17106      2752.535    20219490.280    84095435.99508
      2140.859  
  19827091.580   106061570.25104     -1983.762    19827094.520    82492340.56207
     -1542.926  
 20  5  7  5 17 35.0000000  0 15G 1G30G28G27G17G 7G 8G11G13R10R 2R18
                                R 9R20R19
  21744001.880   114265504.45048      2780.828    21744004.860    89038067.72149
      2166.879  
  20885012.280   109751480.75348        60.488    20885014.520    85520640.43449
        47.129  
  22261267.300   116983754.37949      2302.207    22261266.080    91156167.05746
      1793.926  
  24378849.480   128111713.68247     -3578.422    24378851.200    99827317.73445
     -2788.383  
  24502495.280   128761498.58946      3246.340    24502500.020   100333649.85648
      2529.613  
  21242041.740   111627679.10649     -2029.680    21242041.540    86982603.67449
     -1581.574  
  21630398.200   113668507.98848     -2510.523    21630400.080    88572871.51448
     -1956.258  
  20493376.800   107693424.54048       109.043    20493375.360    83916947.25547
        84.969  
  23634794.360   124201668.70247      -107.328    23634792.580    96780522.58644
       -83.637  
  19702660.660   105026270.07408      1909.039           0.000           0.00000
         0.000  
  23495162.320   125374683.36705       936.164    23495169.720    97513677.87006
       728.125  
  23419904.800   125017037.08606     -4251.316    23419911.220    97235497.24506
     -3306.582  
  19300828.680   103065347.16409     -1211.645    19300831.320    80161948.58608
      -942.391  
  20216912.460   108108930.78206      2748.625    20216918.700    84084740.47408
      2137.820  
  19828947.800   106071499.81405     -1988.074    19828950.760    82500063.56107
     -1546.281  
 20  5  7  5 17 40.0000000  0 15G 1G30G28G27G17G 7G 8G11G13R10R 2R18
                                R 9R20R19
  21741357.080   114251606.00948      2778.441    21741360.080    89027237.77049
      2165.020  
  20884956.140   109751185.84548        57.270    20884958.380    85520410.63449
        44.621  
  22259077.060   116972244.59349      2301.633    22259075.900    91147198.39546
      1793.480  
  24382254.380   128129606.46047     -3578.742    24382256.040    99841260.13244
     -2788.633  
  24499406.820   128745268.93545      3245.391    24499411.560   100321003.38048
      2528.875  
  21243974.060   111637833.66849     -2032.316    21243973.900    86990516.31649
     -1583.629  
  21632787.400   113681063.32148     -2511.703    21632789.260    88582654.89448
     -1957.176  
  20493274.340   107692886.20148       105.867    20493272.900    83916527.77447
        82.492  
  23634897.720   124202212.76947      -110.313    23634895.900    96780946.53645
       -85.961  
  19700871.240   105016731.63108      1906.340           0.000           0.00000
         0.000  
  23494287.000   125370012.60905       932.461    23494294.380    97510045.04406
       725.242  
  23423887.160   125038295.09007     -4251.578    23423893.540    97252031.23806
     -3306.781  
  19301964.780   103071413.81609     -1215.063    19301967.400    80166667.09108
      -945.051  
  20214344.020   108095195.40706      2745.664    20214350.100    84074057.40908
      2135.516  
  19830807.180   106081446.21904     -1990.695    19830810.120    82507799.65207
     -1548.324  
 20  5  7  5 17 45.0000000  0 15G 1G30G28G27G17G 7G 8G11G13R10R 2R18
                                R 9R20R19
  21738714.740   114237720.48749      2775.656    21738717.780    89016417.88949
      2162.848  
  20884903.140   109750907.31048        53.848    20884905.380    85520193.59149
        41.957  
  22256887.620   116960739.03449      2300.582    22256886.500    91138233.03246
      1792.660  
  24385659.480   128147500.24247     -3579.090    24385661.120    99855203.33344
     -2788.906  
  24496318.980   128729042.58346      3244.641    24496323.760   100308359.51348
      2528.293  
  21245909.040   111648002.08149     -2035.289    21245908.900    86998439.74849
     -1585.945  
  21635178.000   113693625.97248     -2513.383    21635179.860    88592443.96948
     -1958.484  
  20493175.060   107692364.51848       102.527    20493173.640    83916121.27047
        79.891  
  23635004.240   124202773.25047      -113.824    23635002.440    96781383.25444
       -88.703  
  19699084.640   105007207.95708      1903.066           0.000           0.00000
         0.000  
  23493415.520   125365362.04605       928.137    23493422.860    97506427.95406
       721.883  
  23427870.060   125059555.84607     -4252.273    23427876.380    97268567.35906
     -3307.328  
  19303104.180   103077498.11109     -1218.727    19303106.780    80171399.31708
      -947.902  
  20211778.560   108081476.60606      2742.051    20211784.620    84063387.23608
      2132.707  
  19832669.860   106091410.06804     -1994.730    19832672.760    82515549.31007
     -1551.461  
 20  5  7  5 17 50.0000000  0 15G 1G30G28G27G17G 7G 8G11G13R10R 2R18
                                R 9R20R19
  21736074.900   114223848.00048      2773.008    21736077.940    89005608.16549
      2160.785  
  20884853.280   109750645.21548        50.617    20884855.480    85519989.35949
        39.438  
  22254699.000   116949237.78749      2299.809    22254697.920    91129271.01846
      1792.059  
  24389064.740   128165395.10947     -3579.152    24389066.420    99869147.37344
     -2788.953  
  24493231.840   128712819.64845      3244.047    24493236.620   100295718.23848
      2527.824  
  21247846.660   111658184.37449     -2037.848    21247846.540    87006373.99949
     -1587.938  
  21637570.000   113706196.02048     -2514.879    21637571.860    88602238.81148
     -1959.645  
  20493079.000   107691859.59648        99.199    20493077.560    83915727.82647
        77.293  
  23635113.880   124203350.22147      -117.039    23635112.200    96781832.85244
       -91.203  
  19697300.820   104997699.20408      1900.191           0.000           0.00000
         0.000  
  23492547.800   125360731.57705       924.258    23492555.140    97502826.48206
       718.863  
  23431853.500   125080819.51107     -4252.801    23431859.760    97285105.77706
     -3307.738  
  19304246.860   103083600.03308     -1222.254    19304249.480    80176145.25408
      -950.645  
  20209216.240   108067774.45106      2738.434    20209222.240    84052730.00508
      2129.895  
  19834535.800   106101391.49004     -1998.480    19834538.700    82523312.64307
     -1554.379  
 20  5  7  5 17 55.0000000  0 15G 1G30G28G27G17G 7G 8G11G13R10R 2R18
                                R 9R20R19
  21733437.540   114209988.63448      2770.258    21733440.580    88994808.66649
      2158.641  
  20884806.540   109750399.66148        47.199    20884808.740    85519798.01249
        36.773  
  22252511.240   116937740.91349      2298.773    22252510.160    91120312.42446
      1791.254  
  24392470.240   128183291.13847     -3579.746    24392471.960    99883092.33045
     -2789.414  
  24490145.300   128696600.19445      3243.246    24490150.120   100283079.73348
      2527.203  
  21249786.940   111668380.68549     -2040.836    21249786.860    87014319.17049
     -1590.266  
  21639963.420   113718773.60848     -2516.523    21639965.300    88612039.52548
     -1960.930  
  20492986.100   107691371.51148        95.633    20492984.640    83915347.50047
        74.516  
  23635226.700   124203943.76547      -120.695    23635225.140    96782295.35645
       -94.051  
  19695519.860   104988205.55908      1896.984           0.000           0.00000
         0.000  
  23491683.880   125356121.56605       919.797    23491691.200    97499240.92606
       715.398  
  23435837.440   125102085.94906     -4253.488    23435843.660    97301646.34406
     -3308.273  
  19305392.860   103089719.71108     -1225.945    19305395.500    80180904.99708
      -953.516  
  20206656.980   108054088.94606      2735.066    20206662.980    84042085.73108
      2127.277  
  19836404.900   106111390.37504     -2001.469    19836407.900    82531089.55307
     -1556.699  
 20  5  7  5 18  0.0000000  0 15G 1G30G28G27G17G 7G 8G11G13R10R 2R18
                                R 9R20R19
  21730803.040   114196144.26748      2767.492    21730806.080    88984020.84749
      2156.488  
  20884763.320   109750172.50448        43.738    20884765.500    85519621.01749
        34.078  
  22250324.640   116926250.32349      2297.797    22250323.540    91111358.71646
      1790.492  
  24395876.320   128201190.15447     -3580.098    24395878.020    99897039.61144
     -2789.691  
  24487059.900   128680386.11046      3242.531    24487064.600   100270445.38848
      2526.645  
  21251730.240   111678592.89049     -2043.938    21251730.180    87022276.72649
     -1592.684  
  21642358.640   113731360.57448     -2517.926    21642360.520    88621847.54948
     -1962.023  
  20492896.800   107690902.13148        92.168    20492895.340    83914981.74947
        71.816  
  23635342.980   124204555.69247      -123.938    23635341.480    96782772.18744
       -96.574  
  19693742.060   104978728.89008      1893.828           0.000           0.00000
         0.000  
  23490824.200   125351533.61505       915.535    23490831.400    97495672.51206
       712.078  
  23439822.280   125123357.08006     -4255.309    23439828.460    97318190.54206
     -3309.684  
  19306542.580   103095859.05208     -1229.629    19306545.180    80185680.04108
      -956.383  
  20204101.160   108040422.09806      2731.527    20204107.220    84031455.96708
      2124.520  
  19838277.880   106121408.69604     -2005.559    19838280.720    82538881.58107
     -1559.883  
 20  5  7  5 18  5.0000000  0 15G 1G30G28G27G17G 7G 8G11G13R10R 2R18
                                R 9R20R19
  21728171.160   114182313.70548      2764.816    21728174.220    88973243.79049
      2154.402  
  20884723.340   109749962.54448        40.367    20884725.540    85519457.40449
        31.449  
  22248139.000   116914764.80249      2296.695    22248137.880    91102408.96646
      1789.633  
  24399282.740   128219091.00747     -3580.313    24399284.340    99910988.31444
     -2789.859  
  24483975.220   128664176.20745      3241.844    24483979.980   100257814.29348
      2526.113  
  21253676.340   111688819.65249     -2046.723    21253676.280    87030245.62949
     -1594.852  
  21644755.420   113743955.69648     -2519.832    21644757.300    88631661.92848
     -1963.508  
  20492810.820   107690450.25948        88.660    20492809.360    83914629.64347
        69.086  
  23635462.540   124205184.87047      -127.582    23635461.080    96783262.44944
       -99.418  
  19691967.220   104969267.86108      1890.719           0.000           0.00000
         0.000  
  23489968.420   125346966.66205       911.035    23489975.520    97492120.44606
       708.582  
  23443807.760   125144631.61807     -4254.949    23443813.900    97334737.39506
     -3309.410  
  19307695.700   103102016.77208     -1233.246    19307698.340    80190469.37408
      -959.195  
  20201548.720   108026772.61306      2728.332    20201554.680    84020839.70508
      2122.035  
  19840154.100   106131445.31504     -2009.066    19840156.980    82546687.84607
     -1562.609  
 20  5  7  5 18 10.0000000  0 15G 1G30G28G27G17G 7G 8G11G13R10R 2R18
                                R 9R20R19
  21725541.420   114168494.43648      2762.719    21725544.500    88962475.53249
      2152.770  
  20884686.180   109749767.29148        37.297    20884688.360    85519305.25849
        29.063  
  22245953.840   116903281.82749      2296.113    22245952.740    91093461.19946
      1789.180  
  24402689.020   128236991.13147     -3580.027    24402690.620    99924936.45044
     -2789.641  
  24480890.860   128647967.94646      3241.391    24480895.740   100245184.51448
      2525.758  
  21255624.720   111699058.53949     -2049.141    21255624.680    87038223.97749
     -1596.738  
  21647153.260   113756556.37548     -2521.020    21647155.140    88641480.63448
     -1964.434  
  20492727.680   107690013.40048        85.688    20492726.240    83914289.23747
        66.770  
  23635584.880   124205828.67547      -130.227    23635583.480    96783764.09644
      -101.484  
  19690194.840   104959819.96408      1888.199           0.000           0.00000
         0.000  
  23489116.100   125342418.25305       907.332    23489123.180    97488582.78506
       705.699  
  23447793.360   125165907.16307     -4255.172    23447799.520    97351285.04806
     -3309.586  
  19308851.800   103108190.46309     -1236.586    19308854.460    80195271.13308
      -961.793  
  20198999.000   108013137.94006      2725.402    20199004.920    84010234.96208
      2119.754  
  19842033.280   106141497.46304     -2011.531    19842036.120    82554506.17907
     -1564.527  
 20  5  7  5 18 15.0000000  0 15G 1G30G28G27G17G 7G 8G11G13R10R 2R18
                                R 9R20R19
  21722914.140   114154687.86048      2759.648    21722917.200    88951717.16849
      2150.375  
  20884652.060   109749588.05748        33.980    20884654.260    85519165.59449
        26.473  
  22243769.420   116891802.75649      2295.090    22243768.320    91084516.47746
      1788.383  
  24406095.420   128254891.89747     -3580.711    24406096.980    99938885.10944
     -2790.168  
  24477807.100   128631762.69445      3240.195    24477811.820   100232557.03348
      2524.824  
  21257575.660   111709310.84349     -2052.148    21257575.640    87046212.78149
     -1599.082  
  21649552.400   113769163.94348     -2522.551    21649554.280    88651304.71448
     -1965.629  
  20492647.660   107689592.89248        82.051    20492646.220    83913961.56747
        63.934  
  23635710.300   124206488.52647      -133.688    23635708.940    96784278.28944
      -104.172  
  19688425.140   104950386.52008      1885.035           0.000           0.00000
         0.000  
  23488267.380   125337889.36305       903.492    23488274.480    97485060.31106
       702.711  
  23451779.420   125187184.93906     -4256.152    23451785.560    97367834.42106
     -3310.340  
  19310011.140   103114381.33509     -1240.176    19310013.820    80200086.25208
      -964.586  
  20196452.260   107999519.59906      2721.867    20196458.220    83999642.92708
      2117.008  
  19843915.720   106151566.68805     -2016.406    19843918.460    82562337.79707
     -1568.320  
 20  5  7  5 18 20.0000000  0 15G 1G30G28G27G17G 7G 8G11G13R10R 2R18
                                R 9R20R19
  21720289.740   114140896.59248      2756.895    21720292.800    88940970.73149
      2148.230  
  20884621.520   109749427.50848        30.266    20884623.700    85519040.49249
        23.578  
  22241586.260   116880330.24949      2293.934    22241585.200    91075576.86346
      1787.477  
  24409502.440   128272795.89347     -3581.215    24409503.980    99952836.26244
     -2790.563  
  24474724.360   128615563.04646      3239.426    24474729.160   100219933.97347
      2524.230  
  21259529.640   111719579.19049     -2055.133    21259529.660    87054214.08649
     -1601.406  
  21651953.380   113781781.23148     -2524.344    21651955.280    88661136.37048
     -1967.023  
  20492571.260   107689191.33648        78.445    20492569.820    83913648.66847
        61.121  
  23635839.280   124207167.09647      -137.762    23635837.940    96784807.03644
      -107.348  
  19686658.740   104940970.52408      1881.570           0.000           0.00000
         0.000  
  23487422.960   125333383.27505       899.250    23487430.000    97481555.57606
       699.418  
  23455766.400   125208467.60007     -4256.852    23455772.500    97384387.58106
     -3310.887  
  19311174.260   103120592.13908     -1243.980    19311176.900    80204916.87308
      -967.543  
  20193909.060   107985920.11306      2718.207    20193915.060    83989065.54808
      2114.160  
  19845801.720   106161655.55105     -2019.445    19845804.480    82570184.69507
     -1570.684  
 20  5  7  5 18 25.0000000  0 15G 1G30G28G27G17G 7G 8G11G13R10R 2R18
                                R 9R20R19
  21717667.780   114127118.08348      2754.355    21717670.840    88930234.23549
      2146.246  
  20884594.020   109749283.05848        27.211    20884596.200    85518927.92949
        21.199  
  22239403.880   116868861.69749      2293.305    22239402.860    91066640.32746
      1786.988  
  24412909.620   128290700.58447     -3581.117    24412911.240    99966787.95644
     -2790.488  
  24471642.180   128599366.43345      3239.102    24471647.080   100207313.20148
      2523.973  
  21261486.220   111729861.02749     -2057.668    21261486.220    87062225.90349
     -1603.383  
  21654355.720   113794405.59548     -2525.617    21654357.640    88670973.53148
     -1968.016  
  20492497.940   107688806.15548        75.141    20492496.560    83913348.52547
        58.551  
  23635971.320   124207861.74347      -140.969    23635970.120    96785348.30944
      -109.852  
  19684895.100   104931569.25808      1878.641           0.000           0.00000
         0.000  
  23486582.180   125328896.90906       895.078    23486589.180    97478066.18706
       696.168  
  23459753.780   125229752.68907     -4256.918    23459759.920    97400942.66306
     -3310.941  
  19312340.580   103126820.30008     -1247.461    19312343.240    80209761.00108
      -970.246  
  20191368.960   107972336.98106      2714.840    20191374.940    83978500.90108
      2111.543  
  19847690.900   106171761.38005     -2022.852    19847693.660    82578044.78407
     -1573.328  
 20  5  7  5 18 30.0000000  0 15G 1G30G28G27G17G 7G 8G11G13R10R 2R18
                                R 9R20R19
  21715048.140   114113351.94548      2752.074    21715051.240    88919507.38149
      2144.473  
  20884569.500   109749154.33548        24.242    20884571.680    85518827.62249
        18.887  
  22237222.160   116857396.75449      2292.805    22237221.180    91057706.61346
      1786.602  
  24416316.820   128308605.52247     -3580.988    24416318.400    99980739.82944
     -2790.387  
  24468560.480   128583172.48645      3238.676    24468565.400   100194694.53948
      2523.645  
  21263445.260   111740155.95649     -2060.133    21263445.280    87070247.92249
     -1605.301  
  21656759.320   113807036.47248     -2526.840    21656761.180    88680815.76648
     -1968.969  
  20492427.720   107688436.96248        72.262    20492426.320    83913060.85347
        56.309  
  23636106.340   124208572.06147      -143.699    23636105.120    96785901.81244
      -111.977  
  19683134.120   104922182.20908      1876.223           0.000           0.00000
         0.000  
  23485745.160   125324429.99605       891.254    23485752.100    97474591.92306
       693.195  
  23463741.560   125251039.62806     -4257.367    23463747.680    97417499.16706
     -3311.285  
  19313510.080   103133065.36709     -1250.629    19313512.740    80214618.27308
      -972.715  
  20188831.760   107958769.76206      2711.648    20188837.800    83967948.62108
      2109.059  
  19849583.160   106181883.80205     -2026.227    19849585.960    82585917.78507
     -1575.953  
 20  5  7  5 18 35.0000000  0 15G 1G30G28G27G17G 7G 8G11G13R10R 2R18
                                R 9R20R19
  21712431.260   114099600.18248      2748.574    21712434.360    88908791.71949
      2141.746  
  20884548.360   109749043.28148        20.289    20884550.540    85518741.08049
        15.805  
  22235041.500   116845937.35849      2291.082    22235040.560    91048777.22046
      1785.258  
  24419724.440   128326512.66547     -3581.824    24419726.040    99994693.44944
     -2791.035  
  24465479.740   128566983.20745      3237.359    24465484.660   100182079.59248
      2522.625  
  21265407.180   111750465.91349     -2063.605    21265407.220    87078281.65049
     -1608.008  
  21659164.500   113819675.84648     -2528.973    21659166.400    88690664.63248
     -1970.633  
  20492360.900   107688085.70848        68.238    20492359.520    83912787.14247
        53.168  
  23636244.760   124209300.04447      -147.859    23636243.600    96786469.06144
      -115.215  
  19681376.160   104912811.34908      1872.367           0.000           0.00000
         0.000  
  23484912.220   125319984.69806       886.113    23484919.040    97471134.47506
       689.199  
  23467729.960   125272330.25608     -4258.449    23467736.100    97434058.51706
     -3312.133  
  19314683.100   103139329.28508     -1254.879    19314685.760    80219490.20508
      -976.020  
  20186297.940   107945220.49306      2707.840    20186304.000    83957410.30408
      2106.098  
  19851478.920   106192024.88505     -2029.922    19851481.720    82593805.29207
     -1578.828  
 20  5  7  5 18 40.0000000  0 15G 1G30G28G27G17G 7G 8G11G13R10R 2R18
                                R 9R20R19
  21709817.360   114085863.99848      2746.094    21709820.440    88898088.20749
      2139.813  
  20884530.840   109748951.14948        17.035    20884532.980    85518669.29249
        13.270  
  22232862.140   116834484.78449      2290.355    22232861.200    91039853.13646
      1784.691  
  24423132.720   128344423.32147     -3582.027    24423134.440   100008649.79444
     -2791.195  
  24462400.160   128550799.97045      3236.035    24462405.000   100169469.21948
      2521.578  
  21267372.180   111760792.18149     -2066.289    21267372.240    87086328.08749
     -1610.098  
  21661571.540   113832324.97148     -2530.195    21661573.440    88700521.09348
     -1971.582  
  20492297.720   107687753.66348        65.121    20492296.340    83912528.41247
        50.742  
  23636386.820   124210046.92647      -150.582    23636385.620    96787051.04344
      -117.340  
  19679621.500   104903458.13608      1869.430           0.000           0.00000
         0.000  
  23484083.480   125315562.11605       883.008    23484090.220    97467694.67406
       686.781  
  23471719.500   125293626.34507     -4259.027    23471725.560    97450622.15606
     -3312.582  
  19315859.880   103145613.35509     -1258.410    19315862.560    80224377.81308
      -978.766  
  20183767.780   107931690.43306      2704.848    20183773.820    83946886.93408
      2103.770  
  19853378.440   106202185.94005     -2033.371    19853381.220    82601708.33907
     -1581.512  
 20  5  7  5 18 45.0000000  0 15G 1G30G28G27G17G 7G 8G11G13R10R 2R18
                                R 9R20R19
  21707205.720   114072139.67149      2743.660    21707208.780    88887393.93249
      2137.918  
  20884516.160   109748874.14548        13.867    20884518.320    85518609.28649
        10.801  
  22230683.360   116823035.22049      2289.512    22230682.400    91030931.40046
      1784.035  
  24426540.920   128362333.64147     -3581.887    24426542.820   100022605.93643
     -2791.078  
  24459321.000   128534618.63646      3236.348    24459325.800   100156860.41348
      2521.828  
  21269339.580   111771130.91449     -2069.027    21269339.620    87094384.24149
     -1612.234  
  21663979.780   113844980.26648     -2531.570    21663981.660    88710382.36448
     -1972.656  
  20492237.480   107687437.03748        61.707    20492236.100    83912281.69847
        48.082  
  23636531.760   124210808.93847      -153.984    23636530.620    96787644.81245
      -119.992  
  19677869.380   104894118.41208      1866.605           0.000           0.00000
         0.000  
  23483258.340   125311158.39705       878.512    23483264.960    97464269.57806
       683.285  
  23475709.200   125314923.50105     -4259.879    23475715.260    97467186.57706
     -3313.242  
  19317039.720   103151913.74208     -1261.719    19317042.420    80229278.11408
      -981.340  
  20181240.480   107918175.68506      2701.395    20181246.460    83936375.47208
      2101.086  
  19855281.040   106212362.75705     -2036.281    19855283.700    82609623.63607
     -1583.777  
 20  5  7  5 18 50.0000000  0 15G 1G30G28G27G17G 7G 8G11G13R10R 2R18
                                R 9R20R19
  21704596.060   114058425.77148      2741.469    21704599.100    88876707.78449
      2136.211  
  20884504.120   109748810.89848        10.945    20884506.280    85518560.00549
         8.523  
  22228504.840   116811587.23149      2289.156    22228503.900    91022010.89546
      1783.758  
  24429948.820   128380242.19547     -3581.914    24429950.720   100036560.59244
     -2791.109  
  24456242.020   128518438.12246      3235.750    24456246.700   100144252.23548
      2521.363  
  21271309.080   111781480.68849     -2071.348    21271309.120    87102448.99149
     -1614.043  
  21666388.880   113857640.12748     -2532.703    21666390.760    88720247.18448
     -1973.539  
  20492179.920   107687134.42348        58.961    20492178.500    83912045.89547
        45.941  
  23636679.280   124211584.58647      -156.926    23636678.280    96788249.22644
      -122.281  
  19676119.600   104884790.94508      1863.863           0.000           0.00000
         0.000  
  23482436.340   125306772.37806       875.066    23482443.000    97460858.22006
       680.602  
  23479698.880   125336220.43507     -4259.941    23479704.900    97483750.86606
     -3313.289  
  19318222.380   103158229.01908     -1264.863    19318225.080    80234189.98508
      -983.785  
  20178715.760   107904674.92906      2698.523    20178721.740    83925874.88508
      2098.852  
  19857186.140   106222554.20105     -2039.852    19857188.880    82617550.31907
     -1586.551  
 20  5  7  5 18 55.0000000  0 15G 1G30G28G27G17G 7G 8G11G13R10R 2R18
                                R 9R20R19
  21701989.140   114044726.27248      2738.367    21701992.160    88866032.85249
      2133.789  
  20884495.440   109748765.31048         7.125    20884497.580    85518524.47649
         5.547  
  22226327.400   116800144.79549      2287.895    22226326.460    91013094.71646
      1782.773  
  24433357.160   128398152.94547     -3582.531    24433358.920   100050516.99944
     -2791.586  
  24453163.820   128502262.17445      3235.074    24453168.520   100131647.64148
      2520.840  
  21273281.440   111791845.45749     -2074.594    21273281.480    87110525.42949
     -1616.570  
  21668799.580   113870308.41048     -2534.625    21668801.440    88730118.56748
     -1975.035  
  20492125.760   107686849.77948        54.887    20492124.360    83911824.09347
        42.770  
  23636830.220   124212377.91047      -160.563    23636829.220    96788867.39445
      -125.117  
  19674372.900   104875479.97908      1860.457           0.000           0.00000
         0.000  
  23481618.380   125302407.55505       870.805    23481624.980    97457463.35306
       677.289  
  23483689.320   125357521.32807     -4260.691    23483695.260    97500318.23507
     -3313.879  
  19319408.540   103164563.20508     -1268.863    19319411.280    80239116.57608
      -986.895  
  20176194.360   107891192.20906      2694.168    20176200.400    83915388.32608
      2095.465  
  19859094.760   106232764.07905     -2043.914    19859097.540    82625491.34007
     -1589.711  
 20  5  7  5 19  0.0000000  0 15G 1G30G28G27G17G 7G 8G11G13R10R 2R18
                                R 9R20R19
  21699384.800   114031040.24949      2735.746    21699387.800    88855368.42549
      2131.750  
  20884489.960   109748736.46348         4.234    20884492.080    85518501.99949
         3.297  
  22224150.880   116788706.97749      2287.207    22224149.860    91004182.12446
      1782.234  
  24436765.700   128416064.95747     -3582.555    24436767.460   100064474.42343
     -2791.605  
  24450086.360   128486090.04246      3234.195    24450091.040   100119045.98648
      2520.152  
  21275256.480   111802224.29249     -2077.047    21275256.500    87118612.82849
     -1618.480  
  21671211.720   113882984.28948     -2535.859    21671213.600    88739995.87748
     -1976.000  
  20492074.840   107686582.12748        51.895    20492073.400    83911615.52847
        40.434  
  23636984.340   124213187.94247      -163.660    23636983.400    96789498.57245
      -127.531  
  19672629.080   104866184.42908      1857.773           0.000           0.00000
         0.000  
  23480804.340   125298063.61206       866.969    23480810.900    97454084.73306
       674.305  
  23487680.260   125378825.04205     -4260.930    23487686.180    97516887.79706
     -3314.055  
  19320598.060   103170915.22308     -1272.105    19320600.800    80244057.03108
      -989.418  
  20173676.220   107877726.45806      2691.406    20173682.240    83904914.97408
      2093.316  
  19861006.600   106242991.62105     -2047.492    19861009.480    82633446.09007
     -1592.496  
 20  5  7  5 19  5.0000000  0 15G 1G30G28G27G17G 7G 8G11G13R10R 2R18
                                R 9R20R19
  21696783.100   114017368.22149      2732.980    21696786.100    88844714.90349
      2129.594  
  20884487.720   109748724.88348         0.277    20884489.880    85518492.97049
         0.211  
  22221975.300   116777274.31649      2285.883    22221974.260    90995273.56146
      1781.203  
  24440174.560   128433978.69247     -3583.188    24440176.360   100078433.16744
     -2792.094  
  24447009.680   128469922.18745      3232.164    24447014.400   100106447.63948
      2518.570  
  21277234.260   111812617.68049     -2080.465    21277234.300    87126711.57249
     -1621.145  
  21673625.420   113895668.30248     -2537.723    21673627.280    88749879.52648
     -1977.449  
  20492027.280   107686332.02148        48.117    20492025.840    83911420.64747
        37.492  
  23637141.740   124214015.10847      -167.238    23637140.820    96790143.13145
      -130.320  
  19670888.240   104856904.78608      1854.234           0.000           0.00000
         0.000  
  23479994.180   125293740.68805       862.648    23480000.820    97450722.44506
       670.945  
  23491671.740   125400131.91107     -4262.195    23491677.680    97533459.76607
     -3315.043  
  19321791.020   103177285.77908     -1276.180    19321793.800    80249011.90808
      -992.590  
  20171161.260   107864278.21106      2687.656    20171167.320    83894455.22608
      2090.398  
  19862922.060   106253237.16805     -2050.762    19862924.780    82641414.85007
     -1595.035  
 20  5  7  5 19 10.0000000  0 15G 1G30G28G27G17G 7G 8G11G13R10R 2R18
                                R 9R20R19
  21694184.100   114003710.36049      2730.371    21694187.100    88834072.41849
      2127.563  
  20884488.820   109748730.68848        -2.629    20884490.960    85518497.48949
        -2.051  
  22219800.740   116765846.94749      2285.059    22219799.760    90986369.12646
      1780.566  
  24443583.780   128451894.33847     -3583.000    24443585.520   100092393.38644
     -2791.953  
  24443933.780   128453758.67845      3232.617    24443938.620   100093852.73548
      2518.926  
  21279214.860   111823025.74349     -2082.945    21279214.900    87134821.74349
     -1623.078  
  21676040.680   113908360.57148     -2539.047    21676042.520    88759769.59248
     -1978.480  
  20491983.080   107686099.59648        45.012    20491981.620    83911239.54347
        35.074  
  23637302.460   124214859.69047      -170.488    23637301.580    96790801.23944
      -132.852  
  19669150.420   104847641.13408      1851.488           0.000           0.00000
         0.000  
  23479188.080   125289439.03206       858.262    23479194.740    97447376.74106
       667.535  
  23495663.860   125421442.45507     -4262.227    23495669.860    97550034.64006
     -3315.074  
  19322987.520   103183674.86508     -1279.516    19322990.280    80253981.19108
      -995.184  
  20168649.660   107850847.73306      2684.793    20168655.760    83884009.30308
      2088.172  
  19864840.800   106263500.93805     -2054.875    19864843.480    82649397.78407
     -1598.238  
 20  5  7  5 19 15.0000000  0 15G 1G30G28G27G17G 7G 8G11G13R10R 2R18
                                R 9R20R19
  21691587.800   113990066.55149      2727.746    21691590.760    88823440.88749
      2125.516  
  20884493.200   109748753.81248        -6.027    20884495.360    85518515.50649
        -4.699  
  22217627.180   116754424.77049      2284.047    22217626.200    90977468.72846
      1779.777  
  24446993.360   128469811.74447     -3583.617    24446995.000   100106354.98344
     -2792.438  
  24440858.740   128437599.48346      3231.680    24440863.620   100081261.17248
      2518.191  
  21281198.220   111833448.38349     -2085.824    21281198.280    87142943.28149
     -1625.320  
  21678457.500   113921060.89648     -2540.707    21678459.320    88769665.94948
     -1979.777  
  20491942.220   107685884.72848        41.441    20491940.700    83911072.11847
        32.293  
  23637466.500   124215721.50847      -173.629    23637465.720    96791472.77544
      -135.301  
  19667415.560   104838393.45008      1848.195           0.000           0.00000
         0.000  
  23478385.920   125285158.39806       854.266    23478392.480    97444047.33906
       664.426  
  23499656.700   125442756.26806     -4263.418    23499662.640    97566612.04807
     -3315.992  
  19324187.440   103190082.50708     -1283.199    19324190.220    80258964.91008
      -998.047  
  20166141.260   107837434.85906      2681.055    20166147.460    83873577.07408
      2085.266  
  19866762.840   106273782.74905     -2058.215    19866765.580    82657394.74507
     -1600.836  
 20  5  7  5 19 20.0000000  0 15G 1G30G28G27G17G 7G 8G11G13R10R 2R18
                                R 9R20R19
  21688993.860   113976435.30249      2725.230    21688996.820    88812819.13449
      2123.551  
  20884500.600   109748792.70548        -9.176    20884502.740    85518545.81649
        -7.152  
  22215454.280   116743006.26749      2283.535    22215453.360    90968571.19946
      1779.379  
  24450402.960   128487729.41047     -3583.504    24450404.600   100120316.82945
     -2792.336  
  24437784.260   128421443.06545      3231.223    24437789.100   100068671.72548
      2517.828  
  21283184.100   111843884.10049     -2088.227    21283184.140    87151075.00249
     -1627.195  
  21680875.560   113933767.76648     -2541.898    21680877.340    88779567.41848
     -1980.699  
  20491904.380   107685685.86748        38.395    20491902.860    83910917.15147
        29.914  
  23637633.540   124216599.03348      -176.918    23637632.800    96792156.56344
      -137.863  
  19665683.460   104829160.29108      1845.344           0.000           0.00000
         0.000  
  23477587.460   125280897.47806       850.566    23477593.920    97440733.30206
       661.551  
  23503649.820   125464071.78707     -4263.070    23503655.780    97583190.76307
     -3315.727  
  19325390.580   103196507.08708     -1286.363    19325393.360    80263961.80608
     -1000.508  
  20163636.060   107824038.16406      2677.816    20163642.200    83863157.42908
      2082.746  
  19868688.080   106284081.16105     -2061.699    19868690.760    82665404.62207
     -1603.547  
 20  5  7  5 19 25.0000000  0 15G 1G30G28G27G17G 7G 8G11G13R10R 2R18
                                R 9R20R19
  21686402.340   113962816.74848      2722.328    21686405.280    88802207.27849
      2121.293  
  20884511.020   109748847.49448       -12.672    20884513.140    85518588.51149
        -9.879  
  22213282.140   116731591.57549      2282.543    22213281.220    90959676.64346
      1778.605  
  24453812.620   128505647.41347     -3583.730    24453814.340   100134278.86643
     -2792.523  
  24434710.340   128405289.54146      3230.211    24434715.200   100056084.59347
      2517.051  
  21285172.460   111854332.94049     -2091.102    21285172.500    87159216.95349
     -1629.434  
  21683294.880   113946481.41548     -2543.383    21683296.700    88789474.14848
     -1981.859  
  20491869.620   107685503.16548        34.867    20491868.060    83910774.79047
        27.168  
  23637803.560   124217492.39447      -180.246    23637803.040    96792852.70144
      -140.453  
  19663954.060   104819941.62408      1842.387           0.000           0.00000
         0.000  
  23476792.660   125276656.10506       846.086    23476799.060    97437434.45206
       658.063  
  23507643.320   125485389.43107     -4263.508    23507649.300    97599771.16207
     -3316.066  
  19326596.840   103202948.63508     -1290.004    19326599.640    80268971.89908
     -1003.340  
  20161133.860   107810657.49306      2674.184    20161139.940    83852750.24208
      2079.922  
  19870616.420   106294396.08605     -2063.945    19870619.040    82673427.34807
     -1605.289  
 20  5  7  5 19 30.0000000  0 15G 1G30G28G27G17G 7G 8G11G13R10R 2R18
                                R 9R20R19
  21683813.440   113949212.01349      2719.305    21683816.360    88791606.19049
      2118.938  
  20884524.680   109748919.31248       -16.336    20884526.800    85518644.47149
       -12.734  
  22211110.920   116720181.84249      2281.301    22211110.000    90950785.94646
      1777.637  
  24457222.560   128523566.93947     -3584.449    24457224.420   100148242.10343
     -2793.086  
  24431637.180   128389140.03945      3230.008    24431642.100   100043500.59748
      2516.895  
  21287163.540   111864796.09449     -2094.367    21287163.580    87167370.05249
     -1631.977  
  21685715.700   113959202.78448     -2545.371    21685717.480    88799386.90548
     -1983.410  
  20491838.160   107685337.77648        30.926    20491836.580    83910645.91747
        24.098  
  23637976.840   124218402.75047      -183.898    23637976.340    96793562.06344
      -143.297  
  19662227.600   104810738.64808      1838.828           0.000           0.00000
         0.000  
  23476001.800   125272435.92705       841.879    23476008.240    97434152.09006
       654.789  
  23511637.300   125506709.93806     -4264.789    23511643.360    97616353.77307
     -3317.063  
  19327806.540   103209408.45908     -1294.156    19327809.380    80273996.20008
     -1006.570  
  20158634.920   107797294.31906      2670.238    20158640.940    83842356.67008
      2076.852  
  19872548.040   106304728.86005     -2069.258    19872550.660    82681463.94907
     -1609.215  
 20  5  7  5 19 35.0000000  0 15G 1G30G28G27G17G 7G 8G11G13R10R 2R18
                                R 9R20R19
  21681227.380   113935622.22449      2716.516    21681230.300    88781016.74849
      2116.766  
  20884541.800   109749009.25448       -19.762    20884543.900    85518714.55249
       -15.402  
  22208940.840   116708778.15049      2280.340    22208939.900    90941899.95446
      1776.887  
  24460633.020   128541489.01247     -3584.520    24460634.860   100162207.37243
     -2793.133  
  24428564.940   128372995.75845      3229.121    24428569.820   100030920.65048
      2516.199  
  21289157.540   111875274.62949     -2097.156    21289157.580    87175535.13649
     -1634.152  
  21688138.200   113971933.04548     -2546.797    21688139.960    88809306.58848
     -1984.520  
  20491810.200   107685190.75448        27.676    20491808.540    83910531.35247
        21.563  
  23638153.540   124219331.17347      -187.527    23638153.180    96794285.47944
      -146.133  
  19660504.320   104801552.67508      1835.480           0.000           0.00000
         0.000  
  23475214.980   125268237.55906       837.336    23475221.480    97430886.70806
       651.262  
  23515632.200   125528034.68407     -4265.145    23515638.220    97632939.67407
     -3317.340  
  19329019.880   103215887.66208     -1297.789    19329022.720    80279035.57808
     -1009.395  
  20156139.340   107783949.61206      2667.031    20156145.420    83831977.45808
      2074.359  
  19874483.100   106315080.47405     -2072.621    19874485.800    82689515.20707
     -1612.039  
 20  5  7  5 19 40.0000000  0 15G 1G30G28G27G17G 7G 8G11G13R10R 2R18
                                R 9R20R19
  21678643.960   113922046.18449      2713.863    21678646.860    88770438.02149
      2114.699  
  20884562.160   109749116.13948       -22.895    20884564.220    85518797.83549
       -17.844  
  22206771.700   116697379.29549      2279.414    22206770.740    90933017.73146
      1776.168  
  24464043.720   128559412.44047     -3584.434    24464045.540   100176173.67244
     -2793.070  
  24425493.600   128356855.45845      3227.570    24425498.360   100018343.80748
      2514.988  
  21291154.260   111885767.30649     -2099.926    21291154.280    87183711.25249
     -1636.309  
  21690562.120   113984670.94648     -2548.160    21690563.920    88819232.22148
     -1985.582  
  20491785.520   107685060.93348        24.277    20491783.860    83910430.19547
        18.914  
  23638333.460   124220276.42347      -190.773    23638333.080    96795022.04345
      -148.660  
  19658783.980   104792382.34908      1832.680           0.000           0.00000
         0.000  
  23474432.100   125264059.88106       833.445    23474438.580    97427637.39706
       648.230  
  23519627.600   125549362.32306     -4266.008    23519633.620    97649527.84007
     -3318.012  
  19330236.620   103222384.96108     -1301.406    19330239.460    80284089.03508
     -1012.207  
  20153647.100   107770622.21206      2663.703    20153653.100    83821611.70708
      2071.770  
  19876421.560   106325449.64205     -2075.840    19876424.200    82697580.11307
     -1614.543  
 20  5  7  5 19 45.0000000  0 15G 1G30G28G27G17G 7G 8G11G13R10R 2R18
                                R 9R20R19
  21676062.840   113908482.24349      2712.105    21676065.700    88759868.71949
      2113.328  
  20884585.380   109749238.28748       -25.551    20884587.440    85518893.01349
       -19.914  
  22204603.180   116685983.64849      2279.316    22204602.180    90924138.01346
      1776.090  
  24467454.400   128577335.54847     -3583.785    24467456.160   100190139.71844
     -2792.563  
  24422422.640   128340717.43445      3227.098    24422427.340   100005768.72348
      2514.621  
  21293153.340   111896272.49049     -2101.848    21293153.340    87191897.10149
     -1637.809  
  21692987.200   113997414.85448     -2548.922    21692989.000    88829162.54348
     -1986.176  
  20491763.760   107684946.62048        21.848    20491762.100    83910341.12247
        17.020  
  23638516.280   124221236.83048      -193.219    23638515.920    96795770.42145
      -150.559  
  19657066.260   104783225.91008      1830.250           0.000           0.00000
         0.000  
  23473652.680   125259901.51705       830.164    23473659.220    97424403.08806
       645.676  
  23523623.180   125570691.00307     -4265.250    23523629.200    97666116.79307
     -3317.422  
  19331456.440   103228898.64408     -1303.961    19331459.280    80289155.22908
     -1014.191  
  20151157.760   107757310.46606      2661.102    20151163.740    83811258.13108
      2069.746  
  19878362.940   106335834.75605     -2078.109    19878365.600    82705657.42807
     -1616.309  
 20  5  7  5 19 50.0000000  0 15G 1G30G28G27G17G 7G 8G11G13R10R 2R18
                                R 9R20R19
  21673484.040   113894930.51949      2708.984    21673486.880    88749308.94049
      2110.898  
  20884611.540   109749375.78548       -29.250    20884613.600    85519000.15449
       -22.797  
  22202435.280   116674591.30149      2278.047    22202434.300    90915260.84746
      1775.098  
  24470865.040   128595258.46947     -3584.578    24470866.600   100204105.60444
     -2793.188  
  24419352.200   128324581.66646      3226.684    24419356.820    99993195.43848
      2514.305  
  21295154.820   111906790.28549     -2104.934    21295154.820    87200092.78249
     -1640.211  
  21695413.460   114010164.94148     -2550.707    21695415.260    88839097.67448
     -1987.563  
  20491744.980   107684847.93948        18.156    20491743.320    83910264.22747
        14.148  
  23638702.020   124222212.53548      -196.871    23638701.720    96796530.71645
      -153.406  
  19655351.160   104774083.55808      1826.977           0.000           0.00000
         0.000  
  23472876.900   125255762.16205       825.645    23472883.460    97421183.61606
       642.168  
  23527619.000   125592021.10907     -4266.035    23527625.080    97682706.87207
     -3318.031  
  19332679.340   103235428.84108     -1307.832    19332682.180    80294234.26808
     -1017.207  
  20148671.300   107744014.35406      2657.441    20148677.260    83800916.71508
      2066.898  
  19880307.300   106346235.90405     -2082.051    19880309.980    82713747.20807
     -1619.375  
 20  5  7  5 19 55.0000000  0 15G 1G30G28G27G17G 7G 8G11G13R10R 2R18
                                R 9R20R19
  21670907.980   113881393.26349      2705.930    21670910.800    88738760.43149
      2108.516  
  20884641.060   109749530.93048       -32.973    20884643.100    85519121.04049
       -25.695  
  22200268.440   116663204.45449      2276.688    22200267.480    90906387.98946
      1774.043  
  24474276.080   128613183.42947     -3585.199    24474277.760   100218073.09344
     -2793.664  
  24416282.480   128308450.57044      3225.633    24416287.080    99980625.71249
      2513.477  
  21297159.140   111917322.87949     -2108.051    21297159.120    87208299.99449
     -1642.641  
  21697841.280   114022923.27148     -2552.523    21697843.100    88849039.22448
     -1988.984  
  20491729.600   107684767.12248        14.094    20491727.940    83910201.25747
        10.980  
  23638891.120   124223205.76148      -200.730    23638890.800    96797304.65844
      -156.418  
  19653639.160   104764957.71508      1823.430           0.000           0.00000
         0.000  
  23472105.280   125251644.43106       821.262    23472111.780    97417980.93406
       638.758  
  23531615.540   125613354.67306     -4266.996    23531621.580    97699299.63207
     -3318.777  
  19333905.740   103241977.81508     -1311.801    19333908.600    80299327.91308
     -1020.293  
  20146188.220   107730736.26306      2653.867    20146194.200    83790589.31708
      2064.117  
  19882255.100   106356655.36905     -2085.863    19882257.820    82721851.23407
     -1622.344  
 20  5  7  5 20  0.0000000  0 15G 1G30G28G27G17G 7G 8G11G13R10R 2R18
                                R 9R20R19
  21668334.920   113867871.78748      2702.797    21668337.740    88728224.21849
      2106.074  
  20884674.160   109749704.92148       -36.461    20884676.180    85519256.61649
       -28.414  
  22198102.880   116651824.39149      2275.465    22198101.920    90897520.41246
      1773.090  
  24477687.740   128631111.60847     -3585.742    24477689.400   100232043.10244
     -2794.090  
  24413213.960   128292325.43046      3224.672    24413218.620    99968060.71447
      2512.734  
  21299166.520   111927871.57849     -2111.191    21299166.480    87216519.75549
     -1645.090  
  21700270.960   114035691.19748     -2554.270    21700272.740    88858988.26148
     -1990.340  
  20491717.880   107684705.43348        10.609    20491716.200    83910153.18647
         8.266  
  23639083.780   124224217.74747      -203.957    23639083.440    96798093.19644
      -158.930  
  19651930.480   104755849.49408      1819.973           0.000           0.00000
         0.000  
  23471337.920   125247549.38906       816.984    23471344.440    97414795.90206
       635.430  
  23535612.960   125634693.12707     -4267.727    23535619.020    97715896.20607
     -3319.348  
  19335135.900   103248546.86508     -1315.641    19335138.780    80304437.17208
     -1023.281  
  20143708.720   107717477.49006      2650.008    20143714.720    83780276.94408
      2061.117  
  19884206.700   106367094.27905     -2089.660    19884209.240    82729970.38807
     -1625.297  
 20  5  7  5 20  5.0000000  0 15G 1G30G28G27G17G 7G 8G11G13R10R 2R18
                                R 9R20R19
  21665764.180   113854362.45448      2700.645    21665766.980    88717697.47149
      2104.398  
  20884710.180   109749894.23448       -39.371    20884712.200    85519404.13249
       -30.680  
  22195937.940   116640447.57649      2275.004    22195937.000    90888655.37746
      1772.730  
  24481099.300   128649039.50347     -3585.336    24481100.980   100246012.90344
     -2793.773  
  24410145.920   128276202.57245      3224.477    24410150.520    99955497.44748
      2512.574  
  21301176.260   111938432.78549     -2113.590    21301176.220    87224749.26349
     -1646.957  
  21702701.780   114048465.15348     -2555.453    21702703.560    88868941.99148
     -1991.266  
  20491709.120   107684659.27848         7.602    20491707.440    83910117.22747
         5.922  
  23639279.360   124225244.99348      -206.992    23639279.080    96798893.65644
      -161.293  
  19650224.460   104746755.34108      1817.551           0.000           0.00000
         0.000  
  23470574.100   125243473.48306       813.211    23470580.660    97411625.74906
       632.492  
  23539610.540   125656032.72106     -4268.184    23539616.660    97732493.65707
     -3319.703  
  19336369.140   103255132.35408     -1318.699    19336372.040    80309559.21908
     -1025.660  
  20141232.200   107704234.39706      2646.809    20141238.200    83769976.76708
      2058.629  
  19886161.060   106377549.10805     -2092.844    19886163.660    82738101.92007
     -1627.766  
 20  5  7  5 20 10.0000000  0 15G 1G30G28G27G17G 7G 8G11G13R10R 2R18
                                R 9R20R19
  21663195.680   113840864.93249      2698.477    21663198.460    88707179.92649
      2102.711  
  20884749.040   109750098.46648       -42.109    20884751.060    85519563.27649
       -32.813  
  22193773.520   116629073.59349      2274.688    22193772.600    90879792.53346
      1772.484  
  24484510.700   128666966.70247     -3585.176    24484512.560   100259982.11844
     -2793.652  
  24407078.200   128260081.75546      3224.098    24407082.760    99942935.78848
      2512.375  
  21303188.320   111949006.07449     -2115.824    21303188.260    87232988.18849
     -1648.699  
  21705133.660   114061244.65148     -2556.246    21705135.400    88878900.03948
     -1991.883  
  20491703.200   107684628.26848         4.863    20491701.520    83910093.06147
         3.789  
  23639477.740   124226286.99348      -209.801    23639477.500    96799705.60645
      -163.480  
  19648520.940   104737674.81008      1814.766           0.000           0.00000
         0.000  
  23469813.760   125239416.43306       809.574    23469820.360    97408470.24805
       629.664  
  23543608.320   125677373.16607     -4268.086    23543614.460    97749091.76807
     -3319.625  
  19337605.400   103261733.81408     -1321.715    19337608.300    80314693.68408
     -1028.000  
  20138758.520   107691006.52406      2644.148    20138764.520    83759688.42508
      2056.559  
  19888118.240   106388019.39405     -2095.699    19888120.980    82746245.48207
     -1629.988  
 20  5  7  5 20 15.0000000  0 15G 1G30G28G27G17G 7G 8G11G13R10R 2R18
                                R 9R20R19
  21660630.140   113827382.83949      2694.750    21660632.880    88696674.39949
      2099.805  
  20884791.420   109750321.20348       -46.473    20884793.460    85519736.83549
       -36.215  
  22191610.340   116617706.06349      2272.750    22191609.460    90870934.72246
      1770.973  
  24487922.700   128684896.78847     -3585.980    24487924.400   100273953.60243
     -2794.270  
  24404011.500   128243966.37946      3222.367    24404016.120    99930378.38747
      2510.938  
  21305203.380   111959595.10749     -2119.410    21305203.280    87241239.37449
     -1651.492  
  21707567.260   114074033.36048     -2558.715    21707569.020    88888865.26148
     -1993.805  
  20491700.860   107684616.02448         0.398    20491699.180    83910083.52047
         0.305  
  23639679.640   124227347.39648      -214.055    23639679.360    96800531.89044
      -166.797  
  19646820.700   104728611.63008      1810.684           0.000           0.00000
         0.000  
  23469057.620   125235381.69805       804.809    23469064.140    97405332.13406
       625.961  
  23547606.920   125698718.02006     -4269.680    23547613.100    97765693.32807
     -3320.867  
  19338845.300   103268354.98508     -1326.191    19338848.240    80319843.47708
     -1031.484  
  20136288.320   107677797.58106      2639.730    20136294.360    83749414.80508
      2053.125  
  19890079.100   106398508.89505     -2099.766    19890081.860    82754403.97407
     -1633.156  
 20  5  7  5 20 20.0000000  0 15G 1G30G28G27G17G 7G 8G11G13R10R 2R18
                                R 9R20R19
  21658067.080   113813913.83949      2692.602    21658069.780    88686179.07849
      2098.133  
  20884836.860   109750560.12648       -49.285    20884838.920    85519923.00749
       -38.402  
  22189447.960   116606342.67149      2272.402    22189447.060    90862080.13146
      1770.703  
  24491334.760   128702827.43247     -3586.070    24491336.500   100287925.54044
     -2794.344  
  24400945.400   128227854.31245      3222.098    24400950.100    99917823.52747
      2510.723  
  21307220.960   111970197.48649     -2121.680    21307220.840    87249500.96449
     -1653.262  
  21710002.200   114086828.91748     -2559.719    21710003.940    88898835.83348
     -1994.590  
  20491701.660   107684620.15748        -2.285    20491700.000    83910086.73947
        -1.781  
  23639884.640   124228423.89348      -216.777    23639884.320    96801370.72744
      -168.922  
  19645123.280   104719563.57008      1808.250           0.000           0.00000
         0.000  
  23468305.220   125231367.15906       800.816    23468311.720    97402209.72706
       622.855  
  23551605.880   125720064.69207     -4269.254    23551612.060    97782296.28107
     -3320.535  
  19340088.480   103274993.45908     -1329.254    19340091.400    80325006.73308
     -1033.867  
  20133821.240   107664605.25506      2636.742    20133827.340    83739154.11308
      2050.801  
  19892043.120   106409015.01305     -2102.969    19892045.880    82762575.40007
     -1635.645  
 20  5  7  5 20 25.0000000  0 15G 1G30G28G27G17G 7G 8G11G13R10R 2R18
                                R 9R20R19
  21655506.560   113800458.13248      2689.406    21655509.220    88675694.11349
      2095.637  
  20884885.420   109750815.42148       -53.223    20884887.500    85520121.93649
       -41.477  
  22187286.420   116594983.57849      2270.824    22187285.480    90853228.88646
      1769.469  
  24494746.960   128720758.79046     -3586.801    24494748.620   100301897.99844
     -2795.047  
  24397879.960   128211745.53945      3220.973    24397884.680    99905271.28648
      2509.852  
  21309241.120   111980813.39049     -2125.148    21309240.980    87257773.09549
     -1655.965  
  21712438.460   114099631.55048     -2561.902    21712440.200    88908811.91148
     -1996.293  
  20491705.620   107684640.90948        -6.391    20491703.980    83910102.91647
        -4.980  
  23640092.700   124229516.64348      -220.836    23640092.360    96802222.21145
      -172.082  
  19643428.720   104710530.77208      1804.469           0.000           0.00000
         0.000  
  23467556.640   125227372.70706       796.098    23467563.160    97399102.92306
       619.184  
  23555605.220   125741413.74506     -4270.727    23555611.480    97798901.08907
     -3321.680  
  19341334.980   103281649.52108     -1333.551    19341337.880    80330183.67008
     -1037.211  
  20131357.400   107651429.87706      2632.449    20131363.460    83728906.60308
      2047.461  
  19894010.220   106419537.97405     -2106.547    19894013.040    82770759.92307
     -1638.430  
 20  5  7  5 20 30.0000000  0 15G 1G30G28G27G17G 7G 8G11G13R10R 2R18
                                R 9R20R19
  21652949.120   113787018.74149      2686.691    21652951.760    88665221.86549
      2093.527  
  20884937.680   109751090.08048       -56.402    20884939.760    85520335.95449
       -43.953  
  22185126.220   116583631.79849      2270.168    22185125.280    90844383.34946
      1768.957  
  24498159.920   128738693.87947     -3586.703    24498161.640   100315873.37843
     -2794.840  
  24394815.800   128195643.24144      3220.543    24394820.500    99892724.02649
      2509.602  
  21311264.440   111991445.79949     -2127.566    21311264.260    87266058.08649
     -1657.848  
  21714876.660   114112444.22748     -2562.840    21714878.380    88918795.80748
     -1997.023  
  20491713.340   107684681.26748        -9.508    20491711.680    83910134.37647
        -7.410  
  23640304.400   124230628.61148      -223.855    23640304.040    96803088.68345
      -174.438  
  19641737.540   104701516.00908      1801.898           0.000           0.00000
         0.000  
  23466812.520   125223401.67606       792.477    23466819.060    97396014.32206
       616.367  
  23559605.560   125762767.92007     -4270.813    23559611.820    97815509.87307
     -3321.746  
  19342585.300   103288326.10608     -1336.852    19342588.180    80335376.56708
     -1039.777  
  20128897.180   107638274.24806      2629.328    20128903.280    83718674.45208
      2045.031  
  19895981.100   106430080.89805     -2110.320    19895983.940    82778959.97107
     -1641.363  
 20  5  7  5 20 35.0000000  0 15G 1G30G28G27G17G 7G 8G11G13R10R 2R18
                                R 9R20R19
  21650394.040   113773591.51848      2684.207    21650396.620    88654759.09449
      2091.590  
  20884992.820   109751379.98248       -59.465    20884994.920    85520561.85049
       -46.340  
  22182966.640   116572283.16349      2269.516    22182965.680    90835540.26046
      1768.453  
  24501572.780   128756628.54346     -3587.211    24501574.360   100329848.43443
     -2795.234  
  24391752.080   128179543.28645      3219.824    24391756.760    99880178.64048
      2508.957  
  21313290.140   112002090.69549     -2130.262    21313289.920    87274352.80949
     -1659.949  
  21717315.980   114125262.74348     -2564.289    21717317.680    88928784.25347
     -1998.152  
  20491724.000   107684737.07148       -12.605    20491722.320    83910177.85547
        -9.828  
  23640519.000   124231755.69048      -227.074    23640518.600    96803966.92545
      -176.945  
  19640049.020   104692515.29008      1798.777           0.000           0.00000
         0.000  
  23466071.940   125219449.70306       788.320    23466078.480    97392940.57006
       613.137  
  23563606.120   125784123.11107     -4270.934    23563612.400    97832119.46407
     -3321.840  
  19343838.660   103295019.04308     -1340.313    19343841.560    80340582.18308
     -1042.469  
  20126439.920   107625134.24106      2626.230    20126446.020    83708454.45108
      2042.625  
  19897954.940   106440639.56305     -2113.227    19897957.780    82787172.27007
     -1643.621  
 20  5  7  5 20 40.0000000  0 15G 1G30G28G27G17G 7G 8G11G13R10R 2R18
                                R 9R20R19
  21647841.160   113760176.02248      2681.750    21647843.720    88644305.46549
      2089.676  
  20885050.780   109751684.63848       -62.469    20885052.900    85520799.24649
       -48.676  
  22180807.560   116560937.24449      2268.680    22180806.620    90826699.28546
      1767.801  
  24504985.460   128774562.27947     -3587.043    24504987.060   100343822.79344
     -2795.098  
  24388688.740   128163445.12946      3218.863    24388693.380    99867634.62548
      2508.207  
  21315318.060   112012747.43249     -2132.629    21315317.820    87282656.75349
     -1661.793  
  21719756.300   114138086.68048     -2565.527    21719758.000    88938776.93347
     -1999.117  
  20491737.520   107684807.81148       -15.813    20491735.780    83910232.98047
       -12.320  
  23640736.400   124232897.42348      -229.832    23640735.960    96804856.59545
      -179.090  
  19638363.100   104683528.28908      1795.883           0.000           0.00000
         0.000  
  23465334.840   125215516.41506       784.652    23465341.340    97389881.36206
       610.285  
  23567606.720   125805478.78107     -4271.070    23567613.060    97848729.41307
     -3321.949  
  19345095.040   103301727.82608     -1343.520    19345097.920    80345800.12708
     -1044.961  
  20123985.580   107612009.45906      2623.082    20123991.620    83698246.29308
      2040.176  
  19899931.640   106451213.45205     -2116.438    19899934.460    82795396.40207
     -1646.121  
 20  5  7  5 20 45.0000000  0 15G 1G30G28G27G17G 7G 8G11G13R10R 2R18
                                R 9R20R19
  21645291.200   113746775.92948      2678.363    21645293.760    88633863.84049
      2087.035  
  20885112.260   109752007.72548       -66.648    20885114.380    85521050.99849
       -51.938  
  22178649.680   116549597.67149      2267.168    22178648.820    90817863.26646
      1766.625  
  24508398.660   128792498.77446     -3587.801    24508400.240   100357799.26444
     -2795.691  
  24385626.440   128147352.45745      3217.816    24385631.040    99855094.88348
      2507.387  
  21317348.960   112023419.71049     -2136.043    21317348.700    87290972.81249
     -1664.453  
  21722198.340   114150919.59548     -2567.520    21722200.020    88948776.60348
     -2000.668  
  20491754.560   107684897.21548       -19.809    20491752.780    83910302.64147
       -15.438  
  23640957.240   124234057.44348      -233.746    23640956.780    96805760.49045
      -182.145  
  19636680.380   104674558.56508      1792.164           0.000           0.00000
         0.000  
  23464601.920   125211605.49406       779.855    23464608.340    97386839.54306
       606.555  
  23571608.120   125826838.68006     -4272.363    23571614.500    97865342.67207
     -3322.953  
  19346355.020   103308456.19808     -1347.871    19346357.920    80351033.29908
     -1048.348  
  20121534.660   107598903.57406      2619.406    20121540.740    83688052.83508
      2037.316  
  19901911.920   106461806.23505     -2120.633    19901914.660    82803635.23907
     -1649.383  
 20  5  7  5 20 50.0000000  0 15G 1G30G28G27G17G 7G 8G11G13R10R 2R18
                                R 9R20R19
  21642743.880   113733389.63549      2675.980    21642746.420    88623432.97049
      2085.180  
  20885176.920   109752347.63948       -69.734    20885179.060    85521315.86249
       -54.344  
  22176492.740   116538262.88049      2266.578    22176491.920    90809030.96446
      1766.164  
  24511812.100   128810436.41446     -3587.629    24511813.780   100371776.63844
     -2795.555  
  24382564.880   128131263.69946      3217.422    24382569.440    99842558.19848
      2507.082  
  21319382.480   112034105.86649     -2138.504    21319382.200    87299299.69249
     -1666.367  
  21724641.820   114163760.04548     -2568.828    21724643.460    88958782.16148
     -2001.684  
  20491774.840   107685003.65148       -23.086    20491773.020    83910385.58847
       -17.988  
  23641181.240   124235234.12248      -237.273    23641180.840    96806677.37645
      -184.891  
  19635000.640   104665604.49908      1789.270           0.000           0.00000
         0.000  
  23463872.920   125207715.54306       775.758    23463879.280    97383814.01106
       603.363  
  23575610.020   125848201.13405     -4273.059    23575616.400    97881957.89807
     -3323.488  
  19347618.380   103315202.51508     -1350.926    19347621.280    80356280.43308
     -1050.723  
  20119087.000   107585814.87906      2616.230    20119093.060    83677872.74108
      2034.848  
  19903895.380   106472416.26205     -2123.539    19903898.080    82811887.47607
     -1651.645  
 20  5  7  5 20 55.0000000  0 15G 1G30G28G27G17G 7G 8G11G13R10R 2R18
                                R 9R20R19
  21640199.180   113720016.99148      2673.047    21640201.680    88613012.72449
      2082.891  
  20885244.760   109752704.17248       -73.066    20885246.900    85521593.68449
       -56.938  
  22174336.700   116526932.67449      2265.594    22174335.880    90800202.23246
      1765.398  
  24515225.660   128828374.95646     -3587.965    24515227.280   100385754.71243
     -2795.820  
  24379503.980   128115178.51846      3216.602    24379508.440    99830024.30648
      2506.441  
  21321418.620   112044805.75249     -2141.363    21321418.320    87307637.25649
     -1668.598  
  21727086.680   114176607.74848     -2570.316    21727088.300    88968793.34548
     -2002.848  
  20491798.320   107685126.93448       -26.141    20491796.500    83910481.64147
       -20.375  
  23641408.400   124236427.29648      -240.176    23641407.960    96807607.12245
      -187.148  
  19633323.820   104656666.10408      1786.055           0.000           0.00000
         0.000  
  23463147.660   125203845.80106       772.012    23463154.060    97380804.20606
       600.453  
  23579612.380   125869566.04407     -4273.273    23579618.780    97898575.02307
     -3323.664  
  19348885.100   103321966.62008     -1354.539    19348887.980    80361541.39708
     -1053.535  
  20116642.540   107572743.49406      2612.781    20116648.660    83667706.11208
      2032.164  
  19905882.060   106483043.45405     -2126.895    19905884.740    82820153.07207
     -1654.254  
 20  5  7  5 21  0.0000000  0 15G 1G30G28G27G17G 7G 8G11G13R10R 2R18
                                R 9R20R19
  21637657.260   113706659.15648      2670.383    21637659.740    88602604.02349
      2080.813  
  20885316.020   109753078.56248       -76.359    20885318.140    85521885.41449
       -59.504  
  22172181.740   116515608.25449      2264.629    22172180.900    90791378.01046
      1764.645  
  24518639.680   128846315.64746     -3587.652    24518641.260   100399734.43443
     -2795.578  
  24376443.960   128099098.27845      3216.609    24376448.480    99817494.25948
      2506.453  
  21323457.600   112055520.54849     -2143.988    21323457.280    87315986.44349
     -1670.645  
  21729533.100   114189463.73548     -2571.563    21729534.720    88978810.99647
     -2003.820  
  20491825.260   107685268.27648       -29.559    20491823.380    83910591.78347
       -23.035  
  23641638.900   124237638.13248      -243.531    23641638.440    96808550.63545
      -189.770  
  19631650.120   104647744.40008      1783.090           0.000           0.00000
         0.000  
  23462426.600   125199997.78506       767.551    23462433.000    97377811.30005
       596.980  
  23583615.420   125890934.43706     -4273.941    23583621.820    97915194.89607
     -3324.180  
  19350155.340   103328749.65208     -1358.051    19350158.220    80366817.09108
     -1056.266  
  20114201.540   107559690.45006      2609.082    20114207.660    83657553.74708
      2029.285  
  19907872.120   106493688.88805     -2130.121    19907874.780    82828432.85607
     -1656.875  
 20  5  7  5 21  5.0000000  0 15G 1G30G28G27G17G 7G 8G11G13R10R 2R18
                                R 9R20R19
  21635117.380   113693311.98948      2667.910    21635119.860    88592203.63549
      2078.891  
  20885389.820   109753466.57348       -79.496    20885391.960    85522187.75649
       -61.949  
  22170027.080   116504285.43449      2263.730    22170026.240    90782555.04446
      1763.945  
  24522053.260   128864254.27546     -3588.238    24522054.720   100413712.62744
     -2796.035  
  24373384.200   128083018.79446      3215.395    24373388.640    99804964.82648
      2505.504  
  21325498.640   112066246.07649     -2146.625    21325498.260    87324343.99449
     -1672.699  
  21731980.320   114202323.93948     -2573.023    21731981.940    88988831.93448
     -2004.957  
  20491854.820   107685423.46248       -32.844    20491852.920    83910712.71047
       -25.594  
  23641871.980   124238862.48748      -246.992    23641871.480    96809504.66445
      -192.465  
  19629978.800   104638835.25508      1779.965           0.000           0.00000
         0.000  
  23461708.840   125196167.43505       763.688    23461715.260    97374832.15305
       593.980  
  23587618.340   125912302.05807     -4273.988    23587624.720    97931814.13407
     -3324.219  
  19351428.320   103335547.34808     -1361.539    19351431.220    80372104.18308
     -1058.980  
  20111763.120   107546651.31206      2605.961    20111769.280    83647412.20508
      2026.859  
  19909864.720   106504348.46805     -2134.297    19909867.480    82836723.63607
     -1660.012  
 20  5  7  5 21 10.0000000  0 15G 1G30G28G27G17G 7G 8G11G13R10R 2R18
                                R 9R20R19
  21632580.360   113679979.90648      2665.129    21632582.820    88581815.00349
      2076.723  
  20885467.100   109753872.63548       -82.676    20885469.240    85522504.16849
       -64.422  
  22167873.560   116492968.61049      2262.828    22167872.680    90773736.73146
      1763.238  
  24525467.320   128882195.25346     -3588.152    24525468.520   100427692.56144
     -2795.969  
  24370325.300   128066944.40346      3214.129    24370329.680    99792439.30248
      2504.512  
  21327542.520   112076986.72549     -2149.516    21327542.140    87332713.33149
     -1674.949  
  21734429.260   114215192.85448     -2574.688    21734430.800    88998859.65548
     -2006.254  
  20491887.840   107685596.94248       -36.531    20491885.940    83910847.88447
       -28.465  
  23642108.480   124240104.74948      -250.352    23642107.880    96810472.65645
      -195.082  
  19628310.640   104629943.00208      1776.785           0.000           0.00000
         0.000  
  23460995.200   125192359.26205       759.746    23461001.620    97371870.26005
       590.914  
  23591621.900   125933673.53306     -4274.391    23591628.320    97948436.40307
     -3324.531  
  19352704.940   103342364.27008     -1365.203    19352707.820    80377406.23408
     -1061.828  
  20109328.220   107533630.93606      2602.188    20109334.400    83637285.24808
      2023.922  
  19911860.820   106515026.36105     -2137.160    19911863.600    82845028.66007
     -1662.238  
 20  5  7  5 21 15.0000000  0 15G 1G30G28G27G17G 7G 8G11G13R10R 2R18
                                R 9R20R19
  21630046.280   113666663.27648      2661.848    21630048.740    88571438.41049
      2074.168  
  20885547.880   109754297.10248       -86.645    20885549.980    85522834.92049
       -67.520  
  22165721.240   116481658.13249      2261.641    22165720.340    90764923.37846
      1762.316  
  24528881.820   128900138.88946     -3588.969    24528883.020   100441674.61544
     -2796.594  
  24367267.560   128050875.61146      3213.383    24367271.960    99779918.22448
      2503.938  
  21329589.360   112087742.82649     -2152.652    21329588.960    87341094.70449
     -1677.395  
  21736879.820   114228070.64748     -2576.281    21736881.400    89008894.29948
     -2007.496  
  20491924.380   107685788.96148       -40.117    20491922.480    83910997.51247
       -31.262  
  23642348.420   124241365.25848      -253.988    23642347.820    96811454.86745
      -197.918  
  19626645.760   104621068.26508      1773.363           0.000           0.00000
         0.000  
  23460285.800   125188573.35106       754.957    23460292.140    97368925.65005
       587.184  
  23595626.380   125955049.11906     -4275.590    23595632.740    97965061.84407
     -3325.457  
  19353985.240   103349200.73908     -1369.063    19353988.060    80382723.48508
     -1064.832  
  20106896.860   107520629.39906      2598.633    20106903.040    83627172.94808
      2021.160  
  19913860.520   106525723.07305     -2141.141    19913863.240    82853348.32507
     -1665.336  
 20  5  7  5 21 20.0000000  0 15G 1G30G28G27G17G 7G 8G11G13R10R 2R18
                                R 9R20R19
  21627514.580   113653359.19248      2659.598    21627517.020    88561071.59249
      2072.414  
  20885631.620   109754737.08848       -89.535    20885633.720    85523177.76649
       -69.773  
  22163569.600   116470351.22149      2261.129    22163568.720    90756112.80646
      1761.918  
  24532296.340   128918082.28746     -3588.492    24532297.400   100455656.49844
     -2796.227  
  24364210.300   128034809.53346      3213.176    24364214.620    99767399.19048
      2503.770  
  21331638.560   112098511.52949     -2155.031    21331638.160    87349485.89349
     -1679.250  
  21739331.540   114240954.54848     -2577.367    21739333.140    89018933.70148
     -2008.344  
  20491963.960   107685996.73748       -43.113    20491962.000    83911159.41747
       -33.598  
  23642591.300   124242641.12648      -256.742    23642590.660    96812449.05145
      -200.059  
  19624983.580   104612207.87308      1770.746           0.000           0.00000
         0.000  
  23459579.920   125184806.86406       751.566    23459586.300    97365996.15605
       584.547  
  23599631.020   125976425.84107     -4275.422    23599637.340    97981688.16707
     -3325.336  
  19355268.580   103356053.88408     -1372.230    19355271.440    80388053.70508
     -1067.293  
  20104468.500   107507643.93106      2595.680    20104474.700    83617073.14608
      2018.863  
  19915863.080   106536435.59305     -2144.129    19915865.840    82861680.28707
     -1667.660  
 20  5  7  5 21 25.0000000  0 15G 1G30G28G27G17G 7G 8G11G13R10R 2R18
                                R 9R20R19
  21624985.240   113640067.33948      2656.766    21624987.640    88550714.30849
      2070.207  
  20885718.240   109755192.21948       -92.668    20885720.320    85523532.41349
       -72.211  
  22161418.540   116459047.42749      2260.262    22161417.700    90747304.65746
      1761.242  
  24535710.760   128936025.09646     -3588.645    24535711.880   100469637.82943
     -2796.359  
  24361153.480   128018745.59646      3212.172    24361157.700    99754881.85748
      2502.992  
  21333690.100   112109292.39149     -2157.523    21333689.700    87357886.57049
     -1681.188  
  21741784.380   114253844.27048     -2578.703    21741785.960    89028977.63647
     -2009.383  
  20492006.420   107686219.87348       -46.273    20492004.480    83911333.28647
       -36.063  
  23642837.020   124243932.02048      -260.020    23642836.420    96813454.92945
      -202.617  
  19623324.020   104603361.64508      1767.762           0.000           0.00000
         0.000  
  23458877.640   125181059.32406       747.438    23458883.960    97363081.40405
       581.336  
  23603635.740   125997803.35206     -4275.391    23603642.120    97998315.12207
     -3325.309  
  19356554.980   103362923.18808     -1375.605    19356557.840    80393396.49308
     -1069.918  
  20102043.100   107494674.06906      2592.402    20102049.260    83606985.47808
      2016.313  
  19917868.600   106547163.59605     -2147.723    19917871.300    82870024.28707
     -1670.453  
 20  5  7  5 21 30.0000000  0 15G 1G30G28G27G17G 7G 8G11G13R10R 2R18
                                R 9R20R19
  21622458.640   113626790.06148      2653.840    21622461.060    88540368.38349
      2067.926  
  20885808.200   109755664.86248       -96.457    20885810.240    85523900.70349
       -75.164  
  22159268.560   116447749.12749      2258.824    22159267.760    90738500.79146
      1760.121  
  24539125.540   128953969.68146     -3589.277    24539126.460   100483620.61543
     -2796.840  
  24358097.560   128002686.30746      3211.066    24358101.760    99742368.13248
      2502.129  
  21335744.400   112120087.79549     -2160.734    21335744.000    87366298.56649
     -1683.691  
  21744238.720   114266741.93548     -2580.570    21744240.320    89039027.76947
     -2010.840  
  20492052.280   107686460.74348       -50.160    20492050.320    83911520.98547
       -39.086  
  23643086.040   124245240.23548      -263.512    23643085.480    96814474.30945
      -205.336  
  19621667.600   104594531.87708      1764.102           0.000           0.00000
         0.000  
  23458179.300   125177333.38706       742.711    23458185.820    97360183.48005
       577.664  
  23607641.040   126019183.85107     -4276.691    23607647.380    98014944.37607
     -3326.320  
  19357844.880   103369811.14808     -1379.582    19357847.740    80398753.79708
     -1073.012  
  20099620.960   107481722.29306      2588.230    20099627.220    83596911.88008
      2013.066  
  19919877.520   106557909.54305     -2151.020    19919880.140    82878382.24607
     -1673.020  
 20  5  7  5 21 35.0000000  0 15G 1G30G28G27G17G 7G 8G11G13R10R 2R18
                                R 9R20R19
  21619934.860   113613527.55548      2651.031    21619937.260    88530033.96349
      2065.738  
  20885901.500   109756155.18348       -99.797    20885903.560    85524282.76749
       -77.770  
  22157119.640   116436456.49549      2257.887    22157118.880    90729701.33946
      1759.387  
  24542540.620   128971916.17646     -3589.352    24542541.700   100497604.92544
     -2796.898  
  24355042.520   127986631.75146      3210.227    24355046.620    99729858.08648
      2501.477  
  21337801.500   112130897.87349     -2163.523    21337801.080    87374722.00249
     -1685.898  
  21746694.640   114279647.75848     -2582.059    21746696.200    89049084.25247
     -2011.996  
  20492101.520   107686719.46748       -53.660    20492099.560    83911722.58247
       -41.813  
  23643338.420   124246566.00448      -266.801    23643337.860    96815507.36945
      -207.902  
  19620014.300   104585718.83308      1760.906           0.000           0.00000
         0.000  
  23457485.140   125173629.23206       738.652    23457491.780    97357302.45905
       574.504  
  23611646.980   126040567.80106     -4277.340    23611653.320    98031576.34607
     -3326.824  
  19359138.300   103376717.84208     -1383.191    19359141.140    80404125.66908
     -1075.820  
  20097202.320   107468788.76706      2584.805    20097208.580    83586852.47708
      2010.402  
  19921889.760   106568673.41605     -2154.574    19921892.320    82886754.14907
     -1675.781  
 20  5  7  5 21 40.0000000  0 15G 1G30G28G27G17G 7G 8G11G13R10R 2R18
                                R 9R20R19
  21617413.760   113600279.02748      2648.465    21617416.120    88519710.44349
      2063.738  
  20885998.020   109756662.39148      -103.031    20886000.080    85524677.99449
       -80.285  
  22154971.660   116425168.69749      2257.492    22154970.900    90720905.65747
      1759.086  
  24545955.940   128989863.78846     -3589.633    24545957.140   100511590.05144
     -2797.125  
  24351988.260   127970581.16546      3210.078    24351992.260    99717351.16647
      2501.359  
  21339861.260   112141721.87249     -2165.953    21339860.820    87383156.28549
     -1687.758  
  21749151.940   114292560.99948     -2583.305    21749153.520    89059146.52047
     -2012.965  
  20492154.040   107686995.28648       -56.809    20492152.020    83911937.50347
       -44.270  
  23643593.940   124247908.44548      -269.816    23643593.300    96816553.42745
      -210.250  
  19618363.980   104576921.74208      1758.023           0.000           0.00000
         0.000  
  23456794.800   125169945.51506       734.445    23456801.540    97354437.33505
       571.230  
  23615653.400   126061954.09006     -4277.527    23615659.700    98048210.10307
     -3326.965  
  19360435.040   103383642.50608     -1386.609    19360437.920    80409511.51608
     -1078.477  
  20094786.820   107455872.54806      2581.813    20094793.180    83576806.53408
      2008.078  
  19923905.160   106579454.46305     -2157.555    19923907.720    82895139.40807
     -1678.098  
 20  5  7  5 21 45.0000000  0 15G 1G30G28G27G17G 7G 8G11G13R10R 2R18
                                R 9R20R19
  21614895.120   113587043.52448      2645.406    21614897.480    88509397.06649
      2061.355  
  20886097.580   109757185.50448      -106.480    20886099.640    85525085.61249
       -82.977  
  22152824.420   116413884.83249      2256.035    22152823.620    90712113.03546
      1757.949  
  24549371.280   129007811.53146     -3589.902    24549372.860   100525575.29544
     -2797.332  
  24348934.600   127954533.56646      3208.664    24348938.360    99704846.53648
      2500.258  
  21341923.460   112152558.79349     -2168.977    21341923.000    87391600.63349
     -1690.117  
  21751610.440   114305480.60648     -2584.781    21751612.020    89069213.74447
     -2014.121  
  20492209.600   107687287.19548       -60.340    20492207.600    83912164.97947
       -47.020  
  23643852.480   124249266.64048      -273.508    23643851.740    96817611.77445
      -213.121  
  19616716.420   104568139.37008      1754.742           0.000           0.00000
         0.000  
  23456108.200   125166282.04607       730.375    23456115.000    97351587.97005
       568.066  
  23619660.020   126083341.99007     -4277.727    23619666.400    98064845.12207
     -3327.129  
  19361735.020   103390584.23008     -1390.305    19361737.880    80414910.63508
     -1081.352  
  20092374.580   107442972.91006      2577.844    20092380.880    83566773.49208
      2004.988  
  19925923.600   106590251.69205     -2161.129    19925926.120    82903537.24707
     -1680.883  
 20  5  7  5 21 50.0000000  0 15G 1G30G28G27G17G 7G 8G11G13R10R 2R18
                                R 9R20R19
  21612379.020   113573821.37948      2643.156    21612381.360    88499094.09849
      2059.598  
  20886200.220   109757724.86548      -109.398    20886202.260    85525505.89149
       -85.250  
  22150677.960   116402605.19349      2255.543    22150677.160    90703323.70647
      1757.566  
  24552786.700   129025759.72746     -3589.750    24552788.220   100539560.89843
     -2797.211  
  24345881.580   127938489.31746      3208.660    24345885.240    99692344.53248
      2500.254  
  21343988.160   112163408.97849     -2171.270    21343987.720    87400055.32249
     -1691.902  
  21754070.260   114318407.00548     -2585.891    21754071.840    89079286.26347
     -2014.984  
  20492268.320   107687595.55048       -63.336    20492266.280    83912405.24847
       -49.355  
  23644114.060   124250640.84848      -276.316    23644113.180    96818682.58545
      -215.316  
  19615071.720   104559372.25308      1752.027           0.000           0.00000
         0.000  
  23455425.480   125162638.51306       726.781    23455432.120    97348754.10106
       565.270  
  23623666.960   126104731.61806     -4277.949    23623673.420    98081481.50907
     -3327.293  
  19363038.220   103397543.28308     -1393.461    19363041.100    80420323.22908
     -1083.809  
  20089965.420   107430089.99006      2574.691    20089971.720    83556753.44308
      2002.539  
  19927945.000   106601065.38605     -2164.082    19927947.640    82911947.89807
     -1683.180  
 20  5  7  5 21 55.0000000  0 15G 1G30G28G27G17G 7G 8G11G13R10R 2R18
                                R 9R20R19
  21609865.600   113560613.28648      2640.488    21609867.920    88488802.08449
      2057.520  
  20886306.120   109758281.17348      -113.090    20886308.120    85525939.37749
       -88.125  
  22148532.440   116391330.46749      2254.691    22148531.620    90694538.21146
      1756.902  
  24556202.440   129043709.16046     -3590.059    24556203.980   100553547.49641
     -2797.547  
  24342829.340   127922449.15247      3207.734    24342832.900    99679845.72048
      2499.535  
  21346055.540   112174273.08149     -2174.004    21346055.100    87408520.85049
     -1694.031  
  21756531.480   114331340.80447     -2587.535    21756533.060    89089364.53947
     -2016.266  
  20492330.280   107687921.03648       -66.789    20492328.220    83912658.87847
       -52.043  
  23644378.800   124252031.84048      -280.035    23644377.800    96819766.46045
      -218.215  
  19613430.000   104550621.01408      1748.922           0.000           0.00000
         0.000  
  23454746.700   125159016.11906       722.340    23454753.180    97345936.68606
       561.820  
  23627674.440   126126123.62307     -4278.496    23627680.860    98098119.70106
     -3327.727  
  19364344.760   103404520.38708     -1397.102    19364347.700    80425749.85808
     -1086.637  
  20087559.540   107417224.66806      2571.383    20087565.840    83546747.08608
      1999.965  
  19929969.580   106611896.28105     -2167.984    19929972.360    82920371.92706
     -1686.215  
 20  5  7  5 22  0.0000000  0 15G 1G30G28G27G17G 7G 8G11G13R10R 2R18
                                R 9R20R19
  21607354.700   113547418.37848      2637.691    21607357.000    88478520.33949
      2055.344  
  20886415.040   109758853.47348      -116.129    20886417.040    85526385.32049
       -90.488  
  22146387.700   116380059.75149      2253.621    22146386.840    90685755.84947
      1756.070  
  24559618.140   129061658.60846     -3590.145    24559619.280   100567534.98641
     -2797.516  
  24339777.660   127906412.10546      3207.281    24339781.040    99667349.32048
      2499.180  
  21348125.380   112185150.15049     -2176.789    21348124.920    87416996.48549
     -1696.203  
  21758993.920   114344280.97648     -2588.660    21758995.520    89099447.79147
     -2017.141  
  20492395.320   107688262.72448       -70.012    20492393.260    83912925.13447
       -54.555  
  23644646.540   124253438.67948      -283.461    23644645.500    96820862.69245
      -220.883  
  19611791.120   104541884.91008      1745.594           0.000           0.00000
         0.000  
  23454071.540   125155413.38405       717.711    23454077.940    97343134.57105
       558.219  
  23631682.300   126147517.34006     -4279.164    23631688.600    98114759.27007
     -3328.238  
  19365654.560   103411514.51008     -1400.691    19365657.460    80431189.72508
     -1089.430  
  20085156.820   107404375.79506      2568.359    20085163.020    83536753.52008
      1997.613  
  19931997.300   106622743.48105     -2171.094    19932000.120    82928808.63307
     -1688.633  
 20  5  7  5 22  5.0000000  0 15G 1G30G28G27G17G 7G 8G11G13R10R 2R18
                                R 9R20R19
  21604846.580   113534238.18548      2634.055    21604848.880    88468250.06249
      2052.512  
  20886527.300   109759443.31948      -120.285    20886529.280    85526844.94149
       -93.734  
  22144244.000   116368794.57149      2251.961    22144243.180    90676977.78346
      1754.770  
  24563034.200   129079609.88846     -3590.871    24563035.420   100581523.11743
     -2798.059  
  24336726.880   127890379.74646      3205.871    24336730.140    99654856.61448
      2498.086  
  21350198.000   112196041.86849     -2180.074    21350197.540    87425483.53449
     -1698.762  
  21761457.860   114357229.19248     -2590.957    21761459.480    89109537.31147
     -2018.926  
  20492463.740   107688622.15048       -74.047    20492461.660    83913205.20247
       -57.699  
  23644917.560   124254862.83548      -287.023    23644916.560    96821972.43945
      -223.656  
  19610155.360   104533165.42108      1741.902           0.000           0.00000
         0.000  
  23453400.340   125151832.30906       713.508    23453406.800    97340349.29805
       554.949  
  23635690.660   126168914.00507     -4280.301    23635696.920    98131401.09207
     -3329.125  
  19366967.780   103418527.21608     -1404.961    19366970.720    80436644.05408
     -1092.750  
  20082757.480   107391545.19706      2564.320    20082763.620    83526774.17208
      1994.473  
  19934028.440   106633608.42905     -2175.352    19934031.220    82937259.15107
     -1691.945  
 20  5  7  5 22 10.0000000  0 15G 1G30G28G27G17G 7G 8G11G13R10R 2R18
                                R 9R20R19
  21602342.060   113521076.77248      2631.105    21602344.340    88457994.41049
      2050.207  
  20886643.680   109760054.81948      -123.738    20886645.660    85527321.43449
       -96.418  
  22142102.160   116357539.00249      2250.898    22142101.320    90668207.20846
      1753.941  
  24566451.380   129097566.99146     -3591.254    24566452.480   100595515.59343
     -2798.379  
  24333677.780   127874356.21347      3204.328    24333680.860    99642370.73248
      2496.875  
  21352274.160   112206952.16249     -2183.176    21352273.700    87433985.05849
     -1701.180  
  21763924.160   114370189.58648     -2592.660    21763925.740    89119636.31447
     -2020.258  
  20492536.300   107689003.37948       -77.766    20492534.220    83913502.26847
       -60.602  
  23645192.680   124256308.43848      -290.625    23645191.680    96823098.87445
      -226.465  
  19608523.500   104524466.82408      1738.324           0.000           0.00000
         0.000  
  23452734.100   125148276.91906       709.375    23452740.520    97337583.99905
       551.734  
  23639700.360   126190317.98207     -4280.656    23639706.620    98148048.64007
     -3329.402  
  19368285.260   103425562.70708     -1408.699    19368288.260    80442116.09808
     -1095.660  
  20080362.300   107378737.02706      2560.098    20080368.420    83516812.27208
      1991.188  
  19936063.680   106644495.28305     -2178.715    19936066.400    82945726.70007
     -1694.559  
 20  5  7  5 22 15.0000000  0 14G 1G30G28G27G17G 7G 8G11G13R10R 2R 9
                                R20R19
  21599838.720   113507921.65048      2630.160    21599841.000    88447743.67249
      2049.473  
  20886761.800   109760675.41748      -125.152    20886763.760    85527805.01549
       -97.523  
  22139959.740   116346280.52749      2251.734    22139958.940    90659434.37446
      1754.598  
  24569867.240   129115517.35646     -3589.313    24569868.600   100609502.83643
     -2796.871  
  24330627.980   127858328.79447      3205.715    24330630.880    99629881.86248
      2497.961  
  21354351.460   112217868.49049     -2184.258    21354351.020    87442491.28549
     -1702.023  
  21766390.340   114383149.45748     -2592.223    21766391.900    89129734.91347
     -2019.918  
  20492610.620   107689393.84948       -79.273    20492608.560    83913806.52247
       -61.777  
  23645469.420   124257762.90848      -292.047    23645468.520    96824232.23445
      -227.570  
  19606893.220   104515776.33908      1737.258           0.000           0.00000
         0.000  
  23452070.260   125144734.64306       706.922    23452076.760    97334828.87305
       549.824  
  19369604.640   103432608.29908     -1410.313    19369607.660    80447596.00508
     -1096.914  
  20077968.920   107365938.35806      2558.668    20077975.020    83506857.75408
      1990.074  
  19938100.560   106655391.22005     -2180.457    19938103.280    82954201.31607
     -1695.914  
 20  5  7  5 22 20.0000000  0 14G 1G30G28G27G17G 7G 8G11G13R10R 2R 9
                                R20R19
  21597337.860   113494779.60048      2626.699    21597340.140    88437503.11549
      2046.777  
  20886882.920   109761311.88148      -129.266    20886884.880    85528300.96149
      -100.730  
  22137818.060   116335025.93949      2250.121    22137817.300    90650664.56947
      1753.340  
  24573283.120   129133467.79846     -3590.625    24573284.100   100623490.22641
     -2797.891  
  24327578.740   127842304.44846      3203.891    24327581.520    99617395.34548
      2496.535  
  21356431.200   112228797.62949     -2187.656    21356430.760    87451007.49349
     -1704.672  
  21768857.760   114396115.68748     -2594.359    21768859.300    89139838.47047
     -2021.582  
  20492688.020   107689800.39548       -83.324    20492685.920    83914123.32147
       -64.930  
  23645749.200   124259233.09648      -296.121    23645748.400    96825377.83345
      -230.746  
  19605265.720   104507100.81108      1733.043           0.000           0.00000
         0.000  
  23451410.160   125141212.29706       702.043    23451416.740    97332089.26405
       546.031  
  19370927.180   103439670.86408     -1414.730    19370930.260    80453089.11308
     -1100.348  
  20075578.600   107353156.09606      2554.309    20075584.680    83496916.00308
      1986.684  
  19940140.440   106666303.23805     -2184.277    19940143.160    82962688.44007
     -1698.887  
 20  5  7  5 22 25.0000000  0 14G 1G30G28G27G17G 7G 8G11G13R10R 2R 9
                                R20R19
  21594840.440   113481655.52748      2623.430    21594842.700    88427276.56949
      2044.230  
  20887008.020   109761969.13948      -133.055    20887009.960    85528813.10849
      -103.684  
  22135678.060   116323780.15249      2248.992    22135677.300    90641901.62746
      1752.461  
  24576699.920   129151423.18046     -3591.031    24576701.100   100637481.45043
     -2798.141  
  24324530.960   127826288.00247      3203.215    24324533.660    99604915.00948
      2496.012  
  21358514.320   112239744.46749     -2190.594    21358513.880    87459537.49249
     -1706.961  
  21771327.260   114409093.10048     -2596.191    21771328.820    89149950.73247
     -2023.012  
  20492769.400   107690227.90248       -87.410    20492767.320    83914456.43747
       -68.113  
  23646032.860   124260723.84748      -299.703    23646032.120    96826539.43945
      -233.539  
  19603641.940   104498445.27208      1729.531           0.000           0.00000
         0.000  
  23450754.720   125137714.72806       697.586    23450761.320    97329368.94905
       542.566  
  19372253.880   103446755.35708     -1418.723    19372256.980    80458599.26808
     -1103.453  
  20073192.260   107340395.31206      2550.344    20073198.360    83486990.95108
      1983.602  
  19942184.320   106677236.32905     -2188.391    19942187.000    82971191.95307
     -1702.086  
 20  5  7  5 22 30.0000000  0 14G 1G30G28G27G17G 7G 8G11G13R10R 2R 9
                                R20R19
  21592345.820   113468546.29548      2620.285    21592348.060    88417061.58549
      2041.781  
  20887136.480   109762644.03048      -136.621    20887138.400    85529338.99549
      -106.461  
  22133539.120   116312540.02349      2247.461    22133538.340    90633143.08246
      1751.270  
  24580117.080   129169380.31646     -3591.641    24580117.780   100651473.97142
     -2798.688  
  24321484.120   127810276.32947      3201.777    24321486.780    99592438.40148
      2494.891  
  21360600.180   112250705.84049     -2193.832    21360599.760    87468078.82049
     -1709.484  
  21773798.320   114422078.64248     -2597.871    21773799.900    89160069.33447
     -2024.320  
  20492854.140   107690673.19348       -90.785    20492852.060    83914803.42547
       -70.742  
  23646319.840   124262232.00348      -303.141    23646319.140    96827714.63545
      -236.215  
  19602021.340   104489806.41808      1726.137           0.000           0.00000
         0.000  
  23450103.300   125134238.65006       692.969    23450109.820    97326665.34105
       538.977  
  19373584.020   103453858.52908     -1422.641    19373587.180    80464123.95808
     -1106.500  
  20070809.380   107327652.86906      2546.266    20070815.460    83477080.16208
      1980.426  
  19944231.440   106688187.06705     -2191.754    19944234.140    82979709.19407
     -1704.703  
 20  5  7  5 22 35.0000000  0 14G 1G30G28G27G17G 7G 8G11G13R10R 2R 9
                                R20R19
  21589853.820   113455450.76548      2617.898    21589856.060    88406857.27849
      2039.918  
  20887268.060   109763335.38248      -139.832    20887269.980    85529877.70949
      -108.965  
  22131401.040   116301304.36349      2246.801    22131400.240    90624388.02947
      1750.750  
  24583534.360   129187338.08946     -3591.777    24583534.860   100665467.01841
     -2798.793  
  24318437.960   127794268.25946      3201.402    24318440.520    99579964.58048
      2494.598  
  21362688.620   112261680.57249     -2196.250    21362688.180    87476630.55549
     -1711.367  
  21776270.680   114435071.05848     -2598.914    21776272.260    89170193.29047
     -2025.133  
  20492942.040   107691135.13248       -94.141    20492939.960    83915163.37647
       -73.355  
  23646609.880   124263756.40748      -306.441    23646609.280    96828902.46945
      -238.789  
  19600403.620   104481183.09008      1723.375           0.000           0.00000
         0.000  
  23449455.760   125130783.19606       688.852    23449462.120    97323977.78305
       535.773  
  19374917.500   103460979.25208     -1425.977    19374920.680    80469662.29308
     -1109.098  
  20068429.680   107314927.53606      2543.699    20068435.760    83467182.68508
      1978.434  
  19946281.620   106699154.47905     -2195.211    19946284.360    82988239.40007
     -1707.391  
 20  5  7  5 22 40.0000000  0 14G 1G30G28G27G17G 7G 8G11G13R10R 2R 9
                                R20R19
  21587364.560   113442369.69148      2614.480    21587366.820    88396664.23649
      2037.258  
  20887402.900   109764043.93748      -143.598    20887404.820    85530429.83049
      -111.898  
  22129264.000   116290073.93749      2245.262    22129263.160    90615637.04647
      1749.555  
  24586951.860   129205297.16046     -3592.059    24586952.320   100679461.15442
     -2799.004  
  24315392.640   127778264.54547      3199.727    24315395.100    99567494.17748
      2493.293  
  21364779.720   112272669.43449     -2199.469    21364779.280    87485193.30149
     -1713.875  
  21778744.480   114448071.02048     -2601.051    21778746.080    89180323.12747
     -2026.797  
  20493033.240   107691614.39348       -97.898    20493031.180    83915536.82647
       -76.289  
  23646903.160   124265297.74948      -310.242    23646902.520    96830103.52245
      -241.746  
  19598789.000   104472576.15508      1719.320           0.000           0.00000
         0.000  
  23448812.240   125127348.93806       684.391    23448818.460    97321306.68705
       532.301  
  19376254.380   103468118.19108     -1429.875    19376257.580    80475214.80208
     -1112.129  
  20066053.360   107302220.02306      2539.707    20066059.400    83457299.07008
      1975.328  
  19948335.020   106710139.12205     -2199.129    19948337.820    82996783.01207
     -1710.438  
 20  5  7  5 22 45.0000000  0 14G 1G30G28G27G17G 7G 8G11G13R10R 2R 9
                                R20R19
  21584878.060   113429303.09848      2611.891    21584880.340    88386482.47949
      2035.238  
  20887541.060   109764769.76848      -146.914    20887542.940    85530995.41049
      -114.480  
  22127127.920   116278848.77249      2244.426    22127127.040    90606890.16346
      1748.898  
  24590369.660   129223257.68146     -3592.527    24590370.400   100693456.30644
     -2799.375  
  24312348.120   127762265.23746      3199.715    24312350.440    99555027.17748
      2493.285  
  21366873.520   112283672.43349     -2201.949    21366873.080    87493767.06249
     -1715.809  
  21781219.720   114461078.58648     -2602.215    21781221.300    89190458.90047
     -2027.699  
  20493127.740   107692111.09948      -100.934    20493125.680    83915923.87247
       -78.648  
  23647199.640   124266856.08548      -313.281    23647198.940    96831317.80445
      -244.121  
  19597177.460   104463985.57508      1716.438           0.000           0.00000
         0.000  
  23448172.640   125123935.88907       680.348    23448178.840    97318652.08505
       529.156  
  19377594.680   103475275.45408     -1433.449    19377597.920    80480781.55608
     -1114.910  
  20063680.420   107289530.57406      2536.480    20063686.400    83447429.50408
      1972.816  
  19950391.740   106721141.13905     -2202.195    19950394.520    83005340.13307
     -1712.824  
 20  5  7  5 22 50.0000000  0 14G 1G30G28G27G17G 7G 8G11G13R10R 2R 9
                                R20R19
  21582394.080   113416249.71648      2609.301    21582396.360    88376311.01649
      2033.223  
  20887682.240   109765511.51148      -150.070    20887684.100    85531573.39049
      -116.941  
  22124992.600   116267627.56849      2243.594    22124991.720    90598146.37346
      1748.250  
  24593787.440   129241218.19646     -3591.961    24593787.680   100707451.51344
     -2798.934  
  24309304.220   127746269.08547      3198.734    24309306.480    99542562.66248
      2492.520  
  21368969.740   112294688.25949     -2204.535    21368969.320    87502350.81849
     -1717.824  
  21783696.160   114474092.44248     -2603.598    21783697.760    89200599.56847
     -2028.777  
  20493225.320   107692623.90148      -104.289    20493223.260    83916323.45847
       -81.266  
  23647499.140   124268430.14948      -316.746    23647498.440    96832544.34745
      -246.820  
  19595568.720   104455410.22708      1713.516           0.000           0.00000
         0.000  
  23447536.780   125120542.74306       676.566    23447543.020    97316012.94905
       526.215  
  19378938.200   103482449.70908     -1436.816    19378941.440    80486361.53008
     -1117.527  
  20061310.540   107276857.52806      2532.449    20061316.480    83437572.69708
      1969.684  
  19952451.460   106732159.13405     -2205.227    19952454.200    83013909.68707
     -1715.180  
 20  5  7  5 22 55.0000000  0 14G 1G30G28G27G17G 7G 8G11G13R10R 2R 9
                                R20R19
  21579912.780   113403210.46248      2606.699    21579915.080    88366150.56149
      2031.195  
  20887826.600   109766270.11748      -153.148    20887828.460    85532164.50949
      -119.340  
  22122858.200   116256411.23449      2242.965    22122857.340    90589406.37846
      1747.766  
  24597205.380   129259179.71046     -3592.262    24597205.760   100721447.48643
     -2799.176  
  24306261.020   127730276.93247      3198.148    24306263.260    99530101.27348
      2492.063  
  21371068.600   112305717.82949     -2206.996    21371068.180    87510945.28749
     -1719.742  
  21786173.980   114487113.60048     -2604.609    21786175.640    89210745.91647
     -2029.570  
  20493326.140   107693153.71948      -107.664    20493324.080    83916736.30147
       -83.895  
  23647801.740   124270020.83848      -319.715    23647801.100    96833783.83945
      -249.133  
  19593963.000   104446850.94508      1710.480           0.000           0.00000
         0.000  
  23446904.840   125117170.56406       672.645    23446911.120    97313390.14405
       523.164  
  19380285.040   103489641.92808     -1440.098    19380288.320    80491955.48008
     -1120.074  
  20058943.940   107264202.15206      2529.863    20058949.880    83427729.63208
      1967.672  
  19954514.220   106743194.06505     -2208.629    19954517.080    83022492.40707
     -1717.828  
 20  5  7  5 23  0.0000000  0 14G 1G30G28G27G17G 7G 8G11G13R10R 2R 9
                                R20R19
  21577434.260   113390185.76548      2603.645    21577436.560    88356001.45049
      2028.813  
  20887974.260   109767045.97948      -156.789    20887976.120    85532769.07749
      -122.172  
  22120724.800   116245200.23649      2241.898    22120723.960    90580670.53947
      1746.930  
  24600623.620   129277142.60446     -3592.578    24600624.040   100735444.53444
     -2799.414  
  24303218.680   127714289.20946      3196.984    24303220.820    99517643.29748
      2491.156  
  21373170.140   112316761.49149     -2210.012    21373169.720    87519550.73049
     -1722.090  
  21788653.260   114500142.31748     -2606.266    21788654.920    89220898.16447
     -2030.859  
  20493430.260   107693700.93748      -111.145    20493428.240    83917162.71047
       -86.605  
  23648107.560   124271628.54548      -323.086    23648107.040    96835036.58544
      -251.758  
  19592360.380   104438308.03608      1707.113           0.000           0.00000
         0.000  
  23446276.800   125113819.46506       668.129    23446283.180    97310783.75105
       519.656  
  19381635.320   103496852.44908     -1443.773    19381638.620    80497563.65908
     -1122.938  
  20056580.660   107251564.70406      2525.984    20056586.600    83417900.51008
      1964.656  
  19956580.380   106754246.31305     -2212.168    19956583.180    83031088.59507
     -1720.578  
 20  5  7  5 23  5.0000000  0 14G 1G30G28G27G17G 7G 8G11G13R10R 2R 9
                                R20R19
  21574958.280   113377174.45748      2600.953    21574960.600    88345862.77349
      2026.715  
  20888124.960   109767837.94148      -159.867    20888126.840    85533386.18849
      -124.574  
  22118592.240   116233993.37849      2241.188    22118591.420    90571937.92747
      1746.375  
  24604041.860   129295105.65846     -3592.426    24604042.620   100749441.71043
     -2799.297  
  24300176.980   127698304.69046      3196.586    24300179.080    99505187.84948
      2490.848  
  21375274.140   112327818.13349     -2212.508    21375273.720    87528166.29749
     -1724.031  
  21791133.780   114513177.53048     -2607.457    21791135.480    89231055.47447
     -2031.789  
  20493537.480   107694264.38448      -114.164    20493535.460    83917601.75647
       -88.961  
  23648416.420   124273251.99648      -326.188    23648415.960    96836301.62144
      -254.176  
  19590760.640   104429780.48408      1704.113           0.000           0.00000
         0.000  
  23445652.660   125110488.73906       664.203    23445659.040    97308193.19505
       516.602  
  19382988.780   103504080.11208     -1447.086    19382992.120    80503185.17208
     -1125.516  
  20054220.540   107238944.08206      2522.543    20054226.480    83408084.47408
      1961.977  
  19958649.440   106765314.56205     -2215.063    19958652.260    83039697.23207
     -1722.832  
 20  5  7  5 23 10.0000000  0 14G 1G30G28G27G17G 7G 8G11G13R10R 2R 9
                                R20R19
  21572484.860   113364176.54048      2598.344    21572487.160    88335734.52449
      2024.680  
  20888278.740   109768646.02448      -163.262    20888280.620    85534015.86349
      -127.219  
  22116460.440   116222790.66849      2240.137    22116459.620    90563208.53847
      1745.559  
  24607460.180   129313068.93046     -3592.500    24607461.320   100763439.02042
     -2799.359  
  24297135.860   127682323.48646      3196.031    24297137.900    99492734.95348
      2490.410  
  21377380.620   112338887.71349     -2215.281    21377380.200    87536791.94149
     -1726.195  
  21793615.500   114526219.09348     -2609.078    21793617.180    89241217.72747
     -2033.051  
  20493647.800   107694844.09948      -117.527    20493645.800    83918053.48647
       -91.582  
  23648728.300   124274891.36048      -329.605    23648727.840    96837579.05345
      -256.836  
  19589163.760   104421268.23108      1700.875           0.000           0.00000
         0.000  
  23445032.260   125107178.14706       660.090    23445038.580    97305618.28005
       513.398  
  19384345.460   103511324.90208     -1450.633    19384348.860    80508820.01108
     -1128.270  
  20051863.520   107226340.21306      2518.996    20051869.500    83398281.46908
      1959.215  
  19960721.620   106776399.06305     -2218.145    19960724.380    83048318.50607
     -1725.227  
 20  5  7  5 23 15.0000000  0 14G 1G30G28G27G17G 7G 8G11G13R10R 2R 9
                                R20R19
  21570014.120   113351192.81848      2595.320    21570016.460    88325617.34449
      2022.328  
  20888435.740   109769470.97348      -166.598    20888437.600    85534658.68049
      -129.820  
  22114329.560   116211592.86549      2239.313    22114328.740    90554482.99246
      1744.918  
  24610878.640   129331033.12946     -3593.137    24610879.860   100777437.10841
     -2799.855  
  24294095.520   127666346.33847      3195.465    24294097.560    99480285.25648
      2489.973  
  21379489.700   112349971.03049     -2217.980    21379489.280    87545428.28849
     -1728.301  
  21796098.620   114539267.97748     -2610.527    21796100.300    89251385.68747
     -2034.180  
  20493761.340   107695440.85348      -121.047    20493759.360    83918518.48147
       -94.324  
  23649043.320   124276547.35048      -332.828    23649042.880    96838869.43345
      -259.352  
  19587569.860   104412771.99608      1697.711           0.000           0.00000
         0.000  
  23444415.840   125103888.40906       655.535    23444422.020    97303059.58005
       509.855  
  19385705.500   103518587.58708     -1454.262    19385708.940    80514468.76208
     -1131.098  
  20049509.840   107213753.99106      2515.688    20049515.840    83388492.19008
      1956.645  
  19962796.820   106787500.33405     -2221.930    19962799.640    83056952.83607
     -1728.168  
 20  5  7  5 23 20.0000000  0 14G 1G30G28G27G17G 7G 8G11G13R10R 2R 9
                                R20R19
  21567546.340   113338224.64748      2592.207    21567548.680    88315512.27849
      2019.902  
  20888596.220   109770314.14848      -170.527    20888598.060    85535315.69649
      -132.883  
  22112199.880   116200401.35549      2237.797    22112199.020    90545762.33147
      1743.738  
  24614297.540   129348999.65446     -3593.270    24614298.940   100791436.97742
     -2799.957  
  24291056.260   127650374.60447      3193.832    24291058.160    99467839.74948
      2488.699  
  21381601.620   112361069.37848     -2221.098    21381601.220    87554076.34149
     -1730.777  
  21798583.360   114552325.38448     -2612.227    21798585.020    89261560.29247
     -2035.504  
  20493878.400   107696055.94748      -124.973    20493876.420    83918997.78347
       -97.383  
  23649361.740   124278221.29547      -336.551    23649361.420    96840173.80345
      -262.250  
  19585979.260   104404293.17708      1694.172           0.000           0.00000
         0.000  
  23443803.560   125100620.94706       651.676    23443809.620    97300518.25105
       506.859  
  19387069.200   103525869.61808     -1458.258    19387072.640    80520132.56008
     -1134.203  
  20047159.640   107201186.65906      2511.543    20047165.700    83378717.60608
      1953.422  
  19964875.380   106798619.79805     -2225.391    19964878.280    83065601.30007
     -1730.863  
 20  5  7  5 23 25.0000000  0 14G 1G30G28G27G17G 7G 8G11G13R10R 2R 9
                                R20R19
  21565081.080   113325269.59748      2589.840    21565083.420    88305417.43649
      2018.055  
  20888759.660   109771173.08448      -173.297    20888761.500    85535984.99749
      -135.039  
  22110070.940   116189213.67449      2237.480    22110070.020    90537044.66746
      1743.492  
  24617716.440   129366965.97745     -3592.555    24617717.820   100805436.71744
     -2799.395  
  24288017.500   127634405.83946      3193.531    24288019.420    99455396.54148
      2488.461  
  21383715.960   112372180.35748     -2223.266    21383715.580    87562734.24749
     -1732.418  
  21801069.260   114565388.94848     -2613.254    21801070.940    89271739.68847
     -2036.305  
  20493998.460   107696686.96148      -127.699    20493996.480    83919489.48247
       -99.508  
  23649683.120   124279910.76047      -339.281    23649682.800    96841490.27145
      -264.379  
  19584391.520   104395829.48508      1691.313           0.000           0.00000
         0.000  
  23443194.940   125097373.30906       647.953    23443200.940    97297992.29605
       503.961  
  19388436.000   103533168.43308     -1461.293    19388439.460    80525809.41308
     -1136.566  
  20044812.540   107188635.71106      2508.402    20044818.600    83368955.76208
      1950.980  
  19966956.880   106809755.05405     -2228.668    19966959.900    83074262.05407
     -1733.414  
 20  5  7  5 23 30.0000000  0 14G 1G30G28G27G17G 7G 8G11G13R10R 2R 9
                                R20R19
  21562618.460   113312328.59948      2586.504    21562620.820    88295333.54349
      2015.457  
  20888926.340   109772048.71548      -177.082    20888928.140    85536667.30049
      -137.988  
  22107942.940   116178030.76649      2235.887    22107941.980    90528330.71347
      1742.246  
  24621135.480   129384933.08045     -3593.750    24621136.840   100819437.07941
     -2800.324  
  24284979.460   127618440.93646      3192.273    24284981.380    99442956.38648
      2487.484  
  21385832.860   112383304.84448     -2226.473    21385832.480    87571402.67249
     -1734.918  
  21803556.480   114578459.38348     -2615.105    21803558.140    89281924.44447
     -2037.746  
  20494121.740   107697334.80248      -131.477    20494119.780    83919994.29147
      -102.449  
  23650007.620   124281616.71247      -343.191    23650007.440    96842819.57945
      -267.422  
  19582806.760   104387381.82808      1687.734           0.000           0.00000
         0.000  
  23442590.160   125094146.31906       643.055    23442596.160    97295482.42805
       500.152  
  19389806.160   103540484.92308     -1465.188    19389809.620    80531500.01508
     -1139.594  
  20042468.780   107176102.24706      2504.629    20042474.800    83359207.51808
      1948.043  
  19969041.640   106820907.02605     -2232.250    19969044.600    83082935.80607
     -1736.199  
 20  5  7  5 23 35.0000000  0 14G 1G30G28G27G17G 7G 8G11G13R10R 2R 9
                                R20R19
  21560158.700   113299402.71548      2584.262    21560161.120    88285261.43049
      2013.711  
  20889096.360   109772942.09248      -180.008    20889098.140    85537363.44049
      -140.270  
  22105816.040   116166853.70849      2235.383    22105815.080    90519621.31747
      1741.852  
  24624554.900   129402901.98546     -3593.289    24624556.520   100833438.75441
     -2799.973  
  24281942.320   127602480.96546      3191.953    24281944.300    99430520.03848
      2487.234  
  21387952.540   112394443.90648     -2228.813    21387952.180    87580082.45749
     -1736.742  
  21806045.220   114591537.94747     -2615.980    21806046.920    89292115.52747
     -2038.430  
  20494248.400   107698000.49148      -134.414    20494246.460    83920513.01347
      -104.742  
  23650335.440   124283340.14147      -346.121    23650335.260    96844162.51245
      -269.707  
  19581225.180   104378951.13208      1684.965           0.000           0.00000
         0.000  
  23441989.620   125090941.34906       639.219    23441995.540    97292989.66505
       497.168  
  19391179.840   103547820.26808     -1468.473    19391183.320    80537205.28508
     -1142.145  
  20040128.440   107163587.41307      2501.605    20040134.460    83349473.76308
      1945.691  
  19971129.660   106832076.58405     -2234.910    19971132.620    83091623.23807
     -1738.266  
 20  5  7  5 23 40.0000000  0 14G 1G30G28G27G17G 7G 8G11G13R10R 2R 9
                                R20R19
  21557701.440   113286489.76148      2581.254    21557703.880    88275199.39249
      2011.367  
  20889269.380   109773851.00348      -183.418    20889271.100    85538071.68049
      -142.926  
  22103689.820   116155680.21849      2234.375    22103688.860    90510914.70647
      1741.066  
  24627974.240   129420870.46246     -3593.898    24627975.740   100847440.19044
     -2800.438  
  24278905.760   127586523.70846      3191.070    24278907.760    99418085.82948
      2486.547  
  21390074.580   112405595.28648     -2231.520    21390074.220    87588771.83949
     -1738.852  
  21808535.060   114604622.27048     -2617.516    21808536.780    89302311.11047
     -2039.625  
  20494378.060   107698681.89648      -138.043    20494376.140    83921043.97947
      -107.570  
  23650666.160   124285078.82747      -349.441    23650666.040    96845517.31644
      -272.297  
  19579646.340   104370535.10408      1681.645           0.000           0.00000
         0.000  
  23441392.600   125087755.72506       634.832    23441398.540    97290511.95105
       493.754  
  19392556.620   103555172.10508     -1472.113    19392560.100    80542923.37508
     -1144.980  
  20037791.160   107151088.75606      2498.055    20037797.160    83339752.58708
      1942.930  
  19973220.640   106843261.56605     -2238.688    19973223.520    83100322.66907
     -1741.207  
 20  5  7  5 23 45.0000000  0 14G 1G30G28G27G17G 7G 8G11G13R10R 2R 9
                                R20R19
  21555246.800   113273590.55148      2578.422    21555249.220    88265148.06549
      2009.160  
  20889445.480   109774776.29648      -186.852    20889447.180    85538792.68649
      -145.598  
  22101564.460   116144511.18149      2233.191    22101563.460    90502211.55847
      1740.145  
  24631393.620   129438839.32846     -3593.559    24631395.040   100861441.85044
     -2800.184  
  24275869.840   127570570.09846      3190.063    24275871.880    99405654.45948
      2485.766  
  21392199.120   112416759.85348     -2234.430    21392198.760    87597471.50249
     -1741.117  
  21811026.200   114617713.34948     -2619.172    21811027.940    89312511.95147
     -2040.918  
  20494510.860   107699379.80748      -141.285    20494508.960    83921587.80847
      -110.098  
  23650999.980   124286833.61747      -352.754    23650999.860    96846884.70245
      -274.875  
  19578070.420   104362134.79808      1678.422           0.000           0.00000
         0.000  
  23440799.420   125084590.55506       631.008    23440805.380    97288050.15005
       490.781  
  19393936.640   103562541.33008     -1475.590    19393940.120    80548654.99408
     -1147.684  
  20035457.080   107138607.27107      2494.641    20035463.060    83330044.77408
      1940.277  
  19975314.560   106854462.79806     -2241.902    19975317.480    83109034.73607
     -1743.707  
 20  5  7  5 23 50.0000000  0 14G 1G30G28G27G17G 7G 8G11G13R10R 2R 9
                                R20R19
  21552794.980   113260706.17648      2575.750    21552797.400    88255108.29549
      2007.078  
  20889624.900   109775718.99448      -189.984    20889626.580    85539527.25649
      -148.043  
  22099440.100   116133347.59649      2232.465    22099439.160    90493512.66747
      1739.582  
  24634813.320   129456809.66546     -3593.859    24634814.420   100875444.73343
     -2800.410  
  24272834.800   127554621.06646      3189.750    24272836.860    99393226.64748
      2485.520  
  21394326.360   112427938.60648     -2236.887    21394326.000    87606182.21349
     -1743.031  
  21813518.780   114630811.90647     -2620.313    21813520.480    89322718.61447
     -2041.805  
  20494647.000   107700095.21948      -144.371    20494645.100    83922145.27047
      -112.500  
  23651337.040   124288605.54747      -355.824    23651337.120    96848265.42244
      -277.266  
  19576497.680   104353751.10508      1675.426           0.000           0.00000
         0.000  
  23440210.240   125081446.88506       626.855    23440216.280    97285605.06905
       487.551  
  19395320.100   103569928.92708     -1479.168    19395323.580    80554400.90208
     -1150.469  
  20033126.360   107126143.95207      2491.285    20033132.340    83320351.08408
      1937.668  
  19977411.780   106865681.39805     -2245.117    19977414.680    83117760.31407
     -1746.207  
 20  5  7  5 23 55.0000000  0 14G 1G30G28G27G17G 7G 8G11G13R10R 2R 9
                                R20R19
  21550345.660   113247834.99748      2572.719    21550348.080    88245078.80949
      2004.715  
  20889807.320   109776677.51848      -193.496    20889809.000    85540274.15449
      -150.781  
  22097316.500   116122187.86749      2231.348    22097315.540    90484816.78047
      1738.711  
  24638232.960   129474779.85046     -3594.125    24638234.160   100889447.43843
     -2800.617  
  24269800.380   127538675.13146      3188.422    24269802.420    99380801.26248
      2484.484  
  21396456.000   112439129.97148     -2240.047    21396455.640    87614902.75349
     -1745.496  
  21816012.520   114643916.60147     -2621.816    21816014.220    89332930.05947
     -2042.977  
  20494786.180   107700826.61848      -148.121    20494784.260    83922715.19347
      -115.422  
  23651677.040   124290393.01347      -359.293    23651677.160    96849658.24745
      -279.973  
  19574927.780   104345382.63908      1671.996           0.000           0.00000
         0.000  
  23439624.880   125078323.16606       622.637    23439630.900    97283175.50405
       484.270  
  19396706.680   103577333.41908     -1482.949    19396710.220    80560159.95208
     -1153.410  
  20030798.760   107113697.22907      2487.324    20030804.740    83310670.30708
      1934.586  
  19979511.760   106876915.60805     -2248.836    19979514.780    83126498.02807
     -1749.098  
 20  5  7  5 24  0.0000000  0 14G 1G30G28G27G17G 7G 8G11G13R10R 2R 9
                                R20R19
  21547899.340   113234979.59648      2569.797    21547901.780    88235061.61549
      2002.438  
  20889993.220   109777654.35348      -196.820    20889994.880    85541035.32249
      -153.371  
  22095194.100   116111034.55049      2230.500    22095193.120    90476125.88846
      1738.051  
  24641653.040   129492752.31346     -3594.488    24641654.080   100903451.93043
     -2800.910  
  24266766.980   127522734.68046      3187.875    24266769.080    99368380.15048
      2484.059  
  21398588.520   112450336.39248     -2242.406    21398588.160    87623635.02549
     -1747.332  
  21818507.880   114657029.85947     -2623.133    21818509.580    89343148.18447
     -2044.004  
  20494928.840   107701576.45648      -151.348    20494926.980    83923299.48347
      -117.934  
  23652020.520   124292198.53347      -362.422    23652020.700    96851065.13344
      -282.410  
  19573361.220   104337031.87508      1668.699           0.000           0.00000
         0.000  
  23439043.720   125075221.83606       618.504    23439049.780    97280763.35605
       481.055  
  19398096.960   103584757.27108     -1486.395    19398100.480    80565934.05508
     -1156.090  
  20028474.760   107101269.62607      2484.141    20028480.700    83301004.39808
      1932.109  
  19981615.240   106888168.05905     -2252.012    19981618.300    83135249.93007
     -1751.570  
 20  5  7  5 24  5.0000000  0 14G 1G30G28G27G17G 7G 8G11G13R10R 2R 9
                                R20R19
  21545455.840   113222139.02948      2566.977    21545458.300    88225055.97949
      2000.242  
  20890182.460   109778648.61648      -200.434    20890184.080    85541810.07449
      -156.188  
  22093072.780   116099886.77049      2229.047    22093071.760    90467439.30447
      1736.914  
  24645073.380   129510726.24546     -3594.863    24645074.580   100917457.59144
     -2801.195  
  24263734.540   127506798.85346      3186.898    24263736.540    99355962.61248
      2483.297  
  21400723.720   112461557.00248     -2245.289    21400723.360    87632378.35149
     -1749.578  
  21821004.720   114670150.86847     -2624.813    21821006.440    89353372.34147
     -2045.313  
  20495074.860   107702343.83348      -155.109    20495073.000    83923897.44147
      -120.863  
  23652367.240   124294021.15347      -365.922    23652367.440    96852485.37244
      -285.133  
  19571797.780   104328697.85708      1665.512           0.000           0.00000
         0.000  
  23438466.560   125072141.85006       614.246    23438472.620    97278367.83405
       477.746  
  19399490.660   103592199.50808     -1490.129    19399494.180    80571722.45808
     -1158.992  
  20026154.180   107088860.26007      2480.227    20026160.100    83291352.67308
      1929.066  
  19983722.000   106899437.74005     -2255.758    19983725.060    83144015.23807
     -1754.480  
 20  5  7  5 24 10.0000000  0 14G 1G30G28G27G17G 7G 8G11G13R10R 2R 9
                                R20R19
  21543014.920   113209312.01948      2564.750    21543017.380    88215060.91449
      1998.508  
  20890374.760   109779659.03148      -203.945    20890376.360    85542597.41049
      -158.922  
  22090952.240   116088743.21349      2228.227    22090951.180    90458756.01146
      1736.277  
  24648493.780   129528700.31946     -3594.574    24648494.900   100931463.35644
     -2800.961  
  24260702.680   127490866.41646      3186.125    24260704.720    99343547.73048
      2482.695  
  21402861.380   112472790.47848     -2248.340    21402861.020    87641131.70749
     -1751.957  
  21823502.760   114683278.19447     -2626.414    21823504.520    89363601.43647
     -2046.555  
  20495223.960   107703127.45448      -158.301    20495222.120    83924508.05647
      -123.352  
  23652716.960   124295859.61447      -369.445    23652717.260    96853917.92745
      -287.879  
  19570237.260   104320379.33608      1662.043           0.000           0.00000
         0.000  
  23437893.180   125069082.18706       609.773    23437899.240    97275988.09005
       474.270  
  19400887.540   103599658.89808     -1493.926    19400891.080    80577524.20108
     -1161.945  
  20023836.820   107076467.93307      2476.586    20023842.680    83281714.19908
      1926.234  
  19985831.780   106910723.26605     -2258.875    19985834.760    83152792.86507
     -1756.906  
 20  5  7  5 24 15.0000000  0 14G 1G30G28G27G17G 7G 8G11G13R10R 2R 9
                                R20R19
  21540576.680   113196499.10248      2561.266    21540579.160    88205076.82949
      1995.793  
  20890570.220   109780686.06749      -207.145    20890571.820    85543397.69249
      -161.414  
  22088832.640   116077604.38249      2227.348    22088831.480    90450076.40447
      1735.594  
  24651914.260   129546675.00845     -3594.824    24651915.400   100945469.66744
     -2801.164  
  24257671.520   127474937.87246      3185.199    24257673.580    99331135.89448
      2481.973  
  21405001.560   112484037.31648     -2250.781    21405001.220    87649895.47549
     -1753.859  
  21826002.040   114696412.40147     -2627.645    21826003.840    89373835.87347
     -2047.520  
  20495376.260   107703927.81448      -161.914    20495374.420    83925131.71247
      -126.168  
  23653069.800   124297714.40247      -372.770    23653070.200    96855363.21545
      -290.473  
  19568679.760   104312076.93908      1658.953           0.000           0.00000
         0.000  
  23437323.640   125066043.10606       605.723    23437329.800    97273624.38105
       471.117  
  19402287.740   103607136.06408     -1497.070    19402291.320    80583339.77408
     -1164.391  
  20021522.620   107064092.94307      2473.602    20021528.480    83272089.21508
      1923.914  
  19987944.580   106922025.22805     -2262.074    19987947.540    83161583.28207
     -1759.395  
 20  5  7  5 24 20.0000000  0 14G 1G30G28G27G17G 7G 8G11G13R10R 2R 9
                                R20R19
  21538141.100   113183700.16148      2558.535    21538143.600    88195103.62649
      1993.664  
  20890768.800   109781729.56748      -210.469    20890770.400    85544210.80949
      -164.004  
  22086713.860   116066470.11049      2226.477    22086712.700    90441400.34847
      1734.918  
  24655334.840   129564650.14345     -3595.313    24655335.820   100959476.14543
     -2801.547  
  24254641.100   127459012.96846      3185.344    24254643.160    99318726.89948
      2482.086  
  21407144.280   112495297.32249     -2253.184    21407143.940    87658669.49849
     -1755.730  
  21828502.660   114709553.26847     -2628.508    21828504.480    89384075.51047
     -2048.191  
  20495531.720   107704744.74148      -164.766    20495529.880    83925768.27847
      -128.391  
  23653425.720   124299585.37147      -375.910    23653426.160    96856821.11745
      -292.918  
  19567125.260   104303790.32308      1655.809           0.000           0.00000
         0.000  
  23436758.020   125063024.78206       601.672    23436764.140    97271276.78605
       467.969  
  19403691.180   103614630.55008     -1500.430    19403694.800    80589168.81908
     -1167.004  
  20019211.700   107051735.23107      2469.914    20019217.520    83262477.66308
      1921.043  
  19990060.280   106933343.41405     -2264.969    19990063.340    83170386.31607
     -1761.645  
 20  5  7  5 24 25.0000000  0 14G 1G30G28G27G17G 7G 8G11G13R10R 2R 9
                                R20R19
  21535708.220   113170915.34848      2555.367    21535710.740    88185141.43849
      1991.195  
  20890970.560   109782789.71049      -213.922    20890972.140    85545036.89549
      -166.695  
  22084595.980   116055340.57349      2225.242    22084594.820    90432727.98847
      1733.953  
  24658755.500   129582625.89845     -3595.414    24658756.200   100973483.24541
     -2801.543  
  24251611.380   127443091.99246      3183.633    24251613.440    99306320.93548
      2480.750  
  21409289.520   112506570.72449     -2256.355    21409289.200    87667453.96649
     -1758.203  
  21831004.580   114722700.90247     -2630.523    21831006.380    89394320.41747
     -2049.762  
  20495690.340   107705578.47648      -168.750    20495688.520    83926417.94447
      -131.496  
  23653784.760   124301472.67247      -379.316    23653785.240    96858291.73144
      -295.574  
  19565573.680   104295519.68308      1652.199           0.000           0.00000
         0.000  
  23436196.280   125060027.17407       597.172    23436202.360    97268945.30405
       464.465  
  19405097.960   103622142.62308     -1504.387    19405101.580    80595011.53908
     -1170.082  
  20016904.020   107039395.01607      2466.332    20016909.860    83252879.72608
      1918.258  
  19992179.180   106944678.10305     -2269.086    19992182.220    83179202.18107
     -1764.848  
 20  5  7  5 24 30.0000000  0 14G 1G30G28G27G17G 7G 8G11G13R10R 2R 9
                                R20R19
  21533278.280   113158146.04048      2552.633    21533280.820    88175191.33249
      1989.066  
  20891175.740   109783867.84449      -217.137    20891177.300    85545876.99949
      -169.203  
  22082479.280   116044217.14249      2224.316    22082478.100    90424060.39047
      1733.234  
  24662176.500   129600603.59545     -3595.441    24662176.720   100987491.90043
     -2801.645  
  24248582.680   127427176.22446      3182.965    24248584.700    99293919.06248
      2480.230  
  21411437.560   112517858.82948     -2258.871    21411437.240    87676249.88849
     -1760.164  
  21833508.060   114735856.81047     -2631.770    21833509.840    89404571.77647
     -2050.730  
  20495852.440   107706430.30148      -171.867    20495850.620    83927081.70047
      -133.926  
  23654147.120   124303377.62847      -382.492    23654147.720    96859776.09544
      -298.051  
  19564025.420   104287266.51708      1649.172           0.000           0.00000
         0.000  
  23435638.640   125057051.51307       593.023    23435644.680    97266630.90005
       461.242  
  19406508.260   103629673.82408     -1507.918    19406511.940    80600869.13908
     -1172.828  
  20014599.820   107027073.71407      2462.438    20014605.700    83243296.49808
      1915.230  
  19994301.360   106956030.50106     -2271.840    19994304.420    83188031.81707
     -1766.992  
 20  5  7  5 24 35.0000000  0 14G 1G30G28G27G17G 7G 8G11G13R10R 2R 9
                                R20R19
  21530850.820   113145389.68848      2549.582    21530853.360    88165251.32249
      1986.688  
  20891383.880   109784961.44849      -220.547    20891385.420    85546729.15649
      -171.859  
  22080363.220   116033097.28549      2223.180    22080362.080    90415395.56447
      1732.348  
  24665597.460   129618580.75445     -3596.152    24665597.720   101001500.04241
     -2802.188  
  24245554.580   127411263.15246      3181.902    24245556.540    99281519.27048
      2479.406  
  21413587.920   112529159.07348     -2261.680    21413587.620    87685055.26949
     -1762.352  
  21836012.600   114749018.36447     -2633.090    21836014.380    89414827.53447
     -2051.758  
  20496017.500   107707297.68448      -175.391    20496015.660    83927757.58747
      -136.672  
  23654512.380   124305297.72347      -385.699    23654513.000    96861272.28044
      -300.547  
  19562479.940   104279028.15608      1645.852           0.000           0.00000
         0.000  
  23435084.620   125054095.42907       588.867    23435090.680    97264331.73305
       458.008  
  19407921.680   103637221.41108     -1511.469    19407925.360    80606739.47808
     -1175.590  
  20012298.760   107014768.61607      2459.020    20012304.580    83233725.86808
      1912.570  
  19996426.340   106967398.15806     -2275.438    19996429.480    83196873.32807
     -1769.789  
 20  5  7  5 24 40.0000000  0 14G 1G30G28G27G17G 7G 8G11G13R10R 2R 9
                                R20R19
  21528426.360   113132649.30948      2546.762    21528428.960    88155323.75649
      1984.488  
  20891595.520   109786073.50349      -223.656    20891597.060    85547595.68649
      -174.281  
  22078248.440   116021983.97349      2222.305    22078247.300    90406735.84846
      1731.664  
  24669018.780   129636560.29045     -3596.289    24669018.900   101015510.00141
     -2802.320  
  24242527.480   127395355.79146      3181.188    24242529.500    99269123.92249
      2478.848  
  21415741.140   112540474.47348     -2264.223    21415740.860    87693872.45649
     -1764.332  
  21838518.780   114762188.57147     -2634.695    21838520.580    89425090.03347
     -2053.012  
  20496186.060   107708183.63848      -178.695    20496184.280    83928447.94747
      -139.242  
  23654881.100   124307235.97247      -389.168    23654881.760    96862782.58745
      -303.250  
  19560937.780   104270807.65808      1642.598           0.000           0.00000
         0.000  
  23434534.920   125051162.07107       584.566    23434540.900    97262050.22205
       454.660  
  19409338.760   103644788.40608     -1515.125    19409342.440    80612624.91908
     -1178.434  
  20010001.280   107002482.82707      2455.730    20010007.080    83224170.26208
      1910.012  
  19998554.820   106978783.94106     -2278.523    19998557.940    83205728.93306
     -1772.188  
 20  5  7  5 24 45.0000000  0 14G 1G30G28G27G17G 7G 8G11G13R10R 2R 9
                                R20R19
  21526004.560   113119922.67548      2543.961    21526007.160    88145406.90049
      1982.309  
  20891810.240   109787201.77248      -227.273    20891811.760    85548474.85549
      -177.102  
  22076134.480   116010874.97549      2221.391    22076133.320    90398079.48647
      1730.953  
  24672440.140   129654539.96345     -3595.539    24672440.580   101029520.10341
     -2801.730  
  24239501.040   127379451.93947      3180.605    24239503.100    99256731.32648
      2478.395  
  21417896.820   112551802.75648     -2266.949    21417896.580    87702699.68749
     -1766.457  
  21841026.180   114775365.16047     -2635.996    21841028.000    89435357.49547
     -2054.027  
  20496357.760   107709085.90448      -182.004    20496355.980    83929151.00747
      -141.824  
  23655252.840   124309190.01547      -392.336    23655253.560    96864305.22645
      -305.715  
  19559398.580   104262602.88808      1639.516           0.000           0.00000
         0.000  
  23433989.020   125048248.92907       580.719    23433994.940    97259784.43505
       451.668  
  19410759.020   103652372.60008     -1518.324    19410762.720    80618523.73708
     -1180.922  
  20007707.000   106990214.21307      2452.250    20007712.800    83214628.01008
      1907.305  
  20000686.280   106990185.67806     -2281.895    20000689.380    83214596.94906
     -1774.813  
 20  5  7  5 24 50.0000000  0 14G 1G30G28G27G17G 7G 8G11G13R10R 2R 9
                                R20R19
  21523585.400   113107210.13548      2541.465    21523588.020    88135501.03149
      1980.363  
  20892028.120   109788346.57948      -230.195    20892029.620    85549366.91449
      -179.375  
  22074021.440   115999770.68849      2220.684    22074020.220    90389426.79347
      1730.402  
  24675861.640   129672520.20945     -3595.965    24675862.200   101043530.73343
     -2802.059  
  24236475.300   127363551.88846      3179.980    24236477.380    99244341.67948
      2477.906  
  21420055.020   112563144.25548     -2269.313    21420054.800    87711537.21349
     -1768.301  
  21843534.860   114788548.45747     -2636.910    21843536.720    89445630.19847
     -2054.734  
  20496532.620   107710004.83748      -185.188    20496530.860    83929867.05847
      -144.301  
  23655627.700   124311160.32747      -395.516    23655628.420    96865840.55144
      -308.191  
  19557862.360   104254413.99508      1636.578           0.000           0.00000
         0.000  
  23433446.980   125045356.25406       576.914    23433452.860    97257534.57705
       448.711  
  19412182.660   103659974.45408     -1521.793    19412186.300    80624436.28508
     -1183.621  
  20005415.960   106977962.93707      2448.914    20005421.740    83205099.24308
      1904.711  
  20002820.700   107001603.58906     -2284.750    20002823.840    83223477.54606
     -1777.031  
 20  5  7  5 24 55.0000000  0 14G 1G30G28G27G17G 7G 8G11G13R10R 2R 9
                                R20R19
  21521168.980   113094511.94348      2538.223    21521171.640    88125606.33649
      1977.836  
  20892249.160   109789508.18149      -234.168    20892250.660    85550272.05949
      -182.473  
  22071909.300   115988671.30449      2219.391    22071908.040    90380777.92547
      1729.395  
  24679283.300   129690501.08745     -3596.074    24679283.780   101057541.80441
     -2802.152  
  24233450.360   127347655.92146      3178.738    24233452.540    99231955.22948
      2476.938  
  21422215.800   112574499.21748     -2272.320    21422215.580    87720385.23149
     -1770.645  
  21846044.840   114801738.66947     -2638.691    21846046.700    89455908.27547
     -2056.129  
  20496710.680   107710940.66148      -188.930    20496708.960    83930596.27247
      -147.223  
  23656005.680   124313147.06447      -399.043    23656006.360    96867388.64645
      -310.945  
  19556329.200   104246241.33108      1632.805           0.000           0.00000
         0.000  
  23432908.900   125042484.77006       572.238    23432914.720    97255301.20005
       445.070  
  19413609.540   103667593.99908     -1525.648    19413613.200    80630362.59408
     -1186.621  
  20003128.260   106965729.45707      2444.523    20003134.020    83195584.32208
      1901.297  
  20004958.300   107013037.90906     -2288.563    20004961.360    83232370.90206
     -1779.926  
 20  5  7  5 25  0.0000000  0 14G 1G30G28G27G17G 7G 8G11G13R10R 2R 9
                                R20R19
  21518755.100   113081827.06048      2535.594    21518757.780    88115722.01849
      1975.789  
  20892473.220   109790685.53249      -236.938    20892474.700    85551189.46949
      -184.629  
  22069797.900   115977575.78349      2218.594    22069796.620    90372132.06847
      1728.773  
  24682704.800   129708481.68345     -3595.992    24682705.380   101071552.71441
     -2802.063  
  24230426.000   127331762.89946      3177.945    24230428.220    99219571.06248
      2476.320  
  21424378.920   112585866.56148     -2274.762    21424378.720    87729242.89749
     -1772.547  
  21848555.960   114814934.71547     -2639.785    21848557.880    89466190.90647
     -2056.980  
  20496891.760   107711892.31148      -192.004    20496890.060    83931337.81847
      -149.613  
  23656386.600   124315149.19647      -401.938    23656387.280    96868948.75245
      -313.199  
  19554798.920   104238084.03508      1629.938           0.000           0.00000
         0.000  
  23432374.480   125039632.98306       568.363    23432380.340    97253083.15805
       442.059  
  19415039.580   103675230.28208     -1529.004    19415043.240    80636301.92508
     -1189.230  
  20000843.640   106953512.63107      2441.324    20000849.420    83186082.35308
      1898.809  
  20007098.720   107024487.70206     -2291.797    20007101.780    83241276.29706
     -1782.512  
 20  5  7  5 25  5.0000000  0 14G 1G30G28G27G17G 7G 8G11G13R10R 2R 9
                                R20R19
  21516343.820   113069155.78748      2532.895    21516346.520    88105848.30149
      1973.684  
  20892700.340   109791878.94848      -240.660    20892701.800    85552119.40249
      -187.531  
  22067687.300   115966484.43249      2217.773    22067685.980    90363489.46347
      1728.137  
  24686126.380   129726462.23105     -3596.230           0.000           0.00000
         0.000  
  24227402.240   127315873.20446      3177.750    24227404.520    99207189.49248
      2476.168  
  21426544.460   112597246.59748     -2277.211    21426544.260    87738110.45449
     -1774.449  
  21851068.220   114828136.96247     -2640.832    21851070.200    89476478.37747
     -2057.797  
  20497075.920   107712860.06648      -194.934    20497074.220    83932091.91647
      -151.895  
  23656770.500   124317167.04047      -405.133    23656771.180    96870521.08445
      -315.691  
  19553271.520   104229942.10708      1626.875           0.000           0.00000
         0.000  
  23431843.820   125036801.26106       564.586    23431849.720    97250880.69905
       439.121  
  19416472.800   103682883.55708     -1532.449    19416476.460    80642254.47508
     -1191.910  
  19998562.160   106941312.56907      2438.648    19998567.960    83176593.42008
      1896.727  
  20009242.000   107035953.09606     -2294.695    20009245.120    83250193.82606
     -1784.766  
 20  5  7  5 25 10.0000000  0 14G 1G30G28G27G17G 7G 8G11G13R10R 2R 9
                                R20R19
  21513937.260   113056509.26648      2526.875    21513939.960    88095993.87349
      1968.992  
  20892932.620   109793099.47248      -246.891    20892934.060    85553070.45749
      -192.387  
  22065579.580   115955408.37549      2213.813    22065578.280    90354858.76947
      1725.047  
  24689550.020   129744453.84045     -3599.359    24689550.980   101099581.91344
     -2804.723  
  24224381.260   127299997.94746      3174.105    24224383.520    99194819.17448
      2473.328  
  21428714.520   112608650.44248     -2283.063    21428714.360    87746996.56549
     -1779.012  
  21853583.800   114841356.53747     -2645.750    21853585.760    89486779.33747
     -2061.629  
  20497265.260   107713855.06748      -201.621    20497263.560    83932867.24047
      -157.109  
  23657159.560   124319211.71247      -411.449    23657160.160    96872114.33045
      -320.613  
  19551749.180   104221827.07408      1620.445           0.000           0.00000
         0.000  
  23431319.120   125034001.07906       556.953    23431324.980    97248702.79005
       433.188  
  19417911.360   103690565.15508     -1539.148    19417914.980    80648229.04708
     -1197.121  
  19996285.940   106929140.89807      2431.262    19996291.780    83167126.56908
      1890.980  
  20011390.360   107047445.40606     -2301.148    20011393.480    83259132.28406
     -1789.785  
 20  5  7  5 25 15.0000000  0 14G 1G30G28G27G17G 7G 8G11G13R10R 2R 9
                                R20R19
  21511532.900   113043874.36648      2526.582    21511535.640    88086148.49849
      1968.766  
  20893167.580   109794334.03049      -247.469    20893169.000    85554032.45049
      -192.832  
  22063472.300   115944334.46849      2215.379    22063470.980    90346229.74947
      1726.270  
  24692973.320   129762443.39045     -3596.570    24692974.200   101113599.64944
     -2802.539  
  24221360.480   127284123.93546      3175.375    24221362.840    99182449.83848
      2474.316  
  21430886.620   112620064.91848     -2283.047    21430886.460    87755890.95349
     -1779.000  
  21856100.180   114854580.12947     -2644.141    21856102.160    89497083.43747
     -2060.371  
  20497457.280   107714864.18448      -202.352    20497455.580    83933653.56947
      -157.680  
  23657551.220   124321270.03347      -412.188    23657551.760    96873718.21145
      -321.188  
  19550229.340   104213725.58108      1619.844           0.000           0.00000
         0.000  
  23430797.800   125031218.97506       555.211    23430803.600    97246538.90905
       431.828  
  19419352.660   103698261.63508     -1539.867    19419356.300    80654215.19208
     -1197.680  
  19994012.580   106916983.93707      2430.656    19994018.360    83157671.15908
      1890.512  
  20013541.240   107058951.38306     -2301.723    20013544.380    83268081.37106
     -1790.234  
 20  5  7  5 25 20.0000000  0 14G 1G30G28G27G17G 7G 8G11G13R10R 2R 9
                                R20R19
  21509129.800   113031246.02248      2524.164    21509132.540    88076308.23449
      1966.883  
  20893404.220   109795577.53749      -250.480    20893405.640    85555001.41349
      -195.184  
  22061364.460   115933257.64449      2214.938    22061363.140    90337598.46347
      1725.926  
  24696395.280   129780425.76905     -3596.598           0.000           0.00000
         0.000  
  24218339.040   127268246.25346      3175.148    24218341.340    99170077.60248
      2474.137  
  21433059.780   112631484.93548     -2285.422    21433059.640    87764789.66449
     -1780.852  
  21858616.360   114867802.79247     -2645.250    21858618.320    89507386.81647
     -2061.234  
  20497651.020   107715882.33448      -205.313    20497649.360    83934446.92647
      -159.988  
  23657944.540   124323336.96447      -414.934    23657945.040    96875328.81345
      -323.324  
  19548711.060   104205632.32608      1617.004           0.000           0.00000
         0.000  
  23430278.880   125028449.87306       551.523    23430284.640    97244385.17105
       428.961  
  19420795.860   103705967.94108     -1543.008    19420799.440    80660208.98708
     -1200.223  
  19991741.020   106904836.77807      2427.602    19991746.780    83148223.37908
      1888.133  
  20015693.720   107070465.69106     -2304.305    20015696.880    83277036.94506
     -1792.242  
 20  5  7  5 25 25.0000000  0 14G 1G30G28G27G17G 7G 8G11G13R10R 2R 9
                                R20R19
  21506729.460   113018632.20048      2521.402    21506732.220    88066479.28849
      1964.730  
  20893644.100   109796837.94749      -253.957    20893645.480    85555983.54849
      -197.891  
  22059257.600   115922185.88349      2213.730    22059256.240    90328971.11747
      1724.980  
  24699817.360   129798408.95544     -3596.918    24699817.880   101141625.77544
     -2802.824  
  24215318.380   127252372.74846      3174.121    24215320.720    99157708.65048
      2473.340  
  21435235.480   112642918.46548     -2287.805    21435235.360    87773698.90649
     -1782.703  
  21861133.860   114881032.42847     -2646.777    21861135.820    89517695.61347
     -2062.430  
  20497848.020   107716917.46848      -208.762    20497846.320    83935253.53047
      -162.672  
  23658341.000   124325420.43147      -418.227    23658341.520    96876952.29544
      -325.891  
  19547195.860   104197555.54808      1613.773           0.000           0.00000
         0.000  
  23429763.860   125025701.64406       547.547    23429769.520    97242247.65105
       425.867  
  19422242.340   103713692.11908     -1546.699    19422245.940    80666216.68208
     -1202.992  
  19989472.760   106892707.40107      2423.926    19989478.540    83138789.42208
      1885.277  
  20017849.360   107081996.66306     -2308.324    20017852.480    83286005.48006
     -1795.313  
 20  5  7  5 25 30.0000000  0 14G 1G30G28G27G17G 7G 8G11G13R10R 2R 9
                                R20R19
  21504331.960   113006033.35248      2518.414    21504334.740    88056662.00649
      1962.402  
  20893887.260   109798115.69049      -257.234    20893888.620    85556979.18849
      -200.445  
  22057151.780   115911119.59649      2212.883    22057150.380    90320348.03647
      1724.324  
  24703239.640   129816393.28745     -3597.199    24703240.020   101155639.49044
     -2803.020  
  24212298.620   127236503.86246      3173.746    24212300.980    99145343.28848
      2473.051  
  21437413.860   112654365.91948     -2290.637    21437413.740    87782618.99449
     -1784.914  
  21863652.780   114894269.53347     -2648.082    21863654.760    89528010.23547
     -2063.445  
  20498048.300   107717970.05448      -212.027    20498046.640    83936073.72547
      -165.219  
  23658740.680   124327520.83448      -421.684    23658741.240    96878588.98844
      -328.586  
  19545683.840   104189495.74008      1610.371           0.000           0.00000
         0.000  
  23429252.860   125022975.11406       543.059    23429258.520    97240127.01704
       422.375  
  19423692.260   103721434.57708     -1550.379    19423695.840    80672238.58908
     -1205.855  
  19987207.980   106880596.26307      2420.746    19987213.680    83129369.65308
      1882.801  
  20020008.160   107093544.44006     -2311.004    20020011.200    83294987.08006
     -1797.453  
 20  5  7  5 25 35.0000000  0 14G 1G30G28G27G17G 7G 8G11G13R10R 2R 9
                                R20R19
  21501937.280   112993449.25048      2515.270    21501940.080    88046856.21449
      1959.949  
  20894133.680   109799410.53948      -260.902    20894135.040    85557988.16349
      -203.301  
  22055046.920   115900058.55549      2211.492    22055045.520    90311729.04647
      1723.242  
  24706662.060   129834378.65104     -3597.105           0.000           0.00000
         0.000  
  24209279.700   127220639.43346      3171.961    24209282.080    99132981.39348
      2471.652  
  21439594.840   112665827.05948     -2293.762    21439594.720    87791549.74749
     -1787.352  
  21866173.060   114907513.87347     -2650.043    21866175.100    89538330.51047
     -2064.969  
  20498251.880   107719039.78848      -215.832    20498250.200    83936907.27647
      -168.184  
  23659143.580   124329637.99147      -425.320    23659144.140    96880238.72444
      -331.422  
  19544174.960   104181452.55208      1606.875           0.000           0.00000
         0.000  
  23428745.900   125020269.85206       538.883    23428751.500    97238022.92405
       419.129  
  19425145.560   103729195.08008     -1554.270    19425149.140    80678274.53208
     -1208.879  
  19984946.480   106868503.30807      2416.691    19984952.240    83119964.02408
      1879.648  
  20022170.020   107105108.84706     -2314.523    20022173.060    83303981.62406
     -1800.184  
 20  5  7  5 25 40.0000000  0 15G 1G30G28G27G17G 7G 8G11G13R10R 2R11
                                R 9R20R19
  21499545.560   112980880.76948      2512.367    21499548.380    88037062.60749
      1957.688  
  20894383.520   109800723.31749      -264.094    20894384.840    85559011.11049
      -205.793  
  22052943.240   115889003.62449      2210.629    22052941.820    90303114.82247
      1722.566  
  24710084.960   129852365.84145     -3597.438    24710086.500   101183669.08042
     -2803.199  
  24206261.820   127204780.13846      3171.332    24206264.160    99120623.51148
      2471.168  
  21441778.560   112677302.73848     -2296.414    21441778.480    87800491.83649
     -1789.414  
  21868694.860   114920766.06347     -2651.363    21868696.920    89548656.88847
     -2065.996  
  20498458.880   107720127.53348      -219.238    20498457.220    83937754.87547
      -170.836  
  23659549.840   124331772.71847      -428.582    23659550.320    96881902.15444
      -333.961  
  19542669.340   104173426.86808      1603.609           0.000           0.00000
         0.000  
  23428243.060   125017586.54006       534.156    23428248.600    97235935.89905
       415.449  
  23639328.080   126321404.73806      4144.609           0.000           0.00000
         0.000  
  19426602.400   103736974.57208     -1557.582    19426606.020    80684325.24808
     -1211.457  
  19982688.600   106856429.29907      2413.031    19982694.320    83110573.14308
      1876.801  
  20024335.180   107116690.65106     -2317.938    20024338.140    83312989.69106
     -1802.844  
 20  5  7  5 25 45.0000000  0 15G 1G30G28G27G17G 7G 8G11G13R10R 2R11
                                R 9R20R19
  21497156.300   112968325.17548      2509.633    21497159.140    88027279.02549
      1955.559  
  20894636.260   109802051.32349      -267.406    20894637.540    85560045.91349
      -208.371  
  22050840.220   115877952.09849      2209.707    22050838.780    90294503.24547
      1721.852  
  24713507.600   129870352.07344     -3597.223    24713508.060   101197684.34741
     -2803.000  
  24203244.280   127188923.42945      3171.043    24203246.720    99108267.64048
      2470.941  
  21443964.560   112688790.19548     -2299.109    21443964.460    87809443.09749
     -1791.520  
  21871217.680   114934023.62447     -2652.496    21871219.780    89558987.44947
     -2066.883  
  20498668.760   107721230.57548      -222.445    20498667.140    83938614.39147
      -173.336  
  23659958.980   124333922.31147      -431.637    23659959.340    96883577.13944
      -336.348  
  19541166.520   104165415.91908      1600.406           0.000           0.00000
         0.000  
  23427743.880   125014922.55806       530.207    23427749.240    97233863.90305
       412.379  
  23635450.180   126300682.59206      4144.055    23635456.580    98233878.45107
      3223.152  
  19428062.300   103744770.14108     -1560.883    19428065.880    80690388.47808
     -1214.020  
  19980433.760   106844371.38407      2409.918    19980439.420    83101194.76008
      1874.375  
  20026503.020   107128287.33106     -2320.941    20026506.020    83322009.32106
     -1805.180  
 20  5  7  5 25 50.0000000  0 15G 1G30G28G27G17G 7G 8G11G13R10R 2R11
                                R 9R20R19
  21494770.060   112955785.47048      2506.188    21494772.920    88017507.82749
      1952.875  
  20894892.460   109803397.52648      -271.426    20894893.720    85561094.90549
      -211.500  
  22048738.400   115866906.95449      2208.168    22048736.960    90285896.63747
      1720.648  
  24716930.740   129888340.49545     -3598.125    24716931.960   101211701.42944
     -2803.711  
  24200227.900   127173072.22146      3169.500    24200230.380    99095916.08048
      2469.746  
  21446153.340   112700292.41748     -2302.215    21446153.280    87818405.85949
     -1793.938  
  21873742.060   114947289.36847     -2654.203    21873744.180    89569324.39046
     -2068.215  
  20498882.140   107722351.92948      -226.383    20498880.540    83939488.17747
      -176.402  
  23660371.460   124336089.72747      -435.648    23660371.680    96885266.01245
      -339.469  
  19539667.040   104157422.86108      1596.625           0.000           0.00000
         0.000  
  23427248.860   125012280.95406       526.211    23427254.120    97231809.33305
       409.273  
  23631572.600   126279963.11305      4143.418    23631579.780    98217763.31507
      3222.660  
  19429525.760   103752584.86308     -1565.215    19429529.340    80696466.58908
     -1217.395  
  19978182.420   106832332.70607      2405.707    19978188.120    83091831.35208
      1871.105  
  20028674.180   107139901.60306     -2324.809    20028677.180    83331042.66206
     -1808.184  
 20  5  7  5 25 55.0000000  0 15G 1G30G28G27G17G 7G 8G11G13R10R 2R11
                                R 9R20R19
  21492386.800   112943261.33448      2504.133    21492389.660    88007748.76949
      1951.273  
  20895152.040   109804761.60248      -273.754    20895153.300    85562157.81549
      -213.320  
  22046637.720   115855867.83549      2207.949    22046636.340    90277294.72447
      1720.480  
  24720354.240   129906330.52045     -3597.094    24720353.360   101225720.46041
     -2802.875  
  24197212.440   127157226.27646      3169.227    24197215.020    99083568.58948
      2469.527  
  21448344.880   112711809.06948     -2303.980    21448344.800    87827379.86449
     -1795.313  
  21876267.900   114960563.00147     -2654.570    21876270.040    89579667.47947
     -2068.496  
  20499098.920   107723491.19948      -229.059    20499097.340    83940375.92547
      -178.488  
  23660787.260   124338274.61048      -437.898    23660787.440    96886968.52544
      -341.219  
  19538170.820   104149447.29108      1594.211           0.000           0.00000
         0.000  
  23426757.900   125009661.48107       522.645    23426763.160    97229771.95105
       406.496  
  23627695.180   126259246.01806      4144.297    23627703.200    98201650.08506
      3223.352  
  19430992.780   103760418.43608     -1567.703    19430996.340    80702559.35608
     -1219.328  
  19975934.620   106820312.76207      2402.813    19975940.320    83082482.50908
      1868.855  
  20030848.600   107151533.25906     -2326.988    20030851.600    83340089.50406
     -1809.883  
 20  5  7  5 26  0.0000000  0 15G 1G30G28G27G17G 7G 8G11G13R10R 2R11
                                R 9R20R19
  21490006.040   112930750.24548      2500.395    21490008.900    87997999.87349
      1948.359  
  20895414.580   109806141.01749      -277.992    20895415.800    85563232.68249
      -216.621  
  22044537.720   115844832.23749      2206.074    22044536.360    90268695.55746
      1719.020  
  24723777.520   129924319.73945     -3598.258    24723776.960   101239737.97944
     -2803.859  
  24194197.460   127141382.86546      3168.266    24194200.100    99071223.06948
      2468.773  
  21450538.660   112723337.61648     -2307.566    21450538.600    87836363.14749
     -1798.109  
  21878794.820   114973842.17947     -2656.891    21878797.020    89590014.91347
     -2070.305  
  20499318.660   107724645.85448      -233.031    20499317.080    83941275.65247
      -181.582  
  23661205.940   124340474.46347      -442.078    23661206.000    96888682.68544
      -344.484  
  19536677.460   104141486.56508      1590.160           0.000           0.00000
         0.000  
  23426270.600   125007061.26207       517.563    23426275.780    97227749.53305
       402.543  
  23623818.020   126238528.80205      4142.648    23623825.520    98185536.71306
      3222.063  
  19432462.820   103768268.28508     -1572.156    19432466.380    80708664.79008
     -1222.793  
  19973689.860   106808309.32107      2398.672    19973695.600    83073146.51208
      1865.633  
  20033025.800   107163179.72806     -2331.621    20033028.780    83349147.84606
     -1813.488  
