     2              OBSERVATION DATA    M                   RINEX VERSION / TYPE
LEICA GEO OFFICE 7.0                    31-5-20 14:16       PGM / RUN BY / DATE
                                                            OBSERVER / AGENCY
GGS1636                                                     MARKER NAME
GGS1636                                                     MARKER NUMBER
472680              LEICA GX1230GG      9.02                REC # / TYPE / VERS
                    LEIAX1202GG                             ANT # / TYPE
 -1129838.6560  3836533.5541  4952431.9795                  APPROX POSITION XYZ
        1.8150        0.0000        0.0000                  ANTENNA: DELTA H/E/N
L1PhaOff:   0.0644  L2PhaOff:   0.0640                      COMMENT
     1     1                                                WAVELENGTH FACT L1/2
     6    C1    L1    D1    P2    L2    D2                  # / TYPES OF OBSERV
  2020     5    13     2    46   10.000000                  TIME OF FIRST OBS
  2020     5    13     3    46   20.000000                  TIME OF LAST OBS
    18                                                      LEAP SECONDS
    23                                                      # OF SATELLITES
          C1    L1    D1    P2    L2    D2                  COMMENT
   G 1    56    56    56    55    55    55                  PRN / # OF OBS
   G 2     0     0     0     0     0     0                  PRN / # OF OBS
   G 3     0     0     0     0     0     0                  PRN / # OF OBS
   G 4   253   253   253   244   244   244                  PRN / # OF OBS
   G 5     0     0     0     0     0     0                  PRN / # OF OBS
   G 6     0     0     0     0     0     0                  PRN / # OF OBS
   G 7   723   723   723   723   723   723                  PRN / # OF OBS
   G 8   723   723   723   723   723   723                  PRN / # OF OBS
   G 9   723   723   723   723   723   723                  PRN / # OF OBS
   G10     0     0     0     0     0     0                  PRN / # OF OBS
   G11   723   723   723   723   723   723                  PRN / # OF OBS
   G12     0     0     0     0     0     0                  PRN / # OF OBS
   G13    39    39    39    38    38    38                  PRN / # OF OBS
   G14     0     0     0     0     0     0                  PRN / # OF OBS
   G15     0     0     0     0     0     0                  PRN / # OF OBS
   G16   723   723   723   723   723   723                  PRN / # OF OBS
   G17     0     0     0     0     0     0                  PRN / # OF OBS
   G18     0     0     0     0     0     0                  PRN / # OF OBS
   G19     0     0     0     0     0     0                  PRN / # OF OBS
   G20     0     0     0     0     0     0                  PRN / # OF OBS
   G21   110   110   110   109   109   109                  PRN / # OF OBS
   G22     0     0     0     0     0     0                  PRN / # OF OBS
   G23     0     0     0     0     0     0                  PRN / # OF OBS
   G24     0     0     0     0     0     0                  PRN / # OF OBS
   G25     0     0     0     0     0     0                  PRN / # OF OBS
   G26     0     0     0     0     0     0                  PRN / # OF OBS
   G27   723   723   723   723   723   723                  PRN / # OF OBS
   G28   128   128   128   127   127   127                  PRN / # OF OBS
   G29     0     0     0     0     0     0                  PRN / # OF OBS
   G30   723   723   723   723   723   723                  PRN / # OF OBS
   G31     0     0     0     0     0     0                  PRN / # OF OBS
   G32     0     0     0     0     0     0                  PRN / # OF OBS
   R 1     0     0     0     0     0     0                  PRN / # OF OBS
   R 2     0     0     0     0     0     0                  PRN / # OF OBS
   R 3     0     0     0     0     0     0                  PRN / # OF OBS
   R 4     0     0     0     0     0     0                  PRN / # OF OBS
   R 5   387   387   387   387   387   387                  PRN / # OF OBS
   R 6   723   723   723     0     0     0                  PRN / # OF OBS
   R 7   225   225   225   224   224   224                  PRN / # OF OBS
   R 8     0     0     0     0     0     0                  PRN / # OF OBS
   R 9     0     0     0     0     0     0                  PRN / # OF OBS
   R10     0     0     0     0     0     0                  PRN / # OF OBS
   R11     0     0     0     0     0     0                  PRN / # OF OBS
   R12     0     0     0     0     0     0                  PRN / # OF OBS
   R13    22    22    22    22    22    22                  PRN / # OF OBS
   R14   723   723   723   723   723   723                  PRN / # OF OBS
   R15   723   723   723   723   723   723                  PRN / # OF OBS
   R16   436   436   436   436   436   436                  PRN / # OF OBS
   R17   723   723   723   723   723   723                  PRN / # OF OBS
   R18   169   169   169   168   168   168                  PRN / # OF OBS
   R19     0     0     0     0     0     0                  PRN / # OF OBS
   R20     0     0     0     0     0     0                  PRN / # OF OBS
   R21     0     0     0     0     0     0                  PRN / # OF OBS
   R22     0     0     0     0     0     0                  PRN / # OF OBS
   R23   723   723   723   722   722   722                  PRN / # OF OBS
   R24   723   723   723   723   723   723                  PRN / # OF OBS
                                                            END OF HEADER
 20  5 13  2 46 10.0000000  0 15G27G16G30G 4G 7G 8G 9G11R14R 6R15R 5
                                R24R23R17
  20567469.160   108082779.74049      -846.289    20567470.240    84220352.03449
      -659.449  
  22130525.940   116296699.02948     -2877.191    22130525.040    90620800.82445
     -2241.973  
  23866343.660   125418481.99748      3365.844    23866345.580    97728694.32849
      2622.734  
  23825597.500   125204359.66546     -3632.965    23825599.540    97561839.18945
     -2830.883  
  21595100.760   113483019.79249      2227.031    21595099.780    88428323.39949
      1735.348  
  20620506.480   108361492.43049      1543.672    20620508.580    84437535.38149
      1202.855  
  22405203.040   117740135.67849     -2442.695    22405204.480    91745566.77849
     -1903.402  
  23850689.960   125336220.61247      3726.266    23850686.080    97664591.06744
      2903.582  
  19644243.700   104714870.76708     -1269.422    19644249.020    81444921.85107
      -987.332  
  22534259.600   120247112.80406       873.000           0.000           0.00000
         0.000  
  20186345.400   107869708.90409      2242.785    20186349.640    83898679.71908
      1744.383  
  22370900.320   119585279.58707     -2935.688    22370905.380    93010796.86307
     -2283.316  
  19984553.900   106866391.23409       865.898    19984557.440    83118319.99207
       673.477  
  21021826.620   112452597.50808     -2443.188    21021832.120    87463156.30905
     -1900.262  
  21812963.580   116725578.01207      4219.129    21812968.800    90786578.56707
      3281.543  
 20  5 13  2 46 15.0000000  0 15G27G16G30G 4G 7G 8G 9G11R14R 6R15R 5
                                R24R23R17
  20568272.960   108087003.64349      -840.602    20568274.040    84223643.39549
      -655.016  
  22133261.000   116311071.93448     -2869.234    22133260.100    90632000.49545
     -2235.770  
  23863138.340   125401637.95048      3374.449    23863140.240    97715569.09949
      2629.441  
  23829051.080   125222509.09746     -3624.324    23829053.380    97575981.59145
     -2824.156  
  21592979.660   113471873.26049      2234.180    21592978.660    88419637.77749
      1740.914  
  20619036.220   108353766.26749      1549.488    20619038.320    84431515.00749
      1207.395  
  22407525.400   117752339.72849     -2436.297    22407526.840    91755076.42749
     -1898.418  
  23847141.840   125317574.12347      3734.891    23847139.740    97650061.32943
      2910.305  
  19645432.600   104721208.46208     -1262.859    19645438.000    81449851.17307
      -982.223  
  22533440.580   120242743.87205       877.313           0.000           0.00000
         0.000  
  20184244.620   107858483.83609      2250.078    20184249.060    83889949.11208
      1750.059  
  22373644.300   119599948.82907     -2929.328    22373649.500    93022206.25006
     -2278.371  
  19983743.340   106862056.74909       870.551    19983746.800    83114948.73407
       677.094  
  21024108.920   112464806.90508     -2437.781    21024114.460    87472652.49005
     -1896.055  
  21809019.440   116704470.49307      4226.449    21809024.300    90770161.60107
      3287.234  
 20  5 13  2 46 20.0000000  0 15G27G16G30G 4G 7G 8G 9G11R14R 6R15R 5
                                R24R23R17
  20569075.520   108091221.12249      -848.363    20569076.620    84226929.74049
      -661.066  
  22135992.720   116325427.23648     -2874.840    22135991.780    90643186.44445
     -2240.141  
  23859929.260   125384774.36348      3369.172    23859931.200    97702428.65349
      2625.328  
  23832500.980   125240639.09246     -3629.410    23832503.620    97590108.84845
     -2828.117  
  21590855.900   113460712.90249      2227.938    21590854.920    88410941.39949
      1736.055  
  20617564.480   108346032.27449      1541.914    20617566.600    84425488.52049
      1201.492  
  22409845.640   117764532.68249     -2443.043    22409847.100    91764577.42849
     -1903.672  
  23843589.620   125298907.66947      3729.758    23843590.040    97635516.06141
      2906.305  
  19646619.440   104727535.17608     -1269.879    19646624.900    81454771.95507
      -987.723  
  22532621.580   120238373.31005       868.762           0.000           0.00000
         0.000  
  20182141.320   107847244.38009      2243.707    20182145.800    83881207.31508
      1745.105  
  22376386.820   119614609.40207     -2936.680    22376392.180    93033608.91207
     -2284.090  
  19982932.560   106857721.93009       861.480    19982936.200    83111577.21207
       670.039  
  21026390.620   112477012.06808     -2446.074    21026396.200    87482145.39005
     -1902.508  
  21805072.780   116683348.67007      4220.313    21805077.080    90753733.52107
      3282.465  
 20  5 13  2 46 25.0000000  0 16G27G16G30G 4G21G 7G 8G 9G11R14R 6R15
                                R 5R24R23R17
  20569886.300   108095481.80749      -855.195    20569887.420    84230249.75349
      -666.391  
  22138730.540   116339814.47448     -2879.238    22138729.600    90654397.28245
     -2243.566  
  23856725.940   125367940.85048      3365.008    23856727.860    97689311.63449
      2622.086  
  23835956.840   125258799.32646     -3633.637    23835959.660    97604259.68646
     -2831.410  
  25155528.100   132193195.75706     -1911.883           0.000           0.00000
         0.000  
  21588738.960   113449588.38449      2222.668    21588738.000    88402272.92649
      1731.945  
  20616100.720   108338340.08749      1535.539    20616102.820    84419494.61049
      1196.523  
  22412173.220   117776764.14049     -2448.973    22412174.700    91774108.42849
     -1908.293  
  23840043.260   125280270.85447      3726.039    23840044.440    97620993.86744
      2903.406  
  19647813.680   104733901.35308     -1275.910    19647819.180    81459723.42007
      -992.379  
  22531811.620   120234051.35705       860.785           0.000           0.00000
         0.000  
  20180044.860   107836040.91109      2238.473    20180049.240    83872493.50808
      1741.031  
  22379137.360   119629311.74907     -2943.000    22379142.660    93045044.06606
     -2289.004  
  19982131.320   106853437.19309       853.313    19982134.900    83108244.64107
       663.684  
  21028680.780   112489263.47108     -2453.445    21028686.460    87491674.25905
     -1908.238  
  21801132.560   116662263.14707      4214.691    21801136.720    90737333.66907
      3278.094  
 20  5 13  2 46 30.0000000  0 16G27G16G30G 4G21G 7G 8G 9G11R14R 6R15
                                R 5R24R23R17
  20570701.600   108099766.21449      -858.332    20570702.720    84233588.25649
      -668.836  
  22141470.760   116354214.22548     -2880.258    22141469.800    90665617.85245
     -2244.359  
  23853524.620   125351117.93948      3364.531    23853526.520    97676202.87549
      2621.711  
  23839414.600   125276970.27746     -3634.285    23839417.620    97618418.88544
     -2831.910  
  25157348.780   132202760.33446     -1913.766    25157347.820   103015129.11745
     -1491.246  
  21586625.140   113438480.21149      2220.926    21586624.200    88393617.23249
      1730.590  
  20614641.200   108330670.26849      1532.766    20614643.300    84413518.13249
      1194.363  
  22414504.380   117789014.61649     -2450.957    22414505.880    91783654.25349
     -1909.840  
  23836498.820   125261644.27647      3725.410    23836499.620    97606479.68143
      2902.918  
  19649011.700   104740287.20408     -1278.152    19649017.180    81464690.19307
      -994.121  
  22531007.040   120229758.36205       856.449           0.000           0.00000
         0.000  
  20177951.320   107824853.72409      2236.918    20177955.680    83863792.36508
      1739.824  
  22381891.600   119644036.07907     -2945.930    22381897.160    93056496.31906
     -2291.281  
  19981335.760   106849182.76709       848.949    19981339.340    83104935.64107
       660.289  
  21030975.760   112501541.05908     -2457.117    21030981.660    87501223.49205
     -1911.094  
  21797195.380   116641194.17507      4213.168    21797199.420    90720946.70007
      3276.910  
 20  5 13  2 46 35.0000000  0 16G27G16G30G 4G21G 7G 8G 9G11R14R 6R15
                                R 5R24R23R17
  20571519.520   108104064.46249      -861.094    20571520.660    84236937.54349
      -670.984  
  22144211.420   116368616.60648     -2880.773    22144210.400    90676840.48545
     -2244.762  
  23850323.460   125334295.77748      3364.324    23850325.360    97663094.69849
      2621.551  
  23842872.600   125295142.07646     -3634.223    23842875.460    97632578.68646
     -2831.867  
  25159170.780   132212332.77846     -1915.180    25159169.020   103022588.17445
     -1492.348  
  21584512.540   113427378.54449      2219.645    21584511.620    88384966.58449
      1729.594  
  20613184.040   108323012.92749      1530.309    20613186.160    84407551.37949
      1192.449  
  22416837.320   117801274.28249     -2452.926    22416838.840    91793207.23249
     -1911.375  
  23832954.440   125243018.03147      3725.344    23832954.520    97591965.71043
      2902.863  
  19650211.460   104746682.67208     -1280.023    19650216.980    81469664.44207
      -995.617  
  22530206.260   120225484.20605       853.250           0.000           0.00000
         0.000  
  20175858.880   107813672.68209      2235.602    20175863.340    83855096.00108
      1738.801  
  22384648.260   119658772.33007     -2948.238    22384653.900    93067957.84306
     -2293.078  
  19980543.940   106844948.56909       844.871    19980547.480    83101642.37807
       657.121  
  21033273.980   112513835.01808     -2460.398    21033279.880    87510785.46305
     -1913.648  
  21793259.600   116620131.61407      4211.988    21793263.380    90704564.70707
      3275.992  
 20  5 13  2 46 40.0000000  0 16G27G16G30G 4G21G 7G 8G 9G11R14R 6R15
                                R 5R24R23R17
  20572341.320   108108382.93249      -868.934    20572342.440    84240302.58249
      -677.094  
  22146953.800   116383027.97948     -2886.285    22146952.900    90688070.13245
     -2249.055  
  23847123.660   125317480.77548      3358.895    23847125.560    97649992.10349
      2617.320  
  23846331.980   125313321.09446     -3639.738    23846334.680    97646744.15646
     -2836.164  
  25160994.760   132221919.46846     -1921.977    25160994.420   103030058.33245
     -1497.645  
  21582402.400   113416289.76049      2213.313    21582401.480    88376325.97149
      1724.660  
  20611730.460   108315374.35749      1522.680    20611732.580    84401599.25149
      1186.504  
  22419173.200   117813549.46249     -2459.793    22419174.740    91802772.30349
     -1916.727  
  23829411.320   125224398.54547      3720.141    23829411.100    97577457.04344
      2898.809  
  19651414.220   104753094.35608     -1287.105    19651419.760    81474651.30907
     -1001.066  
  22529410.280   120221235.35906       843.863           0.000           0.00000
         0.000  
  20173768.980   107802504.40909      2229.145    20173773.340    83846409.56908
      1733.777  
  22387408.440   119673527.04707     -2955.938    22387414.100    93079433.72807
     -2299.066  
  19979757.200   106840741.15009       835.512    19979760.660    83098369.94507
       649.844  
  21035576.420   112526151.68008     -2468.652    21035582.380    87520365.08205
     -1920.066  
  21789325.900   116599082.07707      4205.082    21789329.760    90688192.84607
      3270.621  
 20  5 13  2 46 45.0000000  0 16G27G16G30G 4G21G 7G 8G 9G11R14R 6R15
                                R 5R24R23R17
  20573169.200   108112733.55549      -870.395    20573170.360    84243692.67649
      -678.230  
  22149700.180   116397460.29848     -2885.676    22149699.240    90699316.08345
     -2248.582  
  23843927.480   125300684.82248      3360.516    23843929.380    97636904.35249
      2618.582  
  23849794.860   125331519.22146     -3638.699    23849797.400    97660924.49645
     -2835.355  
  25162823.740   132231532.37646     -1921.605    25162823.780   103037548.90245
     -1497.359  
  21580296.980   113405225.78749      2213.227    21580296.100    88367704.69749
      1724.594  
  20610282.720   108307766.54849      1521.566    20610284.860    84395671.09249
      1185.637  
  22421514.300   117825852.04949     -2460.285    22421515.840    91812358.73049
     -1917.109  
  23825871.760   125205797.76847      3721.367    23825871.860    97562962.94243
      2899.766  
  19652622.380   104759534.23508     -1287.727    19652627.900    81479660.10407
     -1001.570  
  22528621.140   120217023.95406       841.285           0.000           0.00000
         0.000  
  20171683.640   107791360.97409      2229.184    20171688.000    83837742.45608
      1733.809  
  22390174.140   119688312.25807     -2956.922    22390179.920    93090933.33506
     -2299.832  
  19978977.700   106836572.60709       832.984    19978981.100    83095127.74707
       647.875  
  21037885.400   112538503.30508     -2470.727    21037891.380    87529971.90205
     -1921.680  
  21785397.140   116578057.66507      4205.500    21785400.840    90671840.52507
      3270.941  
 20  5 13  2 46 50.0000000  0 16G27G16G30G 4G21G 7G 8G 9G11R14R 6R15
                                R 5R24R23R17
  20573997.260   108117084.92749      -871.238    20573998.400    84247083.35749
      -678.887  
  22152444.580   116411882.11048     -2884.227    22152443.680    90710553.85845
     -2247.453  
  23840728.960   125283876.56848      3362.113    23840730.880    97623807.02149
      2619.828  
  23853255.440   125349705.06546     -3636.762    23853257.820    97675095.29045
     -2833.844  
  25164652.000   132241140.11546     -1921.852    25164652.000   103045035.45445
     -1497.688  
  21578190.300   113394155.21949      2213.848    21578189.440    88359078.28349
      1725.074  
  20608834.900   108300158.19249      1520.930    20608837.020    84389742.50949
      1185.141  
  22423854.660   117838150.69249     -2460.172    22423856.220    91821942.08249
     -1917.020  
  23822329.760   125187184.36447      3723.207    23822329.960    97548459.01045
      2901.199  
  19653829.880   104765970.49208     -1287.715    19653835.320    81484666.07407
     -1001.555  
  22527833.280   120212818.13905       839.586           0.000           0.00000
         0.000  
  20169596.980   107780210.43909      2230.008    20169601.340    83829069.82108
      1734.449  
  22392939.740   119703096.01007     -2957.477    22392945.540    93102431.79806
     -2300.262  
  19978199.440   106832411.06509       830.891    19978202.880    83091890.99407
       646.246  
  21040194.860   112550857.72608     -2472.164    21040200.940    87539580.89505
     -1922.793  
  21781466.900   116557026.46207      4206.074    21781470.640    90655482.92907
      3271.391  
 20  5 13  2 46 55.0000000  0 16G27G16G30G 4G21G 7G 8G 9G11R14R 6R15
                                R 5R24R23R17
  20574828.820   108121454.84949      -876.094    20574829.980    84250488.49149
      -682.672  
  22155190.340   116426311.25248     -2887.020    22155189.360    90721797.34345
     -2249.625  
  23837531.500   125267073.84748      3359.395    23837533.420    97610713.99849
      2617.711  
  23856717.220   125367896.44246     -3639.031    23856719.480    97689270.36445
     -2835.613  
  25166482.560   132250760.42446     -1925.367    25166482.400   103052531.78645
     -1500.289  
  21576085.780   113383095.93949      2210.395    21576084.920    88350460.66049
      1722.383  
  20607390.360   108292567.12549      1516.348    20607392.480    84383827.39849
      1181.570  
  22426197.640   117850463.15649     -2464.211    22426199.200    91831536.20449
     -1920.168  
  23818788.780   125168576.11047      3720.887    23818788.680    97533959.09044
      2899.395  
  19655040.000   104772421.24408     -1291.914    19655045.460    81489683.32407
     -1004.824  
  22527049.680   120208636.20005       833.820           0.000           0.00000
         0.000  
  20167512.420   107769070.97709      2226.484    20167516.780    83820405.79408
      1731.707  
  22395708.460   119717896.45107     -2961.961    22395714.240    93113943.24606
     -2303.750  
  19977425.900   106828274.63309       824.379    19977429.300    83088673.77407
       641.184  
  21042508.260   112563233.16608     -2477.457    21042514.420    87549206.23405
     -1926.914  
  21777538.700   116536006.66207      4202.367    21777542.600    90639134.20407
      3268.508  
 20  5 13  2 47  0.0000000  0 16G27G16G30G 4G21G 7G 8G 9G11R14R 6R15
                                R 5R24R23R17
  20575662.860   108125837.70449      -877.672    20575664.020    84253903.70649
      -683.902  
  22157936.460   116440742.08448     -2886.027    22157935.480    90733042.13945
     -2248.855  
  23834334.020   125250271.03148      3360.586    23834335.940    97597620.89749
      2618.637  
  23860178.980   125386087.71746     -3637.895    23860181.100    97703445.38845
     -2834.727  
  25168314.580   132260387.75246     -1925.688    25168314.720   103060033.57145
     -1500.539  
  21573982.340   113372042.32149      2210.574    21573981.500    88341847.45649
      1722.523  
  20605948.020   108284987.58049      1515.008    20605950.120    84377921.26349
      1180.527  
  22428542.180   117862783.82649     -2464.430    22428543.760    91841136.72249
     -1920.340  
  23815247.720   125149967.40547      3722.012    23815247.600    97519458.82443
      2900.273  
  19656251.820   104778880.72908     -1292.461    19656257.240    81494707.36607
     -1005.227  
  22526269.500   120204472.25806       830.977           0.000           0.00000
         0.000  
  20165428.820   107757936.86409      2226.555    20165433.200    83811745.93308
      1731.766  
  22398479.240   119732707.84707     -2963.180    22398484.960    93125463.21606
     -2304.699  
  19976656.000   106824157.62109       821.625    19976659.400    83085471.65507
       639.043  
  21044824.540   112575623.85508     -2479.266    21044830.760    87558843.43605
     -1928.316  
  21773611.700   116514992.49707      4202.668    21773615.600    90622789.85807
      3268.742  
 20  5 13  2 47  5.0000000  0 16G27G16G30G 4G21G 7G 8G 9G11R14R 6R15
                                R 5R24R23R17
  20576499.700   108130235.34849      -881.352    20576500.860    84257330.43949
      -686.770  
  22160683.240   116455176.48448     -2887.578    22160682.220    90744289.72045
     -2250.066  
  23831136.880   125233469.97348      3359.777    23831138.800    97584529.16649
      2618.008  
  23863640.980   125404280.72146     -3639.410    23863643.080    97717621.74644
     -2835.906  
  25170148.280   132270023.97946     -1928.555    25170148.460   103067542.33445
     -1502.773  
  21571880.320   113360996.23449      2208.156    21571879.500    88333240.11949
      1720.641  
  20604508.240   108277421.56149      1511.555    20604510.360    84372025.66649
      1177.836  
  22430888.640   117875114.55149     -2467.406    22430890.240    91850745.07349
     -1922.656  
  23811706.900   125131360.07547      3721.023    23811706.320    97504959.59843
      2899.500  
  19657465.640   104785350.83308     -1295.363    19657471.040    81499739.66707
     -1007.508  
  22525492.780   120200328.15006       826.613           0.000           0.00000
         0.000  
  20163346.560   107746810.05009      2224.301    20163350.980    83803091.74608
      1730.012  
  22401252.360   119747532.07607     -2966.543    22401258.140    93136993.16406
     -2307.316  
  19975890.040   106820061.78309       816.648    19975893.480    83082286.00707
       635.172  
  21047144.040   112588031.74908     -2483.730    21047150.340    87568494.02305
     -1931.789  
  21769686.060   116493985.94407      4200.434    21769690.020    90606451.43607
      3267.004  
 20  5 13  2 47 10.0000000  0 16G27G16G30G 4G21G 7G 8G 9G11R14R 6R15
                                R 5R24R23R17
  20577339.360   108134647.84449      -884.094    20577340.540    84260768.74749
      -688.902  
  22163430.720   116469614.50548     -2888.090    22163429.720    90755540.11745
     -2250.465  
  23827940.060   125216670.79948      3359.648    23827942.040    97571438.90949
      2617.906  
  23867103.400   125422475.51746     -3638.980    23867105.520    97731799.48745
     -2835.574  
  25171983.760   132279669.11346     -1930.211    25171983.680   103075058.00845
     -1503.852  
  21569779.760   113349957.74349      2206.684    21569778.920    88324638.69849
      1719.492  
  20603071.040   108269869.08749      1508.969    20603073.160    84366140.62649
      1175.820  
  22433237.040   117887455.38749     -2469.574    22433238.620    91860361.30349
     -1924.348  
  23808166.360   125112754.24747      3720.824    23808165.580    97490461.56444
      2899.348  
  19658681.460   104791831.70108     -1297.398    19658686.820    81504780.33907
     -1009.117  
  22524719.840   120196203.95705       822.805           0.000           0.00000
         0.000  
  20161265.720   107735690.56009      2222.949    20161270.140    83794443.25408
      1728.957  
  22404027.880   119762369.16307     -2968.906    22404033.680    93148533.11006
     -2309.152  
  19975128.080   106815987.30409       812.598    19975131.520    83079116.96807
       632.020  
  21049466.800   112600456.82608     -2486.953    21049473.120    87578157.96505
     -1934.297  
  21765761.900   116472987.00907      4198.770    21765765.840    90590118.93907
      3265.711  
 20  5 13  2 47 15.0000000  0 16G27G16G30G 4G21G 7G 8G 9G11R14R 6R15
                                R 5R24R23R17
  20578182.660   108139079.42949      -888.379    20578183.860    84264221.93049
      -692.246  
  22166179.700   116484060.39548     -2890.125    22166178.660    90766796.65545
     -2252.051  
  23824744.440   125199877.75348      3357.734    23824746.440    97558353.43049
      2616.418  
  23870566.920   125440676.35847     -3640.855    23870569.220    97745981.95445
     -2837.035  
  25173821.700   132289327.39246     -1933.148    25173821.660   103082583.93946
     -1506.352  
  21567681.440   113338931.12149      2204.055    21567680.620    88316046.52249
      1717.441  
  20601637.220   108262334.37349      1504.988    20601639.340    84360269.42649
      1172.719  
  22435588.140   117899810.56249     -2472.551    22435589.720    91869988.70749
     -1926.668  
  23804626.900   125094154.17547      3719.191    23804626.200    97475968.01044
      2898.070  
  19659900.080   104798327.50608     -1300.797    19659905.420    81509832.63207
     -1011.770  
  22523951.640   120192104.08306       817.066           0.000           0.00000
         0.000  
  20159187.020   107724582.72709      2220.309    20159191.460    83785803.83608
      1726.906  
  22406806.560   119777223.35007     -2972.555    22406812.420    93160086.36106
     -2311.992  
  19974370.920   106811938.55809       807.164    19974374.360    83075967.94607
       627.793  
  21051793.520   112612903.43108     -2491.625    21051799.900    87587838.65405
     -1937.934  
  21761840.020   116452000.17507      4195.996    21761843.900    90573795.84607
      3263.551  
 20  5 13  2 47 20.0000000  0 16G27G16G30G 4G21G 7G 8G 9G11R14R 6R15
                                R 5R24R23R17
  20579029.260   108143528.32649      -891.891    20579030.460    84267688.60349
      -694.980  
  22168929.820   116498512.34148     -2891.086    22168928.800    90778057.90645
     -2252.797  
  23821549.640   125183089.03648      3357.086    23821551.660    97545271.30749
      2615.906  
  23874031.260   125458881.46247     -3642.008    23874033.600    97760167.72145
     -2837.934  
  25175661.680   132298997.06246     -1935.176    25175661.940   103090118.74846
     -1507.934  
  21565585.060   113327914.57249      2201.941    21565584.240    88307462.20549
      1715.797  
  20600206.460   108254815.66549      1501.891    20600208.580    84354410.69749
      1170.305  
  22437941.660   117912178.31149     -2475.078    22437943.220    91879625.91149
     -1928.637  
  23801088.200   125075558.08147      3718.367    23801087.420    97461477.57043
      2897.434  
  19661121.180   104804836.65708     -1303.426    19661126.520    81514895.30007
     -1013.781  
  22523187.380   120188026.77105       812.949           0.000           0.00000
         0.000  
  20157110.240   107713484.76909      2218.387    20157114.620    83777172.08908
      1725.410  
  22409588.220   119792092.94107     -2975.777    22409594.020    93171651.59006
     -2314.496  
  19973618.240   106807913.66909       802.281    19973621.660    83072837.48307
       623.996  
  21054124.020   112625369.83908     -2495.551    21054130.380    87597534.74905
     -1940.988  
  21757919.900   116431023.43407      4194.125    21757923.880    90557480.61207
      3262.098  
 20  5 13  2 47 25.0000000  0 16G27G16G30G 4G21G 7G 8G 9G11R14R 6R15
                                R 5R24R23R17
  20579879.220   108147995.00449      -894.887    20579880.460    84271169.13549
      -697.316  
  22171681.200   116512970.87348     -2892.164    22171680.140    90789324.29645
     -2253.633  
  23818355.720   125166305.17648      3356.531    23818357.780    97532192.98449
      2615.480  
  23877496.400   125477091.22646     -3642.465    23877498.700    97774357.16845
     -2838.289  
  25177504.100   132308678.58546     -1937.441    25177504.200   103097662.80645
     -1509.656  
  21563490.680   113316908.61849      2200.285    21563489.880    88298886.13649
      1714.504  
  20598778.840   108247313.48749      1498.805    20598780.940    84348564.84849
      1167.898  
  22440297.640   117924559.07849     -2477.297    22440299.200    91889273.25949
     -1930.363  
  23797550.340   125056966.44347      3718.086    23797549.820    97446990.58244
      2897.211  
  19662344.840   104811359.50608     -1305.711    19662350.200    81519968.62507
     -1015.535  
  22522427.520   120183972.42406       808.773           0.000           0.00000
         0.000  
  20155035.360   107702397.19109      2216.691    20155039.760    83768548.42208
      1724.094  
  22412372.820   119806978.27807     -2978.168    22412378.560    93183229.06506
     -2316.355  
  19972870.120   106803913.19409       797.730    19972873.520    83069726.00407
       620.453  
  21056458.240   112637856.25108     -2499.094    21056464.580    87607246.40105
     -1943.738  
  21754001.820   116410057.40107      4192.133    21754005.860    90541173.69707
      3260.543  
 20  5 13  2 47 30.0000000  0 16G27G16G30G 4G21G 7G 8G 9G11R14R 6R15
                                R 5R24R23R17
  20580731.920   108152475.98049      -897.539    20580733.160    84274660.80349
      -699.387  
  22174433.160   116527432.49648     -2892.934    22174432.080    90800593.08645
     -2254.238  
  23815162.120   125149522.72948      3355.918    23815164.200    97519115.75749
      2615.000  
  23880961.860   125495302.24247     -3642.105    23880964.060    97788547.53945
     -2838.008  
  25179348.040   132318368.43446     -1938.969    25179348.300   103105213.33045
     -1510.883  
  21561397.680   113305909.79749      2199.020    21561396.860    88290315.62549
      1713.523  
  20597353.700   108239824.34949      1496.449    20597355.780    84342729.16249
      1166.063  
  22442655.440   117936949.39849     -2479.105    22442657.000    91898928.04849
     -1931.773  
  23794012.700   125038375.87547      3718.207    23794012.240    97432504.43944
      2897.309  
  19663570.460   104817892.57208     -1307.707    19663575.800    81525049.89307
     -1017.109  
  22521671.620   120179937.58006       805.000           0.000           0.00000
         0.000  
  20152961.760   107691316.44509      2215.363    20152966.140    83759930.06608
      1723.055  
  22415159.720   119821875.94607     -2980.625    22415165.460    93194816.14106
     -2318.270  
  19972125.920   106799933.61409       793.707    19972129.320    83066630.77507
       617.328  
  21058795.580   112650359.41808     -2502.340    21058801.900    87616971.08205
     -1946.270  
  21750085.200   116389098.66607      4190.996    21750089.200    90524872.46307
      3259.664  
 20  5 13  2 47 35.0000000  0 16G27G16G30G 4G21G 7G 8G 9G11R14R 6R15
                                R 5R24R23R17
  20581588.060   108156975.02149      -901.305    20581589.300    84278166.55149
      -702.320  
  22177186.420   116541900.92048     -2894.191    22177185.280    90811867.17045
     -2255.219  
  23811969.460   125132745.38748      3355.207    23811971.580    97506042.51049
      2614.445  
  23884428.260   125513518.23446     -3642.969    23884430.480    97802741.82945
     -2838.680  
  25181194.160   132328070.33646     -1941.313    25181194.600   103112773.23544
     -1512.715  
  21559306.740   113294921.84649      2196.762    21559305.940    88281753.58749
      1711.762  
  20595931.760   108232351.98649      1492.980    20595933.840    84336906.54349
      1163.363  
  22445015.800   117949353.00849     -2481.824    22445017.340    91908593.18849
     -1933.895  
  23790475.940   125019790.13947      3716.797    23790475.460    97418022.07844
      2896.211  
  19664798.700   104824439.63608     -1310.590    19664804.020    81530142.05507
     -1019.426  
  22520919.840   120175926.10806       800.113           0.000           0.00000
         0.000  
  20150890.180   107680246.36809      2213.199    20150894.520    83751320.01008
      1721.379  
  22417949.580   119836789.61907     -2984.309    22417955.340    93206415.65606
     -2321.133  
  19971386.340   106795978.61909       788.781    19971389.720    83063554.67007
       613.496  
  21061136.760   112662883.03408     -2506.457    21061143.060    87626711.66805
     -1949.469  
  21746170.660   116368150.97907      4188.688    21746174.640    90508579.83007
      3257.867  
 20  5 13  2 47 40.0000000  0 16G27G16G30G 4G21G 7G 8G 9G11R14R 6R15
                                R 5R24R23R17
  20582447.260   108161490.30849      -904.785    20582448.540    84281684.95249
      -705.031  
  22179940.640   116556374.41848     -2895.266    22179939.520    90823145.22445
     -2256.051  
  23808777.460   125115971.38748      3354.250    23808779.600    97492971.86949
      2613.703  
  23887895.300   125531737.36847     -3644.086    23887897.560    97816938.53645
     -2839.551  
  25183042.340   132337782.54847     -1943.301    25183042.780   103120341.16645
     -1514.270  
  21557217.520   113283942.99449      2194.848    21557216.720    88273198.63849
      1710.266  
  20594512.660   108224894.66049      1489.957    20594514.740    84331095.64649
      1161.004  
  22447378.320   117961768.06349     -2484.164    22447379.840    91918267.25349
     -1935.715  
  23786939.760   125001207.37247      3716.223    23786939.360    97403542.01444
      2895.758  
  19666029.180   104830998.78408     -1313.027    19666034.520    81535243.61107
     -1021.246  
  22520172.240   120171936.12306       796.090           0.000           0.00000
         0.000  
  20148820.200   107669185.08709      2211.336    20148824.540    83742716.79108
      1719.926  
  22420742.140   119851717.48207     -2986.879    22420747.880    93218026.20806
     -2323.133  
  19970651.000   106792046.45009       784.203    19970654.380    83060496.32007
       609.938  
  21063481.420   112675425.19708     -2510.371    21063487.680    87636466.68405
     -1952.516  
  21742257.760   116347212.56307      4186.777    21742261.800    90492294.40207
      3256.383  
 20  5 13  2 47 45.0000000  0 16G27G16G30G 4G21G 7G 8G 9G11R14R 6R15
                                R 5R24R23R17
  20583309.760   108166022.72649      -907.551    20583311.060    84285216.70949
      -707.188  
  22182696.000   116570853.85148     -2895.914    22182694.900    90834427.89145
     -2256.559  
  23805586.260   125099201.67648      3354.141    23805588.440    97479904.56549
      2613.617  
  23891363.060   125549960.58346     -3644.438    23891365.400    97831138.43445
     -2839.824  
  25184892.720   132347506.08446     -1945.441    25184893.280   103127917.96045
     -1515.934  
  21555130.220   113272974.19049      2193.293    21555129.440    88264651.52249
      1709.059  
  20593096.620   108217453.23549      1487.297    20593098.680    84325297.13749
      1158.934  
  22449743.200   117974195.51049     -2486.141    22449744.720    91927950.97449
     -1937.258  
  23783404.340   124982628.53047      3716.031    23783403.880    97389064.98844
      2895.609  
  19667262.140   104837571.12508     -1315.258    19667267.480    81540355.42407
     -1022.980  
  22519428.860   120167968.47006       791.719           0.000           0.00000
         0.000  
  20146752.100   107658133.62209      2209.766    20146756.420    83734121.21208
      1718.707  
  22423537.580   119866660.46507     -2989.641    22423543.260    93229648.52006
     -2325.281  
  19969920.100   106788138.12509       779.840    19969923.480    83057456.51607
       606.543  
  21065829.760   112687986.88808     -2513.746    21065835.960    87646236.88305
     -1955.141  
  21738346.800   116326284.33307      4184.922    21738350.840    90476016.89407
      3254.938  
 20  5 13  2 47 50.0000000  0 16G27G16G30G 4G21G 7G 8G 9G11R14R 6R15
                                R 5R24R23R17
  20584175.260   108170571.01249      -910.832    20584176.560    84288760.82849
      -709.742  
  22185452.220   116585337.90648     -2896.953    22185451.140    90845714.15745
     -2257.371  
  23802395.640   125082434.98348      3353.297    23802397.840    97466839.61849
      2612.957  
  23894831.360   125568186.53846     -3644.848    23894833.760    97845340.46145
     -2840.148  
  25186744.960   132357239.49846     -1947.254    25186745.480   103135502.45045
     -1517.340  
  21553044.580   113262014.14749      2191.508    21553043.800    88256111.22649
      1707.664  
  20591683.360   108210026.48349      1484.188    20591685.400    84319510.06249
      1156.508  
  22452110.180   117986634.05349     -2488.453    22452111.700    91937643.33749
     -1939.059  
  23779869.420   124964052.32947      3715.523    23779868.940    97374590.02044
      2895.215  
  19668497.340   104844155.21008     -1317.625    19668502.640    81545476.37407
     -1024.824  
  22518689.300   120164021.89506       787.652           0.000           0.00000
         0.000  
  20144685.560   107647090.68809      2208.000    20144689.880    83725532.26108
      1717.332  
  22426335.520   119881617.17607     -2991.941    22426341.240    93241281.51006
     -2327.070  
  19969193.420   106784252.24009       775.285    19969196.820    83054434.16807
       603.000  
  21068181.460   112700566.76808     -2517.574    21068187.620    87656021.23705
     -1958.117  
  21734437.420   116305364.92007      4183.266    21734441.540    90459746.24707
      3253.652  
 20  5 13  2 47 55.0000000  0 16G27G16G30G 4G21G 7G 8G 9G11R14R 6R15
                                R 5R24R23R17
  20585043.480   108175133.56249      -914.230    20585044.800    84292316.06449
      -712.387  
  22188209.040   116599824.96948     -2898.020    22188208.060    90857002.77845
     -2258.199  
  23799205.280   125065669.66048      3352.512    23799207.500    97453775.73449
      2612.348  
  23898299.920   125586413.65046     -3646.070    23898302.160    97859543.41145
     -2841.094  
  25188598.800   132366981.24146     -1949.488    25188599.260   103143093.41245
     -1519.086  
  21550960.320   113251061.27149      2189.613    21550959.540    88247576.51949
      1706.191  
  20590272.580   108202612.74249      1481.098    20590274.600    84313733.12549
      1154.102  
  22454478.980   117999082.04449     -2490.875    22454480.500    91947343.06249
     -1940.945  
  23776334.720   124945477.23547      3714.531    23776334.400    97360115.95544
      2894.441  
  19669734.380   104850749.43608     -1320.141    19669739.700    81550605.21407
     -1026.781  
  22517953.320   120160094.79406       783.027           0.000           0.00000
         0.000  
  20142620.300   107636054.54609      2206.254    20142624.620    83716948.60308
      1715.977  
  22429135.780   119896586.14407     -2995.594    22429141.480    93252924.03506
     -2329.910  
  19968470.620   106780387.18409       770.523    19968474.040    83051428.01907
       599.344  
  21070536.220   112713163.14908     -2521.180    21070542.400    87665818.41605
     -1960.922  
  21730529.500   116284452.86607      4181.547    21730533.620    90443481.32107
      3252.313  
 20  5 13  2 48  0.0000000  0 16G27G16G30G 4G21G 7G 8G 9G11R14R 6R15
                                R 5R24R23R17
  20585914.800   108179712.34349      -917.355    20585916.120    84295883.94749
      -714.828  
  22190966.780   116614317.03048     -2898.742    22190965.840    90868295.29545
     -2258.762  
  23796015.600   125048907.78948      3351.891    23796017.800    97440714.53849
      2611.863  
  23901769.040   125604643.85747     -3646.387    23901771.200    97873748.75045
     -2841.344  
  25190454.540   132376733.27847     -1951.406    25190454.880   103150692.39445
     -1520.582  
  21548877.780   113240117.57349      2187.801    21548877.040    88239048.96449
      1704.781  
  20588864.660   108195214.05149      1478.242    20588866.680    84307967.91749
      1151.879  
  22456849.960   118011541.49149     -2493.098    22456851.460    91957051.71849
     -1942.676  
  23772800.580   124926905.17547      3714.094    23772800.160    97345644.21844
      2894.098  
  19670973.720   104857355.86908     -1322.480    19670979.060    81555743.54707
     -1028.602  
  22517221.440   120156189.20006       779.539           0.000           0.00000
         0.000  
  20140556.700   107625027.36309      2204.559    20140561.020    83708371.90508
      1714.656  
  22431938.660   119911569.21007     -2997.840    22431944.340    93264577.52306
     -2331.656  
  19967752.100   106776545.03909       766.289    19967755.540    83048439.68607
       596.004  
  21072894.480   112725778.10608     -2524.762    21072900.620    87675630.04705
     -1963.707  
  21726623.280   116263550.18807      4179.766    21726627.440    90427223.69007
      3250.930  
 20  5 13  2 48  5.0000000  0 16G27G16G30G 4G21G 7G 8G 9G11R14R 6R15
                                R 5R24R23R17
  20586789.540   108184309.31149      -921.246    20586790.900    84299465.99649
      -717.859  
  22193725.880   116628816.08848     -2900.578    22193724.920    90879593.26245
     -2260.191  
  23792826.940   125032151.26248      3350.746    23792829.140    97427657.50849
      2610.973  
  23905239.180   125622879.15047     -3647.723    23905241.240    97887958.04845
     -2842.391  
  25192312.660   132386497.54947     -1954.441    25192312.900   103158300.93645
     -1522.941  
  21546797.360   113229184.96849      2185.230    21546796.620    88230530.05249
      1702.777  
  20587460.000   108187832.47949      1474.527    20587462.000    84302216.04749
      1148.980  
  22459223.480   118024014.33149     -2496.105    22459224.980    91966770.80849
     -1945.020  
  23769267.420   124908338.17347      3712.758    23769267.020    97331176.43743
      2893.059  
  19672215.720   104863976.45908     -1325.777    19672221.080    81560892.89107
     -1031.164  
  22516493.920   120152307.15306       773.957           0.000           0.00000
         0.000  
  20138495.140   107614011.09709      2202.078    20138499.480    83699803.69608
      1712.727  
  22434744.540   119926568.48207     -3001.531    22434750.260    93276243.61306
     -2334.527  
  19967038.220   106772727.69509       760.945    19967041.680    83045470.64307
       591.848  
  21075256.520   112738413.45908     -2529.188    21075262.700    87685457.54405
     -1967.148  
  21722719.260   116242658.79907      4177.012    21722723.380    90410974.84007
      3248.785  
 20  5 13  2 48 10.0000000  0 16G27G16G30G 4G21G 7G 8G 9G11R14R 6R15
                                R 5R24R23R17
  20587667.840   108188924.72549      -924.613    20587669.200    84303062.42449
      -720.480  
  22196486.340   116643322.35848     -2901.594    22196485.420    90890896.83945
     -2260.980  
  23789639.320   125015400.38448      3350.125    23789641.540    97414604.88449
      2610.488  
  23908710.260   125641119.74946     -3648.082    23908712.340    97902171.49145
     -2842.668  
  25194173.180   132396274.40847     -1955.891    25194173.380   103165919.23345
     -1524.074  
  21544719.100   113218263.73249      2183.461    21544718.380    88222020.00249
      1701.398  
  20586058.600   108180468.12749      1471.680    20586060.620    84296477.59349
      1146.758  
  22461599.600   118036500.80349     -2498.227    22461601.080    91976500.52449
     -1946.676  
  23765735.260   124889776.51247      3712.543    23765734.820    97316712.81844
      2892.891  
  19673460.420   104870611.53108     -1328.012    19673465.800    81566053.49807
     -1032.902  
  22515770.900   120148449.03606       769.684           0.000           0.00000
         0.000  
  20136435.680   107603006.00709      2200.402    20136440.020    83691244.18808
      1711.426  
  22437553.540   119941584.02607     -3004.258    22437559.180    93287922.36306
     -2336.648  
  19966329.080   106768935.55709       756.422    19966332.540    83042521.20407
       588.324  
  21077622.480   112751069.77108     -2532.844    21077628.660    87695301.33605
     -1969.992  
  21718817.380   116221779.09107      4175.355    21718821.480    90394735.06907
      3247.500  
 20  5 13  2 48 15.0000000  0 16G27G16G30G 4G21G 7G 8G 9G11R14R 6R15
                                R 5R24R23R17
  20588549.200   108193556.40349      -928.359    20588550.580    84306671.52449
      -723.398  
  22199247.740   116657833.66948     -2902.789    22199246.760    90902204.34145
     -2261.918  
  23786452.380   124998652.98848      3348.762    23786454.620    97401554.97249
      2609.426  
  23912181.940   125659363.48747     -3649.543    23912184.060    97916387.39345
     -2843.805  
  25196035.660   132406061.57347     -1958.848    25196035.820   103173545.61545
     -1526.375  
  21542642.620   113207351.72749      2181.141    21542641.900    88213517.13949
      1699.586  
  20584660.060   108173118.79249      1468.047    20584662.080    84290750.84549
      1143.934  
  22463977.880   118048998.73849     -2501.031    22463979.360    91986239.16549
     -1948.859  
  23762203.680   124871218.07947      3711.164    23762203.260    97302251.70344
      2891.816  
  19674707.460   104877258.81708     -1330.926    19674712.840    81571223.61007
     -1035.168  
  22515052.020   120144612.33806       765.160           0.000           0.00000
         0.000  
  20134377.880   107592009.87009      2198.012    20134382.220    83682691.63808
      1709.566  
  22440365.240   119956613.70607     -3007.496    22440370.740    93299612.10406
     -2339.168  
  19965624.200   106765166.36209       751.352    19965627.680    83039589.61207
       584.383  
  21079991.860   112763744.46908     -2536.852    21079998.060    87705159.43205
     -1973.109  
  21714917.300   116200908.84907      4172.832    21714921.360    90378502.66807
      3245.535  
 20  5 13  2 48 20.0000000  0 16G27G16G30G 4G21G 7G 8G 9G11R14R 6R15
                                R 5R24R23R17
  20589433.640   108198204.10949      -931.129    20589435.020    84310293.11549
      -725.555  
  22202010.080   116672349.82148     -2903.570    22202009.140    90913515.62745
     -2262.527  
  23783266.060   124981908.88548      3348.309    23783268.340    97388507.62849
      2609.070  
  23915654.220   125677610.13247     -3649.480    23915656.260    97930605.54745
     -2843.754  
  25197900.020   132415858.73347     -1960.625    25197900.120   103181179.75646
     -1527.762  
  21540567.840   113196448.75149      2179.668    21540567.120    88205021.31549
      1698.441  
  20583264.380   108165784.42849      1465.340    20583266.380    84285035.76049
      1141.824  
  22466358.340   118061507.90849     -2503.066    22466359.780    91995986.56449
     -1950.445  
  23758672.680   124852662.58547      3710.914    23758672.280    97287792.89745
      2891.621  
  19675956.720   104883918.06309     -1333.176    19675962.100    81576403.01707
     -1036.918  
  22514337.000   120140796.86506       760.902           0.000           0.00000
         0.000  
  20132321.760   107581022.51109      2196.531    20132326.080    83674145.91808
      1708.414  
  22443179.420   119971657.35407     -3010.262    22443184.940    93311312.70606
     -2341.320  
  19964923.600   106761419.96309       746.961    19964927.100    83036675.74607
       580.969  
  21082364.680   112776437.44808     -2540.391    21082370.900    87715031.74905
     -1975.863  
  21711018.960   116180047.80108      4171.320    21711022.960    90362277.41407
      3244.359  
 20  5 13  2 48 25.0000000  0 16G27G16G30G 4G21G 7G 8G 9G11R14R 6R15
                                R 5R24R23R17
  20590320.740   108202865.86949      -933.859    20590322.120    84313925.65649
      -727.688  
  22204772.960   116686868.81248     -2904.242    22204771.980    90924829.12044
     -2263.051  
  23780079.980   124965166.03748      3348.598    23780082.260    97375461.26249
      2609.297  
  23919126.640   125695857.63346     -3649.754    23919128.620    97944824.35546
     -2843.969  
  25199765.920   132425664.00947     -1962.047    25199765.940   103188820.21245
     -1528.875  
  21538494.400   113185552.82949      2178.484    21538493.700    88196530.98649
      1697.516  
  20581871.140   108158462.90849      1462.941    20581873.120    84279330.68649
      1139.953  
  22468740.520   118074026.27049     -2504.859    22468741.960    92005741.13149
     -1951.844  
  23755141.840   124834108.07747      3710.473    23755141.500    97273334.84944
      2891.277  
  19677207.860   104890587.31909     -1334.949    19677213.220    81581590.21207
     -1038.297  
  22513625.640   120137000.92806       757.313           0.000           0.00000
         0.000  
  20130266.900   107570041.91409      2195.309    20130271.220    83665605.45608
      1707.461  
  22445995.940   119986712.77307     -3012.355    22446001.340    93323022.47106
     -2342.945  
  19964226.820   106757694.16709       742.883    19964230.360    83033777.91207
       577.797  
  21084740.580   112789146.76608     -2543.672    21084746.760    87724916.76805
     -1978.414  
  21707121.900   116159193.95308      4169.711    21707125.900    90346057.76307
      3243.109  
 20  5 13  2 48 30.0000000  0 16G27G16G30G 4G21G 7G 8G 9G11R14R 6R15
                                R 5R24R23R17
  20591211.140   108207544.97949      -937.539    20591212.540    84317571.71349
      -730.555  
  22207537.000   116701393.93748     -2905.566    22207535.980    90936147.40645
     -2264.082  
  23776894.800   124948427.87148      3347.176    23776897.120    97362418.54349
      2608.188  
  23922599.860   125714109.35947     -3650.617    23922601.900    97959046.48145
     -2844.641  
  25201633.960   132435480.70447     -1964.527    25201634.020   103196469.57945
     -1530.805  
  21536422.940   113174667.30949      2176.215    21536422.240    88188048.76349
      1695.746  
  20580480.980   108151157.60249      1459.563    20580482.980    84273638.24349
      1137.320  
  22471125.080   118086557.16049     -2507.258    22471126.520    92015505.45349
     -1953.711  
  23751611.860   124815557.84947      3709.852    23751611.540    97258880.13244
      2890.789  
  19678461.500   104897270.01909     -1337.793    19678466.880    81586787.86307
     -1040.508  
  22512918.480   120133227.75206       752.555           0.000           0.00000
         0.000  
  20128213.940   107559071.46209      2193.117    20128218.240    83657072.88008
      1705.754  
  22448815.260   120001783.35007     -3015.285    22448820.620    93334744.02006
     -2345.227  
  19963534.560   106753992.46509       737.973    19963538.120    83030898.81007
       573.977  
  21087120.140   112801875.67908     -2547.578    21087126.300    87734817.03205
     -1981.449  
  21703226.760   116138350.78807      4167.375    21703230.840    90329846.41707
      3241.293  
 20  5 13  2 48 35.0000000  0 16G27G16G30G 4G21G 7G 8G 9G11R14R 6R15
                                R 5R24R23R17
  20592104.800   108212241.13149      -941.094    20592106.180    84321231.05049
      -733.324  
  22210302.160   116715924.91448     -2906.934    22210301.120    90947470.22744
     -2265.148  
  23773710.460   124931694.01748      3346.172    23773712.760    97349379.18149
      2607.406  
  23926073.820   125732364.96146     -3651.438    23926075.820    97973271.60345
     -2845.281  
  25203504.120   132445308.44547     -1966.813    25203504.260   103204127.54146
     -1532.590  
  21534353.400   113163791.87749      2173.926    21534352.720    88179574.40449
      1693.969  
  20579093.860   108143868.31949      1456.055    20579095.860    84267958.28949
      1134.590  
  22473511.960   118099100.29349     -2509.918    22473513.400    92025279.31949
     -1955.785  
  23748082.640   124797011.68347      3708.629    23748082.320    97244428.58544
      2889.840  
  19679717.600   104903965.67508     -1340.672    19679722.960    81591995.59307
     -1042.746  
  22512215.620   120129476.91106       747.938           0.000           0.00000
         0.000  
  20126162.760   107548110.74109      2190.891    20126167.080    83648547.88308
      1704.027  
  22451637.300   120016869.01207     -3018.723    22451642.720    93346477.31206
     -2347.898  
  19962846.740   106750314.52408       733.000    19962850.340    83028038.19107
       570.109  
  21089503.280   112814623.81208     -2551.664    21089509.440    87744732.25305
     -1984.629  
  21699333.620   116117517.95908      4165.242    21699337.720    90313643.11407
      3239.633  
 20  5 13  2 48 40.0000000  0 16G27G16G30G 4G21G 7G 8G 9G11R14R 6R15
                                R 5R24R23R17
  20593001.760   108216954.73549      -944.238    20593003.160    84324903.98649
      -735.773  
  22213068.480   116730461.98548     -2907.766    22213067.400    90958797.82245
     -2265.797  
  23770527.000   124914964.88048      3345.523    23770529.300    97336343.49349
      2606.898  
  23929548.600   125750624.84547     -3651.977    23929550.640    97987500.08245
     -2845.699  
  25205376.440   132455147.60947     -1968.520    25205376.520   103211794.42345
     -1533.910  
  21532285.860   113152926.90749      2171.988    21532285.180    88171108.19249
      1692.453  
  20577709.860   108136595.36549      1453.047    20577711.860    84262291.05049
      1132.246  
  22475901.240   118111655.99549     -2512.145    22475902.680    92035062.97449
     -1957.520  
  23744554.220   124778469.89848      3708.098    23744553.940    97229980.44644
      2889.426  
  19680976.260   104910674.93708     -1342.852    19680981.620    81597213.90407
     -1044.445  
  22511516.900   120125748.73006       743.289           0.000           0.00000
         0.000  
  20124113.520   107537160.38209      2189.270    20124117.860    83640030.93708
      1702.762  
  22454462.180   120031969.80907     -3021.949    22454467.620    93358222.35606
     -2350.410  
  19962163.480   106746660.83609       728.613    19962167.080    83025196.43907
       566.695  
  21091890.140   112827391.69508     -2555.359    21091896.260    87754662.80905
     -1987.504  
  21695442.500   116096695.93508      4163.465    21695446.580    90297448.21007
      3238.250  
 20  5 13  2 48 45.0000000  0 16G27G16G30G 4G21G 7G 8G 9G11R14R 6R15
                                R 5R24R23R17
  20593901.700   108221683.84949      -947.344    20593903.080    84328589.01449
      -738.195  
  22215835.620   116745003.35948     -2908.496    22215834.520    90970128.75144
     -2266.363  
  23767344.100   124898238.59348      3344.770    23767346.380    97323310.03049
      2606.313  
  23933023.780   125768887.03747     -3652.516    23933025.860    98001730.33345
     -2846.125  
  25207250.640   132464996.37847     -1970.441    25207250.720   103219468.80545
     -1535.508  
  21530219.960   113142070.51649      2170.551    21530219.280    88162648.66949
      1691.336  
  20576328.600   108129336.85049      1450.320    20576330.620    84256635.07049
      1130.121  
  22478292.540   118124222.39549     -2514.422    22478293.980    92044854.97749
     -1959.293  
  23741026.300   124759930.67448      3707.594    23741026.020    97215534.30444
      2889.031  
  19682237.040   104917395.65209     -1345.137    19682242.400    81602441.11907
     -1046.223  
  22510822.180   120122041.60306       739.820           0.000           0.00000
         0.000  
  20122065.880   107526218.23509      2187.750    20122070.180    83631520.38008
      1701.582  
  22457289.660   120047083.91207     -3023.918    22457295.020    93369977.76106
     -2351.941  
  19961484.320   106743029.31409       724.070    19961487.960    83022371.91907
       563.164  
  21094280.280   112840177.25208     -2558.816    21094286.400    87764607.13805
     -1990.195  
  21691553.040   116075882.73208      4161.652    21691557.120    90281260.17307
      3236.840  
 20  5 13  2 48 50.0000000  0 16G27G16G30G 4G21G 7G 8G 9G11R14R 6R15
                                R 5R24R23R17
  20594804.780   108226429.51649      -950.852    20594806.160    84332286.93549
      -740.926  
  22218603.760   116759550.08848     -2910.004    22218602.660    90981463.85045
     -2267.539  
  23764161.960   124881516.17248      3343.828    23764164.220    97310279.57749
      2605.582  
  23936499.640   125787152.63647     -3653.707    23936501.720    98015963.26744
     -2847.047  
  25209126.840   132474855.69247     -1972.727    25209126.820   103227151.37945
     -1537.195  
  21528155.880   113131223.80049      2168.211    21528155.220    88154196.68249
      1689.512  
  20574950.260   108122093.69049      1446.902    20574952.300    84250991.05649
      1127.457  
  22480686.100   118136800.49349     -2516.977    22480687.520    92054656.08649
     -1961.285  
  23737499.100   124741395.03748      3706.512    23737498.780    97201090.96844
      2888.195  
  19683500.200   104924128.90109     -1348.078    19683505.560    81607678.09107
     -1048.508  
  22510131.600   120118356.42906       734.871           0.000           0.00000
         0.000  
  20120019.960   107515285.63009      2185.383    20120024.280    83623017.24708
      1699.742  
  22460119.780   120062212.41307     -3027.066    22460125.120    93381744.36506
     -2354.391  
  19960809.580   106739421.16509       719.012    19960813.240    83019565.58107
       559.242  
  21096673.920   112852981.51108     -2562.867    21096680.040    87774566.00105
     -1993.344  
  21687665.440   116055079.47108      4159.688    21687669.500    90265079.86607
      3235.313  
 20  5 13  2 48 55.0000000  0 16G27G16G30G 4G21G 7G 8G 9G11R14R 6R15
                                R 5R24R23R17
  20595710.820   108231190.75749      -954.195    20595712.200    84335996.99549
      -743.531  
  22221372.740   116774101.15548     -2911.027    22221371.600    90992802.33645
     -2268.336  
  23760980.340   124864796.71248      3343.176    23760982.600    97297251.43749
      2605.070  
  23939975.920   125805420.61947     -3654.344    23939978.040    98030198.03645
     -2847.543  
  25211004.840   132484724.58347     -1975.098    25211004.760   103234841.41445
     -1539.043  
  21526093.460   113120385.76249      2166.238    21526092.800    88145751.46049
      1687.977  
  20573574.700   108114865.05549      1443.859    20573576.740    84245358.35949
      1125.086  
  22483081.700   118149389.30149     -2519.215    22483083.100    92064465.53749
     -1963.027  
  23733972.380   124722862.01448      3706.047    23733972.020    97186649.66044
      2887.828  
  19684765.480   104930873.70009     -1350.566    19684770.880    81612924.03907
     -1050.445  
  22509444.820   120114692.14906       730.410           0.000           0.00000
         0.000  
  20117975.640   107504361.31309      2183.598    20117979.920    83614520.55808
      1698.355  
  22462952.460   120077354.20907     -3030.023    22462957.720    93393521.31106
     -2356.688  
  19960139.000   106735835.32909       714.410    19960142.680    83016776.60407
       555.652  
  21099070.900   112865803.60908     -2566.758    21099077.020    87784538.74205
     -1996.371  
  21683779.480   116034285.13908      4157.543    21683783.560    90248906.50307
      3233.645  
 20  5 13  2 49  0.0000000  0 16G27G16G30G 4G21G 7G 8G 9G11R14R 6R15
                                R 5R24R23R17
  20596620.480   108235970.98749      -957.613    20596621.860    84339721.84749
      -746.195  
  22224143.220   116788659.97348     -2912.223    22224142.060    91004146.86745
     -2269.270  
  23757799.960   124848083.56848      3342.332    23757802.180    97284228.20849
      2604.410  
  23943453.320   125823694.35847     -3655.066    23943455.400    98044437.31845
     -2848.109  
  25212885.300   132494606.49547     -1977.508    25212885.240   103242541.62445
     -1540.914  
  21524033.360   113109559.83749      2164.340    21524032.680    88137315.67649
      1686.500  
  20572202.520   108107654.34049      1440.645    20572204.600    84239739.62249
      1122.582  
  22485479.960   118161992.24549     -2521.766    22485481.360    92074286.01249
     -1965.016  
  23730446.800   124704335.05048      3705.023    23730446.560    97172213.08144
      2887.035  
  19686033.620   104937633.58909     -1353.180    19686039.020    81618181.73007
     -1052.449  
  22508762.740   120111052.30306       725.625           0.000           0.00000
         0.000  
  20115933.540   107493448.89609      2181.543    20115937.800    83606033.12508
      1696.750  
  22465788.200   120092512.77907     -3033.039    22465793.480    93405311.30706
     -2359.035  
  19959473.220   106732275.26209       709.668    19959476.940    83014007.66207
       551.961  
  21101471.820   112878646.94408     -2570.352    21101477.940    87794527.99505
     -1999.168  
  21679895.900   116013503.28008      4155.207    21679899.940    90232742.84107
      3231.828  
 20  5 13  2 49  5.0000000  0 16G27G16G30G 4G21G 7G 8G 9G11R14R 6R15
                                R 5R24R23R17
  20597533.020   108240766.53849      -960.797    20597534.400    84343458.63849
      -748.676  
  22226914.460   116803222.90948     -2913.109    22226913.300    91015494.60345
     -2269.961  
  23754620.080   124831373.14648      3341.934    23754622.280    97271207.10449
      2604.105  
  23946931.140   125841970.23947     -3655.457    23946933.240    98058678.24045
     -2848.414  
  25214767.560   132504497.90247     -1979.383    25214767.560   103250249.19745
     -1542.379  
  21521974.860   113098742.37349      2162.543    21521974.200    88128886.48649
      1685.098  
  20570833.100   108100457.92949      1437.758    20570835.160    84234132.03349
      1120.332  
  22487880.220   118174605.64949     -2523.875    22487881.620    92084114.63349
     -1966.660  
  23726921.680   124685810.48748      3704.559    23726921.400    97157778.37444
      2886.668  
  19687303.900   104944404.85909     -1355.305    19687309.300    81623448.26707
     -1054.129  
  22508084.520   120107433.23406       721.496           0.000           0.00000
         0.000  
  20113892.960   107482544.66109      2179.863    20113897.200    83597552.05308
      1695.449  
  22468626.440   120107684.46707     -3035.719    22468631.640    93417111.49706
     -2361.117  
  19958811.600   106728737.32809       705.250    19958815.340    83011255.94007
       548.523  
  21103876.040   112891507.76608     -2573.965    21103882.140    87804530.85805
     -2001.977  
  21676013.960   115992730.18208      4153.691    21676017.960    90216585.98707
      3230.648  
 20  5 13  2 49 10.0000000  0 16G27G16G30G 4G21G 7G 8G 9G11R14R 6R15
                                R 5R24R23R17
  20598448.660   108245578.13049      -964.004    20598450.020    84347207.92749
      -751.176  
  22229686.640   116817790.67148     -2914.078    22229685.420    91026846.11745
     -2270.711  
  23751440.880   124814666.17248      3340.945    23751443.040    97258188.69349
      2603.336  
  23950409.520   125860249.01647     -3656.211    23950411.640    98072921.44645
     -2849.000  
  25216651.800   132514399.53747     -1981.250    25216651.740   103257964.74445
     -1543.836  
  21519918.100   113087934.09749      2160.598    21519917.440    88120464.45449
      1683.582  
  20569466.520   108093276.50349      1434.777    20569468.580    84228536.11749
      1118.008  
  22490282.620   118187230.24149     -2526.066    22490284.020    92093951.97149
     -1968.367  
  23723397.200   124667289.10448      3703.863    23723396.900    97143346.13945
      2886.129  
  19688576.440   104951188.16209     -1357.820    19688581.820    81628724.16807
     -1056.086  
  22507410.280   120103835.55206       717.168           0.000           0.00000
         0.000  
  20111854.020   107471649.27209      2178.195    20111858.280    83589077.86808
      1694.152  
  22471467.280   120122869.87107     -3038.523    22471472.400    93428922.36306
     -2363.301  
  19958154.240   106725222.26709       700.793    19958158.020    83008522.00207
       545.059  
  21106283.660   112904386.79008     -2577.629    21106289.740    87814547.87605
     -2004.824  
  21672133.740   115971966.50708      4151.770    21672137.760    90200436.47007
      3229.152  
 20  5 13  2 49 15.0000000  0 16G27G16G30G 4G21G 7G 8G 9G11R14R 6R15
                                R 5R24R23R17
  20599367.340   108250405.83449      -967.227    20599368.720    84350969.77249
      -753.688  
  22232459.720   116832363.26548     -2915.078    22232458.460    91038201.37544
     -2271.492  
  23748262.340   124797962.71348      3339.980    23748264.460    97245173.01749
      2602.582  
  23953888.440   125878530.62247     -3657.051    23953890.500    98087166.82945
     -2849.656  
  25218537.980   132524311.28246     -1983.633    25218537.760   103265688.18744
     -1545.691  
  21517863.140   113077135.09949      2158.797    21517862.460    88112049.65149
      1682.180  
  20568102.800   108086110.19049      1431.707    20568104.880    84222951.98149
      1115.617  
  22492687.140   118199866.03249     -2528.410    22492688.520    92103798.04049
     -1970.195  
  23719873.260   124648770.94548      3703.195    23719873.100    97128916.40144
      2885.605  
  19689851.280   104957983.68909     -1360.473    19689856.640    81634009.56907
     -1058.148  
  22506740.140   120100259.40506       712.859           0.000           0.00000
         0.000  
  20109816.780   107460762.94009      2176.125    20109821.020    83580610.71708
      1692.543  
  22474310.580   120138069.10806     -3041.422    22474315.760    93440743.99306
     -2365.555  
  19957501.140   106721730.04309       695.852    19957504.980    83005805.82807
       541.215  
  21108694.680   112917284.06708     -2581.473    21108700.760    87824579.09005
     -2007.816  
  21668255.300   115951212.51208      4149.602    21668259.340    90184294.47807
      3227.469  
 20  5 13  2 49 20.0000000  0 16G27G16G30G 4G21G 7G 8G 9G11R14R 6R15
                                R 5R24R23R17
  20600288.960   108255248.99849      -970.242    20600290.340    84354743.66649
      -756.031  
  22235233.620   116846940.16948     -2915.996    22235232.360    91049559.98444
     -2272.211  
  23745084.320   124781262.15048      3339.715    23745086.440    97232159.59749
      2602.375  
  23957367.840   125896814.52247     -3657.293    23957369.860    98101414.03044
     -2849.844  
  25220425.940   132534232.50046     -1985.305    25220425.780   103273419.01045
     -1546.992  
  21515809.820   113066344.78849      2157.094    21515809.120    88103641.61849
      1680.852  
  20566741.820   108078958.28949      1428.766    20566743.920    84217379.07549
      1113.324  
  22495093.680   118212512.44349     -2530.453    22495095.060    92113652.38049
     -1971.785  
  23716349.860   124630255.44848      3702.816    23716349.760    97114488.76145
      2885.313  
  19691128.240   104964790.64709     -1362.746    19691133.600    81639303.86807
     -1059.918  
  22506073.880   120096704.14106       708.809           0.000           0.00000
         0.000  
  20107781.160   107449885.04409      2174.563    20107785.380    83572150.13508
      1691.328  
  22477156.420   120153281.53207     -3043.750    22477161.580    93452575.86006
     -2367.363  
  19956852.200   106718260.08609       691.637    19956856.100    83003106.97707
       537.941  
  21111108.980   112930199.04308     -2584.980    21111115.100    87834624.06305
     -2010.543  
  21664378.580   115930467.47808      4148.043    21664382.620    90168159.45307
      3226.254  
 20  5 13  2 49 25.0000000  0 17G27G16G30G 4G21G 7G 8G 9G11R14R 6R13
                                R15R 5R24R23R17
  20601213.820   108260109.06549      -973.969    20601215.180    84358530.73349
      -758.941  
  22238008.580   116861522.70348     -2917.230    22238007.280    91060922.99444
     -2273.172  
  23741907.120   124764565.92048      3338.465    23741909.260    97219149.55249
      2601.402  
  23960847.920   125915102.05947     -3658.305    23960849.840    98115664.03445
     -2850.633  
  25222315.980   132544164.53647     -1987.777    25222315.840   103281158.23045
     -1548.922  
  21513758.400   113055564.53949      2154.891    21513757.720    88095241.42749
      1679.133  
  20565383.880   108071822.29549      1425.398    20565386.000    84211818.56749
      1110.699  
  22497502.520   118225170.83849     -2533.184    22497503.880    92123516.05449
     -1973.914  
  23712827.240   124611744.01348      3701.754    23712827.160    97100064.26844
      2884.484  
  19692407.620   104971610.59309     -1365.422    19692413.000    81644608.27207
     -1062.000  
  22505411.720   120093171.23206       703.988           0.000           0.00000
         0.000  
  23421191.140   125067856.63404     -3580.633    23421198.420    97275027.26705
     -2784.938  
  20105747.300   107439016.88909      2172.348    20105751.560    83563697.12808
      1689.605  
  22480004.920   120168508.55206     -3046.852    22480010.140    93464419.09306
     -2369.777  
  19956207.740   106714813.82909       686.738    19956211.640    83000426.55607
       534.129  
  21113526.840   112943132.91008     -2588.992    21113532.960    87844683.73005
     -2013.664  
  21660503.800   115909732.84608      4145.520    21660507.840    90152032.52607
      3224.293  
 20  5 13  2 49 30.0000000  0 17G27G16G30G 4G21G 7G 8G 9G11R14R 6R13
                                R15R 5R24R23R17
  20602142.060   108264986.95749      -977.016    20602143.400    84362331.68849
      -761.313  
  22240784.820   116876111.90148     -2918.215    22240783.460    91072291.19445
     -2273.934  
  23738730.960   124747875.02348      3337.914    23738733.080    97206143.66349
      2600.973  
  23964328.780   125933394.22547     -3658.473    23964330.700    98129917.67245
     -2850.762  
  25224208.280   132554108.41947     -1989.449    25224208.080   103288906.71245
     -1550.223  
  21511709.100   113044795.41649      2153.105    21511708.420    88086849.90249
      1677.742  
  20564029.160   108064703.13349      1422.602    20564031.280    84206271.16749
      1108.520  
  22499913.800   118237842.20349     -2535.285    22499915.180    92133389.84349
     -1975.547  
  23709305.580   124593237.66748      3701.148    23709305.500    97085643.77244
      2884.012  
  19693689.640   104978444.48908     -1367.770    19693695.040    81649923.51907
     -1063.824  
  22504754.040   120089661.77105       699.789           0.000           0.00000
         0.000  
  23424543.200   125085758.55704     -3580.973    23424550.920    97288950.97005
     -2785.203  
  20103715.520   107428159.60909      2170.855    20103719.760    83555252.57908
      1688.441  
  22482856.260   120183751.12206     -3049.285    22482861.600    93476274.42206
     -2371.672  
  19955567.900   106711392.31408       682.164    19955571.800    82997765.37807
       530.570  
  21115948.440   112956086.89108     -2592.492    21115954.580    87854759.05606
     -2016.383  
  21656631.160   115889009.66408      4143.832    21656635.180    90135914.49707
      3222.980  
 20  5 13  2 49 35.0000000  0 17G27G16G30G 4G21G 7G 8G 9G11R14R 6R13
                                R15R 5R24R23R17
  20603073.080   108269879.42449      -980.449    20603074.420    84366143.99849
      -763.992  
  22243561.700   116890704.43048     -2919.336    22243560.360    91083661.99645
     -2274.813  
  23735555.180   124731186.13248      3337.066    23735557.280    97193139.33949
      2600.313  
  23967809.940   125951687.72347     -3659.141    23967811.920    98144172.33045
     -2851.281  
  25226102.160   132564060.85947     -1991.996    25226102.020   103296661.85845
     -1552.207  
  21509661.280   113034034.04249      2151.051    21509660.600    88078464.41549
      1676.141  
  20562676.980   108057597.43449      1419.297    20562679.120    84200734.26449
      1105.945  
  22502326.920   118250523.21049     -2537.641    22502328.320    92143271.14949
     -1977.387  
  23705784.280   124574733.15348      3700.301    23705784.200    97071224.66845
      2883.352  
  19694973.640   104985288.94209     -1370.523    19694979.040    81655246.97407
     -1065.965  
  22504100.040   120086172.24306       695.477           0.000           0.00000
         0.000  
  23427896.560   125103662.34804     -3581.430    23427903.660    97302876.12905
     -2785.559  
  20101685.100   107417309.76109      2168.688    20101689.360    83546813.81008
      1686.758  
  22485710.000   120199005.96806     -3052.941    22485715.360    93488139.29006
     -2374.516  
  19954932.040   106707992.18409       677.449    19954935.960    82995120.83707
       526.906  
  21118373.200   112969057.52908     -2596.277    21118379.320    87864847.32205
     -2019.332  
  21652760.040   115868294.60408      4141.695    21652764.040    90119802.78207
      3221.320  
 20  5 13  2 49 40.0000000  0 17G27G16G30G 4G21G 7G 8G 9G11R14R 6R13
                                R15R 5R24R23R17
  20604007.260   108274788.68649      -983.465    20604008.620    84369969.39749
      -766.340  
  22246339.640   116905302.54648     -2920.020    22246338.280    91095037.14044
     -2275.344  
  23732380.200   124714501.56248      3336.586    23732382.320    97180138.37849
      2599.938  
  23971291.780   125969984.79547     -3659.523    23971293.740    98158429.79444
     -2851.578  
  25227998.160   132574024.11547     -1993.555    25227997.980   103304425.42244
     -1553.422  
  21507615.380   113023282.70949      2149.363    21507614.700    88070086.75649
      1674.824  
  20561327.840   108050507.66649      1416.449    20561329.980    84195209.77349
      1103.727  
  22504742.320   118263216.13949     -2539.570    22504743.740    92153161.73749
     -1978.891  
  23702263.720   124556232.66648      3699.809    23702263.640    97056808.70844
      2882.969  
  19696260.080   104992146.32209     -1372.504    19696265.460    81660580.48707
     -1067.508  
  22503450.260   120082705.03106       691.176           0.000           0.00000
         0.000  
  23431250.260   125121570.64404     -3581.949    23431257.240    97316804.79305
     -2785.965  
  20099656.520   107406469.69609      2167.281    20099660.780    83538382.65208
      1685.664  
  22488566.420   120214275.19406     -3055.277    22488571.820    93500015.34606
     -2376.332  
  19954300.600   106704615.65209       673.070    19954304.540    82992494.64507
       523.500  
  21120801.420   112982047.02408     -2599.504    21120807.580    87874950.26006
     -2021.840  
  21648890.920   115847590.06208      4139.934    21648894.880    90103699.25807
      3219.949  
 20  5 13  2 49 45.0000000  0 17G27G16G30G 4G21G 7G 8G 9G11R14R 6R13
                                R15R 5R24R23R17
  20604944.700   108279714.82449      -986.688    20604946.040    84373807.94649
      -768.852  
  22249118.680   116919906.35548     -2921.258    22249117.260    91106416.72444
     -2276.309  
  23729206.100   124697821.36548      3335.867    23729208.180    97167140.83049
      2599.379  
  23974774.300   125988285.50147     -3660.473    23974776.260    98172690.05644
     -2852.320  
  25229896.220   132583998.32247     -1995.789    25229896.000   103312197.54045
     -1555.160  
  21505571.440   113012541.56749      2147.492    21505570.720    88061717.03049
      1673.367  
  20559981.720   108043433.81049      1413.379    20559983.880    84189697.68449
      1101.336  
  22507159.980   118275921.03649     -2542.023    22507161.420    92163061.65249
     -1980.801  
  23698743.960   124537736.30348      3699.164    23698743.880    97042395.95544
      2882.461  
  19697548.920   104999016.69509     -1375.191    19697554.300    81665924.10707
     -1069.598  
  22502804.660   120079260.15706       687.047           0.000           0.00000
         0.000  
  23434604.960   125139483.25704     -3582.941    23434611.720    97330736.80705
     -2786.734  
  20097629.820   107395639.54009      2165.211    20097634.060    83529959.20008
      1684.055  
  22491425.500   120229558.96807     -3057.766    22491431.000    93511902.71706
     -2378.266  
  19953673.620   106701262.95909       668.324    19953677.580    82989886.99508
       519.820  
  21123233.240   112995055.54908     -2603.262    21123239.400    87885068.00005
     -2024.762  
  21645023.740   115826895.98208      4137.930    21645027.680    90087603.86707
      3218.391  
 20  5 13  2 49 50.0000000  0 17G27G16G30G 4G21G 7G 8G 9G11R14R 6R13
                                R15R 5R24R23R17
  20605885.040   108284656.42149      -990.332    20605886.380    84377658.54149
      -771.691  
  22251898.480   116934514.38448     -2922.305    22251897.100    91117799.60844
     -2277.125  
  23726032.540   124681144.17448      3334.586    23726034.600    97154145.62049
      2598.379  
  23978257.260   126006588.38247     -3661.473    23978259.320    98186952.03945
     -2853.098  
  25231796.120   132593982.04347     -1997.695    25231795.880   103319977.05444
     -1556.648  
  21503529.140   113001809.16649      2145.465    21503528.420    88053354.12749
      1671.789  
  20558638.380   108036374.50649      1409.941    20558640.540    84184196.92949
      1098.656  
  22509579.640   118288636.45349     -2544.539    22509581.100    92172969.76649
     -1982.762  
  23695224.740   124519242.64848      3698.078    23695224.680    97027985.34444
      2881.621  
  19698839.920   105005898.46709     -1377.824    19698845.300    81671276.59407
     -1071.645  
  22502163.100   120075836.40805       682.047           0.000           0.00000
         0.000  
  23437960.040   125157398.85804     -3584.051    23437966.780    97344671.15305
     -2787.598  
  20095604.700   107384817.81109      2163.234    20095608.920    83521542.30008
      1682.566  
  22494287.060   120244855.80106     -3060.809    22494292.620    93523800.24606
     -2380.633  
  19953050.820   106697932.58609       663.484    19953054.800    82987296.70708
       516.043  
  21125668.340   113008081.55608     -2607.266    21125674.500    87895199.33406
     -2027.879  
  21641158.260   115806211.04208      4135.750    21641162.180    90071515.58407
      3216.695  
 20  5 13  2 49 55.0000000  0 17G27G16G30G 4G21G 7G 8G 9G11R14R 6R13
                                R15R 5R24R23R17
  20606828.820   108289616.02649      -993.559    20606830.180    84381523.16849
      -774.207  
  22254679.620   116949129.26048     -2923.352    22254678.120    91129187.81544
     -2277.938  
  23722860.040   124664472.52648      3334.191    23722862.100    97141154.72849
      2598.070  
  23981741.140   126024896.01147     -3662.078    23981743.160    98201217.69845
     -2853.570  
  25233698.260   132603977.88047     -2000.359    25233698.020   103327766.01845
     -1558.727  
  21501489.000   112991088.09749      2143.332    21501488.260    88045000.04749
      1670.129  
  20557298.300   108029332.26949      1406.961    20557300.440    84178709.47449
      1096.332  
  22512001.780   118301364.98248     -2546.875    22512003.280    92182888.09649
     -1984.582  
  23691706.520   124500754.29048      3697.438    23691706.420    97013578.84043
      2881.121  
  19700133.600   105012794.52609     -1380.457    19700139.000    81676640.18907
     -1073.691  
  22501525.820   120072436.22206       678.195           0.000           0.00000
         0.000  
  23441316.020   125175319.86904     -3584.348    23441322.800    97358609.70405
     -2787.828  
  20093581.660   107374007.24309      2161.176    20093585.860    83513134.08008
      1680.914  
  22497151.540   120260168.33706     -3063.984    22497157.200    93535709.99206
     -2383.102  
  19952432.700   106694627.13309       658.770    19952436.660    82984725.80308
       512.371  
  21128107.220   113021127.82308     -2610.961    21128113.340    87905346.43106
     -2030.750  
  21637294.960   115785537.86708      4133.820    21637298.900    90055436.44807
      3215.195  
 20  5 13  2 50  0.0000000  0 17G27G16G30G 4G21G 7G 8G 9G11R14R 6R13
                                R15R 5R24R23R17
  20607775.780   108294592.24249      -996.781    20607777.120    84385400.73549
      -776.711  
  22257461.760   116963749.53148     -2924.609    22257460.240    91140580.23045
     -2278.922  
  23719688.360   124647805.06248      3333.363    23719690.380    97128167.10249
      2597.426  
  23985225.640   126043206.99047     -3662.422    23985227.640    98215485.98745
     -2853.840  
  25235602.460   132613984.33547     -2002.379    25235602.180   103335563.24145
     -1560.301  
  21499450.760   112980376.97449      2141.176    21499449.980    88036653.71949
      1668.449  
  20555961.180   108022305.68049      1403.816    20555963.340    84173234.21049
      1093.883  
  22514426.160   118314105.19048     -2549.090    22514427.680    92192815.52349
     -1986.309  
  23688189.060   124482269.90048      3696.824    23688188.920    96999175.42345
      2880.641  
  19701429.660   105019703.29509     -1382.895    19701435.060    81682013.67407
     -1075.590  
  22500892.720   120069058.01206       673.328           0.000           0.00000
         0.000  
  23444672.780   125193245.02004     -3585.188    23444679.640    97372551.46805
     -2788.488  
  20091560.400   107363206.31409      2159.273    20091564.600    83504733.36408
      1679.434  
  22500018.620   120275495.16206     -3066.910    22500024.460    93547630.84506
     -2385.379  
  19951818.980   106691345.25809       654.094    19951822.920    82982173.23408
       508.738  
  21130549.580   113034192.70608     -2614.813    21130555.700    87915508.00406
     -2033.746  
  21633433.580   115764875.09108      4131.734    21633437.540    90039365.40407
      3213.570  
 20  5 13  2 50  5.0000000  0 17G27G16G30G 4G21G 7G 8G 9G11R14R 6R13
                                R15R 5R24R23R17
  20608725.560   108299583.32849     -1000.039    20608726.900    84389289.89549
      -779.254  
  22260244.600   116978373.43048     -2925.457    22260243.060    91151975.46545
     -2279.582  
  23716517.100   124631140.04748      3332.684    23716519.160    97115181.38249
      2596.895  
  23988710.460   126061519.53647     -3662.723    23988712.460    98229755.48945
     -2854.074  
  25237508.320   132623999.57347     -2003.859    25237508.000   103343367.31745
     -1561.453  
  21497414.060   112969674.03549      2139.688    21497413.280    88028313.76549
      1667.285  
  20554626.720   108015293.09049      1400.816    20554628.880    84167769.86249
      1091.547  
  22516852.420   118326855.32848     -2551.293    22516853.980    92202750.69149
     -1988.023  
  23684672.020   124463787.69348      3696.141    23684671.880    96984773.70544
      2880.105  
  19702727.760   105026623.00009     -1385.355    19702733.200    81687395.66007
     -1077.504  
  22500263.460   120065700.14406       668.832           0.000           0.00000
         0.000  
  23448029.580   125211172.48404     -3586.051    23448036.820    97386495.03805
     -2789.156  
  20089540.640   107352413.21209      2157.707    20089544.820    83496338.72908
      1678.215  
  22502888.200   120290834.38506     -3069.508    22502894.000    93559561.34406
     -2387.398  
  19951209.300   106688085.10609       649.664    19951213.280    82979637.56008
       505.246  
  21132995.120   113047274.53308     -2618.250    21133001.220    87925682.75706
     -2036.422  
  21629573.840   115744220.87708      4129.855    21629577.800    90023301.02207
      3212.109  
 20  5 13  2 50 10.0000000  0 17G27G16G30G 4G21G 7G 8G 9G11R14R 6R13
                                R15R 5R24R23R17
  20609678.580   108304591.39049     -1002.707    20609679.920    84393192.27749
      -781.336  
  22263028.540   116993003.16548     -2926.031    22263027.060    91163375.25745
     -2280.027  
  23713346.720   124614479.61648      3332.145    23713348.780    97102199.23249
      2596.477  
  23992195.920   126079835.81547     -3662.695    23992197.860    98244027.91245
     -2854.051  
  25239416.300   132634025.85547     -2005.633    25239416.040   103351179.98045
     -1562.840  
  21495379.340   112958981.45448      2138.047    21495378.540    88019981.88449
      1666.008  
  20553295.320   108008296.53849      1398.199    20553297.480    84162318.00449
      1089.508  
  22519280.980   118339617.53948     -2552.984    22519282.580    92212695.26249
     -1989.344  
  23681155.800   124445309.85648      3695.660    23681155.660    96970375.39745
      2879.734  
  19704028.360   105033555.86509     -1387.273    19704033.780    81692787.89407
     -1078.992  
  22499638.440   120062365.08106       664.945           0.000           0.00000
         0.000  
  23451387.780   125229104.52404     -3585.391    23451394.920    97400442.17004
     -2788.641  
  20087522.740   107341630.24909      2156.172    20087526.940    83487951.98208
      1677.023  
  22505760.380   120306188.14906     -3071.566    22505766.280    93571503.14806
     -2389.000  
  19950604.120   106684848.88809       645.496    19950608.100    82977120.50808
       502.043  
  21135444.200   113060375.36008     -2621.590    21135450.280    87935872.28506
     -2039.020  
  21625716.100   115723577.37208      4128.043    21625720.060    90007244.96407
      3210.695  
 20  5 13  2 50 15.0000000  0 17G27G16G30G 4G21G 7G 8G 9G11R14R 6R13
                                R15R 5R24R23R17
  20610634.440   108309614.44449     -1006.500    20610635.760    84397106.34149
      -784.289  
  22265813.200   117007636.63148     -2927.086    22265811.700    91174777.94345
     -2280.852  
  23710176.840   124597821.77948      3330.977    23710178.880    97089219.10149
      2595.566  
  23995681.720   126098153.79447     -3663.793    23995683.640    98258301.64745
     -2854.906  
  25241325.940   132644061.09947     -2008.320    25241325.700   103358999.68745
     -1564.926  
  21493346.200   112948297.23148      2135.707    21493345.400    88011656.51549
      1664.184  
  20551966.580   108001313.99749      1394.711    20551968.740    84156877.06449
      1086.789  
  22521711.460   118352389.77648     -2555.887    22521713.100    92222647.65349
     -1991.605  
  23677640.040   124426834.34748      3694.637    23677639.840    96955978.90845
      2878.938  
  19705331.020   105040499.73409     -1390.324    19705336.440    81698188.67207
     -1081.367  
  22499017.200   120059050.25706       660.090           0.000           0.00000
         0.000  
  23454746.400   125247038.95304     -3587.035    23454753.460    97414391.15004
     -2789.926  
  20085506.360   107330855.28309      2153.770    20085510.540    83479571.45208
      1675.152  
  22508634.920   120321554.52806     -3075.242    22508640.920    93583454.77606
     -2391.859  
  19950003.020   106681634.50708       640.281    19950007.000    82974620.44008
       497.996  
  21137896.420   113073493.28408     -2625.621    21137902.540    87946075.10905
     -2042.152  
  21621860.020   115702942.69808      4125.762    21621863.980    89991195.78407
      3208.926  
 20  5 13  2 50 20.0000000  0 17G27G16G30G 4G21G 7G 8G 9G11R14R 6R13
                                R15R 5R24R23R17
  20611593.700   108314655.37449     -1009.863    20611595.020    84401034.34049
      -786.906  
  22268599.120   117022276.78748     -2928.621    22268597.560    91186185.85745
     -2282.047  
  23707008.000   124581169.43148      3330.156    23707010.060    97076243.25449
      2594.926  
  23999168.400   126116476.37947     -3665.172    23999170.280    98272578.97845
     -2855.980  
  25243237.880   132654108.26247     -2010.906    25243237.620   103366828.62545
     -1566.945  
  21491315.220   112937624.31849      2133.336    21491314.420    88003339.95949
      1662.340  
  20550641.100   107994348.46649      1391.434    20550643.260    84151449.38649
      1084.234  
  22524144.360   118365174.96048     -2558.117    22524146.060    92232610.13249
     -1993.344  
  23674125.280   124408364.16148      3693.410    23674125.060    96941586.57045
      2877.980  
  19706636.300   105047457.64509     -1392.910    19706641.720    81703600.37007
     -1083.379  
  22498400.420   120055759.28906       655.707           0.000           0.00000
         0.000  
  23458106.080   125264978.69904     -3587.969    23458112.960    97428344.27305
     -2790.645  
  20083492.040   107320091.37809      2151.887    20083496.220    83471199.53108
      1673.711  
  22511512.400   120336936.27806     -3077.750    22511518.460    93595418.35306
     -2393.809  
  19949406.580   106678445.04709       635.465    19949410.540    82972139.74508
       494.246  
  21140352.420   113086631.13508     -2629.477    21140358.540    87956293.43406
     -2045.152  
  21618006.120   115682319.75108      4123.629    21618010.080    89975155.71607
      3207.266  
 20  5 13  2 50 25.0000000  0 17G27G16G30G 4G21G 7G 8G 9G11R14R 6R13
                                R15R 5R24R23R17
  20612556.060   108319712.50549     -1012.805    20612557.360    84404974.96449
      -789.203  
  22271385.980   117036921.89348     -2929.387    22271384.440    91197597.62444
     -2282.645  
  23703839.880   124564520.93548      3329.750    23703841.960    97063270.41249
      2594.609  
  24002655.580   126134801.79647     -3664.922    24002657.480    98286858.50645
     -2855.789  
  25245151.740   132664165.65447     -2012.168    25245151.400   103374665.56244
     -1567.922  
  21489286.060   112926960.99749      2131.672    21489285.240    87995030.88049
      1661.043  
  20549318.520   107987398.28749      1388.578    20549320.660    84146033.66449
      1082.008  
  22526579.400   118377971.39748     -2560.289    22526581.160    92242581.37949
     -1995.035  
  23670611.200   124389897.54148      3693.031    23670610.980    96927197.00045
      2877.688  
  19707943.900   105054427.95609     -1395.348    19707949.340    81709021.72507
     -1085.273  
  22497787.780   120052490.02306       651.867           0.000           0.00000
         0.000  
  23461466.260   125282922.29404     -3589.492    23461473.200    97442300.39005
     -2791.832  
  20081479.460   107309336.76909      2150.051    20081483.640    83462834.83508
      1672.262  
  22514392.480   120352331.85006     -3080.516    22514398.560    93607392.68006
     -2395.961  
  19948814.440   106675278.65208       631.082    19948818.420    82969676.99708
       490.840  
  21142811.780   113099787.09208     -2632.891    21142817.920    87966525.84406
     -2047.809  
  21614154.060   115661706.88408      4121.555    21614158.080    89959123.49007
      3205.652  
 20  5 13  2 50 30.0000000  0 17G27G16G30G 4G21G 7G 8G 9G11R14R 6R13
                                R15R 5R24R23R17
  20613521.340   108324784.98849     -1016.023    20613522.640    84408927.54449
      -791.711  
  22274173.640   117051571.13448     -2930.148    22274172.100    91209012.61944
     -2283.238  
  23700672.300   124547875.45248      3328.813    23700674.420    97050299.90649
      2593.879  
  24006143.200   126153129.30847     -3665.906    24006145.100    98301139.67545
     -2856.559  
  25247067.400   132674232.45247     -2014.117    25247067.040   103382509.80245
     -1569.445  
  21487258.560   112916306.45948      2130.063    21487257.760    87986728.64149
      1659.789  
  20547998.720   107980462.67849      1385.762    20548000.860    84140629.29449
      1079.813  
  22529016.440   118390778.22648     -2562.352    22529018.240    92252560.72249
     -1996.641  
  23667097.660   124371433.73748      3692.656    23667097.420    96912809.63744
      2877.395  
  19709253.640   105061409.75309     -1397.492    19709259.100    81714452.00807
     -1086.941  
  22497179.040   120049241.62206       647.813           0.000           0.00000
         0.000  
  23464827.180   125300868.74904     -3589.813    23464834.040    97456258.72405
     -2792.082  
  20079468.480   107298590.69009      2148.359    20079472.640    83454476.77808
      1670.945  
  22517274.880   120367740.26406     -3083.266    22517281.060    93619376.99806
     -2398.098  
  19948226.500   106672134.62108       626.645    19948230.480    82967231.64208
       487.320  
  21145274.480   113112960.49208     -2636.316    21145280.560    87976771.81706
     -2050.473  
  21610303.780   115641103.20208      4119.801    21610307.800    89943098.41207
      3204.289  
 20  5 13  2 50 35.0000000  0 17G27G16G30G 4G21G 7G 8G 9G11R14R 6R13
                                R15R 5R24R23R17
  20614489.780   108329874.21749     -1019.652    20614491.100    84412893.17949
      -794.539  
  22276962.360   117066225.92048     -2931.762    22276960.780    91220431.91445
     -2284.492  
  23697505.580   124531234.40048      3327.586    23697507.740    97037332.85849
      2592.926  
  24009631.460   126171460.25447     -3666.270    24009633.380    98315423.50745
     -2856.840  
  25248985.120   132684310.05547     -2016.703    25248984.700   103390362.46245
     -1571.461  
  21485233.000   112905662.12048      2127.707    21485232.220    87978434.35349
      1657.953  
  20546681.940   107973542.87649      1382.246    20546684.060    84135237.24749
      1077.074  
  22531455.720   118403596.84148     -2565.078    22531457.560    92262549.24849
     -1998.766  
  23663584.880   124352974.10848      3691.406    23663584.680    96898425.51545
      2876.418  
  19710565.860   105068404.46509     -1400.313    19710571.280    81719892.33507
     -1089.137  
  22496574.460   120046015.63206       642.832           0.000           0.00000
         0.000  
  23468188.960   125318819.49204     -3590.246    23468195.660    97470220.40205
     -2792.418  
  20077459.320   107287854.47409      2146.125    20077463.480    83446126.38808
      1669.207  
  22520159.960   120383163.02506     -3086.145    22520166.240    93631372.46706
     -2400.340  
  19947642.980   106669014.28308       621.559    19947646.960    82964804.71408
       483.414  
  21147740.680   113126152.67808     -2640.480    21147746.720    87987032.40406
     -2053.711  
  21606455.480   115620510.24308      4117.395    21606459.520    89927081.67107
      3202.418  
 20  5 13  2 50 40.0000000  0 17G27G16G30G 4G21G 7G 8G 9G11R14R 6R13
                                R15R 5R24R23R17
  20615461.480   108334980.43249     -1023.082    20615462.780    84416872.04649
      -797.211  
  22279752.180   117080886.47948     -2932.586    22279750.620    91231855.72044
     -2285.137  
  23694339.800   124514598.03248      3326.777    23694341.940    97024369.45549
      2592.293  
  24013120.400   126189794.88647     -3667.348    24013122.400    98329710.22945
     -2857.676  
  25250904.980   132694398.68547     -2018.836    25250904.500   103398223.75145
     -1573.117  
  21483209.440   112895028.21148      2125.891    21483208.640    87970148.19449
      1656.535  
  20545368.240   107966639.24449      1379.145    20545370.320    84129857.79749
      1074.656  
  22533897.260   118416427.47348     -2567.301    22533899.180    92272547.13749
     -2000.496  
  23660072.980   124334518.98148      3690.648    23660072.780    96884044.90244
      2875.828  
  19711880.520   105075412.30709     -1402.801    19711885.920    81725342.87307
     -1091.070  
  22495974.220   120042812.26606       638.273           0.000           0.00000
         0.000  
  23471551.140   125336774.75804     -3591.727    23471558.120    97484185.58805
     -2793.570  
  20075452.100   107277128.41909      2144.219    20075456.260    83437783.90408
      1667.727  
  22523047.760   120398600.16406     -3088.996    22523054.100    93643379.12606
     -2402.555  
  19947063.980   106665917.98708       616.973    19947067.920    82962396.49008
       479.867  
  21150210.360   113139363.81108     -2644.043    21150216.420    87997307.72606
     -2056.480  
  21602609.240   115599928.17708      4115.246    21602613.280    89911073.40207
      3200.746  
 20  5 13  2 50 45.0000000  0 17G27G16G30G 4G21G 7G 8G 9G11R14R 6R13
                                R15R 5R24R23R17
  20616436.420   108340103.75349     -1026.113    20616437.740    84420864.24249
      -799.574  
  22282543.100   117095552.93348     -2933.508    22282541.500    91243284.12644
     -2285.855  
  23691174.900   124497966.48048      3325.980    23691177.080    97011409.81749
      2591.672  
  24016610.120   126208133.31247     -3668.211    24016612.100    98343999.90245
     -2858.352  
  25252826.960   132704498.52447     -2020.844    25252826.400   103406093.75045
     -1574.688  
  21481187.900   112884404.91048      2123.719    21481187.080    87961870.29549
      1654.844  
  20544057.640   107959751.97449      1376.020    20544059.700    84124491.09549
      1072.223  
  22536341.140   118429270.25448     -2569.648    22536343.100    92282554.49549
     -2002.328  
  23656561.960   124316068.49648      3689.844    23656561.760    96869667.90545
      2875.203  
  19713197.660   105082433.43409     -1405.293    19713203.040    81730803.74707
     -1093.008  
  22495378.180   120039631.54906       634.379           0.000           0.00000
         0.000  
  23474914.440   125354734.83004     -3592.574    23474921.460    97498154.51705
     -2794.227  
  20073446.800   107266412.64009      2142.348    20073450.940    83429449.40508
      1666.266  
  22525938.260   120414051.98606     -3091.461    22525944.720    93655397.20406
     -2404.473  
  19946489.440   106662845.75908       612.242    19946493.400    82960006.98008
       476.188  
  21152683.600   113152594.04208     -2647.793    21152689.660    88007597.90306
     -2059.398  
  21598765.100   115579357.27908      4113.309    21598769.140    89895073.82007
      3199.238  
 20  5 13  2 50 50.0000000  0 17G27G16G30G 4G21G 7G 8G 9G11R14R 6R13
                                R15R 5R24R23R17
  20617414.140   108345241.66449     -1029.305    20617415.460    84424867.81149
      -802.059  
  22285334.680   117110222.80348     -2934.512    22285333.100    91254715.19245
     -2286.637  
  23688010.440   124481337.27548      3325.160    23688012.660    96998451.99749
      2591.035  
  24020100.060   126226472.98447     -3668.426    24020102.060    98358290.53745
     -2858.516  
  25254750.560   132714606.93947     -2023.035    25254749.940   103413970.42945
     -1576.395  
  21479167.880   112873789.69448      2121.742    21479167.080    87953598.69649
      1653.301  
  20542749.660   107952878.37249      1373.109    20542751.680    84119135.04349
      1069.957  
  22538786.840   118442122.64448     -2571.883    22538788.860    92292569.34449
     -2004.070  
  23653051.340   124297620.08248      3689.020    23653051.140    96855292.52245
      2874.563  
  19714516.860   105089465.28609     -1407.813    19714522.220    81736272.96107
     -1094.969  
  22494785.960   120036471.27706       629.512           0.000           0.00000
         0.000  
  23478278.300   125372696.96603     -3591.672    23478285.140    97512125.05004
     -2793.527  
  20071442.960   107255704.64109      2140.535    20071447.080    83421120.96608
      1664.855  
  22528831.080   120429515.94306     -3094.207    22528837.580    93667424.71406
     -2406.609  
  19945918.960   106659795.14708       607.582    19945922.920    82957634.28508
       472.563  
  21155159.960   113165840.85808     -2651.359    21155165.980    88017900.97806
     -2062.172  
  21594922.500   115558794.85208      4111.344    21594926.580    89879080.83007
      3197.711  
 20  5 13  2 50 55.0000000  0 17G27G16G30G 4G21G 7G 8G 9G11R14R 6R13
                                R15R 5R24R23R17
  20618395.080   108350396.56849     -1032.500    20618396.420    84428884.61749
      -804.551  
  22288127.360   117124898.45448     -2935.777    22288125.800    91266150.75445
     -2287.621  
  23684846.900   124464712.74548      3324.582    23684849.100    96985497.82349
      2590.582  
  24023590.640   126244816.27947     -3668.898    24023592.660    98372583.99945
     -2858.887  
  25256676.300   132724726.52747     -2024.988    25256675.560   103421855.83245
     -1577.914  
  21477149.860   112863184.96948      2119.941    21477149.060    87945335.27649
      1651.898  
  20541444.760   107946020.93749      1370.000    20541446.740    84113791.59149
      1067.531  
  22541234.820   118454987.03448     -2573.934    22541236.900    92302593.53649
     -2005.668  
  23649541.600   124279176.17148      3688.559    23649541.380    96840920.64745
      2874.199  
  19715838.500   105096510.35509     -1410.160    19715843.860    81741752.45507
     -1096.797  
  22494197.940   120033333.48206       625.355           0.000           0.00000
         0.000  
  23481642.800   125390663.62204     -3594.074    23481649.760    97526099.10105
     -2795.395  
  20069441.000   107245006.83009      2138.730    20069445.120    83412800.44808
      1663.457  
  22531726.680   120444994.27806     -3097.398    22531733.160    93679463.40306
     -2409.090  
  19945352.940   106656768.48508       602.922    19945356.940    82955280.21508
       468.938  
  21157639.860   113179106.70908     -2655.023    21157645.900    88028218.86306
     -2065.023  
  21591081.960   115538243.47508      4109.223    21591086.080    89863096.43607
      3196.063  
 20  5 13  2 51  0.0000000  0 17G27G16G30G 4G21G 7G 8G 9G11R14R 6R13
                                R15R 5R24R23R17
  20619379.120   108355567.62849     -1035.824    20619380.440    84432914.01249
      -807.141  
  22290920.980   117139579.02448     -2936.680    22290919.420    91277590.15944
     -2288.324  
  23681684.080   124448092.17447      3323.668    23681686.320    96972546.73149
      2589.871  
  24027081.780   126263162.43347     -3669.527    24027083.920    98386879.68545
     -2859.379  
  25258604.000   132734856.36547     -2026.973    25258603.220   103429749.17945
     -1579.465  
  21475133.700   112852589.93248      2118.012    21475132.880    87937079.40149
      1650.395  
  20540142.760   107939178.85949      1366.867    20540144.740    84108460.10749
      1065.090  
  22543684.920   118467862.61248     -2576.199    22543687.080    92312626.45149
     -2007.434  
  23646032.560   124260736.02948      3687.531    23646032.280    96826551.71145
      2873.402  
  19717162.440   105103567.71909     -1412.789    19717167.800    81747241.51007
     -1098.840  
  22493614.040   120030217.54106       620.992           0.000           0.00000
         0.000  
  23485008.160   125408633.83204     -3594.996    23485015.000    97540075.92104
     -2796.113  
  20067440.820   107234318.46309      2136.758    20067444.940    83404487.27208
      1661.918  
  22534624.720   120460486.22106     -3099.848    22534631.280    93691512.69506
     -2410.996  
  19944791.280   106653765.01808       598.410    19944795.280    82952944.18908
       465.430  
  21160123.140   113192390.71708     -2658.551    21160129.220    88038550.86206
     -2067.766  
  21587243.360   115517702.28908      4107.172    21587247.500    89847119.96707
      3194.469  
 20  5 13  2 51  5.0000000  0 17G27G16G30G 4G21G 7G 8G 9G11R14R 6R13
                                R15R 5R24R23R17
  20620366.000   108360753.77549     -1039.145    20620367.340    84436955.17049
      -809.727  
  22293715.340   117154263.53748     -2937.844    22293713.820    91289032.62644
     -2289.234  
  23678521.820   124431474.44347      3323.059    23678524.080    96959597.85449
      2589.395  
  24030573.300   126281510.34547     -3670.383    24030575.360    98401176.75345
     -2860.043  
  25260533.360   132744995.16247     -2029.234    25260532.520   103437649.54145
     -1581.227  
  21473119.180   112842003.51948      2116.094    21473118.340    87928830.25049
      1648.898  
  20538843.500   107932351.07149      1363.680    20538845.420    84103139.75649
      1062.609  
  22546136.960   118480748.27248     -2578.652    22546139.160    92322667.22349
     -2009.344  
  23642524.040   124242298.50548      3686.844    23642523.680    96812184.82845
      2872.867  
  19718488.500   105110636.36209     -1415.336    19718493.860    81752739.34307
     -1100.820  
  22493034.020   120027122.38206       616.438           0.000           0.00000
         0.000  
  23488374.340   125426606.62403     -3595.555    23488380.720    97554054.73804
     -2796.547  
  20065442.200   107223638.38809      2134.758    20065446.320    83396180.54908
      1660.363  
  22537525.220   120475990.68206     -3102.391    22537531.720    93703571.70606
     -2412.973  
  19944233.780   106650783.71808       593.637    19944237.760    82950625.40108
       461.715  
  21162609.620   113205691.63808     -2662.160    21162615.700    88048896.01706
     -2070.574  
  21583406.480   115497170.28908      4105.277    21583410.620    89831150.64207
      3192.992  
 20  5 13  2 51 10.0000000  0 16G27G16G30G 4G21G 7G 8G 9G11R14R 6R15
                                R 5R24R23R17
  20621356.260   108365957.52649     -1042.551    20621357.580    84441010.03749
      -812.383  
  22296510.900   117168954.43848     -2938.977    22296509.420    91300480.08245
     -2290.117  
  23675360.560   124414862.14647      3321.871    23675362.860    96946653.21549
      2588.473  
  24034065.620   126299862.50247     -3670.984    24034067.640    98415477.13945
     -2860.512  
  25262464.900   132755145.50047     -2031.363    25262464.100   103445558.89945
     -1582.879  
  21471106.740   112831428.27048      2113.840    21471105.940    87920589.79249
      1647.145  
  20537547.440   107925540.06449      1360.426    20537549.320    84097832.48049
      1060.070  
  22548591.380   118493646.54148     -2581.121    22548593.680    92332717.82049
     -2011.266  
  23639016.500   124223866.23248      3685.926    23639016.100    96797822.00845
      2872.148  
  19719817.140   105117718.82009     -1417.926    19719822.520    81758247.91507
     -1102.836  
  22492458.340   120024050.45406       612.211           0.000           0.00000
         0.000  
  20063445.620   107212969.22409      2132.742    20063449.740    83387882.31108
      1658.797  
  22540428.380   120491510.20606     -3105.410    22540434.980    93715642.44106
     -2415.324  
  19943680.860   106647827.04408       588.695    19943684.860    82948325.76708
       457.875  
  21165099.780   113219012.15708     -2666.078    21165105.840    88059256.41706
     -2073.621  
  21579571.780   115476649.98108      4102.746    21579575.940    89815190.40807
      3191.023  
 20  5 13  2 51 15.0000000  0 16G27G16G30G 4G21G 7G 8G 9G11R14R 6R15
                                R 5R24R23R17
  20622349.640   108371177.82649     -1045.574    20622350.960    84445077.80149
      -814.738  
  22299307.500   117183650.67348     -2939.641    22299306.080    91311931.69344
     -2290.633  
  23672200.160   124398254.20347      3321.051    23672202.480    96933711.96749
      2587.832  
  24037558.580   126318217.85347     -3671.438    24037560.520    98429779.97145
     -2860.867  
  25264398.480   132765306.32147     -2032.926    25264397.660   103453476.42045
     -1584.102  
  21469096.280   112820863.16348      2112.102    21469095.480    87912357.24149
      1645.793  
  20536254.380   107918744.92549      1357.602    20536256.240    84092537.56649
      1057.871  
  22551048.020   118506556.34748     -2582.930    22551050.360    92342777.40849
     -2012.676  
  23635509.780   124205438.12148      3685.406    23635509.340    96783462.45545
      2871.746  
  19721148.200   105124814.03609     -1420.148    19721153.560    81763766.41007
     -1104.563  
  22491886.780   120021000.84106       607.879           0.000           0.00000
         0.000  
  20061450.860   107202309.90409      2131.102    20061455.000    83379591.73208
      1657.523  
  22543334.220   120507043.73106     -3108.172    22543340.900    93727724.06006
     -2417.473  
  19943132.360   106644894.02408       584.504    19943136.360    82946044.53008
       454.613  
  21167593.340   113232351.14508     -2669.410    21167599.440    88069631.18906
     -2076.207  
  21575739.100   115456140.35208      4100.789    21575743.240    89799238.48507
      3189.504  
 20  5 13  2 51 20.0000000  0 16G27G16G30G 4G21G 7G 8G 9G11R14R 6R15
                                R 5R24R23R17
  20623345.900   108376413.15849     -1048.809    20623347.220    84449157.27849
      -817.258  
  22302104.820   117198350.74448     -2940.586    22302103.380    91323386.28645
     -2291.371  
  23669040.300   124381649.09847      3320.414    23669042.640    96920772.92449
      2587.336  
  24041051.800   126336574.85347     -3671.680    24041053.760    98444084.13345
     -2861.055  
  25266333.740   132775476.16847     -2035.152    25266332.980   103461400.98045
     -1585.832  
  21467087.440   112810306.70648      2110.148    21467086.620    87904131.43449
      1644.270  
  20534964.040   107911964.11949      1354.395    20534965.900    84087253.83049
      1055.371  
  22553506.560   118519476.21248     -2585.438    22553508.960    92352844.83149
     -2014.629  
  23632003.520   124187012.67448      3684.488    23632003.100    96769104.95945
      2871.031  
  19722481.340   105131920.52109     -1422.609    19722486.720    81769293.67607
     -1106.477  
  22491319.260   120017971.96306       603.379           0.000           0.00000
         0.000  
  20059457.640   107191658.84209      2129.063    20059461.800    83371307.57108
      1655.938  
  22546242.420   120522589.67906     -3110.711    22546249.120    93739815.35106
     -2419.441  
  19942588.000   106641983.07908       579.895    19942592.020    82943780.46508
       451.027  
  21170090.060   113245707.10108     -2673.109    21170096.220    88080019.15106
     -2079.090  
  21571908.140   115435639.93508      4098.855    21571912.260    89783293.71807
      3188.000  
 20  5 13  2 51 25.0000000  0 16G27G16G30G 4G21G 7G 8G 9G11R14R 6R15
                                R 5R24R23R17
  20624345.460   108381665.81349     -1051.918    20624346.760    84453250.25849
      -819.680  
  22304903.300   117213056.91948     -2941.340    22304901.860    91334845.63745
     -2291.957  
  23665881.380   124365049.15347      3319.895    23665883.780    96907837.90649
      2586.930  
  24044545.800   126354935.84447     -3672.316    24044547.700    98458391.38545
     -2861.547  
  25268271.200   132785657.42647     -2037.227    25268270.360   103469334.41545
     -1587.453  
  21465080.700   112799761.18448      2108.383    21465079.880    87895914.14349
      1642.895  
  20533676.840   107905199.82449      1351.445    20533678.680    84081982.95049
      1053.074  
  22555967.440   118532408.32948     -2587.215    22555969.900    92362921.80149
     -2016.016  
  23628498.240   124168592.17748      3684.066    23628497.820    96754751.33845
      2870.699  
  19723817.040   105139040.54509     -1424.891    19723822.400    81774831.46707
     -1108.254  
  22490756.000   120014966.11006       599.348           0.000           0.00000
         0.000  
  20057466.420   107181018.48909      2127.316    20057470.600    83363031.74708
      1654.578  
  22549153.340   120538150.21406     -3113.172    22549160.080    93751917.98107
     -2421.359  
  19942048.180   106639096.50908       575.387    19942052.220    82941535.35608
       447.523  
  21172590.420   113259082.27908     -2676.645    21172596.580    88090422.06506
     -2081.840  
  21568079.300   115415151.06008      4097.059    21568083.440    89767357.93707
      3186.602  
 20  5 13  2 51 30.0000000  0 17G27G16G30G 4G21G 7G 8G 9G11R14R 6R13
                                R15R 5R24R23R17
  20625348.180   108386935.04249     -1055.625    20625349.460    84457356.14949
      -822.566  
  22307702.800   117227768.49848     -2943.000    22307701.340    91346309.19745
     -2293.250  
  23662723.320   124348453.70947      3318.504    23662725.740    96894906.40149
      2585.848  
  24048040.380   126373300.03947     -3673.344    24048042.260    98472701.13044
     -2862.352  
  25270210.660   132795849.25247     -2039.793    25270209.760   103477276.08645
     -1589.453  
  21463075.900   112789225.87648      2105.871    21463075.080    87887704.81249
      1640.934  
  20532392.660   107898451.39949      1347.707    20532394.480    84076724.44049
      1050.160  
  22558430.540   118545352.04948     -2590.102    22558433.040    92373007.81449
     -2018.266  
  23624993.760   124150175.95248      3682.426    23624993.320    96740401.03745
      2869.422  
  19725155.160   105146173.35509     -1428.043    19725160.500    81780379.20207
     -1110.703  
  22490196.960   120011982.69106       593.629           0.000           0.00000
         0.000  
  23505215.100   125516537.03003     -3600.023    23505221.280    97623999.00504
     -2800.023  
  20055477.060   107170388.03809      2124.773    20055481.260    83354763.61408
      1652.602  
  22552066.960   120553724.90006     -3116.512    22552073.680    93764031.62106
     -2423.957  
  19941512.800   106636233.64508       570.070    19941516.860    82939308.68808
       443.387  
  21175094.220   113272475.95808     -2680.773    21175100.380    88100839.37306
     -2085.051  
  21564252.480   115394672.94908      4094.273    21564256.620    89751430.52507
      3184.434  
 20  5 13  2 51 35.0000000  0 16G27G16G30G 4G21G 7G 8G 9G11R14R 6R15
                                R 5R24R23R17
  20626353.800   108392219.60349     -1058.414    20626355.060    84461473.98749
      -824.742  
  22310503.080   117242484.16948     -2943.324    22310501.680    91357775.94945
     -2293.500  
  23659565.880   124331861.43347      3318.543    23659568.340    96881977.36249
      2585.879  
  24051535.360   126391666.15647     -3673.688    24051537.320    98487012.37645
     -2862.617  
  25272151.880   132806050.29247     -2040.699    25272151.040   103485224.97345
     -1590.156  
  21461072.800   112778699.53548      2104.383    21461071.980    87879502.47149
      1639.777  
  20531111.260   107891717.63149      1345.488    20531113.080    84071477.35249
      1048.434  
  22560895.580   118558306.05848     -2591.828    22560898.140    92383101.84349
     -2019.609  
  23621489.840   124131762.70748      3682.547    23621489.320    96726053.06845
      2869.516  
  19726495.420   105153317.65809     -1429.824    19726500.760    81785935.87807
     -1112.090  
  22489641.760   120009020.19206       590.836           0.000           0.00000
         0.000  
  20053489.320   107159766.20309      2123.641    20053493.520    83346502.19608
      1651.719  
  22554982.820   120569312.23306     -3118.617    22554989.640    93776155.09006
     -2425.594  
  19940981.600   106633393.19508       566.094    19940985.680    82937099.45108
       440.297  
  21177601.240   113285886.84108     -2683.633    21177607.440    88111270.05506
     -2087.273  
  21560427.440   115374204.31508      4092.852    21560431.580    89735510.48107
      3183.328  
 20  5 13  2 51 40.0000000  0 16G27G16G30G 4G21G 7G 8G 9G11R14R 6R15
                                R 5R24R23R17
  20627362.460   108397520.12149     -1061.621    20627363.720    84465604.25649
      -827.242  
  22313304.300   117257204.62248     -2944.547    22313302.880    91369246.41945
     -2294.457  
  23656409.160   124315273.03647      3317.410    23656411.680    96869051.34249
      2584.996  
  24055030.800   126410034.86747     -3674.066    24055032.740    98501325.65645
     -2862.910  
  25274095.020   132816261.34147     -2042.773    25274094.260   103493181.61245
     -1591.777  
  21459071.540   112768182.85948      2102.520    21459070.720    87871307.65649
      1638.328  
  20529832.780   107884999.14949      1342.215    20529834.580    84066242.17449
      1045.883  
  22563362.700   118571271.00548     -2593.930    22563365.300    92393204.39649
     -2021.246  
  23617986.620   124113353.16548      3681.719    23617986.080    96711707.97645
      2868.871  
  19727838.000   105160474.26109     -1432.434    19727843.300    81791502.12507
     -1114.117  
  22489090.700   120006079.35806       585.969           0.000           0.00000
         0.000  
  20051503.340   107149153.70209      2121.699    20051507.560    83338248.02808
      1650.211  
  22557901.300   120584912.86006     -3121.391    22557908.080    93788288.90506
     -2427.754  
  19940454.720   106630575.80608       561.230    19940458.800    82934908.14808
       436.512  
  21180111.580   113299315.62808     -2687.414    21180117.820    88121714.66306
     -2090.215  
  21556604.280   115353746.03608      4090.598    21556608.460    89719598.50307
      3181.574  
 20  5 13  2 51 45.0000000  0 16G27G16G30G 4G21G 7G 8G 9G11R14R 6R15
                                R 5R24R23R17
  20628374.280   108402837.22949     -1065.176    20628375.520    84469747.45949
      -830.012  
  22316106.540   117271930.47648     -2945.918    22316105.120    91380721.10745
     -2295.523  
  23653253.320   124298689.12247      3316.297    23653255.860    96856128.82049
      2584.129  
  24058526.880   126428406.74547     -3674.848    24058528.780    98515641.40245
     -2863.523  
  25276040.120   132826482.92447     -2045.215    25276039.360   103501146.47445
     -1593.680  
  21457072.240   112757676.45948      2100.125    21457071.420    87863120.85049
      1636.457  
  20528557.320   107878296.51549      1338.895    20528559.100    84061019.34149
      1043.289  
  22565832.040   118584247.48848     -2596.559    22565834.660    92403315.93449
     -2023.297  
  23614484.200   124094947.93948      3680.660    23614483.740    96697366.23445
      2868.047  
  19729182.980   105167643.65509     -1435.273    19729188.280    81797078.31307
     -1116.328  
  22488543.820   120003160.94206       581.430           0.000           0.00000
         0.000  
  20049519.220   107138551.23509      2119.523    20049523.440    83330001.66508
      1648.520  
  22560822.340   120600527.48506     -3124.160    22560829.160    93800433.60306
     -2429.906  
  19939932.260   106627782.06008       556.406    19939936.360    82932735.23108
       432.758  
  21182625.380   113312762.80308     -2691.355    21182631.640    88132173.57906
     -2093.281  
  21552783.220   115333298.53408      4088.301    21552787.380    89703694.89207
      3179.789  
 20  5 13  2 51 50.0000000  0 16G27G16G30G 4G21G 7G 8G 9G11R14R 6R15
                                R 5R24R23R17
  20629389.240   108408170.81949     -1068.109    20629390.460    84473903.50249
      -832.297  
  22318909.780   117286661.69748     -2946.570    22318908.400    91392199.97445
     -2296.031  
  23650098.280   124282109.63747      3315.676    23650100.900    96843209.73749
      2583.645  
  24062023.520   126446781.73847     -3674.844    24062025.500    98529959.54645
     -2863.523  
  25277987.220   132836715.03847     -2047.258    25277986.480   103509119.55145
     -1595.270  
  21455074.860   112747180.25648      2098.613    21455074.040    87854941.98949
      1635.277  
  20527284.820   107871609.70849      1336.098    20527286.640    84055808.84549
      1041.113  
  22568303.560   118597235.45348     -2598.496    22568306.220    92413436.42249
     -2024.805  
  23610982.640   124076547.00648      3680.055    23610982.120    96683027.83945
      2867.570  
  19730530.320   105174825.76409     -1437.391    19730535.620    81802664.39507
     -1117.980  
  22488001.120   120000264.84606       577.270           0.000           0.00000
         0.000  
  20047536.920   107127958.60409      2117.922    20047541.160    83321762.95408
      1647.270  
  22563746.020   120616155.90906     -3126.910    22563752.800    93812589.03806
     -2432.047  
  19939414.220   106625012.02308       552.137    19939418.380    82930580.75708
       429.441  
  21185142.620   113326228.42208     -2694.465    21185148.880    88142646.83906
     -2095.699  
  21548964.120   115312861.80108      4086.621    21548968.280    89687799.66407
      3178.484  
 20  5 13  2 51 55.0000000  0 16G27G16G30G 4G21G 7G 8G 9G11R14R 6R15
                                R 5R24R23R17
  20630407.020   108413519.25749     -1071.426    20630408.240    84478071.12049
      -834.883  
  22321713.720   117301396.52748     -2947.781    22321712.320    91403681.65845
     -2296.977  
  23646943.800   124265532.93347      3314.746    23646946.440    96830292.83649
      2582.918  
  24065520.460   126465158.16647     -3675.668    24065522.460    98544278.83345
     -2864.160  
  25279936.060   132846955.96947     -2049.496    25279935.200   103517099.47345
     -1597.016  
  21453079.140   112736692.61848      2096.352    21453078.320    87846769.80649
      1633.520  
  20526015.040   107864937.03749      1332.789    20526016.860    84050609.36349
      1038.535  
  22570776.960   118610233.21848     -2600.813    22570779.620    92423564.54749
     -2026.609  
  23607481.540   124058148.71048      3679.141    23607481.020    96668691.52645
      2866.863  
  19731879.760   105182018.98309     -1440.102    19731885.040    81808259.11607
     -1120.082  
  22487462.200   119997389.28806       572.871           0.000           0.00000
         0.000  
  20045556.180   107117374.21609      2115.773    20045560.440    83313530.65208
      1645.602  
  22566672.000   120631796.53206     -3129.652    22566678.760    93824753.95906
     -2434.180  
  19938900.320   106622263.94208       547.141    19938904.460    82928443.36708
       425.555  
  21187662.980   113339710.66208     -2698.379    21187669.260    88153133.02306
     -2098.738  
  21545146.760   115292434.26108      4084.348    21545150.920    89671911.58407
      3176.715  
 20  5 13  2 52  0.0000000  0 16G27G16G30G 4G21G 7G 8G 9G11R14R 6R15
                                R 5R24R23R17
  20631428.020   108418884.60149     -1074.961    20631429.220    84482251.90049
      -837.637  
  22324518.740   117316137.04648     -2948.777    22324517.340    91415167.77144
     -2297.754  
  23643790.260   124248961.09447      3313.680    23643792.940    96817379.72249
      2582.090  
  24069018.060   126483538.10547     -3676.852    24069020.100    98558600.84245
     -2865.082  
  25281886.980   132857207.82147     -2051.746    25281886.100   103525087.94645
     -1598.766  
  21451085.400   112726215.57348      2094.113    21451084.600    87838605.87449
      1631.773  
  20524748.340   107858280.53949      1329.461    20524750.180    84045422.48349
      1035.941  
  22573252.580   118623242.80448     -2603.375    22573255.280    92433701.87949
     -2028.609  
  23603981.380   124039755.13248      3678.012    23603980.860    96654358.86245
      2865.980  
  19733231.700   105189225.36809     -1442.797    19733236.940    81813864.08007
     -1122.180  
  22486927.640   119994536.51106       568.203           0.000           0.00000
         0.000  
  20043577.380   107106800.14309      2113.621    20043581.640    83305306.37708
      1643.926  
  22569600.560   120647451.36406     -3132.785    22569607.340    93836929.93106
     -2436.613  
  19938390.900   106619539.89508       542.246    19938395.060    82926324.66808
       421.746  
  21190186.860   113353211.71808     -2702.277    21190193.140    88163633.84306
     -2101.773  
  21541331.500   115272018.02408      4081.805    21541335.660    89656032.29807
      3174.738  
 20  5 13  2 52  5.0000000  0 16G27G16G30G 4G21G 7G 8G 9G11R14R 6R15
                                R 5R24R23R17
  20632452.540   108424268.54649     -1078.227    20632453.740    84486447.18549
      -840.180  
  22327325.180   117330885.01748     -2950.230    22327323.840    91426659.69045
     -2298.883  
  23640637.960   124232395.87247      3312.660    23640640.680    96804471.76049
      2581.293  
  24072516.660   126501923.22747     -3677.281    24072518.660    98572926.89545
     -2865.418  
  25283840.260   132867472.26447     -2053.941    25283839.340   103533086.20445
     -1600.477  
  21449094.040   112715750.93448      2091.918    21449093.240    87830451.60749
      1630.063  
  20523485.020   107851642.03749      1326.090    20523486.900    84040249.62649
      1033.316  
  22575730.820   118636265.97548     -2605.801    22575733.540    92443849.80049
     -2030.496  
  23600482.440   124021367.98148      3676.977    23600481.920    96640031.21845
      2865.176  
  19734586.400   105196446.70309     -1445.434    19734591.640    81819480.66707
     -1124.230  
  22486397.640   119991708.27406       563.441           0.000           0.00000
         0.000  
  20041600.840   107096238.18509      2111.512    20041605.100    83297091.52108
      1642.281  
  22572532.160   120663122.09106     -3135.633    22572538.880    93849118.26506
     -2438.828  
  19937886.320   106616841.66308       537.406    19937890.480    82924226.03908
       417.980  
  21192714.540   113366733.09708     -2706.176    21192720.820    88174150.46606
     -2104.809  
  21537518.660   115251614.82408      4079.574    21537522.840    89640163.15107
      3173.004  
 20  5 13  2 52 10.0000000  0 16G27G16G30G 4G21G 7G 8G 9G11R14R 6R15
                                R 5R24R23R17
  20633479.720   108429666.35549     -1081.352    20633480.900    84490653.26649
      -842.617  
  22330132.120   117345635.63148     -2950.820    22330130.880    91438153.66645
     -2299.344  
  23637486.020   124215832.47847      3312.207    23637488.780    96791565.23049
      2580.941  
  24076015.360   126520308.81247     -3677.664    24076017.360    98587253.31746
     -2865.715  
  25285795.040   132877744.56347     -2055.617    25285794.160   103541090.60445
     -1601.781  
  21447104.120   112705293.91048      2090.184    21447103.360    87822303.27849
      1628.711  
  20522224.240   107845016.73549      1323.320    20522226.160    84035087.05849
      1031.160  
  22578210.740   118649297.91748     -2607.766    22578213.440    92454004.55849
     -2032.027  
  23596983.800   124002982.53048      3676.512    23596983.320    96625704.90245
      2864.813  
  19735942.980   105203678.12509     -1447.660    19735948.220    81825105.10307
     -1125.961  
  22485871.280   119988899.58806       559.645           0.000           0.00000
         0.000  
  20039625.660   107085683.49409      2109.785    20039629.940    83288882.31508
      1640.941  
  22575465.900   120678803.88806     -3137.730    22575472.500    93861315.20406
     -2440.461  
  19937385.640   106614164.40908       533.035    19937389.820    82922143.73208
       414.602  
  21195245.180   113380270.23408     -2709.379    21195251.440    88184679.34906
     -2107.297  
  21533707.400   115231219.89508      4077.746    21533711.560    89624300.43707
      3171.582  
 20  5 13  2 52 15.0000000  0 16G27G16G30G 4G21G 7G 8G 9G11R14R 6R15
                                R 5R24R23R17
  20634510.040   108435080.62649     -1084.465    20634511.180    84494872.17949
      -845.043  
  22332940.080   117360391.51848     -2951.770    22332938.820    91449651.76044
     -2300.086  
  23634334.920   124199273.57347      3311.285    23634337.720    96778662.19149
      2580.223  
  24079514.600   126538697.38047     -3677.750    24079516.620    98601582.06345
     -2865.781  
  25287751.800   132888027.39347     -2057.695    25287750.840   103549103.18445
     -1603.402  
  21445116.160   112694847.11848      2088.328    21445115.400    87814162.92049
      1627.270  
  20520966.460   107838407.24849      1320.215    20520968.420    84029936.81049
      1028.738  
  22580692.800   118662341.26448     -2609.949    22580695.520    92464168.19949
     -2033.730  
  23593486.020   123984601.42448      3675.672    23593485.440    96611381.96945
      2864.160  
  19737301.980   105210922.30909     -1450.141    19737307.220    81830739.46907
     -1127.891  
  22485349.100   119986113.09006       554.859           0.000           0.00000
         0.000  
  20037652.340   107075138.75609      2107.941    20037656.640    83280680.85208
      1639.512  
  22578402.140   120694499.54106     -3140.281    22578408.680    93873522.92606
     -2442.445  
  19936889.380   106611510.82308       528.164    19936893.580    82920079.83408
       410.789  
  21197779.220   113393825.74608     -2712.879    21197785.540    88195222.52506
     -2110.020  
  21529898.120   115210835.78908      4075.695    21529902.300    89608446.13807
      3169.984  
 20  5 13  2 52 20.0000000  0 16G27G16G30G 4G21G 7G 8G 9G11R14R 6R15
                                R 5R24R23R17
  20635543.540   108440511.76849     -1088.039    20635544.700    84499104.23549
      -847.828  
  22335749.100   117375153.09448     -2953.047    22335747.840    91461154.27745
     -2301.078  
  23631184.740   124182719.57247      3310.211    23631187.600    96765762.97449
      2579.387  
  24083014.500   126557089.43147     -3678.852    24083016.520    98615913.51746
     -2866.641  
  25289710.620   132898321.10647     -2059.961    25289709.680   103557124.25945
     -1605.168  
  21443130.240   112684411.04348      2086.012    21443129.480    87806030.91449
      1625.461  
  20519711.760   107831814.01849      1316.898    20519713.780    84024799.22849
      1026.156  
  22583177.140   118675396.40748     -2612.301    22583179.840    92474341.03349
     -2035.563  
  23589989.120   123966225.06548      3674.531    23589988.520    96597062.73845
      2863.270  
  19738663.400   105218179.53209     -1452.891    19738668.640    81836383.96707
     -1130.031  
  22484831.140   119983349.33506       550.195           0.000           0.00000
         0.000  
  20035680.980   107064604.40009      2105.816    20035685.260    83272487.46408
      1637.855  
  22581341.020   120710209.30106     -3143.449    22581347.520    93885741.61806
     -2444.910  
  19936397.660   106608881.34608       523.301    19936401.860    82918034.68508
       407.012  
  21200316.760   113407399.88808     -2716.875    21200323.080    88205780.19006
     -2113.129  
  21526090.980   115190463.14208      4073.191    21526095.200    89592600.75707
      3168.039  
 20  5 13  2 52 25.0000000  0 16G27G16G30G 4G21G 7G 8G 9G11R14R 6R15
                                R 5R24R23R17
  20636580.240   108445959.56949     -1090.824    20636581.380    84503349.27349
      -849.996  
  22338559.160   117389920.14348     -2953.484    22338557.960    91472661.05445
     -2301.422  
  23628035.500   124166170.27847      3310.086    23628038.380    96752867.42849
      2579.289  
  24086515.020   126575484.69147     -3678.766    24086517.000    98630247.46546
     -2866.578  
  25291671.480   132908625.44847     -2061.355    25291670.520   103565153.61445
     -1606.254  
  21441146.300   112673985.49148      2084.734    21441145.580    87797907.10649
      1624.465  
  20518460.120   107825236.73949      1314.293    20518462.180    84019674.07649
      1024.125  
  22585663.660   118688463.12848     -2614.129    22585666.380    92484522.89249
     -2036.988  
  23586493.100   123947853.29248      3674.387    23586492.480    96582747.07845
      2863.160  
  19740027.320   105225449.82309     -1454.730    19740032.520    81842038.63707
     -1131.461  
  22484317.380   119980608.18406       546.652           0.000           0.00000
         0.000  
  20033711.520   107054080.20009      2104.371    20033715.800    83264301.98208
      1636.734  
  22584282.580   120725932.95906     -3145.527    22584288.940    93897971.11706
     -2446.523  
  19935910.340   106606275.67008       519.332    19935914.600    82916008.04808
       403.926  
  21202857.700   113420992.42508     -2719.641    21202864.060    88216352.15606
     -2115.281  
  21522285.940   115170101.64508      4071.684    21522290.200    89576764.04707
      3166.863  
 20  5 13  2 52 30.0000000  0 16G27G16G30G 4G21G 7G 8G 9G11R14R 6R15
                                R 5R24R23R17
  20637619.760   108451422.27049     -1094.098    20637620.880    84507605.91949
      -852.547  
  22341369.920   117404690.91348     -2954.688    22341368.780    91484170.73445
     -2302.359  
  23624886.780   124149623.98247      3308.719    23624889.720    96739974.21649
      2578.223  
  24090015.860   126593881.41447     -3679.480    24090017.760    98644582.56145
     -2867.133  
  25293634.040   132918938.76547     -2063.703    25293633.120   103573189.95944
     -1608.086  
  21439164.020   112663568.65048      2082.578    21439163.320    87789790.08849
      1622.785  
  20517211.180   107818673.71249      1310.973    20517213.280    84014560.03549
      1021.539  
  22588152.080   118701539.68548     -2616.535    22588154.760    92494712.41149
     -2038.863  
  23582997.600   123929484.36148      3673.246    23582996.920    96568433.62045
      2862.266  
  19741393.300   105232731.24909     -1457.402    19741398.480    81847701.96207
     -1133.586  
  22483807.580   119977887.67906       541.973           0.000           0.00000
         0.000  
  20031743.620   107043564.43009      2102.250    20031747.920    83256123.05108
      1635.078  
  22587226.380   120741668.79506     -3148.668    22587232.680    93910210.09006
     -2448.969  
  19935427.180   106603692.06008       514.477    19935431.440    82913998.57408
       400.145  
  21205401.820   113434601.62608     -2723.566    21205408.180    88226937.09606
     -2118.332  
  21518482.640   115149749.52008      4069.395    21518486.920    89560934.62107
      3165.086  
 20  5 13  2 52 35.0000000  0 16G27G16G30G 4G21G 7G 8G 9G11R14R 6R15
                                R 5R24R23R17
  20638662.100   108456899.82249     -1096.973    20638663.220    84511874.13949
      -854.789  
  22344181.400   117419465.34248     -2955.273    22344180.320    91495683.27145
     -2302.813  
  23621738.660   124133080.61547      3308.230    23621741.620    96727083.28549
      2577.844  
  24093516.940   126612279.53247     -3679.492    24093518.840    98658918.75345
     -2867.141  
  25295598.320   132929261.12347     -2065.328    25295597.420   103581233.34545
     -1609.352  
  21437183.420   112653160.52448      2080.840    21437182.720    87781679.85849
      1621.430  
  20515964.980   107812125.15349      1308.285    20515967.120    84009457.26149
      1019.441  
  22590642.360   118714626.00348     -2618.137    22590645.020    92504909.53649
     -2040.109  
  23579502.660   123911118.23848      3673.078    23579501.960    96554122.36245
      2862.137  
  19742761.360   105240023.88009     -1459.629    19742766.540    81853374.00207
     -1135.270  
  22483301.620   119975188.04606       537.719           0.000           0.00000
         0.000  
  20029777.320   107033057.03909      2100.711    20029781.600    83247950.63408
      1633.887  
  22590172.400   120757416.59206     -3150.969    22590178.620    93922458.36206
     -2450.758  
  19934948.180   106601130.56508       510.184    19934952.420    82912006.30508
       396.809  
  21207949.060   113448227.56708     -2726.734    21207955.420    88237535.04206
     -2120.797  
  21514681.100   115129406.77808      4067.617    21514685.380    89545112.49907
      3163.703  
 20  5 13  2 52 40.0000000  0 16G27G16G30G 4G21G 7G 8G 9G11R14R 6R15
                                R 5R24R23R17
  20639707.640   108462394.26149     -1100.590    20639708.800    84516155.52349
      -857.602  
  22346993.960   117434245.45048     -2956.707    22346992.880    91507200.23845
     -2303.926  
  23618591.480   124116542.20447      3307.133    23618594.460    96714196.21649
      2576.988  
  24097018.680   126630681.08747     -3680.645    24097020.520    98673257.62745
     -2868.039  
  25297564.680   132939594.29947     -2067.531    25297563.740   103589285.17945
     -1611.066  
  21435204.840   112642763.13748      2078.438    21435204.180    87773578.00049
      1619.563  
  20514721.900   107805592.97549      1304.949    20514724.080    84004367.25349
      1016.844  
  22593134.860   118727724.12448     -2620.965    22593137.500    92515115.86149
     -2042.313  
  23576008.620   123892756.96548      3671.664    23576007.920    96539814.88345
      2861.035  
  19744131.920   105247329.69609     -1462.512    19744137.080    81859056.30207
     -1137.512  
  22482799.860   119972510.99906       533.379           0.000           0.00000
         0.000  
  20027812.940   107022560.13509      2098.195    20027817.260    83239786.37508
      1631.930  
  22593121.040   120773178.54606     -3153.855    22593127.220    93934717.64506
     -2453.008  
  19934473.700   106598593.16808       505.039    19934477.900    82910032.77608
       392.809  
  21210499.800   113461872.12208     -2730.785    21210506.120    88248147.47506
     -2123.949  
  21510881.680   115109075.53108      4065.188    21510885.980    89529299.31307
      3161.813  
 20  5 13  2 52 45.0000000  0 16G27G16G30G 4G21G 7G 8G 9G11R14R 6R15
                                R 5R24R23R17
  20640756.280   108467904.86249     -1103.895    20640757.420    84520449.49549
      -860.180  
  22349807.460   117449030.52948     -2957.734    22349806.380    91518721.06445
     -2304.730  
  23615445.120   124100008.08347      3306.379    23615448.120    96701312.49249
      2576.398  
  24100520.940   126649085.36447     -3681.414    24100522.780    98687598.59646
     -2868.637  
  25299532.940   132949937.69347     -2069.887    25299532.060   103597344.94645
     -1612.902  
  21433228.180   112632375.83448      2076.094    21433227.520    87765483.98849
      1617.730  
  20513481.800   107799076.28549      1301.578    20513484.000    83999289.31249
      1014.215  
  22595629.480   118740833.30148     -2623.074    22595632.100    92525330.79949
     -2043.957  
  23572515.360   123874399.83948      3670.844    23572514.720    96525510.63545
      2860.398  
  19745504.820   105254648.00109     -1465.063    19745509.980    81864748.31107
     -1139.496  
  22482302.400   119969856.24106       528.492           0.000           0.00000
         0.000  
  20025850.380   107012072.86609      2096.176    20025854.700    83231629.61408
      1630.355  
  22596072.220   120788953.88006     -3156.699    22596078.320    93946987.34106
     -2455.215  
  19934003.560   106596079.18508       500.266    19934007.760    82908077.45608
       389.066  
  21213053.880   113475534.60508     -2734.664    21213060.180    88258773.84306
     -2126.965  
  21507084.280   115088754.98408      4062.785    21507088.600    89513494.44907
      3159.945  
 20  5 13  2 52 50.0000000  0 16G27G16G30G 4G21G 7G 8G 9G11R14R 6R15
                                R 5R24R23R17
  20641808.360   108473433.58049     -1107.441    20641809.500    84524757.58349
      -862.941  
  22352622.300   117463822.55348     -2959.016    22352621.240    91530247.31945
     -2305.730  
  23612299.980   124083480.20647      3305.066    23612302.960    96688433.63049
      2575.375  
  24104024.060   126667494.26847     -3682.086    24104025.860    98701943.18745
     -2869.160  
  25301503.500   132960293.11947     -2072.129    25301502.580   103605414.12545
     -1614.645  
  21431253.800   112622000.49248      2073.965    21431253.140    87757399.29149
      1616.074  
  20512245.040   107792577.15149      1298.043    20512247.260    83994225.05949
      1011.461  
  22598126.580   118753955.49048     -2625.707    22598129.160    92535555.87349
     -2046.008  
  23569023.280   123856048.84848      3669.582    23569022.620    96511211.16545
      2859.414  
  19746880.440   105261980.79809     -1467.906    19746885.620    81870451.59507
     -1141.707  
  22481809.320   119967225.37906       523.805           0.000           0.00000
         0.000  
  20023890.020   107001597.34909      2094.008    20023894.340    83223481.98608
      1628.668  
  22599026.240   120804744.47006     -3159.734    22599032.300    93959268.90706
     -2457.574  
  19933538.180   106593590.55208       495.277    19933542.380    82906141.85208
       385.215  
  21215611.600   113489216.86408     -2738.406    21215617.960    88269415.59806
     -2129.875  
  21503289.260   115068447.23408      4060.289    21503293.640    89497699.54007
      3158.004  
 20  5 13  2 52 55.0000000  0 16G27G16G30G 4G21G 7G 8G 9G11R14R 6R15
                                R 5R24R23R17
  20642863.460   108478978.26049     -1110.625    20642864.620    84529078.11549
      -865.422  
  22355438.040   117478619.36948     -2959.922    22355437.000    91541777.29145
     -2306.438  
  23609155.600   124066956.47747      3304.254    23609158.580    96675558.00249
      2574.742  
  24107527.700   126685905.71647     -3682.637    24107529.480    98716289.76145
     -2869.594  
  25303475.960   132970658.48047     -2074.313    25303475.000   103613491.01545
     -1616.352  
  21429281.320   112611635.08748      2072.000    21429280.680    87749322.35649
      1614.547  
  20511011.200   107786093.50749      1295.063    20511013.460    83989172.87249
      1009.141  
  22600625.760   118767088.55448     -2627.734    22600628.300    92545789.42749
     -2047.590  
  23565531.960   123837701.87148      3668.996    23565531.360    96496914.80845
      2858.953  
  19748258.340   105269325.87609     -1470.297    19748263.540    81876164.42807
     -1143.566  
  22481320.440   119964616.40506       519.430           0.000           0.00000
         0.000  
  20021931.480   106991131.39109      2092.195    20021935.780    83215341.80008
      1627.262  
  22601982.740   120820548.29606     -3162.238    22601988.720    93971560.75506
     -2459.523  
  19933077.140   106591125.15308       490.633    19933081.300    82904224.32008
       381.598  
  21218172.680   113502916.99808     -2741.910    21218179.060    88280071.25906
     -2132.602  
  21499496.280   115048150.16208      4058.176    21499500.640    89481912.93707
      3156.359  
 20  5 13  2 53  0.0000000  0 16G27G16G30G 4G21G 7G 8G 9G11R14R 6R15
                                R 5R24R23R17
  20643921.360   108484537.59449     -1113.234    20643922.520    84533410.05949
      -867.461  
  22358254.420   117493419.65148     -2960.449    22358253.420    91553309.96645
     -2306.848  
  23606011.780   124050435.55247      3303.930    23606014.740    96662684.56049
      2574.492  
  24111031.500   126704318.28647     -3682.484    24111033.320    98730637.19145
     -2869.473  
  25305450.100   132981032.45047     -2075.590    25305449.140   103621574.62744
     -1617.344  
  21427310.480   112601278.23748      2070.512    21427309.820    87741252.08649
      1613.383  
  20509780.040   107779623.91749      1292.598    20509782.360    83984131.63449
      1007.219  
  22603126.760   118780231.14548     -2629.316    22603129.240    92556030.40549
     -2048.820  
  23562041.140   123819357.59948      3668.629    23562040.580    96482620.59045
      2858.672  
  19749638.320   105276681.97609     -1472.227    19749643.520    81881885.83207
     -1145.070  
  22480835.360   119962027.92806       515.836           0.000           0.00000
         0.000  
  20019974.460   106980673.70709      2090.754    20019978.780    83207208.04608
      1626.137  
  22604941.500   120836363.85306     -3164.105    22604947.360    93983861.73606
     -2460.977  
  19932620.220   106588681.67908       486.672    19932624.360    82902323.84208
       378.520  
  21220736.840   113516633.49808     -2744.855    21220743.220    88290739.64406
     -2134.891  
  21495705.000   115027862.39008      4056.750    21495709.380    89466133.56807
      3155.250  
 20  5 13  2 53  5.0000000  0 16G27G16G30G 4G21G 7G 8G 9G11R14R 6R15
                                R 5R24R23R17
  20644982.200   108490112.26149     -1116.641    20644983.340    84537753.95849
      -870.113  
  22361071.620   117508224.08948     -2961.500    22361070.660    91564845.89045
     -2307.668  
  23602868.660   124033918.16747      3302.934    23602871.580    96649813.87449
      2573.715  
  24114535.660   126722732.72647     -3683.293    24114537.500    98744986.10045
     -2870.105  
  25307425.940   132991415.73047     -2077.699    25307425.020   103629665.49644
     -1618.992  
  21425341.400   112590930.72548      2068.215    21425340.760    87733189.08449
      1611.594  
  20508551.720   107773169.11049      1289.172    20508554.040    83979101.91649
      1004.551  
  22605629.680   118793383.96148     -2631.727    22605632.120    92566279.34649
     -2050.699  
  23558550.980   123801016.70848      3667.477    23558550.440    96468328.98945
      2857.770  
  19751020.520   105284049.75409     -1474.840    19751025.680    81887616.32407
     -1147.137  
  22480354.260   119959460.74206       510.938           0.000           0.00000
         0.000  
  20018019.120   106970225.04309      2088.629    20018023.460    83199081.30708
      1624.488  
  22607902.540   120852191.88707     -3167.195    22607908.320    93996172.41806
     -2463.379  
  19932167.520   106586260.73408       481.555    19932171.600    82900440.88408
       374.539  
  21223304.180   113530367.03108     -2748.816    21223310.580    88301421.27706
     -2137.973  
  21491915.620   115007584.63408      4054.145    21491920.000    89450361.98807
      3153.223  
 20  5 13  2 53 10.0000000  0 16G27G16G30G 4G21G 7G 8G 9G11R14R 6R15
                                R 5R24R23R17
  20646046.080   108495703.08349     -1120.145    20646047.240    84542110.44049
      -872.844  
  22363889.760   117523033.51048     -2962.699    22363888.780    91576385.69245
     -2308.602  
  23599726.360   124017405.11947      3301.809    23599729.240    96636946.56849
      2572.836  
  24118040.400   126741149.84147     -3683.785    24118042.140    98759337.08845
     -2870.484  
  25309403.740   133001809.14047     -2079.922    25309402.840   103637764.25945
     -1620.723  
  21423374.240   112580593.32248      2066.227    21423373.640    87725133.96649
      1610.043  
  20507326.380   107766729.91849      1286.020    20507328.700    83974084.36349
      1002.090  
  22608134.720   118806547.81748     -2634.145    22608137.100    92576536.89249
     -2052.586  
  23555061.620   123782680.09448      3666.523    23555061.060    96454040.71445
      2857.031  
  19752405.040   105291429.94709     -1477.602    19752410.180    81893356.46907
     -1149.250  
  22479877.300   119956915.67006       506.430           0.000           0.00000
         0.000  
  20016065.640   106959786.14409      2086.563    20016069.940    83190962.16608
      1622.883  
  22610866.060   120868033.18306     -3169.789    22610871.780    94008493.41306
     -2465.395  
  19931719.200   106583863.23408       476.879    19931723.260    82898576.16208
       370.902  
  21225874.860   113544118.39008     -2752.410    21225881.260    88312116.77606
     -2140.766  
  21488128.260   114987317.76708      4051.988    21488132.640    89434598.87507
      3151.547  
 20  5 13  2 53 15.0000000  0 16G27G16G30G 4G21G 7G 8G 9G11R14R 6R15
                                R 5R24R23R17
  20647113.300   108501311.39649     -1123.090    20647114.460    84546480.55449
      -875.141  
  22366709.100   117537849.27048     -2963.531    22366708.100    91587930.43045
     -2309.250  
  23596585.140   124000897.82847      3301.094    23596588.000    96624083.74649
      2572.281  
  24121545.840   126759570.97947     -3684.293    24121547.600    98773691.21245
     -2870.883  
  25311383.700   133012214.09147     -2081.789    25311382.860   103645872.00144
     -1622.172  
  21421409.280   112570267.44048      2064.121    21421408.680    87717087.82649
      1608.402  
  20506104.300   107760307.82349      1282.902    20506106.620    83969080.13849
       999.664  
  22610642.120   118819724.05348     -2636.520    22610644.440    92586804.08549
     -2054.434  
  23551573.340   123764349.11748      3665.742    23551572.780    96439756.84645
      2856.418  
  19753792.180   105298824.08009     -1480.023    19753797.300    81899107.45507
     -1151.133  
  22479404.700   119954394.14006       502.102           0.000           0.00000
         0.000  
  20014114.220   106949358.44609      2084.723    20014118.540    83182851.73508
      1621.445  
  22613832.320   120883889.23006     -3172.160    22613837.980    94020825.87806
     -2467.238  
  19931275.540   106581490.62108       472.199    19931279.560    82896730.79708
       367.266  
  21228449.100   113557889.00408     -2755.824    21228455.540    88322827.25406
     -2143.422  
  21484343.200   114967063.15408      4050.055    21484347.580    89418845.30007
      3150.043  
 20  5 13  2 53 20.0000000  0 16G27G16G30G 4G21G 7G 8G 9G11R14R 6R15
                                R 5R24R23R17
  20648183.700   108506936.43349     -1126.609    20648184.860    84550863.70249
      -877.883  
  22369529.500   117552670.54948     -2964.727    22369528.540    91599479.48045
     -2310.180  
  23593444.840   123984395.45147      3300.195    23593447.680    96611224.75749
      2571.582  
  24125051.900   126777995.29747     -3685.105    24125053.720    98788047.80445
     -2871.516  
  25313365.720   133022629.84247     -2084.230    25313364.900   103653988.16345
     -1624.074  
  21419446.360   112559952.26248      2062.016    21419445.760    87709050.02349
      1606.762  
  20504885.280   107753901.95349      1279.668    20504887.620    83964088.55149
       997.141  
  22613151.700   118832911.81748     -2638.691    22613153.960    92597080.26149
     -2056.129  
  23548085.980   123746022.93848      3664.891    23548085.380    96425476.71245
      2855.758  
  19755181.760   105306231.28909     -1482.715    19755186.880    81904868.61507
     -1153.227  
  22478936.400   119951895.08706       497.613           0.000           0.00000
         0.000  
  20012164.740   106938941.13409      2082.508    20012169.080    83174749.38308
      1619.727  
  22616801.240   120899758.98807     -3174.789    22616806.720    94033169.01106
     -2469.285  
  19930836.360   106579141.97908       467.395    19930840.320    82894904.07308
       363.523  
  21231026.820   113571678.04108     -2759.609    21231033.260    88333552.06006
     -2146.367  
  21480560.300   114946820.07108      4047.570    21480564.680    89403100.68807
      3148.109  
 20  5 13  2 53 25.0000000  0 16G27G16G30G 4G21G 7G 8G 9G11R14R 6R15
                                R 5R24R23R17
  20649256.760   108512575.48649     -1129.297    20649257.940    84555257.76349
      -879.977  
  22372350.440   117567494.70248     -2965.359    22372349.520    91611030.75845
     -2310.672  
  23590305.000   123967895.37247      3299.891    23590307.820    96598367.55749
      2571.340  
  24128558.060   126796420.19747     -3685.211    24128559.840    98802404.85745
     -2871.598  
  25315349.260   133033053.55547     -2085.629    25315348.460   103662110.52845
     -1625.168  
  21417485.000   112549645.16248      2060.594    21417484.380    87701018.51949
      1605.656  
  20503668.860   107747509.63149      1277.035    20503671.200    83959107.52049
       995.094  
  22615662.960   118846108.51248     -2640.422    22615665.180    92607363.39549
     -2057.477  
  23544599.040   123727698.96548      3664.590    23544598.480    96411198.28645
      2855.523  
  19756573.280   105313648.83609     -1484.688    19756578.420    81910637.81607
     -1154.762  
  22478471.800   119949416.15406       493.578           0.000           0.00000
         0.000  
  20010216.740   106928531.54609      2081.008    20010221.060    83166653.03608
      1618.559  
  22619772.140   120915639.91007     -3177.430    22619777.580    94045520.83306
     -2471.340  
  19930401.160   106576814.68909       463.332    19930405.100    82893093.96508
       360.371  
  21233607.480   113585482.85608     -2762.566    21233613.940    88344289.13406
     -2148.668  
  21476779.080   114926585.76408      4045.730    21476783.400    89387362.90407
      3146.680  
 20  5 13  2 53 30.0000000  0 16G27G16G30G 4G21G 7G 8G 9G11R14R 6R15
                                R 5R24R23R17
  20650333.060   108518231.39449     -1133.313    20650334.220    84559664.96649
      -883.105  
  22375172.500   117582324.54848     -2967.004    22375171.580    91622586.46945
     -2311.953  
  23587166.140   123951400.42347      3297.969    23587168.920    96585514.35149
      2569.848  
  24132064.860   126814848.38247     -3685.918    24132066.700    98816764.45345
     -2872.152  
  25317334.880   133043488.13447     -2088.422    25317334.100   103670241.35944
     -1627.344  
  21415525.700   112539348.97648      2057.676    21415525.080    87692995.51549
      1603.379  
  20502455.560   107741133.66749      1273.016    20502457.900    83954139.23949
       991.957  
  22618176.460   118859316.89948     -2643.563    22618178.620    92617655.64549
     -2059.922  
  23541113.060   123709380.04048      3662.820    23541112.520    96396923.80745
      2854.145  
  19757967.300   105321079.73909     -1487.969    19757972.420    81916417.40107
     -1157.313  
  22478011.540   119946960.08106       488.660           0.000           0.00000
         0.000  
  20008270.700   106918132.48509      2078.293    20008275.020    83158564.87508
      1616.449  
  22622745.660   120931534.79806     -3180.832    22622751.040    94057883.52006
     -2473.984  
  19929970.500   106574511.61208       457.738    19929974.420    82891302.67808
       356.020  
  21236191.580   113599306.08608     -2767.090    21236198.040    88355040.53506
     -2152.184  
  21473000.020   114906363.18108      4042.887    21473004.320    89371634.23207
      3144.469  
 20  5 13  2 53 35.0000000  0 16G27G16G30G 4G21G 7G 8G 9G11R14R 6R15
                                R 5R24R23R17
  20651412.460   108523903.74749     -1136.016    20651413.640    84564084.97649
      -885.211  
  22377995.520   117597159.65848     -2967.285    22377994.640    91634146.28645
     -2312.176  
  23584028.180   123934910.22747      3297.402    23584030.940    96572664.85249
      2569.406  
  24135572.220   126833279.52047     -3686.117    24135574.080    98831126.38145
     -2872.305  
  25319322.460   133053933.13047     -2090.000    25319321.700   103678380.33945
     -1628.570  
  21413568.400   112529063.26648      2056.230    21413567.780    87684980.67449
      1602.254  
  20501245.300   107734773.73449      1270.535    20501247.660    83949183.45149
       990.023  
  22620692.100   118872536.57448     -2644.879    22620694.200    92627956.68249
     -2060.949  
  23537627.960   123691065.70648      3662.770    23537627.400    96382652.90145
      2854.105  
  19759363.720   105328523.46809     -1489.914    19759368.840    81922206.96407
     -1158.824  
  22477555.440   119944526.42806       484.602           0.000           0.00000
         0.000  
  20006326.560   106907743.71309      2076.949    20006330.900    83150484.72408
      1615.406  
  22625721.740   120947443.25607     -3182.848    22625727.040    94070256.75806
     -2475.551  
  19929544.280   106572232.23708       453.668    19929548.140    82889529.83408
       352.852  
  21238779.100   113613147.43108     -2769.879    21238785.560    88365806.02606
     -2154.355  
  21469223.080   114886151.93708      4041.324    21469227.380    89355914.38507
      3143.254  
 20  5 13  2 53 40.0000000  0 16G27G16G30G 4G21G 7G 8G 9G11R14R 6R15
                                R 5R24R23R17
  20652494.940   108529592.20549     -1139.465    20652496.120    84568517.54249
      -887.898  
  22380819.500   117611999.73648     -2968.836    22380818.620    91645709.97945
     -2313.383  
  23580891.060   123918424.41147      3296.582    23580893.800    96559818.76449
      2568.766  
  24139080.060   126851713.22647     -3687.184    24139081.860    98845490.30345
     -2873.133  
  25321311.960   133064388.15147     -2091.953    25321311.160   103686527.08045
     -1630.098  
  21411613.020   112518787.75148      2053.789    21411612.420    87676973.77949
      1600.352  
  20500038.020   107728429.46949      1267.063    20500040.400    83944239.86849
       987.320  
  22623209.820   118885767.21148     -2647.398    22623211.900    92638266.27249
     -2062.910  
  23534143.680   123672755.72048      3661.449    23534143.140    96368385.37445
      2853.078  
  19760762.500   105335979.63809     -1492.703    19760767.600    81928006.20307
     -1160.996  
  22477103.580   119942114.91506       479.949           0.000           0.00000
         0.000  
  20004384.300   106897364.76809      2074.691    20004388.620    83142412.21108
      1613.645  
  22628700.240   120963364.83706     -3185.773    22628705.500    94082640.20406
     -2477.828  
  19929122.440   106569976.40008       448.754    19929126.280    82887775.29508
       349.027  
  21241369.900   113627006.61408     -2773.828    21241376.380    88376585.38706
     -2157.426  
  21465448.160   114865951.66608      4038.723    21465452.460    89340203.07107
      3141.230  
 20  5 13  2 53 45.0000000  0 16G27G16G30G 4G21G 7G 8G 9G11R14R 6R15
                                R 5R24R23R17
  20653580.460   108535296.63549     -1142.629    20653581.620    84572962.55349
      -890.363  
  22383644.400   117626844.60548     -2969.441    22383643.580    91657277.39945
     -2313.855  
  23577754.780   123901942.92247      3295.891    23577757.460    96546976.04349
      2568.223  
  24142588.360   126870149.42247     -3687.527    24142590.180    98859856.15445
     -2873.402  
  25323303.360   133074853.14547     -2094.141    25323302.540   103694681.61044
     -1631.813  
  21409659.540   112508522.22648      2052.090    21409658.940    87668974.66849
      1599.027  
  20498833.720   107722100.70149      1264.180    20498836.060    83939308.36349
       985.074  
  22625729.600   118899008.69448     -2649.578    22625731.640    92648584.30549
     -2064.609  
  23530660.240   123654449.98548      3660.598    23530659.660    96354121.17945
      2852.414  
  19762163.600   105343448.20109     -1495.066    19762168.680    81933815.08107
     -1162.832  
  22476655.820   119939725.40806       475.953           0.000           0.00000
         0.000  
  20002443.840   106886995.54309      2072.762    20002448.160    83134347.25908
      1612.148  
  22631681.180   120979299.46907     -3188.469    22631686.400    94095033.79206
     -2479.926  
  19928704.940   106567743.89309       444.191    19928708.780    82886038.90108
       345.480  
  21243964.060   113640883.28908     -2777.203    21243970.480    88387378.35806
     -2160.051  
  21461675.320   114845762.35608      4036.758    21461679.600    89324500.28307
      3139.699  
 20  5 13  2 53 50.0000000  0 16G27G16G30G 4G21G 7G 8G 9G11R14R 6R15
                                R 5R24R23R17
  20654669.240   108541018.27949     -1145.566    20654670.400    84577420.97649
      -892.652  
  22386470.420   117641695.51948     -2970.199    22386469.640    91668849.53845
     -2314.445  
  23574619.540   123885466.97547      3295.152    23574622.180    96534137.64949
      2567.652  
  24146097.380   126888589.30747     -3687.816    24146099.120    98874224.89245
     -2873.629  
  25325296.880   133085329.33447     -2096.234    25325296.080   103702844.89545
     -1633.434  
  21407708.220   112498268.06748      2050.293    21407707.640    87660984.41749
      1597.633  
  20497632.600   107715788.73149      1261.254    20497634.940    83934389.94749
       982.797  
  22628251.660   118912262.20448     -2651.324    22628253.660    92658911.71049
     -2065.973  
  23527177.820   123636149.74248      3660.031    23527177.200    96339861.24545
      2851.973  
  19763567.220   105350930.37309     -1497.270    19763572.340    81939634.54007
     -1164.547  
  22476212.360   119937359.17806       471.422           0.000           0.00000
         0.000  
  20000505.440   106876637.33509      2070.977    20000509.760    83126290.87808
      1610.758  
  22634664.780   120995248.32307     -3190.453    22634669.980    94107438.45006
     -2481.469  
  19928292.060   106565535.91808       439.719    19928295.860    82884321.59108
       342.004  
  21246561.700   113654778.99408     -2780.539    21246568.140    88398186.12506
     -2162.645  
  21457904.740   114825585.21308      4034.699    21457909.000    89308806.96207
      3138.098  
 20  5 13  2 53 55.0000000  0 16G27G16G30G 4G21G 7G 8G 9G11R14R 6R15
                                R 5R24R23R17
  20655760.480   108546752.84149     -1148.551    20655761.660    84581889.46349
      -894.980  
  22389296.800   117656548.23848     -2971.258    22389296.040    91680423.08545
     -2315.270  
  23571484.540   123868992.31047      3294.238    23571487.120    96521300.24449
      2566.934  
  24149606.260   126907028.57347     -3687.879    24149608.040    98888593.11645
     -2873.680  
  25327291.700   133095812.41747     -2097.672    25327291.020   103711013.52544
     -1634.551  
  21405758.280   112488020.97748      2048.215    21405757.680    87652999.67349
      1596.012  
  20496433.840   107709489.16349      1258.250    20496436.180    83929481.19249
       980.453  
  22630775.180   118925523.45948     -2653.543    22630777.180    92669245.15449
     -2067.699  
  23523695.640   123617850.66848      3659.102    23523694.980    96325602.23945
      2851.246  
  19764972.620   105358421.83209     -1499.727    19764977.700    81945461.22807
     -1166.457  
  22475772.400   119935011.74806       467.477           0.000           0.00000
         0.000  
  19998568.280   106866285.74209      2069.113    19998572.600    83118239.63708
      1609.305  
  22637650.220   121011207.08607     -3193.203    22637655.400    94119850.81006
     -2483.609  
  19927882.960   106563348.19908       435.008    19927886.740    82882620.02808
       338.336  
  21249162.040   113668689.14008     -2783.980    21249168.520    88409005.12706
     -2165.320  
  21454135.620   114805415.89608      4032.492    21454139.880    89293119.71707
      3136.383  
 20  5 13  2 54  0.0000000  0 16G27G16G30G 4G21G 7G 8G 9G11R14R 6R15
                                R 5R24R23R17
  20656855.060   108552504.86449     -1152.230    20656856.200    84586371.55849
      -897.844  
  22392124.380   117671407.23248     -2972.441    22392123.640    91692001.51845
     -2316.191  
  23568350.660   123852523.47347      3293.199    23568353.200    96508467.39049
      2566.129  
  24153115.920   126925471.76647     -3689.305    24153117.660    98902964.44545
     -2874.781  
  25329288.700   133106306.94747     -2100.363    25329288.140   103719191.07444
     -1636.652  
  21403810.520   112477785.48748      2045.898    21403809.920    87645023.96949
      1594.203  
  20495238.320   107703206.67149      1254.809    20495240.660    83924585.74849
       977.773  
  22633301.080   118938797.01948     -2656.172    22633303.020    92679588.18449
     -2069.750  
  23520214.520   123599557.34048      3658.082    23520213.900    96311347.69445
      2850.449  
  19766380.620   105365927.24309     -1502.434    19766385.720    81951298.76607
     -1168.563  
  22475336.840   119932687.92206       462.105           0.000           0.00000
         0.000  
  19996633.240   106855945.47509      2066.867    19996637.560    83110197.21008
      1607.559  
  22640638.320   121027180.29406     -3196.316    22640643.500    94132274.40906
     -2486.027  
  19927478.480   106561185.38308       430.148    19927482.280    82880937.83808
       334.555  
  21251765.960   113682618.39108     -2787.816    21251772.420    88419838.98706
     -2168.301  
  21450368.800   114785259.02008      4030.113    21450373.060    89277442.15607
      3134.531  
 20  5 13  2 54  5.0000000  0 16G27G16G30G 4G21G 7G 8G 9G11R14R 6R15
                                R 5R24R23R17
  20657952.740   108558273.26149     -1155.445    20657953.900    84590866.41549
      -900.348  
  22394952.960   117686271.43648     -2973.516    22394952.200    91703584.00245
     -2317.027  
  23565217.660   123836059.38947      3292.559    23565220.180    96495638.23949
      2565.629  
  24156626.120   126943917.76847     -3689.617    24156627.800    98917337.92945
     -2875.031  
  25331287.680   133116811.84447     -2102.008    25331287.140   103727376.70745
     -1637.930  
  21401864.780   112467560.56748      2044.012    21401864.180    87637056.49749
      1592.738  
  20494045.880   107696940.25649      1251.699    20494048.200    83919702.82749
       975.348  
  22635829.100   118952081.77548     -2658.168    22635830.980    92689939.94049
     -2071.305  
  23516734.300   123581268.70348      3657.129    23516733.700    96297096.81645
      2849.711  
  19767791.020   105373445.46809     -1504.871    19767796.120    81957146.27007
     -1170.461  
  22474905.620   119930386.63306       457.969           0.000           0.00000
         0.000  
  19994700.120   106845615.50809      2064.828    19994704.440    83102162.78908
      1605.973  
  22643628.940   121043166.93906     -3198.641    22643634.120    94144708.46106
     -2487.836  
  19927078.460   106559046.28008       425.445    19927082.260    82879274.09108
       330.898  
  21254373.260   113696565.67708     -2791.348    21254379.700    88430686.87606
     -2171.047  
  21446604.180   114765113.61008      4027.871    21446608.400    89261773.50707
      3132.789  
 20  5 13  2 54 10.0000000  0 16G27G16G30G 4G21G 7G 8G 9G11R14R 6R15
                                R 5R24R23R17
  20659053.380   108564057.18249     -1158.480    20659054.520    84595373.36449
      -902.715  
  22397782.360   117701139.99448     -2974.156    22397781.640    91715169.88145
     -2317.527  
  23562085.440   123819599.30447      3291.363    23562087.920    96482812.19549
      2564.695  
  24160136.660   126962365.74947     -3689.863    24160138.400    98931712.96045
     -2875.223  
  25333288.480   133127326.32747     -2104.078    25333287.960   103735569.79844
     -1639.547  
  21399920.900   112457345.39848      2041.906    21399920.300    87629096.62749
      1591.094  
  20492856.320   107690689.06649      1248.563    20492858.640    83914831.77649
       972.902  
  22638359.080   118965376.88948     -2660.262    22638360.920    92700299.76949
     -2072.934  
  23513254.820   123562983.90948      3656.543    23513254.240    96282848.92745
      2849.254  
  19769203.660   105380975.69809     -1507.367    19769208.780    81963003.11007
     -1172.402  
  22474478.460   119928106.78006       453.844           0.000           0.00000
         0.000  
  19992768.760   106835294.87109      2063.035    19992773.060    83094135.62608
      1604.578  
  22646621.900   121059166.09207     -3200.980    22646627.080    94157152.23306
     -2489.656  
  19926682.760   106556930.14709       420.867    19926686.540    82877628.21008
       327.340  
  21256983.740   113710530.08108     -2794.582    21256990.200    88441548.08106
     -2173.566  
  21442841.540   114744978.79708      4025.801    21442845.720    89246113.10807
      3131.180  
 20  5 13  2 54 15.0000000  0 16G27G16G30G 4G21G 7G 8G 9G11R14R 6R15
                                R 5R24R23R17
  20660157.280   108569858.25549     -1162.043    20660158.420    84599893.67749
      -905.492  
  22400612.900   117716014.56448     -2975.398    22400612.200    91726760.45746
     -2318.492  
  23558954.260   123803144.75047      3290.277    23558956.700    96469990.46949
      2563.852  
  24163647.900   126980817.32947     -3690.703    24163649.680    98946090.81945
     -2875.875  
  25335291.440   133137851.94747     -2106.309    25335290.860   103743771.56445
     -1641.285  
  21397979.180   112447141.60948      2039.680    21397978.560    87621145.62349
      1589.355  
  20491669.940   107684454.64449      1245.180    20491672.260    83909973.78349
       970.270  
  22640891.340   118978683.95048     -2662.500    22640893.140    92710668.89949
     -2074.680  
  23509776.380   123544704.64148      3655.320    23509775.800    96268605.33545
      2848.301  
  19770618.860   105388519.46309     -1510.090    19770623.960    81968870.48007
     -1174.520  
  22474055.660   119925850.22206       449.145           0.000           0.00000
         0.000  
  19990839.460   106824985.26609      2060.715    19990843.760    83086117.04708
      1602.777  
  22649617.500   121075179.39207     -3203.707    22649622.720    94169607.00906
     -2491.777  
  19926291.640   106554838.54609       415.973    19926295.420    82876001.41108
       323.531  
  21259597.740   113724513.20308     -2798.477    21259604.200    88452423.84506
     -2176.594  
  21439081.120   114724856.17708      4023.246    21439085.320    89230462.19007
      3129.191  
 20  5 13  2 54 20.0000000  0 16G27G16G30G 4G21G 7G 8G 9G11R14R 6R15
                                R 5R24R23R17
  20661263.860   108575673.30949     -1164.449    20661264.980    84604424.88649
      -907.367  
  22403443.980   117730892.00048     -2975.898    22403443.340    91738353.26145
     -2318.883  
  23555823.560   123786692.68247      3290.098    23555825.980    96457170.68049
      2563.711  
  24167159.220   126999269.35147     -3690.559    24167160.960    98960468.99145
     -2875.770  
  25337295.940   133148385.54247     -2107.617    25337295.440   103751979.55445
     -1642.305  
  21396039.040   112436946.06848      2038.070    21396038.420    87613201.04749
      1588.102  
  20490486.140   107678233.74949      1242.656    20490488.460    83905126.33849
       968.305  
  22643425.260   118991999.82148     -2664.355    22643427.040    92721044.89649
     -2076.125  
  23506298.420   123526427.77848      3655.066    23506297.840    96254363.62745
      2848.105  
  19772036.020   105396073.64609     -1511.992    19772041.120    81974745.95207
     -1175.996  
  22473636.560   119923613.71706       445.355           0.000           0.00000
         0.000  
  19988911.620   106814683.51609      2059.406    19988915.940    83078104.57708
      1601.758  
  22652615.160   121091203.65607     -3206.059    22652620.380    94182070.32006
     -2493.605  
  19925904.500   106552768.34809       411.711    19925908.280    82874391.25508
       320.215  
  21262214.660   113738511.88808     -2801.316    21262221.100    88463311.70506
     -2178.801  
  21435322.440   114704742.70008      4021.699    21435326.620    89214818.38007
      3127.988  
 20  5 13  2 54 25.0000000  0 16G27G16G30G 4G21G 7G 8G 9G11R14R 6R15
                                R 5R24R23R17
  20662373.660   108581505.31349     -1168.141    20662374.760    84608969.30749
      -910.242  
  22406276.160   117745775.20648     -2977.109    22406275.580    91749950.55445
     -2319.828  
  23552693.880   123770245.97447      3288.754    23552696.240    96444355.06949
      2562.664  
  24170671.180   127017724.70247     -3691.273    24170672.920    98974849.77245
     -2876.320  
  25339302.460   133158930.03447     -2109.961    25339302.040   103760196.03845
     -1644.125  
  21394101.020   112426761.70948      2035.754    21394100.380    87605265.18349
      1586.301  
  20489305.500   107672029.38949      1239.313    20489307.800    83900291.77249
       965.699  
  22645961.420   119005327.40848     -2666.656    22645963.180    92731430.02749
     -2077.918  
  23502821.440   123508156.23548      3653.953    23502820.900    96240126.06445
      2847.234  
  19773455.700   105403641.18209     -1514.758    19773460.760    81980631.80507
     -1178.148  
  22473221.660   119921400.11306       440.418           0.000           0.00000
         0.000  
  19986985.780   106804392.54209      2057.176    19986990.100    83070100.48608
      1600.027  
  22655615.380   121107241.77107     -3208.762    22655620.640    94194544.40106
     -2495.707  
  19925521.960   106550722.52109       406.809    19925525.700    82872800.06008
       316.402  
  21264835.000   113752528.99908     -2805.121    21264841.460    88474213.90406
     -2181.766  
  21431566.000   114684641.29008      4019.195    21431570.180    89199183.96007
      3126.039  
 20  5 13  2 54 30.0000000  0 16G27G16G30G 4G21G 7G 8G 9G11R14R 6R15
                                R 5R24R23R17
  20663486.600   108587353.91549     -1171.566    20663487.700    84613526.65949
      -912.914  
  22409109.400   117760663.86548     -2978.344    22409108.740    91761552.10045
     -2320.793  
  23549565.180   123753804.39248      3287.617    23549567.500    96431543.45149
      2561.781  
  24174183.700   127036183.10847     -3692.242    24174185.400    98989232.94246
     -2877.074  
  25341310.980   133169485.12747     -2112.090    25341310.660   103768420.78945
     -1645.789  
  21392165.060   112416588.19748      2033.574    21392164.420    87597337.77349
      1584.602  
  20488127.960   107665841.32249      1235.746    20488130.240    83895469.90249
       962.918  
  22648499.740   119018666.38048     -2668.980    22648501.460    92741824.03149
     -2079.730  
  23499345.420   123489889.74048      3652.672    23499344.900    96225892.43345
      2846.238  
  19774877.840   105411221.87409     -1517.547    19774882.880    81986527.89407
     -1180.316  
  22472811.080   119919209.26406       436.148           0.000           0.00000
         0.000  
  19985061.940   106794112.12409      2054.879    19985066.280    83062104.60808
      1598.238  
  22658618.160   121123293.41007     -3211.656    22658623.440    94207028.99806
     -2497.957  
  19925143.880   106548700.76809       401.949    19925147.640    82871227.58408
       312.625  
  21267458.760   113766564.42308     -2808.895    21267465.240    88485130.34906
     -2184.695  
  21427811.760   114664551.59808      4016.582    21427815.940    89183558.64907
      3124.008  
 20  5 13  2 54 35.0000000  0 16G27G16G30G 4G21G 7G 8G 9G11R14R 6R15
                                R 5R24R23R17
  20664602.600   108593218.54049     -1174.641    20664603.700    84618096.49449
      -915.309  
  22411943.560   117775557.40048     -2979.246    22411942.860    91773157.45245
     -2321.496  
  23546437.320   123737367.31447      3286.734    23546439.620    96418735.34249
      2561.090  
  24177696.700   127054643.99347     -3692.609    24177698.440    99003618.03945
     -2877.363  
  25343321.420   133180050.26047     -2114.121    25343321.120   103776653.34645
     -1647.371  
  21390231.100   112406425.00848      2031.309    21390230.420    87589418.40749
      1582.832  
  20486953.420   107659669.04349      1232.781    20486955.700    83890660.33249
       960.609  
  22651040.120   119032016.20148     -2671.156    22651041.820    92752226.48549
     -2081.426  
  23495870.280   123471627.70048      3651.844    23495869.740    96211662.28545
      2845.594  
  19776302.320   105418815.06809     -1520.027    19776307.360    81992433.70807
     -1182.246  
  22472404.740   119917040.70306       431.441           0.000           0.00000
         0.000  
  19983139.980   106783841.81209      2053.023    19983144.320    83054116.58908
      1596.793  
  22661623.420   121139358.05207     -3214.250    22661628.620    94219523.71706
     -2499.977  
  19924770.220   106546702.59709       397.262    19924773.960    82869673.44908
       308.977  
  21270085.820   113780617.41208     -2812.457    21270092.300    88496060.45206
     -2187.469  
  21424059.620   114644473.18008      4014.441    21424063.780    89167942.10707
      3122.344  
 20  5 13  2 54 40.0000000  0 16G27G16G30G 4G21G 7G 8G 9G11R14R 6R15
                                R 5R24R23R17
  20665721.520   108599098.52849     -1177.664    20665722.620    84622678.30149
      -917.664  
  22414778.480   117790455.14448     -2980.148    22414777.780    91784766.07445
     -2322.199  
  23543310.180   123720934.11947      3286.203    23543312.460    96405930.25549
      2560.680  
  24181210.060   127073106.64047     -3692.906    24181211.800    99018004.50345
     -2877.594  
  25345333.640   133190624.76147     -2116.055    25345333.340   103784893.22045
     -1648.879  
  21388298.940   112396271.44248      2029.715    21388298.260    87581506.55449
      1581.598  
  20485781.740   107653511.81849      1229.922    20485784.020    83885862.50049
       958.379  
  22653582.420   119045376.16748     -2673.152    22653584.120    92762636.84649
     -2082.980  
  23492395.820   123453369.48748      3651.234    23492395.280    96197435.10345
      2845.117  
  19777729.020   105426420.03309     -1522.402    19777734.060    81998348.67407
     -1184.094  
  22472002.340   119914893.46706       427.082           0.000           0.00000
         0.000  
  19981219.720   106773580.72209      2051.145    19981224.120    83046135.73908
      1595.332  
  22664630.980   121155434.98007     -3217.070    22664636.160    94232027.98706
     -2502.168  
  19924400.800   106544727.18209       392.637    19924404.540    82868137.01908
       305.379  
  21272716.040   113794687.36408     -2815.688    21272722.540    88507003.74306
     -2189.984  
  21420309.440   114624405.35308      4012.336    21420313.640    89152333.80607
      3120.707  
 20  5 13  2 54 45.0000000  0 16G27G16G30G 4G21G 7G 8G 9G11R14R 6R15
                                R 5R24R23R17
  20666843.820   108604996.27549     -1180.906    20666844.920    84627273.94849
      -920.191  
  22417614.700   117805359.50548     -2981.301    22417613.960    91796379.85145
     -2323.094  
  23540184.260   123704507.23047      3285.211    23540186.520    96393130.09249
      2559.906  
  24184724.180   127091573.45547     -3693.551    24184725.920    99032394.20445
     -2878.098  
  25347348.140   133201211.00147     -2118.051    25347347.840   103793142.21445
     -1650.438  
  21386369.080   112386129.95448      2027.559    21386368.400    87573604.10049
      1579.914  
  20484613.380   107647371.96149      1226.828    20484615.640    83881078.19849
       955.965  
  22656127.100   119058748.66648     -2675.266    22656128.820    92773056.97349
     -2084.625  
  23488922.600   123435117.53248      3650.266    23488922.020    96183212.80945
      2844.363  
  19779158.400   105434039.31309     -1524.703    19779163.400    82004274.78107
     -1185.883  
  22471604.500   119912770.21006       422.770           0.000           0.00000
         0.000  
  19979301.680   106763331.33809      2049.160    19979306.080    83038163.99808
      1593.793  
  22667641.280   121171526.54807     -3219.453    22667646.420    94244543.64006
     -2504.023  
  19924036.100   106542777.02409       387.992    19924039.860    82866620.22708
       301.730  
  21275349.860   113808776.60008     -2819.449    21275356.380    88517962.03806
     -2192.910  
  21416561.700   114604350.48808      4010.313    21416565.880    89136735.58807
      3119.133  
 20  5 13  2 54 50.0000000  0 16G27G16G30G 4G21G 7G 8G 9G11R14R 6R15
                                R 5R24R23R17
  20667968.780   108610907.94649     -1183.648    20667969.860    84631880.44549
      -922.328  
  22420451.440   117820266.61448     -2981.727    22420450.640    91807995.78645
     -2323.422  
  23537058.800   123688082.83547      3284.574    23537061.060    96380331.87249
      2559.410  
  24188238.360   127110040.63547     -3693.270    24188240.180    99046784.22045
     -2877.875  
  25349364.120   133211805.17847     -2119.738    25349363.920   103801397.42345
     -1651.746  
  21384440.780   112375996.73748      2025.883    21384440.100    87565708.08249
      1578.605  
  20483447.620   107641245.86649      1223.902    20483449.880    83876304.62249
       953.688  
  22658673.460   119072129.87848     -2677.121    22658675.160    92783483.88849
     -2086.074  
  23485449.820   123416868.03748      3649.816    23485449.260    96168992.42945
      2844.008  
  19780589.720   105441668.93909     -1526.945    19780594.720    82010208.93107
     -1187.586  
  22471210.400   119910667.02206       418.500           0.000           0.00000
         0.000  
  19977385.100   106753089.86009      2047.570    19977389.540    83030198.40208
      1592.555  
  22670653.580   121187628.89507     -3221.660    22670658.700    94257067.68006
     -2505.738  
  19923675.400   106540848.23909       383.656    19923679.160    82865120.06308
       298.395  
  21277986.580   113822881.23408     -2822.391    21277993.080    88528932.30906
     -2195.195  
  21412815.680   114584304.87708      4008.465    21412819.880    89121144.56607
      3117.695  
 20  5 13  2 54 55.0000000  0 16G27G16G30G 4G21G 7G 8G 9G11R14R 6R15
                                R 5R24R23R17
  20669096.840   108616835.98349     -1187.680    20669097.920    84636499.69949
      -925.469  
  22423289.160   117835178.93648     -2983.195    22423288.360    91819615.75945
     -2324.574  
  23533934.280   123671663.33247      3283.152    23533936.500    96367537.45149
      2558.297  
  24191753.060   127128510.54847     -3694.348    24191754.940    99061176.33645
     -2878.719  
  25351382.100   133222409.77447     -2122.039    25351381.940   103809660.74345
     -1653.539  
  21382514.520   112365874.24148      2023.164    21382513.840    87557820.42949
      1576.488  
  20482284.940   107635135.77149      1220.250    20482287.160    83871543.50949
       950.840  
  22661221.940   119085522.21048     -2679.797    22661223.640    92793919.46749
     -2088.156  
  23481977.960   123398623.39448      3648.367    23481977.380    96154775.82345
      2842.883  
  19782023.480   105449311.45809     -1530.035    19782028.460    82016153.10507
     -1190.031  
  22470820.500   119908586.42506       413.641           0.000           0.00000
         0.000  
  19975470.520   106742858.76709      2044.906    19975474.940    83022240.88808
      1590.480  
  22673668.440   121203744.57107     -3224.746    22673673.460    94269602.08406
     -2508.141  
  19923319.160   106538943.24509       378.336    19923322.920    82863638.39908
       294.258  
  21280626.660   113837003.75808     -2826.477    21280633.140    88539916.49906
     -2198.371  
  21409071.820   114564270.88608      4005.316    21409076.040    89105562.58107
      3115.246  
 20  5 13  2 55  0.0000000  0 16G27G16G30G 4G21G 7G 8G 9G11R14R 6R15
                                R 5R24R23R17
  20670228.040   108622780.46649     -1190.703    20670229.120    84641131.75549
      -927.824  
  22426127.900   117850096.54448     -2984.094    22426127.100    91831239.86345
     -2325.273  
  23530810.740   123655248.87147      3282.523    23530812.920    96354746.97249
      2557.809  
  24195268.340   127146983.31447     -3694.992    24195270.220    99075570.68945
     -2879.219  
  25353402.080   133233024.87247     -2124.227    25353401.880   103817932.23545
     -1655.246  
  21380590.340   112355762.58648      2021.141    21380589.640    87549941.21549
      1574.910  
  20481125.280   107629041.82449      1217.031    20481127.500    83866794.98149
       948.336  
  22663772.520   119098925.78048     -2681.852    22663774.260    92804363.80149
     -2089.758  
  23478507.060   123380383.77948      3647.168    23478506.520    96140563.14345
      2841.945  
  19783459.620   105456966.93209     -1532.422    19783464.620    82022107.36107
     -1191.887  
  22470434.920   119906528.35506       409.793           0.000           0.00000
         0.000  
  19973557.880   106732638.15309      2043.063    19973562.280    83014291.52108
      1589.043  
  22676685.700   121219873.49607     -3226.945    22676690.700    94282146.79506
     -2509.852  
  19922967.440   106537062.22609       373.805    19922971.160    82862175.38908
       290.738  
  21283270.040   113851144.22508     -2829.898    21283276.580    88550914.63706
     -2201.031  
  21405330.220   114544248.65208      4003.219    21405334.400    89089989.74107
      3113.613  
 20  5 13  2 55  5.0000000  0 16G27G16G30G 4G21G 7G 8G 9G11R14R 6R15
                                R 5R24R23R17
  20671362.200   108628740.46549     -1193.680    20671363.280    84645775.91449
      -930.141  
  22428967.480   117865018.56148     -2984.438    22428966.660    91842867.41146
     -2325.539  
  23527687.960   123638838.55247      3281.828    23527690.120    96341959.71249
      2557.270  
  24198783.940   127165457.99047     -3694.777    24198785.840    99089966.51445
     -2879.055  
  25355423.860   133243649.50347     -2125.762    25355423.760   103826211.17544
     -1656.441  
  21378668.020   112345660.78948      2019.492    21378667.340    87542069.68549
      1573.629  
  20479968.580   107622963.15449      1214.457    20479970.760    83862058.35549
       946.332  
  22666325.080   119112339.61048     -2683.750    22666326.820    92814816.13649
     -2091.238  
  23475036.960   123362148.24848      3646.840    23475036.400    96126353.65046
      2841.691  
  19784898.040   105464634.46109     -1534.516    19784903.020    82028070.99308
     -1193.516  
  22470053.320   119904492.01906       405.344           0.000           0.00000
         0.000  
  19971647.000   106722427.09709      2041.578    19971651.440    83006349.58908
      1587.895  
  22679705.320   121236014.81807     -3229.176    22679710.220    94294701.15006
     -2511.586  
  19922619.960   106535204.22009       369.520    19922623.700    82860730.27108
       287.402  
  21285916.600   113865301.76108     -2832.961    21285923.180    88561926.05206
     -2203.414  
  21401590.640   114524237.33008      4001.496    21401594.800    89074425.38307
      3112.273  
 20  5 13  2 55 10.0000000  0 16G27G16G30G 4G21G 7G 8G 9G11R14R 6R15
                                R 5R24R23R17
  20672499.380   108634716.50249     -1197.184    20672500.480    84650432.56449
      -932.875  
  22431808.000   117879945.47448     -2986.188    22431807.180    91854498.76345
     -2326.902  
  23524566.080   123622432.88048      3280.590    23524568.200    96329176.07649
      2556.305  
  24202300.000   127183935.09747     -3696.016    24202301.940    99104364.26345
     -2880.016  
  25357447.540   133254284.11047     -2128.102    25357447.500   103834497.86345
     -1658.266  
  21376747.740   112335569.45848      2016.871    21376747.020    87534206.31049
      1571.582  
  20478814.860   107616900.35149      1210.625    20478817.040    83857334.09749
       943.344  
  22668879.680   119125764.22948     -2686.141    22668881.440    92825276.87849
     -2093.102  
  23471567.720   123343917.34548      3645.406    23471567.180    96112147.73946
      2840.574  
  19786338.820   105472314.55709     -1537.563    19786343.800    82034044.39508
     -1195.887  
  22469675.900   119902477.76406       400.418           0.000           0.00000
         0.000  
  19969738.040   106712226.11109      2038.930    19969742.480    82998415.49008
      1585.832  
  22682727.360   121252169.01907     -3232.465    22682732.220    94307265.52106
     -2514.145  
  19922276.900   106533369.79109       364.301    19922280.640    82859303.49008
       283.340  
  21288566.440   113879476.74408     -2836.922    21288573.060    88572951.04106
     -2206.496  
  21397853.140   114504237.39408      3998.535    21397857.320    89058869.88407
      3109.973  
 20  5 13  2 55 15.0000000  0 16G27G16G30G 4G21G 7G 8G 9G11R14R 6R15
                                R 5R24R23R17
  20673639.640   108640708.55649     -1199.910    20673640.720    84655101.69349
      -935.000  
  22434649.460   117894877.28448     -2986.770    22434648.620    91866133.94245
     -2327.355  
  23521445.060   123606031.87547      3279.848    23521447.180    96316396.07449
      2555.727  
  24205816.500   127202414.59447     -3695.863    24205818.520    99118763.86245
     -2879.898  
  25359473.160   133264928.67147     -2129.957    25359473.080   103842792.33444
     -1659.707  
  21374829.420   112325488.53448      2015.348    21374828.680    87526351.04549
      1570.398  
  20477664.180   107610853.37449      1207.934    20477666.340    83852622.16949
       941.246  
  22671436.360   119139199.63348     -2688.047    22671438.100    92835746.01649
     -2094.586  
  23468099.400   123325691.10948      3644.852    23468098.860    96097945.48545
      2840.145  
  19787781.940   105480007.11709     -1539.543    19787786.920    82040027.49408
     -1197.426  
  22469302.620   119900485.81106       396.078           0.000           0.00000
         0.000  
  19967830.980   106702035.18409      2037.457    19967835.400    82990489.21208
      1584.688  
  22685751.780   121268336.13007     -3234.469    22685756.620    94319839.93206
     -2515.703  
  19921938.280   106531558.90408       360.031    19921941.980    82857895.02908
       280.023  
  21291219.560   113893669.21108     -2840.188    21291226.180    88583989.62506
     -2209.039  
  21394117.840   114484248.82708      3996.836    21394121.960    89043323.23107
      3108.648  
 20  5 13  2 55 20.0000000  0 16G27G16G30G 4G21G 7G 8G 9G11R14R 6R15
                                R 5R24R23R17
  20674782.620   108646715.06449     -1203.047    20674783.720    84659782.08749
      -937.441  
  22437491.540   117909812.42348     -2987.484    22437490.680    91877771.69945
     -2327.914  
  23518324.660   123589633.97848      3279.254    23518326.760    96303618.50049
      2555.262  
  24209333.180   127220894.92047     -3696.059    24209335.240    99133164.09545
     -2880.051  
  25361500.340   133275581.61847     -2131.605    25361500.360   103851093.31845
     -1660.996  
  21372912.780   112315416.51048      2013.352    21372912.040    87518502.71749
      1568.844  
  20476516.180   107604820.63349      1204.766    20476518.340    83847921.33349
       938.777  
  22673994.760   119152644.21648     -2689.965    22673996.540    92846222.31449
     -2096.082  
  23464631.640   123307467.94648      3644.219    23464631.120    96083745.63045
      2839.652  
  19789227.140   105487710.77409     -1541.984    19789232.120    82046019.22407
     -1199.348  
  22468933.260   119898514.63006       391.934           0.000           0.00000
         0.000  
  19965925.480   106691852.74009      2035.348    19965929.900    82982569.53508
      1583.047  
  22688778.340   121284514.45107     -3237.094    22688783.080    94332423.06006
     -2517.742  
  19921603.720   106529769.96309       355.305    19921607.440    82856503.62608
       276.344  
  21293875.640   113907877.60308     -2843.430    21293882.280    88595040.59606
     -2211.555  
  21390384.300   114464270.11208      3994.441    21390388.460    89027784.23407
      3106.789  
 20  5 13  2 55 25.0000000  0 16G27G16G30G 4G21G 7G 8G 9G11R14R 6R15
                                R 5R24R23R17
  20675928.940   108652738.99849     -1206.227    20675930.040    84664476.06649
      -939.922  
  22440334.820   117924753.88248     -2988.379    22440333.920    91889414.39445
     -2328.609  
  23515205.380   123573242.18247      3278.055    23515207.500    96290845.66849
      2554.324  
  24212850.600   127239379.07947     -3696.938    24212852.620    99147567.34645
     -2880.734  
  25363529.700   133286245.94847     -2133.559    25363529.760   103859403.16945
     -1662.516  
  21370998.400   112305356.39148      2011.156    21370997.660    87510663.66549
      1567.133  
  20475371.460   107598805.03649      1201.664    20475373.600    83843233.85949
       936.363  
  22676555.460   119166101.00348     -2692.340    22676557.280    92856708.11849
     -2097.930  
  23461165.040   123289250.87248      3643.105    23461164.520    96069550.49745
      2838.781  
  19790674.940   105495428.33909     -1544.672    19790679.940    82052021.77008
     -1201.414  
  22468568.220   119896566.94406       387.277           0.000           0.00000
         0.000  
  19964022.140   106681681.84209      2033.246    19964026.560    82974658.83908
      1581.410  
  22691807.540   121300706.93307     -3239.793    22691812.220    94345017.20205
     -2519.844  
  19921273.860   106528006.07209       350.461    19921277.560    82855131.71108
       272.578  
  21296535.300   113922104.93708     -2847.094    21296541.940    88606106.30506
     -2214.410  
  21386653.240   114444304.42108      3992.031    21386657.360    89012255.37207
      3104.914  
 20  5 13  2 55 30.0000000  0 16G27G16G30G 4G21G 7G 8G 9G11R14R 6R15
                                R 5R24R23R17
  20677078.140   108658778.00649     -1209.234    20677079.220    84669181.78249
      -942.266  
  22443178.820   117939699.26648     -2989.223    22443177.980    91901060.14745
     -2329.270  
  23512086.840   123556854.16847      3277.352    23512088.940    96278075.79549
      2553.781  
  24216368.260   127257864.66247     -3697.168    24216370.240    99161971.67645
     -2880.910  
  25365560.780   133296919.33347     -2135.637    25365560.740   103867720.09244
     -1664.137  
  21369085.840   112295305.80448      2009.238    21369085.100    87502832.04349
      1565.641  
  20474229.540   107592804.24349      1198.734    20474231.680    83838557.91949
       934.074  
  22679118.020   119179567.58448     -2694.391    22679119.900    92867201.55149
     -2099.527  
  23457699.140   123271037.56548      3642.348    23457698.700    96055358.32045
      2838.191  
  19792124.920   105503157.48109     -1546.957    19792129.920    82058033.32508
     -1203.191  
  22468207.160   119894640.55206       383.617           0.000           0.00000
         0.000  
  19962120.520   106671520.18809      2031.531    19962124.960    82966755.33208
      1580.078  
  22694838.940   121316911.31607     -3241.754    22694843.560    94357620.60306
     -2521.367  
  19920948.220   106526264.73408       346.063    19920951.920    82853777.33708
       269.156  
  21299198.060   113936348.77908     -2850.266    21299204.700    88617184.84406
     -2216.879  
  21382924.140   114424349.27008      3990.164    21382928.240    88996734.70507
      3103.461  
 20  5 13  2 55 35.0000000  0 15G27G16G30G 4G 7G 8G 9G11R14R 6R15R 5
                                R24R23R17
  20678229.400   108664827.91549     -1211.422    20678230.480    84673895.99749
      -943.969  
  22446022.800   117954644.42648     -2989.055    22446021.920    91912705.71546
     -2329.137  
  23508968.220   123540465.78347      3277.578    23508970.340    96265305.63749
      2553.957  
  24219885.420   127276347.51047     -3696.629    24219887.420    99176373.88944
     -2880.492  
  21367174.300   112285260.63648      2008.379    21367173.560    87495004.63949
      1564.969  
  20473089.680   107586814.21949      1196.613    20473091.800    83833890.36649
       932.426  
  22681681.680   119193039.80548     -2695.156    22681683.600    92877699.38449
     -2100.125  
  23454233.160   123252823.80448      3642.648    23454232.720    96041165.77945
      2838.426  
  19793576.300   105510894.06309     -1548.309    19793581.300    82064050.66008
     -1204.242  
  22467849.360   119892731.27906       379.832           0.000           0.00000
         0.000  
  19960219.840   106661363.45009      2030.664    19960224.280    82958855.64708
      1579.402  
  22697871.760   121333123.34307     -3243.551    22697876.340    94370229.95805
     -2522.766  
  19920626.000   106524541.79309       342.617    19920629.720    82852437.27408
       266.480  
  21301863.080   113950604.83908     -2852.590    21301869.700    88628272.89306
     -2218.684  
  21379196.200   114404400.33108      3989.012    21379200.260    88981218.87307
      3102.566  
 20  5 13  2 55 40.0000000  0 15G27G16G30G 4G 7G 8G 9G11R14R 6R15R 5
                                R24R23R17
  20679384.160   108670896.24949     -1216.117    20679385.240    84678624.57349
      -947.629  
  22448868.180   117969596.92348     -2991.918    22448867.300    91924357.00345
     -2331.367  
  23505850.980   123524084.54447      3274.645    23505853.080    96252541.04249
      2551.672  
  24223403.500   127294835.15347     -3698.574    24223405.580    99190779.84445
     -2882.008  
  21365265.240   112275228.38448      2004.629    21365264.500    87487187.30049
      1561.992  
  20471953.280   107580842.39249      1191.875    20471955.400    83829236.99649
       928.734  
  22684247.820   119206525.16148     -2699.031    22684249.800    92888207.44849
     -2103.145  
  23450768.540   123234617.21648      3640.012    23450768.100    96026978.83045
      2836.371  
  19795030.480   105518645.68409     -1552.473    19795035.520    82070079.69708
     -1207.484  
  22467496.200   119890846.69606       373.656           0.000           0.00000
         0.000  
  19958321.520   106651219.33709      2026.801    19958325.960    82950965.77908
      1576.398  
  22700907.400   121349350.54907     -3247.621    22700911.960    94382851.11005
     -2525.930  
  19920308.660   106522844.82809       336.121    19920312.360    82851117.41308
       261.422  
  21304531.800   113964880.78308     -2857.922    21304538.460    88639376.40306
     -2222.832  
  21375470.880   114384465.44508      3984.938    21375474.940    88965713.96907
      3099.395  
 20  5 13  2 55 45.0000000  0 15G27G16G30G 4G 7G 8G 9G11R14R 6R15R 5
                                R24R23R17
  20680542.620   108676984.00849     -1218.996    20680543.720    84683368.27949
      -949.871  
  22451715.120   117984557.69648     -2992.527    22451714.260    91936014.73245
     -2331.844  
  23502735.280   123507711.48348      3274.215    23502737.360    96239782.81649
      2551.336  
  24226922.680   127313328.55847     -3698.648    24226924.900    99205190.26945
     -2882.066  
  21363358.860   112265210.14348      2002.598    21363358.080    87479380.87849
      1560.461  
  20470820.540   107574889.80649      1188.965    20470822.660    83824598.62149
       926.465  
  22686816.660   119220024.69348     -2701.105    22686818.700    92898726.56049
     -2104.762  
  23447305.480   123216418.81848      3639.406    23447305.100    96012798.26245
      2835.902  
  19796487.700   105526413.29509     -1554.703    19796492.700    82076121.16608
     -1209.219  
  22467147.860   119888987.99706       369.664           0.000           0.00000
         0.000  
  19956425.760   106641088.91909      2025.078    19956430.200    82943086.57008
      1575.063  
  22703946.120   121365594.06507     -3250.277    22703950.620    94395484.94706
     -2527.996  
  19919996.400   106521175.01809       331.691    19920000.080    82849818.67108
       257.977  
  21307204.460   113979177.66908     -2861.066    21307211.100    88650496.20506
     -2225.277  
  21371748.400   114364545.60408      3982.805    21371752.420    88950220.76307
      3097.738  
 20  5 13  2 55 50.0000000  0 15G27G16G30G 4G 7G 8G 9G11R14R 6R15R 5
                                R24R23R17
  20681704.260   108683088.53849     -1222.645    20681705.360    84688125.05449
      -952.715  
  22454563.160   117999524.10648     -2993.953    22454562.320    91947676.88345
     -2332.953  
  23499620.660   123491343.92347      3273.047    23499622.700    96227028.88049
      2550.426  
  24230442.420   127331825.11447     -3700.012    24230444.660    99219603.15845
     -2883.129  
  21361454.620   112255203.17048      2000.184    21361453.800    87471583.23749
      1558.582  
  20469690.940   107568953.82549      1185.410    20469693.080    83819973.18649
       923.691  
  22689387.700   119233535.67348     -2703.457    22689389.760    92909254.59649
     -2106.594  
  23443843.480   123198225.92548      3638.016    23443843.080    95998621.98545
      2834.816  
  19797947.420   105534194.29409     -1557.727    19797952.420    82082173.05208
     -1211.570  
  22466803.840   119887152.24006       364.781           0.000           0.00000
         0.000  
  19954532.040   106630969.46209      2022.555    19954536.480    82935215.88508
      1573.148  
  22706987.400   121381851.05907     -3252.965    22706991.820    94408129.26506
     -2530.086  
  19919688.680   106519529.56209       326.551    19919692.360    82848538.87008
       253.980  
  21309880.500   113993492.68908     -2865.137    21309887.160    88661630.10506
     -2228.445  
  21368028.200   114344638.16408      3980.055    21368032.200    88934737.20507
      3095.598  
 20  5 13  2 55 55.0000000  0 15G27G16G30G 4G 7G 8G 9G11R14R 6R15R 5
                                R24R23R17
  20682868.720   108689207.77549     -1225.305    20682869.820    84692893.29049
      -954.785  
  22457411.880   118014494.11748     -2994.461    22457410.980    91959341.82146
     -2333.352  
  23496506.660   123474979.89847      3272.332    23496508.720    96214277.68949
      2549.867  
  24233962.380   127350322.69947     -3699.625    24233964.600    99234016.85944
     -2882.824  
  21359552.120   112245205.51348      1998.480    21359551.300    87463792.85949
      1557.254  
  20468564.120   107563032.39449      1182.762    20468566.260    83815359.08349
       921.633  
  22691960.520   119247056.08948     -2704.977    22691962.640    92919789.97849
     -2107.777  
  23440382.140   123180036.52948      3637.660    23440381.720    95984448.43445
      2834.539  
  19799409.240   105541986.57709     -1559.625    19799414.240    82088233.71208
     -1213.047  
  22466463.760   119885337.45206       360.910           0.000           0.00000
         0.000  
  19952639.980   106620858.91209      2021.207    19952644.420    82927352.12208
      1572.051  
  22710030.820   121398119.51207     -3254.605    22710035.160    94420782.50006
     -2531.363  
  19919385.140   106517906.40509       322.563    19919388.820    82847276.41308
       250.879  
  21312559.620   114007823.89908     -2867.891    21312566.220    88672776.60206
     -2230.586  
  21364309.980   114324741.04108      3978.492    21364313.900    88919261.67107
      3094.383  
 20  5 13  2 56  0.0000000  0 15G27G16G30G 4G 7G 8G 9G11R14R 6R15R 5
                                R24R23R17
  20684036.080   108695342.27749     -1228.672    20684037.180    84697673.42249
      -957.406  
  22460261.360   118029468.26748     -2995.469    22460260.500    91971009.98245
     -2334.137  
  23493393.420   123458619.92247      3271.199    23493395.520    96201529.66249
      2548.988  
  24237482.640   127368821.88246     -3700.164    24237484.840    99248431.77044
     -2883.254  
  21357651.500   112235217.69848      1996.285    21357650.660    87456010.14649
      1555.547  
  20467440.180   107557126.05249      1179.508    20467442.300    83810756.73949
       919.094  
  22694535.260   119260586.50448     -2707.449    22694537.400    92930333.15149
     -2109.703  
  23436921.580   123161851.23248      3636.289    23436921.200    95970278.08345
      2833.473  
  19800873.280   105549790.68009     -1562.230    19800878.280    82094303.56908
     -1215.070  
  22466127.640   119883543.93106       356.301           0.000           0.00000
         0.000  
  19950749.700   106610757.80709      2019.016    19950754.140    82919495.70708
      1570.340  
  22713076.440   121414399.95207     -3257.629    22713080.760    94433445.05805
     -2533.715  
  19919085.880   106516306.01509       317.609    19919089.520    82846031.66508
       247.027  
  21315241.800   114022171.69408     -2871.617    21315248.420    88683935.99906
     -2233.484  
  21360593.700   114304854.81008      3975.832    21360597.680    88903794.61207
      3092.313  
 20  5 13  2 56  5.0000000  0 15G27G16G30G 4G 7G 8G 9G11R14R 6R15R 5
                                R24R23R17
  20685206.620   108701493.51249     -1232.125    20685207.720    84702466.59249
      -960.102  
  22463111.940   118044448.01648     -2996.586    22463111.040    91982682.50945
     -2335.004  
  23490281.260   123442265.52947      3270.168    23490283.360    96188785.99149
      2548.184  
  24241003.480   127387324.12146     -3700.566    24241005.640    99262849.10344
     -2883.559  
  21355753.060   112225241.19948      1993.844    21355752.180    87448236.25149
      1553.641  
  20466319.380   107551236.31849      1175.969    20466321.540    83806167.33649
       916.340  
  22697112.160   119274128.34248     -2709.902    22697114.360    92940885.22849
     -2111.617  
  23433462.060   123143671.44948      3635.234    23433461.660    95956112.01945
      2832.645  
  19802339.820   105557608.09509     -1565.152    19802344.820    82100383.77308
     -1217.344  
  22465796.000   119881773.71906       351.801           0.000           0.00000
         0.000  
  19948861.480   106600667.70309      2016.703    19948865.920    82911647.84808
      1568.543  
  22716124.580   121430693.78807     -3260.395    22716128.880    94446118.02905
     -2535.867  
  19918791.160   106514730.01209       312.473    19918794.780    82844805.88508
       243.035  
  21317927.380   114036537.64008     -2875.238    21317934.000    88695109.51406
     -2236.297  
  21356879.760   114284980.96508      3973.133    21356883.760    88888337.18907
      3090.215  
 20  5 13  2 56 10.0000000  0 15G27G16G30G 4G 7G 8G 9G11R14R 6R15R 5
                                R24R23R17
  20686380.120   108707660.23549     -1234.430    20686381.200    84707271.82949
      -961.898  
  22465963.340   118059432.18348     -2997.027    22465962.460    91994358.47745
     -2335.352  
  23487169.940   123425915.46847      3270.012    23487172.040    96176045.69149
      2548.063  
  24244524.700   127405828.23446     -3700.266    24244526.760    99277267.88745
     -2883.328  
  21353856.560   112215274.86448      1992.609    21353855.640    87440470.27649
      1552.680  
  20465201.540   107545362.06949      1173.609    20465203.700    83801590.00349
       914.496  
  22699691.020   119287680.34848     -2710.891    22699693.240    92951445.23549
     -2112.387  
  23430003.380   123125496.06648      3634.832    23430002.960    95941949.38445
      2832.332  
  19803808.640   105565437.66809     -1566.816    19803813.660    82106473.43708
     -1218.641  
  22465468.260   119880025.21206       348.418           0.000           0.00000
         0.000  
  19946975.080   106590587.33709      2015.430    19946979.520    82903807.56808
      1567.555  
  22719174.960   121446999.88907     -3262.082    22719179.300    94458800.54605
     -2537.180  
  19918500.780   106513177.19609       308.547    19918504.400    82843598.14108
       239.977  
  21320616.100   114050920.50308     -2877.973    21320622.700    88706296.18706
     -2238.422  
  21353167.940   114265118.35008      3971.789    21353171.920    88872888.49007
      3089.168  
 20  5 13  2 56 15.0000000  0 15G27G16G30G 4G 7G 8G 9G11R14R 6R15R 5
                                R24R23R17
  20687556.220   108713840.70449     -1237.641    20687557.320    84712087.77849
      -964.395  
  22468815.240   118074418.91648     -2997.848    22468814.360    92006036.44545
     -2335.988  
  23484059.080   123409568.00247      3269.059    23484061.220    96163307.41749
      2547.320  
  24248045.940   127424332.39946     -3701.063    24248048.040    99291686.70945
     -2883.949  
  21351961.660   112205316.88748      1990.414    21351960.700    87432710.81549
      1550.895  
  20464086.300   107539501.43049      1170.371    20464088.440    83797023.27249
       911.973  
  22702271.500   119301240.81248     -2713.273    22702273.740    92962011.82449
     -2114.242  
  23426545.200   123107323.26348      3634.133    23426544.800    95927788.76045
      2831.793  
  19805279.380   105573277.53409     -1569.336    19805284.400    82112571.11108
     -1220.598  
  22465144.300   119878296.76106       343.160           0.000           0.00000
         0.000  
  19945090.140   106580514.95209      2013.281    19945094.600    82895973.48408
      1565.883  
  22722227.320   121463316.32107     -3264.621    22722231.660    94471491.09405
     -2539.152  
  19918214.400   106511645.66209       303.840    19918218.000    82842406.94808
       236.316  
  21323307.620   114065318.36108     -2881.305    21323314.240    88717494.51906
     -2241.020  
  21349457.880   114245265.19708      3969.543    21349461.900    88857447.15607
      3087.422  
 20  5 13  2 56 20.0000000  0 15G27G16G30G 4G 7G 8G 9G11R14R 6R15R 5
                                R24R23R17
  20688735.500   108720037.90149     -1241.223    20688736.600    84716916.76449
      -967.191  
  22471668.200   118089411.29548     -2999.109    22471667.360    92017718.80845
     -2336.973  
  23480949.300   123393226.12447      3267.668    23480951.440    96150573.49749
      2546.234  
  24251567.740   127442839.54646     -3701.785    24251569.860    99306107.85245
     -2884.516  
  21350068.900   112195370.28848      1988.129    21350067.920    87424960.21649
      1549.191  
  20462974.200   107533657.41349      1167.047    20462976.360    83792469.49249
       909.387  
  22704854.140   119314812.68748     -2715.715    22704856.420    92972587.30849
     -2116.145  
  23423088.100   123089156.10348      3632.859    23423087.680    95913632.53245
      2830.801  
  19806752.660   105581130.75909     -1572.156    19806757.680    82118679.17108
     -1222.793  
  22464824.760   119876591.38906       338.531           0.000           0.00000
         0.000  
  19943207.300   106570453.58909      2011.082    19943211.760    82888147.98608
      1564.176  
  22725282.160   121479646.18307     -3267.203    22725286.480    94484192.08405
     -2541.160  
  19917932.560   106510138.56909       298.836    19917936.140    82841234.76508
       232.426  
  21326002.520   114079734.34408     -2885.047    21326009.220    88728706.94806
     -2243.930  
  21345750.140   114225424.56208      3966.824    21345754.200    88842015.56107
      3085.309  
 20  5 13  2 56 25.0000000  0 15G27G16G30G 4G 7G 8G 9G11R14R 6R15R 5
                                R24R23R17
  20689918.080   108726252.35949     -1244.176    20689919.180    84721759.19849
      -969.492  
  22474522.340   118104409.83448     -3000.191    22474521.440    92029405.98345
     -2337.816  
  23477840.720   123376890.37847      3267.035    23477842.860    96137844.34449
      2545.742  
  24255090.220   127461350.32946     -3702.570    24255092.480    99320531.80344
     -2885.129  
  21348178.400   112185435.62248      1986.160    21348177.420    87417218.92249
      1547.652  
  20461865.380   107527830.57449      1163.953    20461867.560    83787929.10049
       906.977  
  22707439.040   119328396.49948     -2717.590    22707441.360    92983172.09249
     -2117.605  
  23419632.140   123070995.12148      3631.902    23419631.800    95899481.12645
      2830.055  
  19808228.520   105588997.93709     -1574.434    19808233.560    82124798.08308
     -1224.563  
  22464509.600   119874909.64006       334.258           0.000           0.00000
         0.000  
  19941326.640   106560403.85309      2009.188    19941331.100    82880331.52308
      1562.703  
  22728339.620   121495990.01907     -3269.922    22728343.940    94496903.94505
     -2543.277  
  19917655.400   106508656.38509       294.215    19917658.980    82840081.95908
       228.832  
  21328700.960   114094169.03108     -2888.398    21328707.620    88739933.92706
     -2246.531  
  21342044.900   114205596.99408      3964.473    21342048.920    88826594.12507
      3083.480  
 20  5 13  2 56 30.0000000  0 15G27G16G30G 4G 7G 8G 9G11R14R 6R15R 5
                                R24R23R17
  20691103.520   108732481.81549     -1247.578    20691104.600    84726613.32049
      -972.145  
  22477377.220   118119412.26948     -3001.016    22477376.320    92041096.18645
     -2338.457  
  23474732.860   123360558.56147      3265.875    23474735.000    96125118.26349
      2544.836  
  24258612.920   127479862.39346     -3703.234    24258615.380    99334956.78744
     -2885.645  
  21346289.760   112175510.66048      1983.820    21346288.760    87409485.18149
      1545.832  
  20460759.420   107522018.72349      1160.605    20460761.600    83783400.39149
       904.367  
  22710025.820   119341990.01548     -2719.918    22710028.140    92993764.43849
     -2119.422  
  23416176.960   123052838.05648      3630.906    23416176.640    95885332.76445
      2829.277  
  19809706.560   105596876.69509     -1577.102    19809711.620    82130925.99708
     -1226.637  
  22464198.420   119873249.16906       329.824           0.000           0.00000
         0.000  
  19939447.720   106550363.34109      2006.863    19939452.140    82872522.23308
      1560.895  
  22731399.260   121512345.49507     -3272.535    22731403.580    94509624.86305
     -2545.309  
  19917382.440   106507196.86309       289.344    19917386.020    82838946.77308
       225.043  
  21331402.440   114108619.93808     -2892.008    21331409.080    88751173.52106
     -2249.340  
  21338341.680   114185780.11508      3962.047    21338345.640    88811181.00507
      3081.594  
 20  5 13  2 56 35.0000000  0 15G27G16G30G 4G 7G 8G 9G11R14R 6R15R 5
                                R24R23R17
  20692291.900   108738726.77049     -1250.777    20692292.980    84731479.51649
      -974.637  
  22480232.940   118134419.08548     -3002.000    22480232.000    92052789.80045
     -2339.227  
  23471625.860   123344231.16348      3265.242    23471628.000    96112395.62249
      2544.344  
  24262135.980   127498376.25046     -3702.859    24262138.400    99349383.18842
     -2885.348  
  21344403.060   112165595.88548      1981.734    21344402.040    87401759.38349
      1544.203  
  20459656.400   107516222.32449      1157.605    20459658.580    83778883.71549
       902.031  
  22712614.520   119355593.68648     -2722.027    22712616.860    93004364.69949
     -2121.063  
  23412722.620   123034685.46448      3629.930    23412722.340    95871187.90145
      2828.516  
  19811186.880   105604767.51909     -1579.602    19811191.940    82137063.30508
     -1228.582  
  22463891.300   119871610.56106       325.477           0.000           0.00000
         0.000  
  19937570.620   106540332.79409      2004.824    19937575.060    82864720.70108
      1559.309  
  22734461.140   121528713.06007     -3275.082    22734465.520    94522355.18905
     -2547.289  
  19917113.800   106505760.46009       284.813    19917117.400    82837829.57108
       221.520  
  21334107.040   114123087.64108     -2895.445    21334113.660    88762426.17706
     -2252.016  
  21334640.520   114165974.61808      3959.945    21334644.520    88795776.73607
      3079.957  
 20  5 13  2 56 40.0000000  0 15G27G16G30G 4G 7G 8G 9G11R14R 6R15R 5
                                R24R23R17
  20693483.300   108744987.64349     -1254.051    20693484.400    84736358.12349
      -977.184  
  22483089.560   118149430.71648     -3003.035    22483088.580    92064487.17844
     -2340.031  
  23468519.780   123327908.66047      3263.859    23468521.940    96099676.79649
      2543.266  
  24265659.460   127516892.37646     -3703.977    24265661.940    99363811.29944
     -2886.223  
  21342518.380   112155691.73548      1979.508    21342517.320    87394041.86349
      1542.469  
  20458556.380   107510441.78049      1154.270    20458558.560    83774379.39749
       899.426  
  22715205.240   119369207.95648     -2724.172    22715207.600    93014973.21549
     -2122.734  
  23409269.220   123016537.76448      3628.953    23409268.960    95857046.83445
      2827.754  
  19812669.560   105612671.00309     -1582.117    19812674.640    82143210.45508
     -1230.539  
  22463588.360   119869994.10606       320.898           0.000           0.00000
         0.000  
  19935695.480   106530312.46309      2002.816    19935699.900    82856927.11208
      1557.746  
  22737525.360   121545093.08307     -3277.316    22737529.760    94535095.19405
     -2549.027  
  19916849.600   106504347.65309       280.020    19916853.220    82836730.72508
       217.793  
  21336814.880   114137572.62308     -2899.039    21336821.480    88773692.27406
     -2254.813  
  21330941.580   114146180.92908      3957.309    21330945.580    88780381.65707
      3077.906  
 20  5 13  2 56 45.0000000  0 15G27G16G30G 4G 7G 8G 9G11R14R 6R15R 5
                                R24R23R17
  20694677.600   108751263.59049     -1256.719    20694678.680    84741248.46949
      -979.262  
  22485946.940   118164446.33948     -3003.672    22485945.980    92076187.64745
     -2340.527  
  23465414.460   123311590.19647      3262.953    23465416.620    96086961.11049
      2542.563  
  24269183.200   127535409.83846     -3703.770    24269185.500    99378240.48044
     -2886.066  
  21340635.580   112145797.41248      1977.867    21340634.500    87386332.00449
      1541.195  
  20457459.220   107504676.22349      1151.637    20457461.420    83769886.75549
       897.375  
  22717797.820   119382831.95348     -2725.742    22717800.200    93025589.31149
     -2123.957  
  23405816.600   122998394.14248      3628.195    23405816.380    95842908.95745
      2827.160  
  19814154.400   105620586.16109     -1584.266    19814159.520    82149366.68508
     -1232.211  
  22463289.480   119868398.99206       317.133           0.000           0.00000
         0.000  
  19933822.100   106520301.58909      2001.094    19933826.500    82849140.87708
      1556.402  
  22740591.780   121561484.95407     -3279.738    22740596.220    94547844.42105
     -2550.910  
  19916589.660   106502957.59709       275.648    19916593.260    82835649.56808
       214.391  
  21339525.760   114152074.01108     -2902.012    21339532.360    88784971.12906
     -2257.125  
  21327244.640   114126398.11808      3955.434    21327248.700    88764995.03307
      3076.449  
 20  5 13  2 56 50.0000000  0 15G27G16G30G 4G 7G 8G 9G11R14R 6R15R 5
                                R24R23R17
  20695874.760   108757554.70649     -1259.906    20695875.840    84746150.63749
      -981.750  
  22488805.100   118179466.02148     -3004.539    22488804.100    92087891.28946
     -2341.203  
  23462309.940   123295275.82548      3262.234    23462312.100    96074248.62449
      2542.000  
  24272707.240   127553928.75246     -3704.254    24272709.280    99392670.80244
     -2886.434  
  21338754.640   112135913.00348      1975.750    21338753.560    87378629.86749
      1539.547  
  20456364.980   107498925.85649      1148.484    20456367.140    83765405.95149
       894.918  
  22720392.280   119396465.80148     -2727.762    22720394.660    93036213.08449
     -2125.531  
  23402364.780   122980254.73148      3627.199    23402364.560    95828774.34745
      2826.391  
  19815641.480   105628513.18009     -1586.715    19815646.640    82155532.13808
     -1234.117  
  22462994.640   119866825.63506       312.449           0.000           0.00000
         0.000  
  19931950.480   106510300.21609      1999.215    19931954.880    82841362.03408
      1554.941  
  22743660.400   121577888.56907     -3281.863    22743664.860    94560602.77805
     -2552.613  
  19916333.980   106501590.37509       271.070    19916337.580    82834586.17508
       210.832  
  21342239.700   114166591.87508     -2905.301    21342246.320    88796262.80806
     -2259.680  
  21323549.800   114106626.39008      3953.066    21323553.860    88749617.02807
      3074.605  
 20  5 13  2 56 55.0000000  0 15G27G16G30G 4G 7G 8G 9G11R14R 6R15R 5
                                R24R23R17
  20697074.960   108763861.77849     -1263.152    20697076.060    84751065.23949
      -984.277  
  22491664.160   118194490.57548     -3005.816    22491663.260    92099598.73545
     -2342.199  
  23459206.360   123278966.46048      3261.348    23459208.520    96061540.03449
      2541.309  
  24276231.680   127572449.89546     -3704.270    24276233.760    99407102.89144
     -2886.441  
  21336875.740   112126039.32048      1973.598    21336874.660    87370936.08549
      1537.863  
  20455273.720   107493191.34349      1145.203    20455275.880    83760937.49649
       892.367  
  22722988.780   119410110.25448     -2730.156    22722991.160    93046845.12149
     -2127.398  
  23398913.900   122962120.33748      3626.168    23398913.720    95814643.66445
      2825.586  
  19817130.960   105636452.80509     -1589.301    19817136.140    82161707.40008
     -1236.125  
  22462704.020   119865274.56705       307.684           0.000           0.00000
         0.000  
  19930080.800   106500309.22409      1997.012    19930085.200    82833591.25808
      1553.227  
  22746731.360   121594304.69307     -3284.520    22746735.880    94573370.86405
     -2554.629  
  19916082.720   106500246.87109       266.023    19916086.340    82833541.22408
       206.902  
  21344956.860   114181126.94508     -2908.945    21344963.500    88807567.85806
     -2262.516  
  21319857.220   114086866.56008      3950.652    21319861.260    88734248.28007
      3072.730  
 20  5 13  2 57  0.0000000  0 15G27G16G30G 4G 7G 8G 9G11R14R 6R15R 5
                                R24R23R17
  20698278.320   108770185.53349     -1266.473    20698279.420    84755992.84249
      -986.867  
  22494524.320   118209520.70748     -3006.625    22494523.340    92111310.51445
     -2342.828  
  23456103.860   123262662.81847      3260.016    23456106.040    96048835.90749
      2540.273  
  24279756.700   127590974.08546     -3705.332    24279758.780    99421537.28144
     -2887.277  
  21334999.020   112116177.14749      1971.063    21334997.960    87363251.28249
      1535.895  
  20454185.680   107487473.58649      1141.867    20454187.820    83756482.10549
       889.766  
  22725587.420   119423766.03748     -2732.195    22725589.820    93057485.98649
     -2128.988  
  23395464.140   122943991.69748      3625.039    23395463.980    95800517.45145
      2824.707  
  19818622.920   105644405.77509     -1592.051    19818628.100    82167893.04108
     -1238.266  
  22462417.660   119863746.69506       303.469           0.000           0.00000
         0.000  
  19928213.200   106490329.38409      1994.754    19928217.620    82825829.16208
      1551.477  
  22749804.800   121610733.95907     -3287.406    22749809.360    94586149.17605
     -2556.875  
  19915836.020   106498927.78109       261.273    19915839.660    82832515.26508
       203.211  
  21347677.420   114195680.04008     -2912.500    21347684.080    88818886.93206
     -2265.281  
  21316167.000   114067119.45307      3948.145    21316171.040    88718889.42707
      3070.777  
 20  5 13  2 57  5.0000000  0 15G27G16G30G 4G 7G 8G 9G11R14R 6R15R 5
                                R24R23R17
  20699484.740   108776525.28649     -1269.426    20699485.840    84760932.91049
      -989.168  
  22497385.400   118224555.76848     -3007.359    22497384.340    92123026.13845
     -2343.402  
  23453002.340   123246364.17547      3259.352    23453004.520    96036135.67049
      2539.754  
  24283282.100   127609500.49446     -3705.285    24283284.160    99435973.45745
     -2887.238  
  21333124.380   112106325.81448      1969.391    21333123.320    87355574.91849
      1534.590  
  20453100.660   107481771.79949      1138.863    20453102.800    83752039.15449
       887.426  
  22728188.100   119437432.48748     -2734.262    22728190.480    93068135.16849
     -2130.598  
  23392015.340   122925868.13848      3624.316    23392015.140    95786395.21046
      2824.145  
  19820117.240   105652371.47209     -1594.418    19820122.460    82174088.57908
     -1240.105  
  22462135.500   119862241.20306       298.930           0.000           0.00000
         0.000  
  19926347.560   106480359.98609      1992.898    19926351.980    82818075.18708
      1550.027  
  22752880.580   121627175.92107     -3289.621    22752885.180    94598937.35805
     -2558.598  
  19915593.780   106497632.38509       256.867    19915597.420    82831507.73708
       199.785  
  21350401.240   114210250.44208     -2915.664    21350407.880    88830219.47106
     -2267.738  
  21312479.000   114047384.41808      3946.012    21312483.080    88703539.96407
      3069.121  
 20  5 13  2 57 10.0000000  0 15G27G16G30G 4G 7G 8G 9G11R14R 6R15R 5
                                R24R23R17
  20700694.080   108782880.40849     -1272.449    20700695.200    84765884.95349
      -991.523  
  22500247.300   118239595.09148     -3008.184    22500246.200    92134745.08545
     -2344.043  
  23449901.640   123230069.96847      3258.582    23449903.840    96023438.89649
      2539.156  
  24286807.860   127628028.56246     -3705.750    24286809.940    99450410.89444
     -2887.602  
  21331251.700   112096484.64848      1967.367    21331250.600    87347906.47749
      1533.012  
  20452018.540   107476085.32049      1135.957    20452020.680    83747608.13549
       885.160  
  22730790.660   119451108.92448     -2736.395    22730793.040    93078792.12449
     -2132.258  
  23388567.380   122907749.02148      3623.320    23388567.120    95772276.41345
      2823.367  
  19821613.820   105660349.16109     -1596.723    19821619.080    82180293.44208
     -1241.898  
  22461857.420   119860757.39506       294.727           0.000           0.00000
         0.000  
  19924483.780   106470400.39809      1990.996    19924488.180    82810328.83908
      1548.551  
  22755958.620   121643629.76907     -3291.992    22755963.260    94611734.78105
     -2560.441  
  19915355.860   106496360.10909       252.273    19915359.500    82830518.19108
       196.207  
  21353128.100   114224837.40308     -2918.844    21353134.740    88841564.88306
     -2270.215  
  21308793.140   114027660.65808      3943.488    21308797.240    88688199.27007
      3067.156  
 20  5 13  2 57 15.0000000  0 15G27G16G30G 4G 7G 8G 9G11R14R 6R15R 5
                                R24R23R17
  20701906.200   108789250.13149     -1275.535    20701907.320    84770848.37249
      -993.922  
  22503109.860   118254637.92448     -3009.402    22503108.740    92146466.76945
     -2344.988  
  23446801.640   123213779.42247      3257.598    23446803.840    96010744.96749
      2538.387  
  24290333.760   127646557.47546     -3706.145    24290335.960    99464848.99043
     -2887.910  
  21329380.800   112086652.95249      1965.320    21329379.700    87340245.42049
      1531.418  
  20450939.240   107470413.53649      1132.734    20450941.380    83743188.56649
       882.648  
  22733395.020   119464794.58748     -2738.145    22733397.380    93089456.27349
     -2133.621  
  23385120.160   122889633.58648      3622.820    23385119.920    95758160.50345
      2822.977  
  19823112.520   105668338.14709     -1599.000    19823117.820    82186507.09308
     -1243.672  
  22461583.240   119859294.47006       290.352           0.000           0.00000
         0.000  
  19922621.680   106460449.90009      1989.055    19922626.080    82802589.56708
      1547.043  
  22759038.640   121660094.66907     -3294.383    22759043.400    94624540.80205
     -2562.301  
  19915122.120   106495110.18009       247.707    19915125.760    82829546.02408
       192.660  
  21355857.940   114239440.22308     -2922.254    21355864.600    88852922.63206
     -2272.863  
  21305109.260   114007947.52308      3941.488    21305113.380    88672866.83807
      3065.602  
 20  5 13  2 57 20.0000000  0 15G27G16G30G 4G 7G 8G 9G11R14R 6R15R 5
                                R24R23R17
  20703121.440   108795636.20849     -1278.945    20703122.560    84775824.53549
      -996.586  
  22505973.420   118269686.03948     -3010.234    22505972.340    92158192.56545
     -2345.641  
  23443702.700   123197494.33747      3256.551    23443704.860    95998055.29349
      2537.570  
  24293860.160   127665088.95645     -3706.000    24293862.300    99479289.08844
     -2887.801  
  21327512.020   112076832.48749      1962.844    21327510.920    87332593.11349
      1529.488  
  20449863.060   107464758.17249      1129.406    20449865.180    83738781.78749
       880.055  
  22736001.420   119478491.23548     -2740.266    22736003.780    93100128.98449
     -2135.277  
  23381673.960   122871523.70248      3621.445    23381673.700    95744048.90645
      2821.906  
  19824613.660   105676340.09709     -1601.719    19824618.980    82192730.83208
     -1245.785  
  22461313.300   119857854.46206       285.605           0.000           0.00000
         0.000  
  19920761.640   106450510.26909      1986.773    19920766.020    82794858.74308
      1545.266  
  22762121.100   121676572.49707     -3297.023    22762125.960    94637356.88605
     -2564.355  
  19914892.900   106493884.37409       242.820    19914896.520    82828592.61908
       188.859  
  21358591.060   114254060.63108     -2925.844    21358597.740    88864294.05806
     -2275.660  
  21301427.720   113988246.83208      3939.016    21301431.820    88657544.08207
      3063.680  
 20  5 13  2 57 25.0000000  0 15G27G16G30G 4G 7G 8G 9G11R14R 6R15R 5
                                R24R23R17
  20704339.820   108802038.82549     -1282.023    20704340.940    84780813.58549
      -998.984  
  22508838.020   118284739.66348     -3011.359    22508836.940    92169922.65345
     -2346.520  
  23440604.820   123181214.89247      3255.516    23440607.000    95985370.00949
      2536.766  
  24297387.020   127683623.32945     -3707.043    24297389.500    99493731.50044
     -2888.602  
  21325645.400   112067023.41649      1960.879    21325644.300    87324949.68149
      1527.957  
  20448790.040   107459119.45949      1126.188    20448792.160    83734387.98649
       877.543  
  22738610.000   119492199.05348     -2742.613    22738612.320    93110810.39649
     -2137.105  
  23378228.840   122853419.50848      3620.406    23378228.600    95729941.74446
      2821.094  
  19826117.300   105684355.45109     -1604.215    19826122.660    82198964.98608
     -1247.727  
  22461047.720   119856437.38006       281.434           0.000           0.00000
         0.000  
  19918903.620   106440581.69609      1984.738    19918908.020    82787136.52208
      1543.680  
  22765206.100   121693063.44507     -3299.504    22765210.940    94650183.16705
     -2566.285  
  19914668.160   106492682.74609       238.180    19914671.820    82827658.02208
       185.250  
  21361327.520   114268698.81408     -2929.238    21361334.220    88875679.31606
     -2278.297  
  21297748.520   113968558.82308      3936.391    21297752.660    88642231.19707
      3061.637  
 20  5 13  2 57 30.0000000  0 15G27G16G30G 4G 7G 8G 9G11R14R 6R15R 5
                                R24R23R17
  20705561.100   108808456.66149     -1284.875    20705562.220    84785814.49849
     -1001.203  
  22511703.420   118299797.40048     -3011.805    22511702.340    92181655.96145
     -2346.863  
  23437507.780   123164939.80047      3254.785    23437509.960    95972688.13649
      2536.195  
  24300914.240   127702159.15645     -3707.359    24300916.620    99508174.93444
     -2888.863  
  21323780.720   112057224.47049      1958.918    21323779.620    87317314.13949
      1526.426  
  20447719.940   107453496.00649      1123.258    20447722.040    83730006.07949
       875.262  
  22741220.400   119505916.72448     -2744.484    22741222.720    93121499.48249
     -2138.563  
  23374784.560   122835319.71048      3619.746    23374784.360    95715838.01845
      2820.582  
  19827623.180   105692382.68909     -1606.418    19827628.560    82205208.39408
     -1249.441  
  22460786.280   119855042.03506       277.289           0.000           0.00000
         0.000  
  19917047.440   106430662.80409      1982.961    19917051.820    82779421.83208
      1542.305  
  22768293.300   121709566.08807     -3301.496    22768298.180    94663018.54705
     -2567.836  
  19914447.760   106491504.18109       233.609    19914451.440    82826741.36008
       181.691  
  21364067.040   114283353.50308     -2932.359    21364073.760    88887077.40506
     -2280.727  
  21294071.460   113948882.15108      3934.250    21294075.600    88626927.12507
      3059.973  
 20  5 13  2 57 35.0000000  0 15G27G16G30G 4G 7G 8G 9G11R14R 6R15R 5
                                R24R23R17
  20706785.100   108814888.84549     -1287.789    20706786.220    84790826.59249
     -1003.477  
  22514569.420   118314858.43148     -3012.539    22514568.340    92193391.81945
     -2347.438  
  23434411.420   123148668.20847      3254.059    23434413.580    95960008.97349
      2535.629  
  24304441.600   127720695.55245     -3707.438    24304444.100    99522618.83644
     -2888.922  
  21321917.820   112047434.82049      1957.047    21321916.700    87309685.84249
      1524.973  
  20446652.580   107447886.98949      1120.344    20446654.680    83725635.41849
       872.992  
  22743832.540   119519643.35548     -2746.125    22743834.840    93132195.55249
     -2139.840  
  23371340.960   122817223.44148      3619.047    23371340.740    95701737.02745
      2820.031  
  19829131.140   105700421.03709     -1608.820    19829136.540    82211460.43808
     -1251.309  
  22460528.660   119853667.54706       272.887           0.000           0.00000
         0.000  
  19915192.940   106420752.85109      1981.188    19915197.320    82771714.09308
      1540.922  
  22771382.420   121726079.64507     -3303.781    22771387.400    94675862.41705
     -2569.613  
  19914231.480   106490347.67809       229.086    19914235.160    82825841.86008
       178.176  
  21366809.460   114298023.72208     -2935.480    21366816.220    88898487.57306
     -2283.156  
  21290396.420   113929215.97008      3932.109    21290400.520    88611631.21307
      3058.309  
 20  5 13  2 57 40.0000000  0 15G27G16G30G 4G 7G 8G 9G11R14R 6R15R 5
                                R24R23R17
  20708012.220   108821337.41049     -1292.051    20708013.360    84795851.44349
     -1006.797  
  22517436.460   118329924.71848     -3014.270    22517435.400    92205131.78145
     -2348.785  
  23431316.080   123132402.13947      3252.051    23431318.260    95947334.12849
      2534.066  
  24307969.440   127739234.57945     -3708.758    24307971.780    99537064.84945
     -2889.941  
  21320057.060   112037656.48649      1953.961    21320055.940    87302066.36149
      1522.563  
  20445588.360   107442294.42549      1116.293    20445590.440    83721277.57849
       869.840  
  22746446.760   119533380.96848     -2749.199    22746449.060    93142900.18449
     -2142.238  
  23367898.420   122799132.77448      3617.242    23367898.240    95687640.41045
      2818.629  
  19830641.520   105708472.36709     -1612.188    19830646.960    82217722.57708
     -1253.926  
  22460275.460   119852315.86006       267.707           0.000           0.00000
         0.000  
  19913340.480   106410853.81009      1978.203    19913344.840    82764014.83708
      1538.598  
  22774474.020   121742605.91507     -3307.184    22774479.020    94688716.16505
     -2572.258  
  19914019.740   106489215.40609       223.492    19914023.440    82824961.21008
       173.828  
  21369555.160   114312711.48808     -2939.770    21369561.980    88909911.39106
     -2286.492  
  21286723.680   113909562.38008      3928.984    21286727.800    88596345.10007
      3055.875  
 20  5 13  2 57 45.0000000  0 15G27G16G30G 4G 7G 8G 9G11R14R 6R15R 5
                                R24R23R17
  20709242.700   108827803.70249     -1294.520    20709243.840    84800890.11749
     -1008.715  
  22520304.740   118344997.69748     -3014.816    22520303.720    92216876.95145
     -2349.211  
  23428222.080   123116143.02547      3251.195    23428224.220    95934664.69349
      2533.398  
  24311498.040   127757777.58145     -3708.625    24311500.580    99551513.95645
     -2889.836  
  21318198.740   112027890.86749      1952.254    21318197.580    87294456.78849
      1521.234  
  20444527.520   107436719.65749      1113.621    20444529.600    83716933.60149
       867.758  
  22749063.340   119547130.95048     -2750.754    22749065.620    93153614.45049
     -2143.449  
  23364457.200   122781049.13848      3616.367    23364456.960    95673549.26946
      2817.945  
  19832154.640   105716538.31009     -1614.148    19832160.120    82223996.08508
     -1255.453  
  22460026.760   119850988.37306       263.406           0.000           0.00000
         0.000  
  19911490.320   106400967.14309      1976.566    19911494.700    82756325.20708
      1537.324  
  22777568.280   121759146.50507     -3309.082    22777573.300    94701581.06305
     -2573.734  
  19913812.760   106488108.72509       219.297    19913816.480    82824100.46008
       170.563  
  21372304.400   114327418.20508     -2942.797    21372311.240    88921349.95106
     -2288.848  
  21283053.560   113889922.75208      3926.988    21283057.680    88581069.83807
      3054.324  
 20  5 13  2 57 50.0000000  0 15G27G16G30G 4G 7G 8G 9G11R14R 6R15R 5
                                R24R23R17
  20710475.540   108834282.26749     -1297.035    20710476.680    84805938.34549
     -1010.680  
  22523173.260   118360071.86648     -3015.180    22523172.200    92228623.05245
     -2349.496  
  23425128.340   123099885.36448      3251.055    23425130.500    95921996.38449
      2533.289  
  24315026.380   127776319.08645     -3708.367    24315029.140    99565961.88045
     -2889.637  
  21316341.780   112018132.44349      1950.707    21316340.620    87286852.81949
      1520.027  
  20443469.020   107431157.25249      1110.953    20443471.100    83712599.26449
       865.676  
  22751681.220   119560887.78448     -2752.301    22751683.460    93164334.05249
     -2144.652  
  23361016.280   122762967.01548      3616.137    23361016.020    95659459.30745
      2817.770  
  19833669.440   105724613.19909     -1616.063    19833674.960    82230276.54908
     -1256.941  
  22459781.520   119849679.68606       260.020           0.000           0.00000
         0.000  
  19909641.420   106391087.28909      1975.113    19909645.820    82748640.88008
      1536.152  
  22780664.120   121775695.60807     -3310.988    22780669.200    94714452.57905
     -2575.219  
  19913609.560   106487022.00809       215.121    19913613.260    82823255.23008
       167.313  
  21375056.200   114342138.46308     -2945.676    21375063.040    88932799.03706
     -2291.086  
  21279385.040   113870291.61308      3925.246    21279389.160    88565801.18207
      3052.969  
 20  5 13  2 57 55.0000000  0 15G27G16G30G 4G 7G 8G 9G11R14R 6R15R 5
                                R24R23R17
  20711711.500   108840777.31049     -1300.840    20711712.660    84810999.42049
     -1013.641  
  22526042.800   118375151.41948     -3016.297    22526041.720    92240373.34745
     -2350.359  
  23422035.680   123083633.37648      3249.730    23422037.860    95909332.50349
      2532.258  
  24318555.200   127794863.29945     -3709.531    24318557.900    99580411.88845
     -2890.551  
  21314487.000   112008385.50049      1948.176    21314485.840    87279257.79849
      1518.055  
  20442413.700   107425611.36949      1107.480    20442415.760    83708277.80049
       862.973  
  22754301.200   119574655.67548     -2754.789    22754303.440    93175062.27749
     -2146.594  
  23357576.460   122744890.68748      3614.738    23357576.220    95645373.86445
      2816.676  
  19835186.740   105732701.28509     -1619.113    19835192.280    82236567.27908
     -1259.313  
  22459540.520   119848393.89006       254.555           0.000           0.00000
         0.000  
  19907794.620   106381218.52009      1972.547    19907799.000    82740965.16908
      1534.203  
  22783762.360   121792257.75507     -3313.617    22783767.540    94727334.22606
     -2577.266  
  19913410.840   106485959.56409       210.008    19913414.580    82822428.88808
       163.340  
  21377811.220   114356876.17408     -2949.469    21377818.100    88944261.70006
     -2294.035  
  21275718.880   113850673.25908      3922.105    21275723.000    88550542.47007
      3050.527  
 20  5 13  2 58  0.0000000  0 15G27G16G30G 4G 7G 8G 9G11R14R 6R15R 5
                                R24R23R17
  20712950.600   108847288.84349     -1304.043    20712951.760    84816073.34149
     -1016.137  
  22528913.380   118390236.42648     -3017.672    22528912.300    92252127.89945
     -2351.438  
  23418944.120   123067387.12748      3248.785    23418946.280    95896673.09449
      2531.520  
  24322084.560   127813410.23045     -3709.742    24322087.240    99594864.01744
     -2890.711  
  21312634.420   111998650.07449      1945.668    21312633.220    87271671.75649
      1516.141  
  20441361.520   107420082.08149      1104.082    20441363.560    83703969.26649
       860.324  
  22756923.260   119588434.65748     -2757.078    22756925.520    93185799.13749
     -2148.375  
  23354137.780   122726820.20948      3613.434    23354137.460    95631292.98545
      2815.664  
  19836706.540   105740802.66109     -1621.773    19836712.100    82242868.34708
     -1261.383  
  22459303.860   119847131.20105       249.941           0.000           0.00000
         0.000  
  19905949.900   106371360.85909      1970.355    19905954.280    82733298.10308
      1532.500  
  22786863.100   121808832.90707     -3316.375    22786868.260    94740226.00206
     -2579.406  
  19913216.720   106484921.47109       205.004    19913220.480    82821621.48308
       159.449  
  21380569.600   114371631.66508     -2953.137    21380576.500    88955738.19206
     -2296.883  
  21272055.060   113831067.60808      3919.688    21272059.220    88535293.63907
      3048.645  
 20  5 13  2 58  5.0000000  0 15G27G16G30G 4G 7G 8G 9G11R14R 6R15R 5
                                R24R23R17
  20714192.800   108853816.71949     -1307.117    20714193.980    84821159.99649
     -1018.531  
  22531784.960   118405326.69748     -3018.223    22531783.880    92263886.54145
     -2351.867  
  23415853.640   123051146.48748      3247.879    23415855.780    95884018.05849
      2530.816  
  24325614.360   127831959.71445     -3710.027    24325617.180    99609318.15244
     -2890.938  
  21310784.000   111988926.00449      1944.027    21310782.800    87264094.56149
      1514.824  
  20440312.480   107414569.33949      1101.152    20440314.520    83699673.61949
       858.035  
  22759547.440   119602224.57948     -2758.945    22759549.640    93196544.53249
     -2149.832  
  23350700.120   122708755.39248      3612.371    23350699.880    95617216.51245
      2814.836  
  19838228.780   105748917.13209     -1624.023    19838234.360    82249179.59608
     -1263.133  
  22459071.440   119845891.22206       246.172           0.000           0.00000
         0.000  
  19904107.240   106361514.22609      1968.516    19904111.600    82725639.61308
      1531.066  
  22789966.240   121825420.74207     -3318.543    22789971.420    94753127.64906
     -2581.094  
  19913027.100   106483907.51509       200.641    19913030.860    82820832.85208
       156.055  
  21383331.240   114386404.64708     -2956.063    21383338.160    88967228.28906
     -2299.164  
  21268393.680   113811474.69508      3917.680    21268397.820    88520054.71107
      3047.086  
 20  5 13  2 58 10.0000000  0 15G27G16G30G 4G 7G 8G 9G11R14R 6R15R 5
                                R24R23R17
  20715437.800   108860359.36149     -1309.957    20715439.020    84826258.15749
     -1020.750  
  22534657.240   118420420.66748     -3018.996    22534656.160    92275648.08245
     -2352.469  
  23412763.900   123034909.85148      3247.215    23412766.040    95871366.14349
      2530.293  
  24329144.400   127850510.19945     -3710.445    24329147.340    99623773.04744
     -2891.262  
  21308935.420   111979211.75349      1941.828    21308934.200    87256525.01549
      1513.109  
  20439266.280   107409071.54249      1098.152    20439268.320    83695389.63149
       855.703  
  22762173.400   119616023.83748     -2760.781    22762175.580    93207297.19649
     -2151.262  
  23347263.280   122690694.64748      3611.688    23347263.000    95603143.19245
      2814.297  
  19839753.180   105757043.12709     -1626.285    19839758.780    82255499.81208
     -1264.891  
  22458843.100   119844672.66006       241.805           0.000           0.00000
         0.000  
  19902266.340   106351676.97509      1966.512    19902270.700    82717988.41808
      1529.508  
  22793071.380   121842019.79407     -3320.824    22793076.620    94766038.01306
     -2582.867  
  19912841.720   106482916.14809       196.043    19912845.480    82820061.78908
       152.477  
  21386095.840   114401193.55008     -2959.301    21386102.800    88978730.76906
     -2301.684  
  21264734.300   113791892.82508      3915.320    21264738.480    88504824.37607
      3045.250  
 20  5 13  2 58 15.0000000  0 15G27G16G30G 4G 7G 8G 9G11R14R 6R15R 5
                                R24R23R17
  20716685.860   108866917.96149     -1313.410    20716687.080    84831368.75849
     -1023.441  
  22537530.460   118435519.53248     -3020.203    22537529.380    92287413.41345
     -2353.414  
  23409675.180   123018678.51848      3245.645    23409677.320    95858718.35549
      2529.074  
  24332674.840   127869062.85845     -3710.781    24332677.720    99638229.68545
     -2891.520  
  21307088.980   111969508.54549      1939.457    21307087.720    87248964.07449
      1511.262  
  20438223.160   107403589.83549      1094.734    20438225.180    83691118.16849
       853.039  
  22764801.340   119629833.65548     -2763.070    22764803.500    93218058.08749
     -2153.047  
  23343827.460   122672639.29948      3610.469    23343827.180    95589074.10045
      2813.352  
  19841279.980   105765181.87509     -1629.016    19841285.600    82261829.94608
     -1267.016  
  22458619.020   119843476.62406       236.605           0.000           0.00000
         0.000  
  19900427.440   106341850.48009      1964.141    19900431.780    82710345.59108
      1527.664  
  22796178.860   121858631.15107     -3323.336    22796184.160    94778957.94506
     -2584.820  
  19912660.800   106481948.64809       191.070    19912664.560    82819309.29308
       148.609  
  21388863.660   114415999.59908     -2963.039    21388870.640    88990246.58706
     -2304.586  
  21261077.280   113772323.29508      3912.672    21261081.440    88489603.63707
      3043.188  
 20  5 13  2 58 20.0000000  0 15G27G16G30G 4G 7G 8G 9G11R14R 6R15R 5
                                R24R23R17
  20717937.020   108873492.86949     -1316.180    20717938.260    84836492.06149
     -1025.594  
  22540404.660   118450623.64948     -3020.777    22540403.600    92299182.84545
     -2353.855  
  23406587.520   123002452.79248      3244.910    23406589.680    95846074.93249
      2528.500  
  24336205.760   127887618.00745     -3710.949    24336208.540    99652688.18944
     -2891.656  
  21305244.680   111959816.73349      1937.594    21305243.420    87241412.01249
      1509.809  
  20437183.160   107398124.54649      1091.930    20437185.180    83686859.50549
       850.855  
  22767431.340   119643654.34948     -2764.754    22767433.500    93228827.45349
     -2154.359  
  23340392.720   122654589.65048      3609.984    23340392.500    95575009.45345
      2812.977  
  19842809.260   105773333.76609     -1631.238    19842814.880    82268170.29908
     -1268.746  
  22458399.200   119842303.28706       232.758           0.000           0.00000
         0.000  
  19898590.580   106332034.96109      1962.375    19898594.960    82702711.29808
      1526.289  
  22799288.760   121875255.23407     -3325.688    22799294.080    94791887.77906
     -2586.648  
  19912484.380   106481005.30909       186.676    19912488.160    82818575.58808
       145.188  
  21391634.760   114430823.14708     -2966.164    21391641.720    89001776.00906
     -2307.016  
  21257422.640   113752766.49208      3910.477    21257426.800    88474392.79707
      3041.480  
 20  5 13  2 58 25.0000000  0 15G27G16G30G 4G 7G 8G 9G11R14R 6R15R 5
                                R24R23R17
  20719190.940   108880082.34249     -1319.328    20719192.200    84841626.71149
     -1028.047  
  22543279.580   118465731.30947     -3022.184    22543278.460    92310955.05145
     -2354.953  
  23403500.620   122986230.96848      3243.840    23403502.760    95833434.55149
      2527.668  
  24339736.840   127906173.94246     -3711.688    24339739.600    99667147.37844
     -2892.227  
  21303402.240   111950134.61449      1935.324    21303400.960    87233867.50649
      1508.043  
  20436145.980   107392674.04949      1088.617    20436147.980    83682612.36749
       848.273  
  22770063.100   119657484.18048     -2766.770    22770065.260    93239603.94549
     -2155.930  
  23336958.740   122636544.03648      3608.488    23336958.520    95560947.94245
      2811.809  
  19844340.640   105781497.00309     -1633.793    19844346.300    82274519.48308
     -1270.730  
  22458183.300   119841151.23206       228.102           0.000           0.00000
         0.000  
  19896755.460   106322228.54809      1960.207    19896759.800    82695084.09008
      1524.605  
  22802400.700   121891890.23607     -3327.863    22802406.020    94804826.10706
     -2588.344  
  19912312.140   106480084.33209       181.977    19912315.940    82817859.27108
       141.535  
  21394408.780   114445662.23308     -2969.469    21394415.740    89013317.52006
     -2309.590  
  21253770.100   113733220.73708      3908.234    21253774.220    88459190.55107
      3039.738  
 20  5 13  2 58 30.0000000  0 15G27G16G30G 4G 7G 8G 9G11R14R 6R15R 5
                                R24R23R17
  20720447.800   108886687.14749     -1322.750    20720449.060    84846773.31649
     -1030.719  
  22546155.280   118480843.24148     -3023.180    22546154.180    92322730.57245
     -2355.727  
  23400414.580   122970013.77348      3242.941    23400416.720    95820797.78549
      2526.969  
  24343268.200   127924731.42746     -3712.105    24343270.980    99681607.76244
     -2892.551  
  21301561.780   111940462.92449      1933.223    21301560.500    87226331.12649
      1506.402  
  20435111.760   107387239.05049      1085.246    20435113.720    83678377.30249
       845.645  
  22772696.740   119671323.89748     -2769.090    22772698.860    93250388.13149
     -2157.734  
  23333525.620   122618503.15048      3607.457    23333525.460    95546890.11945
      2811.004  
  19845874.300   105789672.32209     -1636.473    19845879.960    82280878.06108
     -1272.816  
  22457971.520   119840021.10906       223.547           0.000           0.00000
         0.000  
  19894922.220   106312432.33909      1958.078    19894926.580    82687464.81808
      1522.949  
  22805514.820   121908536.94407     -3330.770    22805520.200    94817773.53406
     -2590.602  
  19912144.240   106479186.56209       177.090    19912148.060    82817161.00608
       137.734  
  21397185.880   114460517.84008     -2972.902    21397192.840    89024871.87906
     -2312.262  
  21250119.700   113713686.74208      3905.348    21250123.820    88443997.44807
      3037.492  
 20  5 13  2 58 35.0000000  0 15G27G16G30G 4G 7G 8G 9G11R14R 6R15R 5
                                R24R23R17
  20721707.680   108893307.84249     -1325.371    20721708.940    84851932.29849
     -1032.762  
  22549031.920   118495960.01547     -3023.430    22549030.860    92334509.87145
     -2355.922  
  23397329.560   122953801.85048      3242.137    23397331.700    95808165.12149
      2526.340  
  24346800.000   127943291.01446     -3711.871    24346802.740    99696069.73944
     -2892.371  
  21299723.420   111930802.30049      1931.406    21299722.120    87218803.36149
      1504.988  
  20434080.580   107381820.15549      1082.492    20434082.540    83674154.78849
       843.500  
  22775332.340   119685174.08948     -2770.691    22775334.500    93261180.48349
     -2158.984  
  23330093.560   122600467.66948      3606.852    23330093.380    95532836.49346
      2810.535  
  19847410.340   105797860.35409     -1638.535    19847416.020    82287246.52608
     -1274.422  
  22457763.960   119838913.31106       219.512           0.000           0.00000
         0.000  
  19893090.980   106302646.73209      1956.453    19893095.340    82679853.78808
      1521.684  
  22808631.160   121925195.80707     -3332.680    22808636.580    94830730.42206
     -2592.090  
  19911980.820   106478312.60909       172.852    19911984.640    82816481.27408
       134.441  
  21399966.140   114475390.34808     -2975.883    21399973.100    89036439.38506
     -2314.578  
  21246471.600   113694165.13108      3903.531    21246475.740    88428813.97907
      3036.078  
 20  5 13  2 58 40.0000000  0 15G27G16G30G 4G 7G 8G 9G11R14R 6R15R 5
                                R24R23R17
  20722970.440   108899943.79349     -1328.820    20722971.740    84857103.17149
     -1035.449  
  22551909.320   118511081.01747     -3024.855    22551908.360    92346292.47445
     -2357.031  
  23394245.440   122937594.60648      3240.773    23394247.560    95795536.10649
      2525.277  
  24350332.080   127961852.02846     -3712.633    24350334.780    99710532.87144
     -2892.969  
  21297887.040   111921152.10349      1928.875    21297885.740    87211283.72949
      1503.020  
  20433052.340   107376416.62249      1079.074    20433054.280    83669944.24649
       840.832  
  22777969.820   119699034.07748     -2773.102    22777971.960    93271980.47049
     -2160.863  
  23326662.420   122582436.93348      3605.773    23326662.220    95518786.58145
      2809.695  
  19848948.620   105806060.36209     -1641.223    19848954.320    82293624.30708
     -1276.512  
  22457560.440   119837827.34006       214.746           0.000           0.00000
         0.000  
  19891261.620   106292871.18609      1954.031    19891265.960    82672250.59108
      1519.801  
  22811749.740   121941866.31907     -3335.406    22811755.140    94843696.36306
     -2594.207  
  19911821.700   106477461.80109       167.660    19911825.520    82815819.53408
       130.398  
  21402749.480   114490279.21708     -2979.559    21402756.400    89048019.61706
     -2317.438  
  21242825.720   113674655.29408      3900.680    21242829.860    88413639.66507
      3033.863  
 20  5 13  2 58 45.0000000  0 15G27G16G30G 4G 7G 8G 9G11R14R 6R15R 5
                                R24R23R17
  20724236.000   108906594.37549     -1331.738    20724237.300    84862285.44249
     -1037.723  
  22554787.420   118526205.64747     -3025.227    22554786.480    92358077.89246
     -2357.324  
  23391162.060   122921391.36948      3240.152    23391164.200    95782910.20949
      2524.793  
  24353864.320   127980413.83046     -3713.363    24353867.120    99724996.58444
     -2893.539  
  21296052.540   111911511.70149      1926.797    21296051.220    87203771.73049
      1501.395  
  20432026.920   107371028.00749      1075.875    20432028.860    83665745.32649
       838.344  
  22780609.060   119712903.24648     -2775.109    22780611.180    93282787.61049
     -2162.426  
  23323232.020   122564410.33848      3604.555    23323231.900    95504739.88845
      2808.742  
  19850489.060   105814271.92809     -1643.766    19850494.780    82300011.08108
     -1278.484  
  22457360.940   119836762.62506       210.117           0.000           0.00000
         0.000  
  19889434.020   106283104.98509      1952.055    19889438.340    82664654.65408
      1518.262  
  22814870.380   121958547.77607     -3337.516    22814875.780    94856670.81706
     -2595.848  
  19911666.800   106476633.43809       163.098    19911670.620    82815175.25308
       126.852  
  21405535.780   114505183.85108     -2982.734    21405542.680    89059612.10806
     -2319.910  
  21239181.920   113655156.54608      3898.145    21239186.040    88398473.98107
      3031.891  
 20  5 13  2 58 50.0000000  0 15G27G16G30G 4G 7G 8G 9G11R14R 6R15R 5
                                R24R23R17
  20725504.700   108913261.45949     -1334.738    20725506.020    84867480.57149
     -1040.059  
  22557666.540   118541335.74347     -3026.266    22557665.660    92369867.55945
     -2358.133  
  23388079.820   122905194.04648      3239.195    23388081.940    95770288.92549
      2524.047  
  24357397.060   127998978.31846     -3712.656    24357399.960    99739462.39244
     -2892.988  
  21294220.260   111901882.98949      1924.805    21294218.940    87196268.83749
      1499.848  
  20431004.700   107365656.14649      1072.969    20431006.620    83661559.46149
       836.078  
  22783250.380   119726783.45548     -2776.824    22783252.500    93293603.35149
     -2163.762  
  23319802.780   122546389.73648      3603.645    23319802.680    95490697.86246
      2808.035  
  19852032.020   105822496.80009     -1646.043    19852037.740    82306408.19508
     -1280.258  
  22457165.860   119835721.09406       205.871           0.000           0.00000
         0.000  
  19887608.540   106273350.13009      1950.059    19887612.840    82657067.54308
      1516.707  
  22817993.440   121975242.04407     -3339.840    22817998.800    94869655.23906
     -2597.656  
  19911516.460   106475829.50009       158.629    19911520.280    82814549.97208
       123.379  
  21408325.320   114520106.03808     -2986.012    21408332.220    89071218.25406
     -2322.453  
  21235540.600   113635670.92008      3895.816    21235544.680    88383318.50007
      3030.078  
 20  5 13  2 58 55.0000000  0 15G27G16G30G 4G 7G 8G 9G11R14R 6R15R 5
                                R24R23R17
  20726776.420   108919944.42449     -1338.336    20726777.740    84872688.07649
     -1042.863  
  22560546.620   118556470.65347     -3027.262    22560545.740    92381660.99745
     -2358.910  
  23384998.560   122889002.07348      3237.539    23385000.720    95757671.80749
      2522.758  
  24360930.140   128017544.89146     -3713.898    24360933.140    99753929.86244
     -2893.949  
  21292390.100   111892265.38849      1922.168    21292388.780    87188774.60149
      1497.793  
  20429985.540   107360300.38049      1069.406    20429987.460    83657386.13949
       833.301  
  22785893.680   119740674.10148     -2779.359    22785895.820    93304427.23149
     -2165.738  
  23316374.580   122528374.55548      3602.418    23316374.480    95476660.06945
      2807.078  
  19853577.360   105830734.40109     -1649.023    19853583.100    82312815.21408
     -1282.578  
  22456974.840   119834702.02606       201.258           0.000           0.00000
         0.000  
  19885785.080   106263605.99509      1947.531    19885789.360    82649488.77508
      1514.746  
  22821118.760   121991948.51507     -3342.504    22821124.100    94882649.15106
     -2599.730  
  19911370.580   106475049.39209       153.406    19911374.400    82813943.22208
       119.316  
  21411118.040   114535045.10608     -2989.898    21411124.940    89082837.52806
     -2325.477  
  21231901.580   113616197.78908      3893.176    21231905.640    88368172.74207
      3028.027  
 20  5 13  2 59  0.0000000  0 15G27G16G30G 4G 7G 8G 9G11R14R 6R15R 5
                                R24R23R17
  20728051.180   108926643.31049     -1341.105    20728052.520    84877907.98349
     -1045.020  
  22563427.620   118571610.45747     -3028.113    22563426.760    92393458.24145
     -2359.578  
  23381918.340   122872815.43748      3237.367    23381920.500    95745058.85049
      2522.625  
  24364463.660   128036113.52846     -3713.488    24364466.600    99768398.90244
     -2893.637  
  21290562.040   111882658.93149      1920.477    21290560.720    87181289.05449
      1496.477  
  20428969.460   107354960.82549      1066.531    20428971.380    83653225.43949
       831.059  
  22788538.980   119754575.19648     -2780.973    22788541.120    93315259.24349
     -2166.996  
  23312947.420   122510364.88148      3601.582    23312947.360    95462626.54445
      2806.422  
  19855125.100   105838984.74809     -1651.043    19855130.840    82319232.14208
     -1284.148  
  22456788.080   119833705.46506       197.461           0.000           0.00000
         0.000  
  19883963.600   106253872.64109      1945.965    19883967.880    82641918.38908
      1513.523  
  22824246.340   122008667.15907     -3344.531    22824251.680    94895652.53606
     -2601.305  
  19911229.100   106474293.07309       149.184    19911232.980    82813354.97408
       116.027  
  21413913.960   114550001.28308     -2992.574    21413920.840    89094470.11006
     -2327.563  
  21228264.860   113596737.16608      3891.211    21228268.960    88353036.70807
      3026.496  
 20  5 13  2 59  5.0000000  0 15G27G16G30G 4G 7G 8G 9G11R14R 6R15R 5
                                R24R23R17
  20729328.620   108933356.23449     -1344.016    20729329.940    84883138.83149
     -1047.289  
  22566309.200   118586753.27547     -3029.020    22566308.380    92405257.83145
     -2360.277  
  23378838.800   122856632.37448      3236.098    23378840.960    95732448.67349
      2521.633  
  24367997.240   128054682.40646     -3713.875    24368000.100    99782868.17445
     -2893.934  
  21288735.780   111873061.78949      1918.461    21288734.460    87173810.76349
      1494.902  
  20427956.100   107349635.51949      1063.566    20427958.020    83649075.86449
       828.754  
  22791185.860   119768484.84948     -2782.672    22791188.020    93326097.92849
     -2168.320  
  23309520.940   122492358.88048      3600.699    23309520.880    95448595.91345
      2805.738  
  19856674.860   105847245.96809     -1653.277    19856680.640    82325657.54208
     -1285.887  
  22456605.220   119832729.44106       193.176           0.000           0.00000
         0.000  
  19882143.820   106244148.17109      1943.902    19882148.060    82634354.90808
      1511.922  
  22827375.860   122025396.07607     -3346.727    22827381.160    94908663.89606
     -2603.012  
  19911091.780   106473558.69509       144.664    19911095.660    82812783.79708
       112.516  
  21416712.680   114564972.42408     -2995.844    21416719.560    89106114.33406
     -2330.105  
  21224630.200   113577287.29208      3888.836    21224634.280    88337909.03207
      3024.648  
 20  5 13  2 59 10.0000000  0 15G27G16G30G 4G 7G 8G 9G11R14R 6R15R 5
                                R24R23R17
  20730609.140   108940085.39149     -1347.297    20730610.480    84888382.33449
     -1049.840  
  22569191.720   118601901.27847     -3029.805    22569190.940    92417061.47145
     -2360.891  
  23375760.340   122840455.02048      3235.027    23375762.500    95719842.95149
      2520.801  
  24371531.240   128073253.67546     -3714.320    24371534.240    99797339.28144
     -2894.281  
  21286911.700   111863476.14749      1916.148    21286910.360    87166341.43249
      1493.102  
  20426945.900   107344326.75949      1060.215    20426947.800    83644939.16649
       826.137  
  22793834.820   119782405.29748     -2785.043    22793837.000    93336945.03349
     -2170.164  
  23306095.620   122474358.76548      3599.527    23306095.600    95434569.85145
      2804.824  
  19858227.100   105855520.30809     -1656.059    19858232.880    82332093.13308
     -1288.051  
  22456426.700   119831776.49306       188.355           0.000           0.00000
         0.000  
  19880326.100   106234434.81309      1941.609    19880330.340    82626800.08208
      1510.141  
  22830507.740   122042137.52607     -3349.344    22830512.960    94921685.00706
     -2605.051  
  19910958.980   106472848.53509       139.738    19910962.880    82812231.45008
       108.680  
  21419514.640   114579960.90308     -2999.344    21419521.500    89117772.03706
     -2332.828  
  21220998.000   113557850.27908      3886.332    21221002.000    88322791.36407
      3022.703  
 20  5 13  2 59 15.0000000  0 15G27G16G30G 4G 7G 8G 9G11R14R 6R15R 5
                                R24R23R17
  20731892.700   108946830.43449     -1350.508    20731894.020    84893638.20949
     -1052.348  
  22572075.200   118617054.15747     -3030.730    22572074.420    92428868.90145
     -2361.613  
  23372682.920   122824283.04848      3234.090    23372685.080    95707241.41649
      2520.070  
  24375065.660   128091827.01746     -3714.926    24375068.580    99811811.98844
     -2894.754  
  21285089.740   111853901.69649      1913.758    21285088.400    87158880.82549
      1491.234  
  20425938.760   107339034.18749      1056.961    20425940.660    83640815.08149
       823.602  
  22796485.760   119796336.14648     -2787.203    22796487.960    93347800.23349
     -2171.852  
  23302671.300   122456364.19748      3598.453    23302671.300    95420548.12045
      2803.984  
  19859781.740   105863807.39809     -1658.633    19859787.520    82338538.65008
     -1290.051  
  22456252.320   119830846.03506       183.734           0.000           0.00000
         0.000  
  19878510.440   106224732.29809      1939.590    19878514.640    82619253.67708
      1508.566  
  22833641.880   122058891.14107     -3351.926    22833647.080    94934715.57906
     -2607.059  
  19910830.640   106472162.22209       135.020    19910834.540    82811697.65708
       105.016  
  21422319.780   114594966.36608     -3002.855    21422326.620    89129442.95106
     -2335.559  
  21217368.100   113538425.94208      3883.563    21217372.080    88307683.55507
      3020.547  
 20  5 13  2 59 20.0000000  0 15G27G16G30G 4G 7G 8G 9G11R14R 6R15R 5
                                R24R23R17
  20733178.980   108953589.97049     -1353.023    20733180.320    84898905.38149
     -1054.305  
  22574959.380   118632210.49147     -3031.121    22574958.580    92440679.03445
     -2361.918  
  23369606.260   122808115.10948      3233.512    23369608.420    95694643.02649
      2519.621  
  24378600.160   128110400.94546     -3714.313    24378603.040    99826285.16744
     -2894.273  
  21283269.640   111844337.00649      1912.250    21283268.300    87151427.81349
      1490.063  
  20424934.440   107333756.39949      1054.332    20424936.320    83636702.52449
       821.559  
  22799138.380   119810275.98748     -2788.719    22799140.600    93358662.44049
     -2173.031  
  23299247.800   122438373.78848      3598.039    23299247.820    95406529.62445
      2803.668  
  19861338.480   105872105.77809     -1660.582    19861344.260    82344992.94608
     -1291.566  
  22456081.880   119829936.71606       179.504           0.000           0.00000
         0.000  
  19876696.520   106215039.13609      1938.027    19876700.680    82611714.55408
      1507.352  
  22836778.020   122075655.39007     -3353.648    22836783.180    94947754.43406
     -2608.398  
  19910706.480   106471498.33009       130.770    19910710.380    82811181.29608
       101.711  
  21425127.780   114609987.22208     -3005.570    21425134.620    89141125.83706
     -2337.664  
  21213740.240   113519012.76108      3881.848    21213744.260    88292584.42207
      3019.215  
 20  5 13  2 59 25.0000000  0 15G27G16G30G 4G 7G 8G 9G11R14R 6R15R 5
                                R24R23R17
  20734468.080   108960364.20549     -1356.105    20734469.440    84904184.00349
     -1056.711  
  22577844.240   118647370.50147     -3032.445    22577843.520    92452492.02745
     -2362.949  
  23366530.420   122791951.42148      3232.391    23366532.560    95682047.95549
      2518.746  
  24382134.860   128128975.77746     -3715.305    24382137.740    99840759.05844
     -2895.047  
  21281451.460   111834782.37649      1910.078    21281450.120    87143982.65249
      1488.371  
  20423932.980   107328493.56049      1051.125    20423934.840    83632601.61049
       819.055  
  22801792.780   119824225.05048     -2790.715    22801795.000    93369531.84249
     -2174.586  
  23295825.140   122420387.77448      3596.840    23295825.160    95392514.55345
      2802.730  
  19862897.380   105880415.72509     -1663.121    19862903.180    82351456.23208
     -1293.543  
  22455915.420   119829048.66106       175.422           0.000           0.00000
         0.000  
  19874884.380   106205355.58609      1935.762    19874888.560    82604182.90308
      1505.590  
  22839916.240   122092430.66407     -3356.176    22839921.260    94960801.85506
     -2610.363  
  19910586.580   106470857.07809       126.023    19910590.480    82810682.54108
        98.016  
  21427938.720   114625023.73008     -3009.016    21427945.520    89152820.89606
     -2340.348  
  21210114.620   113499611.03308      3879.441    21210118.580    88277494.19607
      3017.344  
 20  5 13  2 59 30.0000000  0 15G27G16G30G 4G 7G 8G 9G11R14R 6R15R 5
                                R24R23R17
  20735760.380   108967155.30849     -1359.973    20735761.740    84909475.77049
     -1059.723  
  22580730.180   118662536.33147     -3033.633    22580729.540    92464309.54645
     -2363.875  
  23363455.800   122775794.18148      3230.941    23363457.920    95669457.90449
      2517.617  
  24385670.120   128147553.57346     -3715.883    24385673.060    99855235.26744
     -2895.496  
  21279635.600   111825239.98349      1907.164    21279634.280    87136547.02149
      1486.102  
  20422934.800   107323247.98649      1047.313    20422936.660    83628514.15449
       816.082  
  22804449.340   119838185.48848     -2793.070    22804451.560    93380410.09349
     -2176.422  
  23292403.700   122402408.30148      3595.398    23292403.780    95378504.58445
      2801.609  
  19864458.900   105888739.47608     -1666.145    19864464.680    82357930.26108
     -1295.895  
  22455753.420   119828184.05706       170.512           0.000           0.00000
         0.000  
  19873074.440   106195683.84409      1933.070    19873078.620    82596660.43808
      1503.496  
  22843056.900   122109219.05607     -3359.105    22843061.920    94973859.47706
     -2612.641  
  19910471.280   106470240.64009       120.633    19910475.220    82810203.09808
        93.824  
  21430752.960   114640078.24108     -3012.852    21430759.820    89164529.95806
     -2343.332  
  21206491.520   113480222.94408      3876.301    21206495.440    88262414.57907
      3014.902  
 20  5 13  2 59 35.0000000  0 15G27G16G30G 4G 7G 8G 9G11R14R 6R15R 5
                                R24R23R17
  20737055.780   108973962.66349     -1362.934    20737057.140    84914780.20249
     -1062.031  
  22583617.120   118677707.39247     -3034.547    22583616.400    92476131.15145
     -2364.586  
  23360382.280   122759642.77748      3229.977    23360384.400    95656872.39749
      2516.863  
  24389205.840   128166133.77846     -3715.934    24389208.680    99869713.31045
     -2895.539  
  21277821.940   111815709.18849      1905.125    21277820.640    87129120.42949
      1484.512  
  20421939.760   107318018.95849      1044.406    20421941.600    83624439.58349
       813.820  
  22807107.940   119852156.67548     -2795.105    22807110.180    93391296.73049
     -2178.008  
  23288983.440   122384434.81647      3594.523    23288983.580    95364499.27746
      2800.926  
  19866022.880   105897076.39909     -1668.457    19866028.660    82364414.53208
     -1297.691  
  22455595.740   119827342.63305       166.613           0.000           0.00000
         0.000  
  19871266.620   106186023.30109      1931.180    19871270.780    82589146.68608
      1502.047  
  22846199.920   122126019.81907     -3361.406    22846204.780    94986926.73406
     -2614.430  
  19910360.560   106469648.42309       116.285    19910364.480    82809742.48908
        90.445  
  21433570.440   114655149.94808     -3015.680    21433577.320    89176252.39706
     -2345.531  
  21202870.800   113460847.92708      3873.930    21202874.740    88247345.12807
      3013.055  
 20  5 13  2 59 40.0000000  0 15G27G16G30G 4G 7G 8G 9G11R14R 6R15R 5
                                R24R23R17
  20738353.980   108980784.70349     -1365.684    20738355.340    84920096.07749
     -1064.172  
  22586504.780   118692882.14647     -3035.363    22586504.060    92487955.63245
     -2365.223  
  23357309.560   122743495.63848      3229.410    23357311.680    95644290.21849
      2516.422  
  24392741.720   128184714.80646     -3716.469    24392744.520    99884192.03744
     -2895.953  
  21276010.200   111806188.45949      1903.324    21276008.900    87121701.68149
      1483.109  
  20420947.580   107312805.00749      1041.402    20420949.420    83620376.76949
       811.480  
  22809768.280   119866137.04048     -2796.762    22809770.520    93402190.51749
     -2179.297  
  23285564.020   122366465.77147      3593.820    23285564.180    95350497.43045
      2800.375  
  19867589.040   105905424.83908     -1670.598    19867594.800    82370907.75808
     -1299.359  
  22455441.960   119826522.38606       162.238           0.000           0.00000
         0.000  
  19869460.600   106176372.42909      1929.438    19869464.740    82581640.45508
      1500.672  
  22849344.960   122142831.48307     -3363.277    22849349.720    95000002.44006
     -2615.891  
  19910254.060   106469078.92209       111.898    19910257.980    82809299.54408
        87.031  
  21436390.880   114670237.28708     -3018.816    21436397.740    89187986.99406
     -2347.973  
  21199252.280   113441484.39608      3871.809    21199256.200    88232284.60607
      3011.406  
 20  5 13  2 59 45.0000000  0 15G27G16G30G 4G 7G 8G 9G11R14R 6R15R 5
                                R24R23R17
  20739654.880   108987621.09149     -1368.516    20739656.280    84925423.13149
     -1066.379  
  22589393.080   118708060.20447     -3035.770    22589392.400    92499782.68245
     -2365.539  
  23354237.660   122727352.51648      3228.332    23354239.740    95631711.17049
      2515.582  
  24396277.660   128203296.32546     -3716.102    24396280.320    99898671.12445
     -2895.664  
  21274200.320   111796677.47849      1901.305    21274199.040    87114290.52749
      1481.531  
  20419958.220   107307605.75649      1038.461    20419960.040    83616325.40349
       809.188  
  22812430.300   119880126.27648     -2798.527    22812432.560    93413091.21249
     -2180.676  
  23282145.400   122348500.89148      3592.773    23282145.580    95336498.83245
      2799.563  
  19869157.300   105913784.57609     -1672.891    19869163.060    82377409.77408
     -1301.137  
  22455292.180   119825723.22205       157.801           0.000           0.00000
         0.000  
  19867656.320   106166730.89309      1927.539    19867660.460    82574141.48208
      1499.191  
  22852491.960   122159653.59007     -3365.273    22852496.660    95013086.29806
     -2617.441  
  19910151.720   106468531.71509       107.352    19910155.660    82808873.94108
        83.496  
  21439214.200   114685339.94208     -3021.852    21439221.020    89199733.50206
     -2350.332  
  21195635.840   113422132.05308      3869.438    21195639.720    88217232.78707
      3009.563  
 20  5 13  2 59 50.0000000  0 15G27G16G30G 4G 7G 8G 9G11R14R 6R15R 5
                                R24R23R17
  20740958.760   108994473.00349     -1371.984    20740960.140    84930762.28349
     -1069.082  
  22592282.200   118723242.79047     -3037.148    22592281.600    92511613.26645
     -2366.613  
  23351166.660   122711214.54348      3226.910    23351168.800    95619136.13149
      2514.477  
  24399813.940   128221879.48147     -3717.012    24399816.540    99913151.49745
     -2896.375  
  21272392.500   111787177.43349      1898.801    21272391.240    87106887.89349
      1479.582  
  20418971.840   107302422.33349      1035.031    20418973.660    83612286.37349
       806.520  
  22815094.220   119894125.50648     -2800.922    22815096.520    93423999.69949
     -2182.539  
  23278727.760   122330541.29847      3591.293    23278727.980    95322504.34846
      2798.410  
  19870727.920   105922156.77909     -1675.777    19870733.660    82383921.48608
     -1303.387  
  22455146.540   119824946.21305       153.453           0.000           0.00000
         0.000  
  19865854.000   106157099.85809      1925.051    19865858.140    82566650.68108
      1497.262  
  22855641.120   122176487.43807     -3367.918    22855645.680    95026179.28606
     -2619.496  
  19910053.780   106468008.00709       102.289    19910057.720    82808466.61408
        79.559  
  21442040.560   114700459.14808     -3025.445    21442047.380    89211492.88606
     -2353.129  
  21192021.660   113402792.14508      3866.848    21192025.580    88202190.64507
      3007.547  
 20  5 13  2 59 55.0000000  0 15G27G16G30G 4G 7G 8G 9G11R14R 6R15R 5
                                R24R23R17
  20742265.880   109001341.95249     -1375.199    20742267.260    84936114.70949
     -1071.586  
  22595172.480   118738431.40847     -3038.336    22595171.880    92523448.55545
     -2367.539  
  23348096.980   122695083.26348      3225.938    23348099.120    95606566.30649
      2513.719  
  24403350.840   128240465.79847     -3717.129    24403353.320    99927634.32545
     -2896.473  
  21270587.060   111777689.85549      1896.535    21270585.820    87099494.97549
      1477.816  
  20417988.780   107297256.33749      1031.762    20417990.620    83608260.92549
       803.969  
  22817760.360   119908136.27748     -2803.184    22817762.660    93434917.17949
     -2184.305  
  23275311.420   122312588.50548      3590.039    23275311.660    95308515.16245
      2797.430  
  19872301.100   105930542.87109     -1678.219    19872306.860    82390444.00608
     -1305.285  
  22455005.420   119824193.19706       148.816           0.000           0.00000
         0.000  
  19864053.940   106147480.92009      1922.813    19864058.080    82559169.28508
      1495.516  
  22858792.780   122193334.49807     -3370.148    22858797.300    95039282.52506
     -2621.230  
  19909960.520   106467509.37109        97.469    19909964.480    82808078.78808
        75.809  
  21444870.280   114715596.33008     -3028.930    21444877.080    89223266.25006
     -2355.840  
  21188410.160   113383466.22008      3864.059    21188414.060    88187159.37507
      3005.379  
 20  5 13  3  0  0.0000000  0 15G27G16G30G 4G 7G 8G 9G11R14R 6R15R 5
                                R24R23R17
  20743575.860   109008225.96249     -1378.590    20743577.260    84941478.87249
     -1074.230  
  22598063.520   118753624.07847     -3039.277    22598062.960    92535287.00445
     -2368.270  
  23345028.180   122678956.73448      3224.484    23345030.340    95594000.18249
      2512.586  
  24406887.960   128259053.29447     -3717.711    24406890.480    99942118.06844
     -2896.922  
  21268783.640   111768212.81149      1894.113    21268782.420    87092110.26549
      1475.930  
  20417008.660   107292105.82449      1028.246    20417010.500    83604247.54049
       801.230  
  22820428.300   119922156.56748     -2805.301    22820430.620    93445842.07249
     -2185.953  
  23271896.020   122294640.58348      3588.910    23271896.300    95294529.78145
      2796.551  
  19873876.580   105938941.02409     -1681.137    19873882.340    82396975.89808
     -1307.555  
  22454868.320   119823461.91206       144.020           0.000           0.00000
         0.000  
  19862255.820   106137872.10909      1920.477    19862259.920    82551695.76508
      1493.703  
  22861946.520   122210192.76308     -3373.008    22861950.940    95052394.49606
     -2623.453  
  19909871.620   106467033.87109        92.438    19909875.560    82807708.95708
        71.895  
  21447703.000   114730749.38708     -3032.563    21447709.760    89235051.95606
     -2358.664  
  21184800.880   113364152.25308      3861.422    21184804.780    88172137.40607
      3003.328  
 20  5 13  3  0  5.0000000  0 15G27G16G30G 4G 7G 8G 9G11R14R 6R15R 5
                                R24R23R17
  20744888.740   109015125.20149     -1381.371    20744890.140    84946854.90149
     -1076.398  
  22600955.380   118768820.97647     -3039.758    22600954.800    92547128.73045
     -2368.645  
  23341960.360   122662835.14248      3223.867    23341962.520    95581437.90449
      2512.105  
  24410425.360   128277642.16047     -3717.715    24410427.860    99956602.89444
     -2896.926  
  21266982.260   111758746.48349      1892.070    21266981.040    87084733.90949
      1474.340  
  20416031.500   107286970.88749      1025.465    20416033.360    83600246.29349
       799.063  
  22823098.080   119936186.59248     -2807.102    22823100.420    93456774.55749
     -2187.355  
  23268481.620   122276697.80548      3588.172    23268481.880    95280548.38045
      2795.977  
  19875454.360   105947351.34009     -1683.328    19875460.080    82403517.25108
     -1309.258  
  22454735.340   119822752.41206       139.832           0.000           0.00000
         0.000  
  19860459.580   106128273.60609      1918.770    19860463.700    82544230.26508
      1492.375  
  22865102.340   122227062.37308     -3375.344    22865106.700    95065515.27906
     -2625.273  
  19909787.060   106466581.59109        88.242    19909791.000    82807357.18608
        68.633  
  21450538.740   114745918.67308     -3035.402    21450545.500    89246850.29006
     -2360.871  
  21181193.860   113344850.55508      3859.230    21181197.780    88157124.98307
      3001.625  
 20  5 13  3  0 10.0000000  0 15G27G16G30G 4G 7G 8G 9G11R14R 6R15R 5
                                R24R23R17
  20746204.340   109022038.78649     -1383.715    20746205.760    84952242.11049
     -1078.223  
  22603847.920   118784021.24347     -3039.926    22603847.340    92558973.08545
     -2368.777  
  23338893.300   122646717.58048      3223.504    23338895.440    95568878.76749
      2511.820  
  24413962.820   128296231.43847     -3717.152    24413965.300    99971088.03244
     -2896.484  
  21265182.720   111749289.95249      1890.789    21265181.540    87077365.18649
      1473.344  
  20415057.160   107281850.70449      1023.039    20415059.020    83596256.53949
       797.168  
  22825769.540   119950225.39848     -2808.031    22825771.900    93467713.87849
     -2188.082  
  23265068.000   122258759.22447      3588.004    23265068.260    95266570.28545
      2795.848  
  19877034.220   105955772.84608     -1684.965    19877039.940    82410067.31108
     -1310.531  
  22454606.280   119822064.08305       136.066           0.000           0.00000
         0.000  
  19858665.100   106118684.48909      1917.414    19858669.220    82536772.06708
      1491.320  
  22868260.140   122243942.33007     -3376.602    22868264.460    95078644.13706
     -2626.250  
  19909706.620   106466151.60809        84.227    19909710.600    82807022.76108
        65.508  
  21453377.320   114761103.21508     -3037.840    21453384.080    89258660.48806
     -2362.770  
  21177589.000   113325560.17808      3857.457    21177592.920    88142121.36107
      3000.246  
 20  5 13  3  0 15.0000000  0 15G27G16G30G 4G 7G 8G 9G11R14R 6R15R 5
                                R24R23R17
  20747522.720   109028966.82549     -1387.453    20747524.120    84957640.58049
     -1081.137  
  22606741.080   118799224.96447     -3041.453    22606740.540    92570820.13545
     -2369.969  
  23335827.060   122630604.24648      3221.805    23335829.160    95556322.92949
      2510.496  
  24417500.400   128314821.34447     -3718.563    24417502.740    99985573.66744
     -2897.582  
  21263385.100   111739843.39249      1887.879    21263383.920    87070004.22849
      1471.070  
  20414085.640   107276745.40349      1019.035    20414087.520    83592278.38749
       794.055  
  22828442.700   119964273.15448     -2811.082    22828445.080    93478660.17749
     -2190.457  
  23261655.240   122240825.04948      3585.797    23261655.480    95252595.60345
      2794.129  
  19878616.240   105964205.79109     -1688.227    19878621.940    82416626.26608
     -1313.070  
  22454481.240   119821396.85906       131.117           0.000           0.00000
         0.000  
  19856872.420   106109104.92709      1914.426    19856876.520    82529321.29808
      1488.996  
  22871419.920   122260832.99407     -3379.609    22871424.140    95091781.30706
     -2628.586  
  19909630.420   106465744.16209        78.660    19909634.400    82806705.85608
        61.180  
  21456218.740   114776303.07308     -3041.918    21456225.520    89270482.59706
     -2365.941  
  21173986.220   113306281.23408      3854.277    21173990.200    88127126.63107
      2997.770  
 20  5 13  3  0 20.0000000  0 15G27G16G30G 4G 7G 8G 9G11R14R 6R15R 5
                                R24R23R17
  20748844.400   109035912.31649     -1390.586    20748845.800    84963052.65149
     -1083.578  
  22609635.460   118814435.17347     -3042.469    22609634.860    92582672.24646
     -2370.758  
  23332762.180   122614498.10648      3220.785    23332764.260    95543772.69449
      2509.703  
  24421038.660   128333414.80847     -3718.734    24421041.000   100000062.08244
     -2897.715  
  21261589.960   111730409.81049      1885.695    21261588.780    87062653.38749
      1469.367  
  20413117.560   107271658.06649      1016.090    20413119.420    83588314.22849
       791.758  
  22831118.140   119978332.82548     -2813.027    22831120.500    93489615.75949
     -2191.973  
  23258243.880   122222898.23748      3584.934    23258244.140    95238626.66045
      2793.449  
  19880200.940   105972653.19209     -1690.688    19880206.620    82423196.46508
     -1314.984  
  22454360.740   119820753.81606       126.570           0.000           0.00000
         0.000  
  19855082.080   106099537.95909      1912.438    19855086.200    82521880.32408
      1487.449  
  22874582.200   122277737.20107     -3381.793    22874586.460    95104928.99306
     -2630.289  
  19909559.040   106465362.29509        74.191    19909562.980    82806408.85508
        57.703  
  21459063.660   114791521.36908     -3045.254    21459070.400    89282319.04806
     -2368.535  
  21170386.160   113287016.81608      3851.785    21170390.180    88112143.20307
      2995.832  
 20  5 13  3  0 25.0000000  0 15G27G16G30G 4G 7G 8G 9G11R14R 6R15R 5
                                R24R23R17
  20750169.040   109042873.32849     -1393.656    20750170.460    84968476.81649
     -1085.969  
  22612530.740   118829649.90447     -3043.387    22612530.080    92594527.88645
     -2371.473  
  23329698.300   122598397.27248      3219.859    23329700.360    95531226.59749
      2508.980  
  24424577.240   128352009.85647     -3718.996    24424579.520   100014551.69944
     -2897.922  
  21259796.880   111720987.28249      1883.574    21259795.740    87055311.15749
      1467.719  
  20412152.500   107266586.63149      1013.020    20412154.360    83584362.46349
       789.367  
  22833795.500   119992402.45748     -2814.699    22833797.840    93500579.10549
     -2193.277  
  23254833.560   122204976.90848      3583.754    23254833.820    95224661.98446
      2792.531  
  19881787.960   105981113.02709     -1693.039    19881793.640    82429776.33708
     -1316.813  
  22454244.360   119820133.09706       122.156           0.000           0.00000
         0.000  
  19853293.760   106089981.69309      1910.406    19853297.860    82514447.67208
      1485.871  
  22877746.660   122294653.02908     -3384.066    22877750.860    95118085.74406
     -2632.055  
  19909492.040   106465003.93609        69.574    19909495.960    82806130.13108
        54.113  
  21461911.600   114806755.99808     -3048.465    21461918.340    89294168.20306
     -2371.031  
  21166788.500   113267765.10208      3849.211    21166792.520    88097169.64907
      2993.832  
 20  5 13  3  0 30.0000000  0 15G27G16G30G 4G 7G 8G 9G11R14R 6R15R 5
                                R24R23R17
  20751496.480   109049849.09349     -1396.434    20751497.900    84973912.47749
     -1088.133  
  22615426.720   118844868.36047     -3043.648    22615426.040    92606386.41145
     -2371.676  
  23326635.280   122582300.96748      3218.887    23326637.320    95518684.02449
      2508.223  
  24428115.940   128370605.76847     -3718.746    24428118.280   100029042.01044
     -2897.730  
  21258005.800   111711575.05349      1881.629    21258004.660    87047976.95649
      1466.199  
  20411190.320   107261530.37049      1009.895    20411192.180    83580422.52149
       786.930  
  22836474.580   120006481.31548     -2816.492    22836476.940    93511549.63749
     -2194.672  
  23251424.140   122187060.29848      3582.969    23251424.400    95210701.00645
      2791.922  
  19883377.240   105989584.60809     -1695.379    19883382.900    82436365.34008
     -1318.633  
  22454132.120   119819533.93806       118.086           0.000           0.00000
         0.000  
  19851507.280   106080435.23509      1908.406    19851511.380    82507022.65308
      1484.316  
  22880913.140   122311579.59608     -3386.160    22880917.340    95131250.84106
     -2633.684  
  19909429.300   106464668.35709        64.887    19909433.200    82805869.13108
        50.469  
  21464762.500   114822006.32908     -3051.371    21464769.220    89306029.56806
     -2373.293  
  21163193.000   113248525.14908      3846.738    21163197.060    88082205.24807
      2991.906  
 20  5 13  3  0 35.0000000  0 15G27G16G30G 4G 7G 8G 9G11R14R 6R15R 5
                                R24R23R17
  20752826.560   109056838.64249     -1399.539    20752827.960    84979358.87549
     -1090.555  
  22618323.240   118860089.65547     -3044.938    22618322.600    92618247.15645
     -2372.680  
  23323572.940   122566208.26648      3218.051    23323574.960    95506144.26449
      2507.570  
  24431654.600   128389201.56547     -3719.410    24431656.960   100043532.24044
     -2898.246  
  21256216.480   111702172.20849      1879.391    21256215.360    87040650.06149
      1464.457  
  20410230.860   107256488.35549      1006.789    20410232.700    83576493.68349
       784.512  
  22839155.220   120020568.39148     -2818.406    22839157.600    93522526.57349
     -2196.164  
  23248015.440   122169147.46448      3582.074    23248015.660    95196742.94745
      2791.223  
  19884968.520   105998066.87109     -1697.824    19884974.120    82442962.65608
     -1320.535  
  22454023.740   119818955.38605       113.047           0.000           0.00000
         0.000  
  19849722.480   106070897.75409      1906.293    19849726.580    82499604.61408
      1482.672  
  22884081.500   122328516.02708     -3388.664    22884085.620    95144423.60606
     -2635.633  
  19909370.600   106464354.65409        60.180    19909374.520    82805625.14008
        46.805  
  21467616.140   114837271.26108     -3054.820    21467622.820    89317902.29306
     -2375.977  
  21159599.600   113229296.08108      3844.258    21159603.640    88067249.31007
      2989.977  
 20  5 13  3  0 40.0000000  0 15G27G16G30G 4G 7G 8G 9G11R14R 6R15R 5
                                R24R23R17
  20754159.860   109063845.14449     -1402.922    20754161.240    84984818.48749
     -1093.191  
  22621220.880   118875316.93247     -3046.141    22621220.340    92630112.56145
     -2373.621  
  23320511.900   122550122.35648      3216.602    23320513.900    95493609.79049
      2506.441  
  24435193.900   128407800.39747     -3720.074    24435196.060   100058024.81944
     -2898.762  
  21254429.560   111692781.91449      1876.828    21254428.440    87033332.95149
      1462.465  
  20409274.720   107251463.84749      1003.074    20409276.560    83572578.47849
       781.613  
  22841838.040   120034666.87948     -2820.797    22841840.440    93533512.40449
     -2198.027  
  23244608.080   122151241.66648      3580.344    23244608.240    95182790.39645
      2789.879  
  19886562.420   106006563.19409     -1700.770    19886567.980    82449570.90908
     -1322.820  
  22453919.760   119818400.64106       108.676           0.000           0.00000
         0.000  
  19847939.920   106061372.40609      1903.836    19847944.040    82492196.01008
      1480.758  
  22887252.220   122345465.44907     -3391.281    22887256.400    95157606.46906
     -2637.672  
  19909316.660   106464066.04409        55.164    19909320.540    82805400.66808
        42.906  
  21470473.100   114852554.14308     -3058.461    21470479.760    89329788.97606
     -2378.809  
  21156008.800   113210081.17508      3841.547    21156012.840    88052304.38507
      2987.871  
 20  5 13  3  0 45.0000000  0 15G27G16G30G 4G 7G 8G 9G11R14R 6R15R 5
                                R24R23R17
  20755496.320   109070868.29449     -1406.051    20755497.700    84990291.07149
     -1095.629  
  22624119.600   118890549.83247     -3046.777    22624119.080    92641982.34745
     -2374.117  
  23317452.100   122534042.94648      3215.543    23317454.080    95481080.38849
      2505.617  
  24438733.680   128426401.94847     -3720.273    24438735.860   100072519.53345
     -2898.914  
  21252644.960   111683403.86549      1874.719    21252643.860    87026025.38449
      1460.816  
  20408321.860   107246456.48249      1000.117    20408323.680    83568676.63949
       779.313  
  22844522.980   120048776.44748     -2822.602    22844525.360    93544506.87049
     -2199.434  
  23241201.980   122133342.49848      3579.270    23241202.140    95168843.00545
      2789.043  
  19888158.880   106015073.13009     -1703.055    19888164.420    82456189.74608
     -1324.602  
  22453820.200   119817869.09705       104.406           0.000           0.00000
         0.000  
  19846159.620   106051858.95809      1901.770    19846163.740    82484796.66208
      1479.152  
  22890425.380   122362427.59708     -3393.375    22890429.500    95170799.24406
     -2639.297  
  19909267.320   106463802.13209        50.637    19909271.180    82805195.40708
        39.383  
  21473333.360   114867854.47408     -3061.664    21473340.000    89341689.23206
     -2381.297  
  21152420.600   113190880.14208      3839.242    21152424.680    88037370.25907
      2986.078  
 20  5 13  3  0 50.0000000  0 15G27G16G30G 4G 7G 8G 9G11R14R 6R15R 5
                                R24R23R17
  20756835.420   109077905.20249     -1408.707    20756836.780    84995774.37449
     -1097.699  
  22627018.840   118905785.55647     -3047.012    22627018.340    92653854.34245
     -2374.297  
  23314392.980   122517967.18348      3214.703    23314394.960    95468553.82549
      2504.965  
  24442273.440   128445003.37647     -3720.293    24442275.640   100087014.13345
     -2898.934  
  21250862.180   111674035.29549      1872.781    21250861.080    87018725.19649
      1459.305  
  20407371.700   107241463.32649       997.219    20407373.520    83564785.87049
       777.051  
  22847209.500   120062894.21548     -2824.109    22847211.860    93555507.72749
     -2200.609  
  23237796.640   122115447.17848      3578.742    23237796.780    95154898.59045
      2788.629  
  19889757.300   106023593.77108     -1705.109    19889762.840    82462816.90908
     -1326.199  
  22453724.400   119817358.17305       100.332           0.000           0.00000
         0.000  
  19844381.000   106042354.49909      1900.031    19844385.100    82477404.30908
      1477.785  
  22893600.340   122379399.52907     -3395.359    22893604.460    95183999.61406
     -2640.844  
  19909222.040   106463560.06309        46.391    19909225.880    82805007.13308
        36.082  
  21476196.300   114883169.39808     -3064.387    21476202.940    89353600.83706
     -2383.414  
  21148834.480   113171690.04108      3837.043    21148838.520    88022444.62507
      2984.367  
