     2              OBSERVATION DATA    M                   RINEX VERSION / TYPE
LEICA GEO OFFICE 7.0                    26-9-20 23:44       PGM / RUN BY / DATE
                                                            OBSERVER / AGENCY
HABG                                                        MARKER NAME
HABG                                                        MARKER NUMBER
468588              LEICA GX1220GG      5.60                REC # / TYPE / VERS
                    LEIAX1202GG                             ANT # / TYPE
 -1164126.9432  3810905.6476  4964508.0520                  APPROX POSITION XYZ
        1.6690        0.0000        0.0000                  ANTENNA: DELTA H/E/N
L1PhaOff:   0.0644  L2PhaOff:   0.0640                      COMMENT
     1     1                                                WAVELENGTH FACT L1/2
     6    C1    L1    D1    P2    L2    D2                  # / TYPES OF OBSERV
  2020     9    26     5    29   20.000000                  TIME OF FIRST OBS
  2020     9    26     8    51   20.000000                  TIME OF LAST OBS
    18                                                      LEAP SECONDS
    29                                                      # OF SATELLITES
          C1    L1    D1    P2    L2    D2                  COMMENT
   G 1     0     0     0     0     0     0                  PRN / # OF OBS
   G 2     5     5     5     5     5     5                  PRN / # OF OBS
   G 3     0     0     0     0     0     0                  PRN / # OF OBS
   G 4     0     0     0     0     0     0                  PRN / # OF OBS
   G 5   938   938   938   938   938   938                  PRN / # OF OBS
   G 6     0     0     0     0     0     0                  PRN / # OF OBS
   G 7     0     0     0     0     0     0                  PRN / # OF OBS
   G 8   730   730   730   725   725   725                  PRN / # OF OBS
   G 9     0     0     0     0     0     0                  PRN / # OF OBS
   G10  1825  1825  1825  1825  1825  1825                  PRN / # OF OBS
   G11    43    43    43    42    42    42                  PRN / # OF OBS
   G12     0     0     0     0     0     0                  PRN / # OF OBS
   G13  1885  1885  1885  1885  1885  1885                  PRN / # OF OBS
   G14     0     0     0     0     0     0                  PRN / # OF OBS
   G15  2425  2425  2425  2425  2425  2425                  PRN / # OF OBS
   G16     0     0     0     0     0     0                  PRN / # OF OBS
   G17     0     0     0     0     0     0                  PRN / # OF OBS
   G18  2424  2424  2424  2424  2424  2424                  PRN / # OF OBS
   G19     0     0     0     0     0     0                  PRN / # OF OBS
   G20  2425  2425  2425  2425  2425  2425                  PRN / # OF OBS
   G21   898   898   898   894   894   894                  PRN / # OF OBS
   G22     0     0     0     0     0     0                  PRN / # OF OBS
   G23     0     0     0     0     0     0                  PRN / # OF OBS
   G24  1981  1981  1981  1981  1981  1981                  PRN / # OF OBS
   G25     0     0     0     0     0     0                  PRN / # OF OBS
   G26     0     0     0     0     0     0                  PRN / # OF OBS
   G27  1494  1494  1494  1490  1490  1490                  PRN / # OF OBS
   G28     0     0     0     0     0     0                  PRN / # OF OBS
   G29   684   684   684   684   684   684                  PRN / # OF OBS
   G30   751   751   751   751   751   751                  PRN / # OF OBS
   G31     0     0     0     0     0     0                  PRN / # OF OBS
   G32   687   687   687   686   686   686                  PRN / # OF OBS
   R 1  2408  2408  2408  2405  2405  2405                  PRN / # OF OBS
   R 2   688   688   688   663   663   663                  PRN / # OF OBS
   R 3     0     0     0     0     0     0                  PRN / # OF OBS
   R 4     0     0     0     0     0     0                  PRN / # OF OBS
   R 5     0     0     0     0     0     0                  PRN / # OF OBS
   R 6   249   249   249     0     0     0                  PRN / # OF OBS
   R 7  1606  1606  1606  1606  1606  1606                  PRN / # OF OBS
   R 8  2425  2425  2425  2425  2425  2425                  PRN / # OF OBS
   R 9     0     0     0     0     0     0                  PRN / # OF OBS
   R10  1569  1569  1569     0     0     0                  PRN / # OF OBS
   R11   746   746   746   719   719   719                  PRN / # OF OBS
   R12     0     0     0     0     0     0                  PRN / # OF OBS
   R13     0     0     0     0     0     0                  PRN / # OF OBS
   R14     0     0     0     0     0     0                  PRN / # OF OBS
   R15    46    46    46    46    46    46                  PRN / # OF OBS
   R16  1127  1127  1127  1127  1127  1127                  PRN / # OF OBS
   R17  1381  1381  1381  1380  1380  1380                  PRN / # OF OBS
   R18   316   316   316   315   315   315                  PRN / # OF OBS
   R19     0     0     0     0     0     0                  PRN / # OF OBS
   R20     0     0     0     0     0     0                  PRN / # OF OBS
   R21     0     0     0     0     0     0                  PRN / # OF OBS
   R22   851   851   851   851   851   851                  PRN / # OF OBS
   R23  2015  2015  2015  2015  2015  2015                  PRN / # OF OBS
   R24  2422  2422  2422  2423  2423  2423                  PRN / # OF OBS
                                                            END OF HEADER
 20  9 26  5 29 20.0000000  0 14G30G20G18G15G 5G29G 2G13R 7R 8R 6R22
                                R24R23
  23822658.050   125188912.94757      -300.280    23822660.379    97549811.28655
      -233.972  
  23452769.290   123245131.67248      3179.401    23452769.112    96035170.35244
      2477.460  
  21148954.194   111138502.41349      2104.480    21148954.363    86601432.07547
      1639.852  
  20671232.789   108628062.32949      2100.801    20671232.772    84645244.30448
      1636.987  
  21973650.319   115472311.17349     -2693.000    21973650.200    89978422.69947
     -2098.445  
  22493797.018   118205699.52748     -2971.973    22493797.525    92108339.79147
     -2315.828  
  24742236.506   130021331.09846     -3358.397    24742237.604   101315340.39645
     -2616.938  
  20505263.619   107755887.86049        89.051    20505262.574    83965623.83748
        69.387  
  19459408.670   104167738.84309     -1309.323    19459412.256    81019367.13808
     -1018.362  
  20258083.821   108481128.22508      2292.565    20258087.379    84374218.43008
      1783.104  
  22580323.126   120492930.31815     -3766.516           0.000           0.00000
         0.000  
  20419536.239   109000861.93507     -3128.702    20419541.005    84778473.06604
     -2433.440  
  23229692.906   124219615.70007      4169.258    23229697.145    96615270.47206
      3242.750  
  20163389.739   107860534.63009      2317.227    20163396.105    83891555.25206
      1802.285  
 20  9 26  5 29 25.0000000  0 15G30G20G18G15G 5G29G 2G13R 7R 8R 6R22
                                R15R24R23
  23822944.971   125190420.85146      -304.027    23822947.316    97550986.30844
      -236.898  
  23449744.101   123229234.32347      3178.148    23449744.006    96022782.80044
      2476.479  
  21146952.544   111127983.66949      2102.023    21146952.705    86593235.65147
      1637.940  
  20669234.922   108617563.50049      2097.167    20669234.889    84637063.39948
      1634.155  
  21976212.784   115485777.02248     -2694.766    21976212.709    89988915.55847
     -2099.874  
  22496625.333   118220562.26548     -2974.390    22496625.812    92119921.12447
     -2317.710  
  24745431.844   130038122.12046     -3359.332    24745432.412   101328424.28645
     -2617.667  
  20505180.024   107755448.62549        85.132    20505179.007    83965281.58248
        66.335  
  19460632.661   104174290.96509     -1312.887    19460636.256    81024463.23708
     -1021.137  
  20255944.176   108469670.49508      2289.113    20255947.740    84365306.87808
      1780.421  
  22583852.443   120511763.18304     -3767.656           0.000           0.00000
         0.000  
  20422468.030   109016512.28607     -3132.772    20422472.842    84790645.55904
     -2436.605  
  23547735.270   125831957.72816  -2097152.000    23547744.551    97869339.02816
  -2097152.000  
  23225794.706   124198770.67706      4167.093    23225799.184    96599057.73006
      3241.047  
  20161225.040   107848954.95408      2313.102    20161231.397    83882548.83005
      1799.073  
 20  9 26  5 29 30.0000000  0 15G30G20G18G15G 5G29G 2G13R 7R 8R 6R22
                                R15R24R23
  23823238.021   125191961.02747      -309.914    23823240.350    97552186.42043
      -241.495  
  23446722.638   123213356.49048      3174.875    23446722.639    96010410.49545
      2473.929  
  21144956.126   111117492.42349      2096.698    21144956.287    86585060.65748
      1633.792  
  20667242.994   108607095.81549      2091.780    20667242.964    84628906.76848
      1629.960  
  21978779.584   115499265.70548     -2698.913    21978779.547    89999426.20547
     -2103.055  
  22499458.813   118235452.15048     -2979.522    22499459.244    92131523.61947
     -2321.711  
  24748631.053   130054933.39047     -3363.147    24748631.653   101341523.98644
     -2620.637  
  20505102.927   107755043.45149        79.249    20505101.921    83964965.86348
        61.753  
  19461862.497   104180874.31409     -1318.323    19461866.104    81029583.62008
     -1025.362  
  20253810.158   108458242.92208      2283.804    20253813.701    84356418.77208
      1776.293  
  22587385.325   120530615.50604     -3770.675           0.000           0.00000
         0.000  
  20425406.021   109032195.51107     -3138.543    20425410.812    84802843.60704
     -2441.093  
  23549182.671   125839692.20205  -2097152.000    23549191.960    97875354.76204
  -2097152.000  
  23221900.817   124177948.65007      4163.565    23221905.427    96582862.81606
      3238.328  
  20159066.914   107837410.40409      2306.887    20159073.281    83873569.73905
      1794.246  
 20  9 26  5 29 35.0000000  0 16G30G20G18G15G 5G29G 2G13R 7R 8R 6R22
                                R16R15R24R23
  23823532.290   125193507.54647      -309.613    23823534.523    97553391.51244
      -241.257  
  23443700.001   123197472.48747      3177.188    23443700.140    95998033.36544
      2475.733  
  21142960.025   111107002.77849      2097.901    21142960.166    86576886.90548
      1634.726  
  20665252.053   108596633.47349      2091.522    20665252.040    84620754.30048
      1629.754  
  21981345.797   115512751.27648     -2696.820    21981345.813    90009934.47847
     -2101.418  
  22502292.524   118250343.30848     -2978.253    22502292.939    92143127.12647
     -2320.723  
  24751829.165   130071739.01847     -3360.930    24751829.715   101354619.23644
     -2618.918  
  20505027.355   107754646.41249        78.637    20505026.397    83964656.48248
        61.270  
  19463093.239   104187462.44509     -1318.125    19463096.845    81034707.72508
     -1025.206  
  20251676.871   108446819.14608      2284.273    20251680.356    84347533.62408
      1776.656  
  22590917.143   120549461.36805     -3768.526           0.000           0.00000
         0.000  
  20428345.331   109047885.52707     -3138.812    20428350.045    84815046.96104
     -2441.300  
  22954441.953   122618508.88015      1770.219    22954448.236    95369976.38714
      1376.831  
  23550631.936   125847436.63205  -2097152.000    23550641.223    97881378.20404
  -2097152.000  
  23218006.546   124157123.10407      4165.284    23218011.002    96566665.18905
      3239.671  
  20156910.425   107825874.73109      2306.121    20156916.811    83864597.55705
      1793.648  
 20  9 26  5 29 40.0000000  0 15G30G20G18G15G 5G29G 2G13R 7R 8R 6R22
                                R15R24R23
  23823829.202   125195068.07745      -314.636    23823831.293    97554607.54844
      -245.176  
  23440677.580   123181589.78047      3175.590    23440677.811    95985657.21444
      2474.479  
  21140965.643   111096522.41849      2094.249    21140965.839    86568720.40647
      1631.883  
  20663263.587   108586184.01649      2087.781    20663263.578    84612611.87748
      1626.844  
  21983912.866   115526241.35049     -2699.300    21983912.878    90020446.18147
     -2103.359  
  22505127.917   118265243.33448     -2981.777    22505128.326    92154737.53047
     -2323.464  
  24755027.561   130088546.67046     -3362.324    24755027.621   101367716.12744
     -2619.996  
  20504954.763   107754265.02849        73.815    20504953.860    83964359.29748
        57.516  
  19464326.305   104194063.11109     -1322.316    19464329.898    81039841.57708
     -1028.515  
  20249545.727   108435406.80808      2280.566    20249549.153    84338657.36308
      1773.770  
  22594449.069   120568308.09004     -3769.898           0.000           0.00000
         0.000  
  20431287.320   109063589.81507     -3143.039    20431292.000    84827261.39404
     -2444.590  
  23552084.621   125855199.34106  -2097152.000    23552093.900    97887415.83104
  -2097152.000  
  23214112.732   124136301.91506      4163.280    23214117.312    96550470.93106
      3238.190  
  20154757.069   107814355.79209      2301.332    20154763.459    83855638.38106
      1789.922  
 20  9 26  5 29 45.0000000  0 15G30G20G18G15G 5G29G13R 7R 8R 6R22R16
                                R15R24R23
  23824128.372   125196640.10347      -316.187    23824130.263    97555832.46644
      -246.378  
  23437654.978   123165705.86748      3176.194    23437655.035    95973280.20244
      2474.961  
  21138972.567   111086048.76648      2093.499    21138972.782    86560559.11047
      1631.293  
  20661277.099   108575744.94949      2086.020    20661277.122    84604477.54948
      1625.469  
  21986480.303   115539733.38149     -2699.230    21986480.303    90030959.45047
     -2103.300  
  22507964.541   118280149.70948     -2982.656    22507964.942    92166352.87247
     -2324.151  
  20504884.707   107753896.82349        71.801    20504883.785    83964072.38247
        55.944  
  19465561.245   104200673.65609     -1323.847    19465564.777    81044983.09708
     -1029.663  
  20247416.267   108424003.49108      2279.070    20247419.651    84329788.12708
      1772.609  
  22597980.700   120587153.42705     -3769.719           0.000           0.00000
         0.000  
  20434231.536   109079305.92707     -3145.027    20434236.133    84839485.03004
     -2446.137  
  22951135.713   122600846.87815      1762.542    22951141.874    95356241.09614
      1370.883  
  23553543.733   125862996.39217  -2097152.000    23553548.968    97893463.39916
  -2097152.000  
  23210219.555   124115473.38116      4163.078    23210224.090    96534276.02314
      3237.948  
  20152606.359   107802850.91209      2298.844    20152612.760    83846690.15005
      1787.961  
 20  9 26  5 29 50.0000000  0 15G30G20G18G15G 5G29G13R 7R 8R 6R22R16
                                R15R24R23
  23824431.663   125198233.87447      -321.456    23824433.607    97557074.35844
      -250.487  
  23434634.149   123149831.30447      3173.582    23434634.223    95960910.38844
      2472.917  
  21136982.757   111075592.30549      2088.976    21136983.014    86552411.21547
      1627.769  
  20659294.534   108565326.65449      2081.566    20659294.587    84596359.39848
      1621.995  
  21989050.100   115553237.78849     -2702.366    21989050.071    90041482.37847
     -2105.785  
  22510804.313   118295072.71848     -2986.276    22510804.708    92177981.17747
     -2326.973  
  20504819.122   107753552.17149        66.543    20504818.218    83963803.83648
        51.852  
  19466799.984   104207304.65809     -1328.437    19466803.499    81050140.55608
     -1033.230  
  20245290.401   108412619.54208      2274.684    20245293.756    84320933.94008
      1769.195  
  22601513.978   120606007.67206     -3771.507           0.000           0.00000
         0.000  
  20437179.839   109095044.32607     -3149.663    20437184.398    84851726.01004
     -2449.741  
  22949488.260   122592048.95005      1757.129    22949494.799    95349398.28504
      1366.660  
  23555004.140   125870800.36606  -2097152.000    23555009.372    97899533.14106
  -2097152.000  
  23206328.430   124094666.25306      4159.944    23206333.038    96518092.64506
      3235.511  
  20150460.268   107791370.83508      2293.534    20150466.657    83837761.19306
      1783.854  
 20  9 26  5 29 55.0000000  0 15G30G20G18G15G 5G29G13R 7R 8R 6R22R16
                                R15R24R23
  23824738.339   125199845.40747      -323.507    23824740.383    97558330.11945
      -252.086  
  23431614.276   123133961.92047      3174.047    23431614.397    95948544.67244
      2473.288  
  21134995.436   111065148.86149      2087.870    21134995.694    86544273.47247
      1626.913  
  20657315.171   108554925.12849      2079.362    20657315.245    84588254.32748
      1620.281  
  21991621.477   115566750.53148     -2702.746    21991621.468    90052011.78747
     -2106.038  
  22513646.485   118310008.42948     -2987.750    22513646.881    92189619.39847
     -2328.121  
  20504757.250   107753227.09349        63.758    20504756.350    83963550.52648
        49.679  
  19468041.785   104213952.12009     -1330.511    19468045.255    81055310.80008
     -1034.847  
  20243167.446   108401251.09208      2272.738    20243170.741    84312091.81708
      1767.683  
  22605048.225   120624866.71905     -3771.570           0.000           0.00000
         0.000  
  20440131.636   109110801.15507     -3152.965    20440136.159    84863981.31504
     -2452.308  
  22947845.312   122583272.36605      1753.453    22947851.568    95342572.04404
      1363.797  
  23556468.650   125878626.26506  -2097152.000    23556473.888    97905619.97706
  -2097152.000  
  23202438.875   124073867.42807      4159.476    23202443.612    96501915.77405
      3235.140  
  20148318.042   107779911.30909      2290.297    20148324.441    83828848.22506
      1781.339  
 20  9 26  5 30  0.0000000  0 15G30G20G18G15G 5G29G13R 7R 8R 6R22R16
                                R15R24R23
  23825048.241   125201473.92047      -328.238    23825050.432    97559599.09045
      -255.770  
  23428595.245   123118096.83747      3172.042    23428595.339    95936182.26045
      2471.718  
  21133010.447   111054717.73949      2084.184    21133010.713    86536145.33747
      1624.039  
  20655338.828   108544539.52949      2074.894    20655338.956    84580161.65748
      1616.801  
  21994194.269   115580270.76549     -2705.597    21994194.271    90062547.01547
     -2108.214  
  22516490.884   118324955.91048     -2991.371    22516491.284    92201266.78547
     -2330.940  
  20504698.936   107752920.71449        58.601    20504698.047    83963311.78747
        45.660  
  19469286.520   104220615.15909     -1335.116    19469289.982    81060493.16308
     -1038.429  
  20241047.167   108389897.21708      2268.313    20241050.465    84303261.03508
      1764.242  
  22608583.158   120643730.10705     -3774.652           0.000           0.00000
         0.000  
  20443086.708   109126575.28407     -3157.339    20443091.145    84876250.07104
     -2455.710  
  22946206.070   122574515.92204      1747.499    22946212.265    95335761.49204
      1359.171  
  23557937.089   125886473.15406  -2097152.000    23557942.333    97911723.13806
  -2097152.000  
  23198550.698   124053075.91007      4157.026    23198555.510    96485744.60206
      3233.242  
  20146179.545   107768471.66609      2285.230    20146185.913    83819950.72706
      1777.401  
 20  9 26  5 30  5.0000000  0 15G30G20G18G15G 5G29G13R 7R 8R 6R22R16
                                R15R24R23
  23825361.407   125203119.46547      -330.281    23825363.580    97560881.35045
      -257.363  
  23425577.055   123102236.26747      3172.456    23425577.092    95923823.38645
      2472.042  
  21131027.829   111044298.97849      2083.258    21131028.072    86528026.82047
      1623.313  
  20653365.544   108534169.94849      2072.917    20653365.677    84572081.47448
      1615.262  
  21996768.536   115593798.60249     -2705.769    21996768.525    90073088.18747
     -2108.398  
  22519337.558   118339915.25048     -2992.343    22519337.950    92212923.40647
     -2331.698  
  20504644.207   107752633.14049        56.227    20504643.324    83963087.70447
        43.813  
  19470534.150   104227293.78509     -1336.629    19470537.613    81065687.65208
     -1039.601  
  20238929.622   108378557.95608      2267.120    20238932.909    84294441.61308
      1763.315  
  22612118.872   120662597.41805     -3773.206           0.000           0.00000
         0.000  
  20446044.967   109142366.85507     -3159.258    20446049.445    84888532.40104
     -2457.202  
  22944570.792   122565779.87705      1746.156    22944576.643    95328966.79804
      1358.120  
  23559409.458   125894341.05107  -2097152.000    23559414.696    97917842.58706
  -2097152.000  
  23194663.991   124032291.97707      4156.851    23194668.759    96469579.32906
      3233.070  
  20144044.721   107757051.86309      2282.577    20144051.073    83811068.66206
      1775.340  
 20  9 26  5 30 10.0000000  0 15G30G20G18G15G 5G29G13R 7R 8R 6R22R16
                                R15R24R23
  23825676.872   125204777.11947      -333.019    23825679.125    97562173.01545
      -259.500  
  23422558.782   123086375.19348      3172.141    23422558.798    95911464.10445
      2471.792  
  21129046.613   111033887.64849      2081.453    21129046.841    86519914.10147
      1621.910  
  20651394.364   108523811.39049      2070.690    20651394.494    84564009.87248
      1613.526  
  21999343.297   115607328.96849     -2706.444    21999343.228    90083631.32047
     -2108.922  
  22522185.540   118354881.49948     -2994.168    22522185.912    92224585.39747
     -2333.120  
  20504592.097   107752359.39749        53.242    20504591.248    83962874.40248
        41.487  
  19471783.750   104233982.96509     -1339.019    19471787.208    81070890.34608
     -1041.464  
  20236813.864   108367228.32408      2264.819    20236817.150    84285629.67808
      1761.527  
  22615654.545   120681463.85705     -3773.640           0.000           0.00000
         0.000  
  20449005.562   109158170.80507     -3161.781    20449010.018    84900824.35404
     -2459.167  
  22942938.322   122557059.23205      1741.831    22942943.876    95322184.06104
      1354.753  
  23560884.825   125902224.96207  -2097152.000    23560890.065    97923974.53006
  -2097152.000  
  23190777.750   124011510.49907      4156.082    23190782.503    96453415.95906
      3232.508  
  20141912.664   107745646.85808      2279.538    20141918.996    83802198.10005
      1772.972  
 20  9 26  5 30 15.0000000  0 15G30G20G18G15G 5G29G13R 7R 8R 6R22R16
                                R15R24R23
  23825995.095   125206449.42147      -335.832    23825997.379    97563476.11946
      -261.688  
  23419540.924   123070516.24448      3171.343    23419540.873    95899106.48545
      2471.172  
  21127067.320   111023486.36349      2079.386    21127067.525    86511809.19748
      1620.297  
  20649425.783   108513466.52049      2067.335    20649425.947    84555948.93948
      1610.910  
  22001919.053   115620864.56049     -2707.862    22001918.959    90094178.54347
     -2110.022  
  22525035.313   118369857.22148     -2996.219    22525035.702    92236254.78147
     -2334.719  
  20504543.125   107752102.07749        49.772    20504542.306    83962673.89748
        38.784  
  19473035.774   104240685.27009     -1341.750    19473039.247    81076103.24908
     -1043.586  
  20234700.438   108355911.05308      2262.237    20234703.709    84276827.36307
      1759.519  
  22619190.507   120700331.89405     -3773.664           0.000           0.00000
         0.000  
  20451968.982   109173989.74607     -3165.315    20451973.424    84913127.97704
     -2461.917  
  22941309.303   122548356.80405      1738.417    22941314.836    95315415.49804
      1352.097  
  23562363.677   125910127.50306  -2097152.000    23562368.916    97930120.94306
  -2097152.000  
  23186892.504   123990734.24607      4154.804    23186897.207    96437256.64205
      3231.511  
  20139783.890   107734259.35108      2275.633    20139790.231    83793341.15306
      1769.938  
 20  9 26  5 30 20.0000000  0 15G30G20G18G15G 5G29G13R 7R 8R 6R22R16
                                R15R24R23
  23826316.276   125208137.39647      -339.547    23826318.571    97564791.41045
      -264.585  
  23416523.578   123054660.17247      3170.570    23416523.622    95886751.12944
      2470.577  
  21125090.110   111013096.05749      2076.687    21125090.300    86503712.85448
      1618.194  
  20647459.995   108503136.26649      2064.195    20647460.158    84547899.39148
      1608.464  
  22004495.984   115634406.26949     -2709.222    22004495.847    90104730.53147
     -2111.081  
  22527887.056   118384843.41748     -2998.421    22527887.480    92247932.33347
     -2336.438  
  20504497.454   107751862.13549        46.069    20504496.646    83962486.92848
        35.897  
  19474290.454   104247401.79409     -1345.030    19474293.935    81081327.21208
     -1046.137  
  20232589.506   108344606.92308      2259.144    20232592.754    84268035.28108
      1757.113  
  22622726.891   120719202.74605     -3774.940           0.000           0.00000
         0.000  
  20454935.407   109189824.75607     -3169.020    20454939.832    84925444.09404
     -2464.796  
  22939683.991   122539673.33605      1734.137    22939689.294    95308661.68204
      1348.770  
  23563846.195   125918049.62507  -2097152.000    23563851.435    97936282.59806
  -2097152.000  
  23183008.358   123969964.12907      4152.710    23183013.021    96421102.12906
      3229.890  
  20137658.562   107722890.34308      2271.559    20137664.924    83784498.60006
      1766.766  
 20  9 26  5 30 25.0000000  0 15G30G20G18G15G 5G29G13R 7R 8R 6R22R16
                                R15R24R23
  23826640.600   125209841.54247      -342.046    23826643.030    97566119.32645
      -266.530  
  23413506.989   123038807.85747      3170.242    23413507.106    95874398.68845
      2470.320  
  21123115.091   111002717.38749      2074.988    21123115.266    86495625.57747
      1616.875  
  20645497.091   108492821.26249      2061.718    20645497.251    84539861.74248
      1606.535  
  22007074.193   115647954.78549     -2710.102    22007074.025    90115287.79947
     -2111.676  
  22530740.927   118399840.64248     -3000.246    22530741.334    92259618.48547
     -2337.854  
  20504455.205   107751640.18049        42.848    20504454.425    83962313.97748
        33.386  
  19475547.905   104254132.96809     -1347.390    19475551.376    81086562.57508
     -1047.969  
  20230481.133   108333316.77508      2256.964    20230484.368    84259254.05208
      1755.417  
  22626263.902   120738076.85105     -3774.804           0.000           0.00000
         0.000  
  20457904.894   109205676.35707     -3171.641    20457909.322    84937773.10104
     -2466.835  
  22938062.076   122531009.67305      1730.906    22938067.568    95301923.28704
      1346.261  
  23565332.500   125925991.99206  -2097152.000    23565337.736    97942459.97706
  -2097152.000  
  23179125.398   123949200.72906      4152.238    23179130.162    96404952.79306
      3229.512  
  20135536.832   107711540.55009      2268.167    20135543.200    83775670.98206
      1764.128  
 20  9 26  5 30 30.0000000  0 15G30G20G18G15G 5G29G13R 7R 8R 6R22R16
                                R15R24R23
  23826967.558   125211559.75347      -344.348    23826970.056    97567458.19344
      -268.323  
  23410490.664   123022956.99447      3170.566    23410490.844    95862047.38244
      2470.569  
  21121141.853   110992348.04549      2073.343    21121142.033    86487545.57747
      1615.594  
  20643536.669   108482519.26649      2059.336    20643536.839    84531834.21448
      1604.675  
  22009653.275   115661507.76748     -2710.597    22009653.079    90125848.56347
     -2112.155  
  22533596.454   118414846.53848     -3001.637    22533596.896    92271311.37746
     -2338.940  
  20504415.949   107751433.94849        39.984    20504415.212    83962153.28348
        31.156  
  19476807.660   104260876.69009     -1349.609    19476811.174    81091807.68608
     -1049.698  
  20228374.888   108322038.02208      2254.983    20228378.151    84250481.70108
      1753.875  
  22629801.006   120756951.80105     -3774.503           0.000           0.00000
         0.000  
  20460877.023   109221542.22207     -3174.069    20460881.524    84950113.21304
     -2468.726  
  22936443.188   122522363.17405      1728.160    22936448.855    95295198.25504
      1344.129  
  23566822.167   125933952.32206  -2097152.000    23566827.410    97948651.37205
  -2097152.000  
  23175243.376   123928441.97007      4151.781    23175248.219    96388807.11206
      3229.160  
  20133418.229   107700207.51609      2265.301    20133424.594    83766856.40106
      1761.898  
 20  9 26  5 30 35.0000000  0 15G30G20G18G15G 5G29G13R 7R 8R 6R22R16
                                R15R24R23
  23827297.360   125213293.12147      -348.901    23827299.954    97568808.85245
      -271.875  
  23407474.806   123007108.74147      3168.585    23407474.992    95849698.09544
      2469.026  
  21119170.630   110981989.32049      2070.218    21119170.804    86479473.84948
      1613.155  
  20641578.961   108472231.47649      2055.531    20641579.133    84523817.76548
      1601.711  
  22012233.413   115675066.39249     -2712.797    22012233.161    90136413.72647
     -2113.948  
  22536453.888   118429862.48648     -3004.836    22536454.386    92283012.09947
     -2341.434  
  20504379.900   107751244.57349        35.718    20504379.174    83962005.71248
        27.827  
  19478069.995   104267634.06909     -1353.527    19478073.524    81097063.42508
     -1052.746  
  20226271.048   108310772.11408      2251.656    20226274.323    84241719.33208
      1751.289  
  22633338.605   120775828.95105     -3775.770           0.000           0.00000
         0.000  
  20463852.132   109237423.55507     -3178.492    20463856.647    84962465.35604
     -2472.164  
  22934828.261   122513735.49205      1723.238    22934833.787    95288487.86304
      1340.296  
  23568315.405   125941931.73206  -2097152.000    23568320.643    97954857.56106
  -2097152.000  
  23171362.444   123907688.88207      4149.543    23171367.275    96372665.83406
      3227.526  
  20131302.985   107688892.57409      2260.395    20131309.361    83758055.88406
      1758.081  
 20  9 26  5 30 40.0000000  0 15G30G20G18G15G 5G29G13R 7R 8R 6R22R16
                                R15R24R23
  23827630.371   125215043.23347      -351.445    23827633.072    97570172.60145
      -273.852  
  23404459.814   122991264.75647      3168.874    23404459.814    95837352.16443
      2469.261  
  21117201.716   110971642.79449      2068.414    21117201.902    86471411.62148
      1611.749  
  20639624.264   108461959.47349      2053.328    20639624.437    84515813.61048
      1599.995  
  22014814.942   115688632.29049     -2713.340    22014814.605    90146984.55647
     -2114.378  
  22539313.532   118444889.92348     -3006.168    22539314.023    92294721.77647
     -2342.472  
  20504347.397   107751073.76949        32.770    20504346.664    83961872.61848
        25.531  
  19479335.176   104274406.71009     -1355.487    19479338.746    81102331.03008
     -1054.270  
  20224169.926   108299520.70308      2249.516    20224173.181    84232968.24408
      1749.625  
  22636876.993   120794709.87305     -3775.895           0.000           0.00000
         0.000  
  20466830.479   109253322.01807     -3180.828    20466834.950    84974830.82704
     -2473.980  
  22933216.959   122505127.98605      1720.281    22933222.450    95281793.12904
      1337.995  
  23569812.517   125949931.84407  -2097152.000    23569817.750    97961079.84806
  -2097152.000  
  23167482.936   123886943.09508      4148.843    23167487.755    96356530.23006
      3226.878  
  20129191.436   107677597.36708      2257.425    20129197.818    83749270.72406
      1755.777  
 20  9 26  5 30 45.0000000  0 16G30G20G18G15G 5G29G13R 7R 8R 1R 6R22
                                R16R15R24R23
  23827966.187   125216807.98647      -354.710    23827968.879    97571547.76944
      -276.397  
  23401445.143   122975422.86547      3167.773    23401445.104    95825007.83843
      2468.397  
  21115234.711   110961306.30049      2065.824    21115234.912    86463357.21948
      1609.734  
  20637672.174   108451701.19949      2049.968    20637672.331    84507820.15548
      1597.379  
  22017397.430   115702203.38948     -2715.097    22017397.023    90157559.44047
     -2115.663  
  22542174.931   118459926.70748     -3008.726    22542175.459    92306438.75147
     -2344.464  
  20504318.001   107750919.35349        28.819    20504317.256    83961752.29248
        22.453  
  19480602.825   104281192.47509     -1358.691    19480606.377    81107608.84708
     -1056.766  
  20222071.053   108288281.46008      2246.120    20222074.342    84224226.62108
      1746.983  
  23587586.503   126089167.44616      3846.656           0.000           0.00000
         0.000  
  22640415.563   120813592.36205     -3777.104           0.000           0.00000
         0.000  
  20469811.618   109269235.32107     -3184.483    20469816.053    84987207.83304
     -2476.824  
  22931608.905   122496538.61705      1716.109    22931614.565    95275112.52104
      1334.750  
  23571313.105   125957950.53206  -2097152.000    23571318.350    97967316.65506
  -2097152.000  
  23163604.425   123866202.64107      4147.011    23163609.222    96340398.75906
      3225.453  
  20127083.154   107666319.69908      2253.296    20127089.571    83740499.21106
      1752.562  
 20  9 26  5 30 50.0000000  0 16G30G20G18G15G 5G29G13R 7R 8R 1R 6R22
                                R16R15R24R23
  23828305.197   125218589.24547      -357.640    23828307.842    97572935.73745
      -278.680  
  23398431.276   122959584.98247      3167.327    23398431.196    95812666.63744
      2468.043  
  21113269.984   110950981.71749      2064.015    21113270.194    86455312.08948
      1608.323  
  20635723.029   108441458.43649      2047.211    20635723.184    84499838.78748
      1595.229  
  22019981.223   115715781.44048     -2716.194    22019980.792    90168139.72847
     -2116.519  
  22545038.502   118474974.65848     -3010.257    22545039.033    92318164.42247
     -2345.660  
  20504292.062   107750783.13649        25.723    20504291.311    83961646.14848
        20.042  
  19481873.254   104287993.08309     -1361.444    19481876.793    81112898.20208
     -1058.905  
  20219974.860   108277056.41008      2243.772    20219978.131    84215496.03808
      1745.156  
  23583989.246   126069936.38905      3845.652           0.000           0.00000
         0.000  
  22643954.773   120832478.41805     -3777.617           0.000           0.00000
         0.000  
  20472795.868   109285165.38807     -3187.343    20472800.320    84999597.87704
     -2479.051  
  22930004.540   122487969.19705      1712.277    22930010.297    95268447.43804
      1331.772  
  23572817.507   125965989.59905  -2097152.000    23572822.752    97973569.26406
  -2097152.000  
  23159727.118   123845469.25407      4146.632    23159732.021    96324272.80106
      3225.155  
  20124978.494   107655061.40409      2249.996    20124984.930    83731742.76306
      1749.991  
 20  9 26  5 30 55.0000000  0 16G30G20G18G15G 5G29G13R 7R 8R 1R 6R22
                                R16R15R24R23
  23828646.859   125220384.47347      -360.526    23828649.394    97574334.61545
      -280.933  
  23395417.667   122943748.54747      3167.058    23395417.504    95800326.57244
      2467.839  
  21111307.051   110940666.53049      2062.012    21111307.256    86447274.28148
      1606.762  
  20633776.369   108431228.70249      2044.555    20633776.515    84491867.56848
      1593.159  
  22022565.866   115729363.86248     -2716.898    22022565.402    90178723.43147
     -2117.125  
  22547903.701   118490031.31448     -3012.093    22547904.280    92329896.87747
     -2347.089  
  20504269.129   107750662.68949        22.464    20504268.384    83961552.29448
        17.500  
  19483145.975   104294806.06109     -1363.937    19483149.533    81118197.19608
     -1060.839  
  20217880.808   108265842.91908      2241.453    20217884.085    84206774.44208
      1743.351  
  23580390.888   126050708.04204      3845.272           0.000           0.00000
         0.000  
  22647494.129   120851365.25905     -3777.496           0.000           0.00000
         0.000  
  20475782.816   109301109.67307     -3190.410    20475787.159    85011998.97804
     -2481.434  
  22928403.594   122479417.29305      1708.651    22928409.287    95261795.95904
      1328.953  
  23574325.264   125974046.59706  -2097152.000    23574330.510    97979835.82306
  -2097152.000  
  23155850.624   123824740.49207      4144.984    23155855.637    96308150.42606
      3223.875  
  20122877.006   107643820.07909      2246.523    20122883.475    83722999.50506
      1747.293  
 20  9 26  5 31  0.0000000  0 15G30G20G18G15G 5G29G13R 7R 8R 1R 6R22
                                R16R15R23
  23828991.416   125222195.13147      -363.624    23828993.959    97575745.52045
      -283.347  
  23392404.567   122927914.97747      3166.292    23392404.460    95787988.72344
      2467.242  
  21109346.204   110930362.23948      2059.940    21109346.409    86439244.97148
      1605.148  
  20631832.469   108421013.43749      2041.934    20631832.594    84483907.62948
      1591.117  
  22025151.658   115742952.22649     -2718.155    22025151.182    90189311.76747
     -2118.108  
  22550770.824   118505098.05548     -3014.289    22550771.420    92341637.18047
     -2348.800  
  20504249.461   107750559.39149        19.066    20504248.728    83961471.80848
        14.855  
  19484421.331   104301633.08109     -1366.617    19484424.891    81123507.09708
     -1062.930  
  20215789.139   108254642.49808      2238.937    20215792.476    84198062.99808
      1741.390  
  23576794.034   126031483.79706      3844.737    23576803.369    98024512.87014
      2990.352  
  22651034.011   120870254.68305     -3777.844           0.000           0.00000
         0.000  
  20478772.651   109317069.64407     -3193.402    20478776.932    85024412.28804
     -2483.761  
  22926806.153   122470884.29805      1704.812    22926811.736    95255159.16003
      1325.960  
  23575836.613   125982122.78304  -2097152.000    23575841.856    97986117.29104
  -2097152.000  
  20120779.011   107632597.15809      2242.960    20120785.460    83714270.56506
      1744.520  
 20  9 26  5 31  5.0000000  0 15G30G20G18G15G 5G29G13R 7R 8R 1R 6R22
                                R16R15R23
  23829338.782   125224020.74246      -366.999    23829341.342    97577168.08945
      -285.972  
  23389391.997   122912083.87447      3165.776    23389392.101    95775652.86944
      2466.844  
  21107387.331   110920068.35349      2057.503    21107387.556    86431223.76448
      1603.246  
  20629891.221   108410812.17449      2038.526    20629891.360    84475958.59948
      1588.461  
  22027738.457   115756545.97948     -2719.438    22027738.011    90199904.30547
     -2119.047  
  22553639.770   118520174.43548     -3016.480    22553640.376    92353385.01247
     -2350.507  
  20504232.975   107750472.75649        15.284    20504232.233    83961404.29448
        11.905  
  19485699.210   104308473.50809     -1369.594    19485702.754    81128827.42408
     -1065.242  
  20213699.888   108243454.65808      2236.133    20213703.238    84189361.36308
      1739.214  
  23573198.154   126012263.19505      3843.414    23573208.125    98009563.50604
      2989.320  
  22654574.092   120889145.79605     -3778.819           0.000           0.00000
         0.000  
  20481765.340   109333044.79107     -3196.973    20481769.635    85036837.39204
     -2486.538  
  22925212.209   122462369.86305      1699.965    22925217.713    95248536.83004
      1322.194  
  23577351.537   125990218.08006  -2097152.000    23577356.788    97992413.66305
  -2097152.000  
  20118684.332   107621392.19209      2239.015    20118690.818    83705555.59306
      1741.457  
 20  9 26  5 31 10.0000000  0 16G30G20G18G15G 5G29G13R 7R 8R 1R 6R22
                                R16R15R24R23
  23829689.598   125225864.48047      -370.207    23829692.296    97578604.78045
      -288.476  
  23386380.455   122896258.36847      3165.308    23386380.519    95763321.25544
      2466.464  
  21105431.039   110909788.00249      2055.086    21105431.264    86423213.10447
      1601.363  
  20627953.259   108400628.11249      2035.402    20627953.384    84468022.97448
      1586.026  
  22030326.913   115770148.34348     -2721.004    22030326.497    90210503.53647
     -2120.266  
  22556511.128   118535263.55648     -3018.707    22556511.751    92365142.75047
     -2352.242  
  20504220.268   107750405.94949        11.960    20504219.515    83961352.24848
         9.319  
  19486980.105   104315330.27209     -1372.723    19486983.640    81134160.46108
     -1067.675  
  20211613.568   108232282.54008      2233.249    20211616.926    84180671.94508
      1736.973  
  23569603.573   125993049.62705      3842.464    23569613.769    97994619.65004
      2988.581  
  22658115.231   120908042.08505     -3779.257           0.000           0.00000
         0.000  
  20484761.466   109349038.31507     -3200.081    20484765.741    85049276.77804
     -2488.957  
  22923622.322   122453877.09405      1696.374    22923627.726    95241931.33304
      1319.397  
  23578870.533   125998335.13706  -2097152.000    23578875.776    97998726.89706
  -2097152.000  
  23144228.683   123762591.21715      4141.648    23144233.738    96259813.93714
      3221.285  
  20116593.605   107610208.37208      2234.906    20116600.152    83696857.07405
      1738.261  
 20  9 26  5 31 15.0000000  0 16G30G20G18G15G 5G29G13R 7R 8R 1R 6R22
                                R16R15R24R23
  23830043.189   125227722.58147      -373.270    23830045.771    97580052.64145
      -290.859  
  23383369.302   122880434.83747      3164.496    23383369.251    95750991.23944
      2465.840  
  21103476.662   110899517.58549      2053.281    21103476.867    86415210.17747
      1599.957  
  20626017.869   108390457.50949      2032.694    20626017.937    84460097.82948
      1583.913  
  22032916.264   115783755.57048     -2721.926    22032915.872    90221106.56347
     -2120.984  
  22559384.215   118550361.79048     -3020.523    22559384.926    92376907.60947
     -2353.659  
  20504210.639   107750355.28949         8.672    20504209.873    83961312.76548
         6.754  
  19488263.432   104322199.93009     -1375.152    19488266.922    81139503.53708
     -1069.562  
  20209529.530   108221122.54608      2230.831    20209532.867    84171991.94608
      1735.090  
  23566009.643   125973839.14005      3841.776    23566020.024    97979678.20504
      2988.054  
  22661656.502   120926939.73805     -3779.737           0.000           0.00000
         0.000  
  20487760.317   109365046.38407     -3203.035    20487764.569    85061727.49604
     -2491.253  
  22922035.790   122445402.31505      1693.272    22922041.168    95235339.86304
      1316.991  
  23580392.957   126006470.50807  -2097152.000    23580398.203    98005054.42206
  -2097152.000  
  23140356.936   123741888.08806      4140.085    23140362.111    96243711.47006
      3220.062  
  20114506.174   107599042.11408      2231.719    20114512.789    83688172.20006
      1735.781  
 20  9 26  5 31 20.0000000  0 16G30G20G18G15G 5G29G13R 7R 8R 1R 6R22
                                R16R15R24R23
  23830399.708   125229596.19847      -376.522    23830402.266    97581512.61344
      -293.394  
  23380358.706   122864614.33247      3163.449    23380358.722    95738663.56544
      2465.020  
  21101524.376   110889258.16249      2050.597    21101524.587    86407215.82148
      1597.863  
  20624085.255   108380301.48949      2029.719    20624085.296    84452184.04948
      1581.598  
  22035506.749   115797368.69048     -2723.352    22035506.340    90231714.18947
     -2122.097  
  22562259.245   118565470.14448     -3022.671    22562259.978    92388680.34547
     -2355.332  
  20504204.299   107750321.87949         4.801    20504203.493    83961286.73348
         3.737  
  19489549.342   104329083.50309     -1378.354    19489552.824    81144857.42708
     -1072.058  
  20207447.892   108209975.59708      2228.101    20207451.234    84163322.11008
      1732.968  
  23562416.975   125954633.01805      3840.566    23562427.176    97964740.12004
      2987.108  
  22665198.214   120945839.55405     -3780.332           0.000           0.00000
         0.000  
  20490762.144   109381070.18307     -3206.444    20490766.342    85074190.44404
     -2493.906  
  22920453.002   122436946.59705      1689.171    22920458.160    95228763.20604
      1313.801  
  23581919.002   126014625.22807  -2097152.000    23581924.248    98011396.98106
  -2097152.000  
  23136486.477   123721191.19207      4138.691    23136491.642    96227613.91805
      3218.977  
  20112422.225   107587894.36109      2227.563    20112428.895    83679501.72806
      1732.542  
 20  9 26  5 31 25.0000000  0 16G30G20G18G15G 5G29G13R 7R 8R 1R 6R22
                                R16R15R24R23
  23830759.393   125231486.47647      -379.887    23830761.823    97582985.53644
      -296.019  
  23377348.869   122848797.96946      3163.233    23377348.926    95726339.14144
      2464.862  
  21099574.408   110879010.85249      2048.315    21099574.574    86399230.90748
      1596.085  
  20622155.627   108370161.19449      2026.460    20622155.649    84444282.53348
      1579.058  
  22038098.597   115810988.91348     -2724.699    22038098.113    90242327.34647
     -2123.145  
  22565136.391   118580589.77748     -3025.348    22565137.171    92400461.87447
     -2357.418  
  20504201.474   107750306.81549         1.141    20504200.626    83961274.99448
         0.887  
  19490838.049   104335982.05309     -1381.175    19490841.493    81150222.96508
     -1074.246  
  20205368.979   108198843.04608      2225.090    20205372.295    84154663.46508
      1730.625  
  23558825.439   125935432.29405      3839.699    23558835.736    97949806.22704
      2986.433  
  22668740.673   120964743.07405     -3781.054           0.000           0.00000
         0.000  
  20493767.079   109397110.88707     -3209.812    20493771.352    85086666.54804
     -2496.523  
  22918873.730   122428511.22105      1685.359    22918878.956    95222202.35304
      1310.836  
  23583448.884   126022800.45507  -2097152.000    23583454.130    98017755.48906
  -2097152.000  
  23132617.278   123700501.63106      4137.086    23132622.559    96211522.03506
      3217.733  
  20110341.984   107576766.41209      2223.616    20110348.727    83670846.66406
      1729.480  
 20  9 26  5 31 30.0000000  0 16G30G20G18G15G 5G29G13R 7R 8R 1R 6R22
                                R16R15R24R23
  23831122.106   125233392.48647      -382.809    23831124.506    97584470.75545
      -298.293  
  23374339.663   122832984.88847      3162.156    23374339.657    95714017.28044
      2464.019  
  21097626.583   110868774.81149      2045.890    21097626.720    86391254.77148
      1594.195  
  20620228.822   108360035.80149      2023.452    20620228.821    84436392.61648
      1576.711  
  22040691.619   115824615.36749     -2726.121    22040691.127    90252945.36847
     -2124.254  
  22568015.511   118595719.78048     -3027.398    22568016.320    92412251.47647
     -2359.015  
  20504201.973   107750309.24849        -2.429    20504201.119    83961276.88648
        -1.898  
  19492129.450   104342894.99309     -1384.297    19492132.858    81155599.69308
     -1076.680  
  20203292.560   108187723.91808      2222.343    20203295.824    84146015.25608
      1728.488  
  23555234.284   125916236.10605      3838.776    23555244.749    97934875.87804
      2985.718  
  22672283.643   120983649.16605     -3781.202           0.000           0.00000
         0.000  
  20496774.963   109413167.36607     -3213.129    20496779.306    85099154.90904
     -2499.105  
  22917298.109   122420095.09605      1681.003    22917303.335    95215656.48204
      1307.445  
  23584982.431   126030995.26507  -2097152.000    23584987.681    98024129.24606
  -2097152.000  
  23128749.347   123679818.62407      4135.647    23128754.737    96195435.26906
      3216.464  
  20108265.251   107565657.26209      2219.804    20108272.042    83662206.21706
      1726.515  
 20  9 26  5 31 35.0000000  0 16G30G20G18G15G 5G29G13R 7R 8R 1R 6R22
                                R16R15R24R23
  23831487.773   125235314.01447      -385.777    23831490.084    97585968.04545
      -300.605  
  23371331.041   122817174.75647      3161.733    23371331.082    95701697.69944
      2463.688  
  21095680.871   110858549.80349      2043.984    21095680.980    86383287.23148
      1592.710  
  20618304.809   108349925.01249      2020.793    20618304.772    84428514.08448
      1574.645  
  22043285.771   115838247.75648     -2727.016    22043285.260    90263568.00247
     -2124.938  
  22570896.551   118610859.86948     -3028.973    22570897.363    92424048.93047
     -2360.242  
  20504205.732   107750328.90949        -5.624    20504204.853    83961292.21048
        -4.382  
  19493423.398   104349821.62909     -1386.680    19493426.781    81160987.07508
     -1078.526  
  20201218.622   108176618.10808      2219.895    20201221.848    84137377.40808
      1726.585  
  23551643.511   125897044.24405      3837.886    23551654.402    97919948.87604
      2985.022  
  22675827.014   121002557.67905     -3782.171           0.000           0.00000
         0.000  
  20499785.831   109429239.58007     -3215.979    20499790.201    85111655.51004
     -2501.319  
  22915726.220   122411698.19405      1677.202    22915731.421    95209125.53904
      1304.488  
  23586519.608   126039209.47006  -2097152.000    23586524.853    98030518.05706
  -2097152.000  
  23124882.725   123659141.81306      4134.621    23124888.126    96179353.29006
      3215.812  
  20106191.994   107554566.76609      2216.327    20106198.836    83653580.27706
      1723.808  
 20  9 26  5 31 40.0000000  0 16G30G20G18G15G 5G29G13R 7R 8R 1R 6R22
                                R16R15R24R23
  23831856.149   125237249.69047      -388.473    23831858.422    97587476.35945
      -302.710  
  23368322.739   122801366.27147      3161.187    23368322.783    95689379.40744
      2463.261  
  21093736.978   110848334.45449      2041.777    21093737.058    86375327.22548
      1590.996  
  20616383.317   108339827.47349      2017.913    20616383.260    84420645.87848
      1572.401  
  22045880.778   115851884.73549     -2728.191    22045880.315    90274194.22447
     -2125.867  
  22573779.258   118626008.69348     -3030.855    22573780.119    92435853.20747
     -2361.710  
  20504212.510   107750364.43349        -8.844    20504211.591    83961319.89448
        -6.895  
  19494719.649   104356760.75009     -1389.359    19494723.067    81166384.16908
     -1080.616  
  20199146.863   108165523.96508      2217.409    20199150.081    84128748.63408
      1724.651  
  23548053.819   125877855.34505      3836.996    23548064.663    97905024.21404
      2984.336  
  22679370.673   121021467.22705     -3782.202           0.000           0.00000
         0.000  
  20502799.349   109445326.07007     -3219.164    20502803.780    85124167.22504
     -2503.796  
  22914157.699   122403318.99905      1673.819    22914162.826    95202608.42104
      1301.863  
  23588060.135   126047441.58106  -2097152.000    23588065.384    98036920.82206
  -2097152.000  
  23121016.963   123638470.06306      4134.105    23121022.485    96163275.28406
      3215.414  
  20104121.948   107543493.44809      2212.726    20104128.819    83644967.69806
      1721.004  
 20  9 26  5 31 45.0000000  0 16G30G20G18G15G 5G29G13R 7R 8R 1R 6R22
                                R16R15R24R23
  23832227.596   125239201.47047      -391.522    23832229.878    97588997.22445
      -305.086  
  23365315.082   122785561.36647      3160.792    23365315.346    95677063.92345
      2462.961  
  21091795.289   110838130.71349      2039.715    21091795.381    86367376.25848
      1589.383  
  20614464.702   108329745.14149      2015.105    20614464.643    84412789.52348
      1570.210  
  22048477.020   115865528.20348     -2729.176    22048476.601    90284825.48847
     -2126.633  
  22576664.033   118641168.16248     -3032.711    22576664.862    92447665.78047
     -2363.155  
  20504222.670   107750417.79349       -12.308    20504221.707    83961361.47548
        -9.589  
  19496018.642   104363714.42609     -1391.894    19496022.049    81171792.58208
     -1082.586  
  20197077.680   108154443.48608      2214.852    20197080.874    84120130.49108
      1722.664  
  23544464.808   125858671.30704      3836.117    23544475.838    97890103.32304
      2983.651  
  22682914.850   121040379.79305     -3782.629           0.000           0.00000
         0.000  
  20505815.976   109461428.75007     -3222.117    20505820.346    85136691.52604
     -2506.093  
  22912592.810   122394959.45405      1670.133    22912598.030    95196106.55504
      1298.995  
  23589604.384   126055693.58206  -2097152.000    23589609.631    98043339.03706
  -2097152.000  
  23117152.503   123617805.15307      4132.371    23117158.141    96147202.58306
      3214.066  
  20102055.525   107532439.41309      2208.996    20102062.407    83636370.11806
      1718.108  
 20  9 26  5 31 50.0000000  0 16G30G20G18G15G 5G29G13R 7R 8R 1R 6R22
                                R16R15R24R23
  23832601.808   125241168.12447      -395.030    23832604.181    97590529.68345
      -307.816  
  23362307.924   122769758.86447      3160.370    23362308.120    95664750.27245
      2462.620  
  21089855.593   110827937.41749      2037.612    21089855.707    86359433.43048
      1587.745  
  20612548.750   108319676.81349      2012.335    20612548.707    84404944.08648
      1568.054  
  22051074.270   115879177.00448     -2730.426    22051073.920    90295460.91947
     -2127.608  
  22579550.587   118656337.04348     -3034.746    22579551.447    92459485.67647
     -2364.742  
  20504235.998   107750487.77149       -15.668    20504235.015    83961416.00048
       -12.210  
  19497320.087   104370681.22609     -1394.832    19497323.499    81177211.20408
     -1084.871  
  20195010.841   108143375.62708      2212.234    20195013.995    84111522.16908
      1720.624  
  23540876.383   125839491.05303      3835.905    23540887.749    97875185.36404
      2983.488  
  22686459.459   121059294.16005     -3782.559           0.000           0.00000
         0.000  
  20508835.336   109477546.39207     -3224.792    20508839.690    85149227.45604
     -2508.175  
  22911031.348   122386618.46905      1667.065    22911036.699    95189619.14804
      1296.609  
  23591152.137   126063964.30107  -2097152.000    23591157.384    98049771.81906
  -2097152.000  
  23113289.097   123597145.97106      4131.472    23113294.857    96131134.31406
      3213.367  
  20099992.447   107521403.37109      2205.261    20099999.366    83627786.53006
      1715.265  
 20  9 26  5 31 55.0000000  0 16G30G20G18G15G 5G29G13R 7R 8R 1R 6R22
                                R16R15R24R23
  23832979.004   125243150.08347      -397.823    23832981.349    97592074.06045
      -309.996  
  23359301.282   122753959.25747      3159.913    23359301.601    95652438.89344
      2462.266  
  21087917.942   110817754.99449      2035.594    21087918.064    86351499.07548
      1586.175  
  20610635.572   108309622.95849      2009.386    20610635.515    84397109.91348
      1565.758  
  22053672.633   115892831.55748     -2731.387    22053672.333    90306100.83247
     -2128.352  
  22582439.022   118671515.80948     -3036.628    22582439.884    92471313.27747
     -2366.207  
  20504252.560   107750574.80549       -18.952    20504251.584    83961483.81548
       -14.773  
  19498624.103   104377661.75409     -1397.406    19498627.520    81182640.50408
     -1086.875  
  20192946.415   108132320.87308      2209.828    20192949.576    84102924.03008
      1718.753  
  23537288.697   125820314.81805      3835.749    23537300.364    97860270.51904
      2983.359  
  22690004.325   121078210.65005     -3783.315           0.000           0.00000
         0.000  
  20511857.615   109493679.45807     -3228.125    20511862.008    85161775.38904
     -2510.770  
  22909473.450   122378296.67305      1663.082    22909478.905    95183146.62304
      1293.504  
  23592703.446   126072254.02707  -2097152.000    23592708.693    98056219.38606
  -2097152.000  
  23109426.830   123576492.88106      4130.378    23109432.665    96115070.84406
      3212.515  
  20097932.871   107510385.83609      2201.831    20097939.748    83619217.34406
      1712.535  
 20  9 26  5 32  0.0000000  0 16G30G20G18G15G 5G29G13R 7R 8R 1R 6R22
                                R16R15R24R23
  23833359.282   125245148.26747      -401.562    23833361.737    97593631.05945
      -312.913  
  23356295.359   122738163.30647      3158.804    23356295.785    95640130.39243
      2461.410  
  21085982.548   110807584.33749      2032.894    21085982.686    86343573.89748
      1584.074  
  20608725.306   108299584.41249      2006.059    20608725.237    84389287.67648
      1563.164  
  22056272.275   115906492.73649     -2732.961    22056271.984    90316745.90647
     -2129.578  
  22585329.495   118686705.28748     -3038.848    22585330.372    92483149.21947
     -2367.938  
  20504272.525   107750679.68949       -22.859    20504271.528    83961565.54548
       -17.815  
  19499930.811   104384656.72909     -1400.378    19499934.254    81188081.03708
     -1089.188  
  20190884.587   108121279.84708      2206.672    20190887.744    84094336.57408
      1716.300  
  23533702.308   125801143.63505      3833.730    23533713.911    97845359.61704
      2981.789  
  22693549.824   121097130.05205     -3784.421           0.000           0.00000
         0.000  
  20514882.895   109509828.76807     -3231.601    20514887.347    85174335.95804
     -2513.473  
  22907919.374   122369994.54505      1658.433    22907924.727    95176689.43604
      1289.894  
  23594258.503   126080563.77806  -2097152.000    23594263.754    98062682.54406
  -2097152.000  
  23105565.892   123555846.89707      4128.332    23105571.770    96099012.82706
      3210.922  
  20095876.861   107499387.63309      2197.516    20095883.756    83610663.18106
      1709.176  
 20  9 26  5 32  5.0000000  0 16G30G20G18G15G 5G29G13R 7R 8R 1R 6R22
                                R16R15R24R23
  23833742.599   125247162.73946      -404.273    23833745.167    97595200.79745
      -315.019  
  23353290.248   122722371.31047      3158.352    23353290.693    95627824.94945
      2461.055  
  21084049.416   110797425.59849      2030.706    21084049.555    86335657.99048
      1582.362  
  20606817.982   108289561.36049      2003.397    20606817.899    84381477.50848
      1561.089  
  22058873.192   115920160.64848     -2733.941    22058872.939    90327396.22447
     -2130.351  
  22588222.021   118701905.61248     -3041.218    22588222.876    92494993.63447
     -2369.785  
  20504295.924   107750802.65449       -26.288    20504294.927    83961661.35948
       -20.483  
  19501240.257   104391666.32709     -1403.273    19501243.721    81193532.94508
     -1091.433  
  20188825.364   108110253.02408      2204.065    20188828.571    84085760.16108
      1714.272  
  23530117.020   125781977.75004      3832.430    23530128.574    97830452.84804
      2980.780  
  22697095.941   121116052.55905     -3784.632           0.000           0.00000
         0.000  
  20517911.278   109525994.51207     -3234.781    20517915.786    85186909.30704
     -2515.944  
  22906368.958   122361712.66204      1654.284    22906374.334    95170247.97104
      1286.667  
  23595817.329   126088893.67406  -2097152.000    23595822.578    98069161.33906
  -2097152.000  
  23101706.275   123535208.13407      4127.538    23101712.197    96082960.46506
      3210.304  
  20093824.543   107488409.08508      2193.995    20093831.441    83602124.31306
      1706.440  
 20  9 26  5 32 10.0000000  0 16G30G20G18G15G 5G29G13R 7R 8R 1R 6R22
                                R16R15R24R23
  23834128.749   125249191.90647      -407.628    23834131.248    97596781.95145
      -317.636  
  23350285.538   122706581.42347      3157.848    23350285.907    95615521.16445
      2460.664  
  21082118.224   110787277.08449      2028.461    21082118.374    86327750.06348
      1580.617  
  20604913.306   108279552.12749      2000.155    20604913.199    84373678.11148
      1558.563  
  22061475.065   115933833.54849     -2735.184    22061474.857    90338050.42647
     -2131.293  
  22591116.270   118717115.08748     -3043.077    22591117.118    92506845.16347
     -2371.233  
  20504322.434   107750941.96349       -29.684    20504321.437    83961769.91348
       -23.133  
  19502552.166   104398689.01509     -1406.145    19502555.626    81198995.03908
     -1093.668  
  20186768.492   108099238.44208      2201.382    20186771.691    84077193.26208
      1712.188  
  23526532.257   125762815.35404      3831.487    23526543.780    97815548.77704
      2980.046  
  22700642.327   121134976.63205     -3785.022           0.000           0.00000
         0.000  
  20520942.423   109542174.91007     -3237.836    20520946.978    85199494.05204
     -2518.320  
  22904821.963   122353449.07604      1650.629    22904827.433    95163820.76504
      1283.827  
  23597379.594   126097241.94607  -2097152.000    23597384.846    98075654.45206
  -2097152.000  
  23097847.792   123514574.99807      4125.508    23097853.707    96066912.48106
      3208.727  
  20091775.543   107477448.25309      2190.085    20091782.415    83593599.22506
      1703.398  
 20  9 26  5 32 15.0000000  0 16G30G20G18G15G 5G29G13R 7R 8R 1R 6R22
                                R16R15R24R23
  23834518.110   125251237.91747      -411.344    23834520.557    97598376.23346
      -320.531  
  23347281.714   122690795.97047      3156.566    23347281.908    95603220.79345
      2459.655  
  21080189.413   110777141.01949      2025.706    21080189.547    86319851.83748
      1578.473  
  20603011.652   108269558.89549      1996.769    20603011.537    84365891.18648
      1555.925  
  22064078.338   115947513.68648     -2736.940    22064078.155    90348710.27547
     -2132.679  
  22594012.696   118732335.87848     -3045.445    22594013.582    92518705.51147
     -2373.077  
  20504352.484   107751099.84249       -33.551    20504351.480    83961892.93648
       -26.144  
  19503866.905   104405726.78909     -1409.348    19503870.370    81204468.85808
     -1096.164  
  20184714.336   108088238.59208      2198.144    20184717.563    84068637.83108
      1709.667  
  23522948.556   125743658.60704      3830.823    23522960.129    97800649.08504
      2979.530  
  22704189.463   121153904.42305     -3785.875           0.000           0.00000
         0.000  
  20523976.756   109558372.19807     -3241.312    20523981.312    85212091.93804
     -2521.023  
  22903278.876   122345205.93304      1646.358    22903284.341    95157409.42004
      1280.496  
  23598945.700   126105610.74107  -2097152.000    23598950.947    98082163.49406
  -2097152.000  
  23093990.698   123493949.47707      4124.554    23093996.624    96050870.41306
      3207.862  
  20089730.263   107466507.51108      2185.933    20089737.145    83585089.76606
      1700.172  
 20  9 26  5 32 20.0000000  0 16G30G20G18G15G 5G29G13R 7R 8R 1R 6R22
                                R16R15R24R23
  23834910.275   125253299.01247      -413.979    23834912.757    97599982.32145
      -322.577  
  23344278.384   122675013.23947      3155.761    23344278.565    95590922.57345
      2459.031  
  21078262.655   110767015.71049      2023.519    21078262.741    86311961.98248
      1576.765  
  20601112.742   108259579.99749      1993.902    20601112.608    84358115.42348
      1553.690  
  22066682.685   115961199.40249     -2738.101    22066682.512    90359374.46447
     -2133.590  
  22596910.967   118747566.26948     -3047.543    22596911.842    92530573.33947
     -2374.710  
  20504385.756   107751274.62749       -37.159    20504384.726    83962029.13348
       -28.957  
  19505184.138   104412778.00909     -1412.155    19505187.636    81209953.14308
     -1098.343  
  20182662.507   108077251.35908      2195.819    20182665.774    84060092.20408
      1707.854  
  23519365.653   125724505.90704      3830.362    23519377.239    97785752.58905
      2979.175  
  22707736.890   121172834.11005     -3786.297           0.000           0.00000
         0.000  
  20527013.936   109574584.77307     -3244.332    20527018.557    85224701.71704
     -2523.375  
  22901739.138   122336981.83904      1642.460    22901744.765    95151012.89805
      1277.465  
  23600515.349   126113998.46807  -2097152.000    23600520.590    98088687.25906
  -2097152.000  
  23090134.768   123473330.15207      4123.073    23090140.695    96034833.14806
      3206.832  
  20087688.430   107455585.20609      2182.340    20087695.333    83576594.62906
      1697.354  
 20  9 26  5 32 25.0000000  0 16G30G20G18G15G 5G29G13R 7R 8R 1R 6R22
                                R16R15R24R23
  23835306.114   125255379.31347      -417.503    23835308.647    97601603.33045
      -325.327  
  23341276.307   122659237.34347      3155.128    23341276.404    95578629.69445
      2458.547  
  21076338.694   110756905.19849      2021.323    21076338.758    86304083.65948
      1575.054  
  20599217.346   108249619.46749      1991.227    20599217.161    84350353.97548
      1551.605  
  22069288.823   115974894.68748     -2739.245    22069288.684    90370046.11447
     -2134.479  
  22599811.815   118762810.32648     -3049.418    22599812.698    92542451.82947
     -2376.172  
  20504422.980   107751470.27449       -40.616    20504421.940    83962181.58048
       -31.651  
  19506504.621   104419846.65809     -1414.734    19506508.125    81215450.97708
     -1100.351  
  20180613.873   108066281.20608      2193.055    20180617.169    84051559.86608
      1705.710  
  23515784.373   125705361.37805      3829.077    23515795.817    97770862.41004
      2978.171  
  22711285.443   121191769.83805     -3786.746           0.000           0.00000
         0.000  
  20530054.681   109590816.54007     -3247.640    20530059.340    85237326.41104
     -2525.945  
  22900203.945   122328780.76805      1638.312    22900209.506    95144634.31204
      1274.241  
  23602089.297   126122409.17006  -2097152.000    23602094.546    98095228.94605
  -2097152.000  
  23086280.801   123452721.09907      4121.616    23086286.745    96018803.89206
      3205.698  
  20085650.814   107444685.39908      2178.348    20085657.751    83568117.00106
      1694.265  
 20  9 26  5 32 30.0000000  0 16G30G20G18G15G 5G29G13R 7R 8R 1R 6R22
                                R16R15R24R23
  23835704.183   125257471.27447      -419.484    23835706.771    97603233.42645
      -326.870  
  23338274.127   122643460.59247      3155.273    23338274.162    95566336.11045
      2458.655  
  21074416.111   110746801.95449      2019.855    21074416.167    86296211.00148
      1573.913  
  20597323.984   108239669.78149      1988.809    20597323.784    84342600.97648
      1549.722  
  22071895.348   115988591.97349     -2739.569    22071895.227    90380719.31547
     -2134.733  
  22602713.822   118778060.47648     -3050.636    22602714.716    92554335.04347
     -2377.124  
  20504462.749   107751679.25849       -43.137    20504461.703    83962344.43548
       -33.613  
  19507826.988   104426925.20809     -1416.676    19507830.459    81220956.52308
     -1101.858  
  20178566.998   108055320.34208      2191.285    20178570.292    84043034.75708
      1704.328  
  23512203.398   125686217.36204      3828.168    23512214.528    97755972.63204
      2977.464  
  22714833.904   121210704.00905     -3786.851           0.000           0.00000
         0.000  
  20533097.634   109607059.84307     -3249.891    20533102.326    85249960.09104
     -2527.694  
  22898671.539   122320594.99205      1635.066    22898677.069    95138267.57704
      1271.715  
  23603666.115   126130835.20506  -2097152.000    23603671.359    98101782.51305
  -2097152.000  
  23082427.245   123432114.46607      4120.949    23082433.236    96002776.53206
      3204.961  
  20083615.950   107433800.40509      2175.414    20083622.927    83559650.90606
      1691.987  
 20  9 26  5 32 35.0000000  0 16G30G20G18G15G 5G29G13R 7R 8R 1R 6R22
                                R16R15R24R23
  23836105.047   125259577.95447      -422.675    23836107.786    97604874.98246
      -329.362  
  23335272.405   122627686.21747      3154.594    23335272.589    95554044.41844
      2458.128  
  21072495.504   110736709.12849      2017.352    21072495.550    86288346.45648
      1571.957  
  20595433.274   108229734.03149      1985.684    20595433.076    84334858.84348
      1547.284  
  22074502.856   116002294.39849     -2741.105    22074502.718    90391396.52447
     -2135.929  
  22605617.575   118793319.86348     -3052.941    22605618.480    92566225.47447
     -2378.917  
  20504505.640   107751904.71549       -46.870    20504504.573    83962520.10448
       -36.526  
  19509151.776   104434016.83609     -1419.780    19509155.250    81226472.23208
     -1104.276  
  20176522.492   108044372.01608      2188.211    20176525.784    84034519.39008
      1701.938  
  23508622.599   125667076.97105      3827.378    23508633.915    97741085.66504
      2976.851  
  22718382.396   121229639.53605     -3787.249           0.000           0.00000
         0.000  
  20536143.332   109623317.98707     -3253.394    20536148.051    85262605.30204
     -2530.422  
  22897142.600   122312427.80004      1631.374    22897148.147    95131915.32005
      1268.848  
  23605246.376   126139279.64507  -2097152.000    23605251.622    98108350.41406
  -2097152.000  
  23078574.833   123411513.67007      4119.555    23078580.858    95986753.68606
      3204.097  
  20081584.478   107422933.55408      2171.522    20081591.474    83551198.90106
      1688.957  
 20  9 26  5 32 40.0000000  0 16G30G20G18G15G 5G29G13R 7R 8R 1R 6R22
                                R16R15R24R23
  23836508.946   125261700.55147      -425.851    23836511.706    97606528.96946
      -331.832  
  23332271.320   122611915.22547      3154.124    23332271.457    95541755.34645
      2457.757  
  21070577.078   110726627.76249      2015.116    21070577.102    86280490.85648
      1570.223  
  20593545.423   108219813.31249      1982.793    20593545.225    84327128.41148
      1545.034  
  22077111.569   116016003.05549     -2742.124    22077111.413    90402078.60247
     -2136.726  
  22608523.264   118808589.48948     -3054.949    22608524.197    92578123.86547
     -2380.484  
  20504551.866   107752147.70049       -50.023    20504550.805    83962709.44947
       -38.979  
  19510479.179   104441122.58909     -1422.461    19510482.694    81231998.92908
     -1106.359  
  20174480.490   108033437.15608      2186.019    20174483.791    84026014.50108
      1700.238  
  23505042.872   125647941.30704      3826.613    23505054.192    97726202.39404
      2976.258  
  22721931.404   121248577.72705     -3787.762           0.000           0.00000
         0.000  
  20539191.931   109639591.89307     -3255.988    20539196.760    85275262.77204
     -2532.437  
  22895617.334   122304280.22504      1627.641    22895622.873    95125578.31604
      1265.940  
  23606830.292   126147743.61006  -2097152.000    23606835.539    98114933.50306
  -2097152.000  
  23074723.553   123390919.64407      4117.953    23074729.718    95970736.11706
      3202.851  
  20079556.594   107412085.80309      2167.769    20079563.587    83542761.76706
      1686.038  
 20  9 26  5 32 45.0000000  0 16G30G20G18G15G 5G29G13R 7R 8R 1R 6R22
                                R16R15R24R23
  23836915.542   125263837.13447      -428.358    23836918.323    97608193.83945
      -333.784  
  23329270.541   122596145.89847      3153.495    23329270.680    95529467.54344
      2457.261  
  21068660.508   110716556.11949      2013.261    21068660.525    86272642.82748
      1568.773  
  20591660.093   108209905.89749      1979.941    20591659.925    84319408.35948
      1542.812  
  22079721.125   116029716.14949     -2743.214    22079720.942    90412764.12247
     -2137.569  
  22611430.590   118823867.59148     -3056.858    22611431.536    92590028.87247
     -2381.972  
  20504601.079   107752406.44149       -53.254    20504600.027    83962911.06548
       -41.499  
  19511808.855   104448240.48509     -1425.020    19511812.459    81237535.06908
     -1108.352  
  20172440.670   108022514.07208      2183.383    20172444.000    84017518.78308
      1698.187  
  23501463.594   125628808.64203      3826.823    23501474.991    97711321.45304
      2976.421  
  22725480.536   121267516.70005     -3788.382           0.000           0.00000
         0.000  
  20542243.177   109655879.74607     -3259.085    20542248.111    85287931.09204
     -2534.847  
  22894095.535   122296150.42705      1624.108    22894100.994    95119255.16305
      1263.194  
  23608417.521   126156225.28006  -2097152.000    23608422.766    98121530.35106
  -2097152.000  
  23070873.306   123370330.70706      4117.359    23070879.520    95954722.52906
      3202.391  
  20077531.945   107401255.45208      2164.179    20077538.967    83534338.15706
      1683.245  
 20  9 26  5 32 50.0000000  0 16G30G20G18G15G 5G29G13R 7R 8R 1R 6R22
                                R16R15R24R23
  23837325.653   125265992.25247      -433.140    23837328.444    97609873.12345
      -337.520  
  23326270.889   122580382.62247      3152.448    23326270.989    95517184.49844
      2456.457  
  21066746.633   110706498.63849      2010.050    21066746.602    86264805.82148
      1566.270  
  20589778.137   108200016.18449      1976.089    20589777.990    84311702.08648
      1539.809  
  22082332.358   116043438.02249     -2745.120    22082332.120    90423456.49347
     -2139.058  
  22614340.356   118839158.51248     -3059.370    22614341.316    92601943.87147
     -2383.930  
  20504654.157   107752685.36449       -57.788    20504653.104    83963128.40748
       -45.031  
  19513141.680   104455375.16709     -1428.612    19513145.330    81243084.26408
     -1111.148  
  20170403.895   108011607.23608      2179.769    20170407.248    84009035.68708
      1695.370  
  23497885.758   125609683.30704      3823.948    23497897.171    97696446.22104
      2974.184  
  22729030.736   121286460.83905     -3789.273           0.000           0.00000
         0.000  
  20545297.887   109672186.06107     -3263.168    20545302.846    85300613.76904
     -2538.023  
  22892577.887   122288043.01505      1619.184    22892583.299    95112949.39704
      1259.363  
  23610008.909   126164729.17507  -2097152.000    23610014.154    98128144.48906
  -2097152.000  
  23067024.906   123349751.39406      4114.773    23067031.118    95938716.41106
      3200.379  
  20075511.408   107390446.97509      2159.520    20075518.429    83525931.56506
      1679.617  
 20  9 26  5 32 55.0000000  0 16G30G20G18G15G 5G29G13R 7R 8R 1R 6R22
                                R16R15R24R23
  23837738.472   125268161.72147      -435.101    23837741.219    97611563.65045
      -339.038  
  23323271.608   122564621.32347      3152.554    23323271.728    95504902.99245
      2456.534  
  21064834.656   110696451.22449      2008.597    21064834.634    86256976.66348
      1565.137  
  20587898.759   108190140.10949      1973.968    20587898.637    84304006.45248
      1538.155  
  22084944.481   116057164.69349     -2745.563    22084944.210    90434152.59547
     -2139.402  
  22617251.841   118854458.28548     -3060.613    22617252.770    92613865.75847
     -2384.898  
  20504710.293   107752980.39649       -60.496    20504709.239    83963358.30548
       -47.144  
  19514476.845   104462522.53809     -1430.539    19514480.520    81248643.33608
     -1112.641  
  20168369.397   108000712.46708      2177.987    20168372.750    84000561.98208
      1693.992  
  23494308.646   125590561.28304      3824.288    23494319.945    97681573.58505
      2974.452  
  22732581.096   121305406.20805     -3789.008           0.000           0.00000
         0.000  
  20548355.276   109688506.79807     -3265.304    20548360.270    85313307.67804
     -2539.683  
  22891063.662   122279953.79705      1616.761    22891069.033    95106657.78404
      1257.479  
  23611603.683   126173251.16307  -2097152.000    23611608.925    98134772.69306
  -2097152.000  
  23063177.509   123329177.57307      4114.645    23063183.733    95922714.55306
      3200.273  
  20073494.184   107379656.21908      2156.523    20073501.195    83517538.75006
      1677.293  
 20  9 26  5 33  0.0000000  0 16G30G20G18G15G 5G29G13R 7R 8R 1R 6R22
                                R16R15R24R23
  23838153.995   125270345.27947      -439.035    23838156.681    97613265.11644
      -342.108  
  23320272.665   122548861.71147      3151.175    23320272.777    95492622.76045
      2455.457  
  21062924.529   110686413.59749      2006.070    21062924.546    86249155.14047
      1563.167  
  20586021.923   108180277.33149      1970.664    20586021.799    84296321.17448
      1535.582  
  22087557.438   116070895.78049     -2747.124    22087557.170    90444852.13747
     -2140.621  
  22620164.914   118869766.46048     -3062.949    22620165.874    92625794.21447
     -2386.718  
  20504769.432   107753291.23449       -64.202    20504768.397    83963600.51648
       -50.026  
  19515814.301   104469682.13809     -1433.492    19515817.957    81254211.91708
     -1114.938  
  20166337.091   107989829.62308      2174.941    20166340.451    83992097.55708
      1691.621  
  23490732.141   125571442.34504      3823.140    23490743.417    97666703.28805
      2973.555  
  22736131.441   121324352.37705     -3789.718           0.000           0.00000
         0.000  
  20551415.310   109704841.43607     -3268.999    20551420.289    85326012.38904
     -2542.559  
  22889552.752   122271882.50405      1612.151    22889558.168    95100380.14204
      1253.894  
  23613201.755   126181790.77507  -2097152.000    23613206.994    98141414.60106
  -2097152.000  
  23059331.186   123308608.83307      4112.922    23059337.313    95906716.64706
      3198.938  
  20071480.202   107368882.95908      2152.405    20071487.237    83509159.56806
      1674.128  
 20  9 26  5 33  5.0000000  0 16G30G20G18G15G 5G29G13R 7R 8R 1R 6R22
                                R16R15R24R23
  23838572.696   125272545.75647      -441.441    23838575.473    97614979.78245
      -343.984  
  23317274.601   122533106.62347      3151.031    23317274.783    95480346.06845
      2455.343  
  21061016.775   110676388.56249      2004.234    21061016.825    86241343.43448
      1561.742  
  20584148.176   108170430.72249      1968.074    20584148.059    84288648.49448
      1533.563  
  22090171.781   116084634.12448     -2747.887    22090171.474    90455557.33547
     -2141.215  
  22623080.164   118885085.89148     -3064.633    22623081.076    92637731.41547
     -2388.031  
  20504832.121   107753620.69649       -67.367    20504831.078    83963857.24448
       -52.491  
  19517154.599   104476856.98009     -1436.155    19517158.261    81259792.34308
     -1117.015  
  20164307.509   107978961.42908      2172.371    20164310.885    83983644.51908
      1689.621  
  23487156.583   125552329.37605      3822.304    23487168.025    97651837.65105
      2972.902  
  22739682.597   121343302.18005     -3789.840           0.000           0.00000
         0.000  
  20554478.562   109721192.97007     -3271.565    20554483.458    85338730.24004
     -2544.555  
  22888045.718   122263832.10704      1607.706    22888051.061    95094118.70804
      1250.433  
  23614803.684   126190350.99807  -2097152.000    23614808.923    98148072.55206
  -2097152.000  
  23055486.237   123288048.01107      4111.722    23055492.413    95890724.90706
      3198.008  
  20069470.078   107358129.96108      2148.777    20069477.046    83500796.11906
      1671.266  
 20  9 26  5 33 10.0000000  0 16G30G20G18G15G 5G29G13R 7R 8R 1R 6R22
                                R16R15R24R23
  23838994.242   125274761.15347      -444.676    23838997.154    97616706.08745
      -346.495  
  23314276.996   122517354.06947      3150.304    23314277.235    95468071.36144
      2454.781  
  21059111.095   110666374.17849      2001.699    21059111.136    86233540.02047
      1559.766  
  20582277.113   108160598.21949      1964.956    20582276.990    84280986.80648
      1531.136  
  22092787.113   116098377.75449     -2749.496    22092786.824    90466266.66547
     -2142.469  
  22625997.137   118900414.62148     -3067.104    22625998.027    92649675.87247
     -2389.956  
  20504897.961   107753966.75449       -71.016    20504896.938    83964126.89948
       -55.336  
  19518497.329   104484044.87909     -1439.128    19518501.043    81265382.93108
     -1119.324  
  20162280.284   107968105.94708      2169.729    20162283.703    83975201.37908
      1687.566  
  23483581.738   125533220.09205      3821.797    23483593.235    97636974.89204
      2972.512  
  22743234.008   121362253.65705     -3790.891           0.000           0.00000
         0.000  
  20557544.535   109737559.21507     -3275.011    20557549.422    85351459.54204
     -2547.233  
  22886542.021   122255800.44005      1604.054    22886547.439    95087871.84804
      1247.593  
  23616409.087   126198929.78506  -2097152.000    23616414.324    98154744.93305
  -2097152.000  
  23051642.408   123267493.48406      4110.171    23051648.597    95874738.04706
      3196.796  
  20067463.348   107347395.37408      2144.875    20067470.314    83492446.99706
      1668.234  
 20  9 26  5 33 15.0000000  0 15G30G20G18G15G 5G29G13R 7R 8R 1R 6R22
                                R16R24R23
  23839418.697   125276991.58247      -447.757    23839421.675    97618444.05545
      -348.905  
  23311279.944   122501604.26847      3149.199    23311280.207    95455798.81445
      2453.921  
  21057207.467   110656370.63949      1999.444    21057207.513    86225745.06247
      1558.007  
  20580408.789   108150780.14649      1961.902    20580408.676    84273336.37448
      1528.753  
  22095403.496   116112126.84648     -2750.547    22095403.201    90476980.26046
     -2143.281  
  22628915.896   118915752.80448     -3068.645    22628916.741    92661627.70847
     -2391.155  
  20504967.025   107754329.65549       -74.479    20504966.004    83964409.68347
       -58.035  
  19519842.564   104491246.05609     -1441.703    19519846.316    81270983.85508
     -1121.323  
  20160255.507   107957263.36108      2166.922    20160258.936    83966768.26508
      1685.382  
  23480007.781   125514114.95905      3819.839    23480019.253    97622115.40004
      2970.992  
  22746785.862   121381206.84405     -3790.426           0.000           0.00000
         0.000  
  20560613.328   109753940.51807     -3277.894    20560618.145    85364200.54904
     -2549.477  
  22885041.991   122247787.73804      1599.683    22885047.416    95081639.75504
      1244.195  
  23047799.795   123246945.14707      4109.042    23047805.925    95858756.01105
      3195.921  
  20065460.082   107336679.21908      2141.300    20065467.044    83484112.22206
      1665.461  
 20  9 26  5 33 20.0000000  0 15G30G20G18G15G 5G29G13R 7R 8R 1R 6R22
                                R16R24R23
  23839845.709   125279235.23447      -450.452    23839848.561    97620192.39345
      -351.000  
  23308283.009   122485855.20547      3149.309    23308283.348    95443526.80245
      2454.004  
  21055305.546   110646375.97749      1997.577    21055305.595    86217956.99647
      1556.551  
  20578542.820   108140974.47549      1959.421    20578542.711    84265695.59148
      1526.819  
  22098020.507   116125879.36048     -2751.147    22098020.182    90487696.51747
     -2143.754  
  22631836.073   118931098.44048     -3070.332    22631836.870    92673585.33547
     -2392.469  
  20505038.908   107754707.40349       -77.413    20505037.891    83964704.04647
       -60.324  
  19521189.913   104498458.55209     -1443.961    19521193.693    81276593.57208
     -1123.082  
  20158232.779   107946431.68308      2164.664    20158236.200    83958343.64008
      1683.628  
  23476434.319   125495011.91505      3819.843    23476445.610    97607257.47404
      2970.987  
  22750337.803   121400160.08805     -3791.441           0.000           0.00000
         0.000  
  20563684.564   109770334.79507     -3280.504    20563689.354    85376951.62504
     -2551.512  
  22883545.099   122239792.01604      1597.112    22883550.556    95075420.83404
      1242.195  
  23043957.925   123226400.94207      4107.879    23043963.985    95842777.20405
      3195.020  
  20063459.900   107325979.59408      2137.769    20063466.876    83475790.31806
      1662.710  
 20  9 26  5 33 25.0000000  0 15G30G20G18G15G 5G29G13R 7R 8R 1R 6R22
                                R16R24R23
  23840276.024   125281496.49447      -453.382    23840278.804    97621954.41745
      -353.284  
  23305287.084   122470111.32447      3148.813    23305287.375    95431258.85445
      2453.621  
  21053406.182   110636394.62749      1995.551    21053406.214    86210179.31947
      1554.976  
  20576680.049   108131185.60649      1956.718    20576679.952    84258067.90548
      1524.715  
  22100639.016   116139639.75048     -2752.207    22100638.674    90498418.89747
     -2144.581  
  22634758.504   118946455.94948     -3071.956    22634759.273    92685552.21347
     -2393.737  
  20505114.449   107755104.40249       -80.694    20505113.429    83965013.39347
       -62.882  
  19522540.200   104505686.71409     -1446.637    19522543.959    81282215.47608
     -1125.164  
  20156212.855   107935615.14108      2162.440    20156216.277    83949930.76108
      1681.895  
  23472862.057   125475915.43805      3819.577    23472873.256    97592404.68504
      2970.785  
  22753890.428   121419117.38704     -3791.078           0.000           0.00000
         0.000  
  20566759.050   109786746.48607     -3283.363    20566763.789    85389716.28304
     -2553.730  
  22882052.222   122231817.89504      1593.332    22882057.743    95069218.75604
      1239.257  
  23040117.761   123205865.64306      4106.867    23040123.775    95826805.34506
      3194.234  
  20061463.705   107315301.14108      2134.323    20061470.637    83467484.85305
      1660.031  
 20  9 26  5 33 30.0000000  0 15G30G20G18G15G 5G29G13R 7R 8R 1R 6R22
                                R16R24R23
  23840708.750   125283770.17147      -454.851    23840711.432    97623726.08344
      -354.438  
  23302291.147   122454367.54147      3150.297    23302291.490    95418990.98845
      2454.776  
  21051508.355   110626421.47949      1995.093    21051508.384    86202408.05147
      1554.621  
  20574819.512   108121408.48449      1955.683    20574819.442    84250449.36348
      1523.909  
  22103258.037   116153402.98448     -2751.409    22103257.729    90509143.45947
     -2143.960  
  22637682.210   118961820.22348     -3072.136    22637682.971    92697524.36047
     -2393.874  
  20505192.681   107755515.57649       -82.316    20505191.701    83965333.77948
       -64.148  
  19523892.439   104512925.50809     -1447.430    19523896.173    81287845.64708
     -1125.780  
  20154194.916   107924809.10908      2161.515    20154198.345    83941526.08408
      1681.180  
  23469289.939   125456820.23205      3820.300    23469301.054    97577552.90504
      2971.352  
  22757442.894   121438073.93604     -3790.359           0.000           0.00000
         0.000  
  20569835.765   109803170.38907     -3284.694    20569840.540    85402490.43104
     -2554.762  
  22880562.617   122223860.16404      1591.308    22880568.020    95063029.42704
      1237.683  
  23036278.236   123185333.91207      4107.883    23036284.204    95810836.20806
      3195.015  
  20059470.425   107304638.50109      2132.348    20059477.338    83459191.68406
      1658.511  
 20  9 26  5 33 35.0000000  0 13G30G20G18G15G 5G29G13R 7R 8R 1R22R24
                                R23
  23841144.671   125286060.51245      -460.671    23841147.084    97625510.78444
      -358.964  
  23299295.985   122438628.01346      3145.359    23299296.305    95406726.42344
      2450.926  
  21049612.879   110616460.65649      1989.155    21049612.928    86194646.38048
      1549.992  
  20572962.019   108111647.25949      1949.140    20572961.952    84242843.22348
      1518.812  
  22105878.406   116167173.08648     -2756.386    22105878.051    90519873.39247
     -2147.836  
  22640607.999   118977195.37848     -3077.573    22640608.711    92709504.99447
     -2398.112  
  20505274.379   107755944.99649       -89.503    20505273.447    83965668.39248
       -69.742  
  19525247.479   104520179.24209     -1453.875    19525251.196    81293487.44808
     -1130.792  
  20152179.567   107914017.22608      2155.214    20152183.041    83933132.41608
      1676.276  
  23465718.883   125437730.67505      3815.604    23465729.893    97562705.48604
      2967.690  
  20572915.553   109819610.72307     -3291.063    20572920.324    85415277.36004
     -2559.718  
  23032440.155   123164809.90707      4101.909    23032446.103    95794873.02506
      3190.363  
  20057480.941   107293996.04109      2124.972    20057487.837    83450914.19306
      1652.754  
 20  9 26  5 33 40.0000000  0 13G30G20G18G15G 5G29G13R 7R 8R 1R22R24
                                R23
  23841585.493   125288376.64148      -465.046    23841587.750    97627315.55245
      -362.378  
  23296303.387   122422901.99247      3144.785    23296303.773    95394472.38145
      2450.476  
  21047721.543   110606521.55249      1986.577    21047721.593    86186901.61848
      1547.980  
  20571109.327   108101911.26949      1945.761    20571109.256    84235256.74148
      1516.176  
  22108501.854   116180959.49548     -2758.191    22108501.495    90530616.05247
     -2149.241  
  22643537.619   118992590.69848     -3080.198    22643538.303    92721501.34247
     -2400.159  
  20505361.348   107756402.05449       -93.218    20505360.470    83966024.54748
       -72.636  
  19526607.061   104527457.15409     -1456.952    19526610.762    81299148.03908
     -1133.191  
  20150168.704   107903249.33008      2152.202    20150172.206    83924757.38908
      1673.938  
  23462150.821   125418656.27405      3814.597    23462161.581    97547869.84704
      2966.910  
  20576000.290   109836076.97807     -3294.757    20576005.029    85428084.44004
     -2562.594  
  23028605.319   123144303.25107      4100.769    23028611.233    95778923.43706
      3189.488  
  20055496.986   107283383.15808      2120.637    20055503.879    83442659.73606
      1649.379  
 20  9 26  5 33 45.0000000  0 13G30G20G18G15G 5G29G13R 7R 8R 1R22R24
                                R23
  23842028.930   125290706.38747      -467.066    23842031.039    97629130.93445
      -363.953  
  23293310.982   122407177.23547      3145.456    23293311.512    95382219.32344
      2450.999  
  21045831.993   110596591.80949      1985.098    21045831.990    86179164.16548
      1546.827  
  20569259.075   108092188.12849      1943.589    20569258.998    84227680.27648
      1514.483  
  22111126.050   116194749.76648     -2758.023    22111125.733    90541361.71047
     -2149.112  
  22646468.739   119007993.83448     -3081.031    22646469.398    92733503.77747
     -2400.809  
  20505451.221   107756874.36949       -95.757    20505450.373    83966392.59148
       -74.621  
  19527968.812   104534746.71509     -1458.983    19527972.519    81304817.68908
     -1134.770  
  20148159.912   107892492.59208      2150.382    20148163.464    83916391.04808
      1672.520  
  23458583.173   125399584.40306      3814.645    23458593.741    97533036.20304
      2966.949  
  20579087.409   109852556.53907     -3297.055    20579092.211    85440901.86404
     -2564.378  
  23024771.423   123123801.40806      4100.058    23024777.171    95762977.55406
      3188.934  
  20053516.184   107272787.32709      2117.543    20053523.110    83434418.54006
      1646.976  
 20  9 26  5 33 50.0000000  0 13G30G20G18G15G 5G29G13R 7R 8R 1R22R24
                                R23
  23842474.517   125293047.77948      -469.628    23842476.560    97630955.42245
      -365.945  
  23290318.456   122391451.80947      3145.190    23290318.937    95369965.76044
      2450.797  
  21043943.857   110586669.52549      1983.526    21043943.847    86171432.50748
      1545.602  
  20567410.923   108082475.96049      1941.206    20567410.835    84220112.35748
      1512.628  
  22113750.627   116208542.01349     -2758.961    22113750.348    90552108.91547
     -2149.843  
  22649400.988   119023402.93948     -3082.706    22649401.651    92745510.86347
     -2402.113  
  20505543.646   107757360.06849       -98.608    20505542.812    83966771.05348
       -76.844  
  19529332.371   104542045.95309     -1461.152    19529336.072    81310494.88008
     -1136.452  
  20146152.938   107881745.43108      2148.128    20146156.523    83908032.15108
      1670.766  
  23455015.608   125380513.10005      3813.949    23455026.008    97518203.00304
      2966.414  
  20582176.715   109869047.50007     -3299.590    20582181.568    85453728.16304
     -2566.352  
  23020938.044   123103302.54406      4099.121    23020943.712    95747033.99106
      3188.202  
  20051538.246   107262206.59809      2114.351    20051545.125    83426189.08906
      1644.496  
 20  9 26  5 33 55.0000000  0 15G30G20G18G15G 5G29G13R 7R 8R 1R 6R22
                                R16R24R23
  23842923.230   125295405.62348      -473.487    23842925.287    97632792.66646
      -368.960  
  23287326.694   122375730.49447      3143.918    23287327.237    95357715.40444
      2449.808  
  21042058.037   110576759.47249      1980.655    21042058.027    86163710.38848
      1543.363  
  20565565.753   108072779.52449      1937.526    20565565.661    84212556.70848
      1509.761  
  22116376.492   116222340.99748     -2760.690    22116376.220    90562861.36247
     -2151.190  
  22652335.266   119038822.67748     -3085.074    22652335.937    92757526.24347
     -2403.957  
  20505639.510   107757863.86949      -102.766    20505638.705    83967163.62548
       -80.082  
  19530698.670   104549359.79909     -1464.520    19530702.383    81316183.42808
     -1139.069  
  20144148.567   107871012.30508      2144.871    20144152.188    83899684.16608
      1668.233  
  23451449.050   125361447.39705      3812.214    23451459.362    97503374.13804
      2965.058  
  22775217.679   121532925.31415     -3795.218           0.000           0.00000
         0.000  
  20585269.105   109885554.73007     -3303.073    20585273.973    85466567.11804
     -2569.062  
  22873175.580   122184397.53114      1569.004    22873180.887    95032331.08415
      1220.335  
  23017106.097   123082811.21606      4097.565    23017111.667    95731096.27606
      3186.992  
  20049564.031   107251645.93908      2109.886    20049570.906    83417975.24006
      1641.020  
 20  9 26  5 34  0.0000000  0 15G30G20G18G15G 5G29G13R 7R 8R 1R 6R22
                                R16R24R23
  23843374.792   125297778.44147      -475.637    23843376.868    97634641.62945
      -370.629  
  23284335.440   122360011.85047      3143.852    23284335.985    95345467.10144
      2449.749  
  21040174.269   110566860.23549      1979.031    21040174.271    86155996.69248
      1542.098  
  20563723.303   108063097.38549      1935.328    20563723.194    84205012.17948
      1508.043  
  22119003.354   116236145.21848     -2760.926    22119003.113    90573617.89147
     -2151.375  
  22655271.312   119054251.64148     -3086.163    22655271.968    92769548.80047
     -2404.808  
  20505738.541   107758384.34349      -105.273    20505737.772    83967569.19248
       -82.034  
  19532067.410   104556686.73909     -1466.418    19532071.070    81321882.15308
     -1140.551  
  20142146.621   107860292.15808      2143.284    20142150.284    83891346.27408
      1666.996  
  23447883.182   125342385.69606      3812.581    23447893.342    97488548.37304
      2965.340  
  22778773.616   121551900.84905     -3794.351           0.000           0.00000
         0.000  
  20588364.259   109902076.71407     -3305.535    20588369.125    85479417.54204
     -2570.977  
  22871708.832   122176562.89504      1565.632    22871714.327    95026237.48905
      1217.715  
  23013275.330   123062326.31806      4096.827    23013280.916    95715163.60306
      3186.421  
  20047593.282   107241103.76208      2106.952    20047600.120    83409775.77206
      1638.741  
 20  9 26  5 34  5.0000000  0 15G30G20G18G15G 5G29G13R 7R 8R 1R 6R22
                                R16R24R23
  23843828.931   125300164.64448      -479.140    23843830.991    97636500.99945
      -373.358  
  23281344.443   122344294.27246      3142.878    23281344.971    95333219.65245
      2448.999  
  21038292.251   110556970.19649      1976.757    21038292.291    86148290.17348
      1540.332  
  20561883.283   108053427.98449      1932.211    20561883.170    84197477.58748
      1505.612  
  22121630.925   116249953.13348     -2762.340    22121630.698    90584377.28947
     -2152.476  
  22658208.812   119069688.18148     -3088.617    22658209.403    92781577.26047
     -2406.719  
  20505840.433   107758919.88449      -108.929    20505839.675    83967986.50048
       -84.879  
  19533438.271   104564025.06409     -1469.289    19533441.924    81327589.74108
     -1142.784  
  20140146.782   107849583.14308      2140.413    20140150.475    83883017.04408
      1664.766  
  23444317.780   125323326.26205      3811.190    23444327.803    97473724.42004
      2964.265  
  22782329.640   121570876.38105     -3795.581           0.000           0.00000
         0.000  
  20591461.791   109918611.67407     -3308.598    20591466.707    85492278.05304
     -2573.359  
  22870245.344   122168745.54904      1561.222    22870251.070    95020157.33605
      1214.284  
  23009445.465   123041846.18607      4095.133    23009451.050    95699234.60906
      3185.098  
  20045625.710   107230578.63909      2102.823    20045632.538    83401589.57006
      1635.527  
 20  9 26  5 34 10.0000000  0 15G30G20G18G15G 5G29G13R 7R 8R 1R 6R22
                                R16R24R23
  23844285.956   125302566.32647      -481.491    23844288.048    97638372.44546
      -375.190  
  23278354.014   122328579.83546      3142.675    23278354.626    95320974.65745
      2448.839  
  21036412.382   110547091.48149      1974.589    21036412.489    86140592.47948
      1538.641  
  20560046.073   108043773.35149      1929.659    20560045.956    84189954.50448
      1503.632  
  22124259.573   116263766.77348     -2763.242    22124259.400    90595141.16547
     -2153.180  
  22661148.141   119085134.36348     -3090.234    22661148.683    92793613.24947
     -2407.979  
  20505945.585   107759472.58549      -112.289    20505944.875    83968417.18248
       -87.499  
  19534811.699   104571377.03909     -1471.601    19534815.329    81333307.95208
     -1144.577  
  20138149.439   107838887.49308      2137.863    20138153.132    83874698.21308
      1662.781  
  23440753.187   125304271.47106      3810.406    23440763.123    97458904.03804
      2963.647  
  22785886.127   121589854.00805     -3795.559           0.000           0.00000
         0.000  
  20594562.301   109935161.88107     -3311.437    20594567.164    85505150.43704
     -2575.565  
  22868785.552   122160947.82104      1557.405    22868791.437    95014092.45805
      1211.316  
  23005616.823   123021372.71307      4094.218    23005622.446    95683310.80006
      3184.391  
  20043661.697   107220072.46709      2099.440    20043668.489    83393418.09806
      1632.894  
 20  9 26  5 34 15.0000000  0 15G30G20G18G15G 5G29G13R 7R 8R 1R 6R22
                                R16R24R23
  23844745.813   125304982.76547      -484.586    23844747.909    97640255.37545
      -377.601  
  23275364.116   122312867.88247      3142.625    23275364.754    95308731.59945
      2448.796  
  21034534.529   110537223.38949      1972.512    21034534.661    86132903.05648
      1537.022  
  20558211.543   108034132.83149      1926.874    20558211.428    84182442.41648
      1501.460  
  22126889.193   116277585.52148     -2764.004    22126889.043    90605909.01947
     -2153.772  
  22664089.162   119100589.50248     -3091.527    22664089.713    92805656.21147
     -2408.983  
  20506053.882   107760041.72149      -115.219    20506053.184    83968860.65948
       -89.785  
  19536187.517   104578741.83809     -1474.215    19536191.126    81339036.12308
     -1146.616  
  20136154.408   107828204.16508      2135.574    20136158.097    83866388.96208
      1661.003  
  23437189.364   125285220.38806      3809.980    23437199.093    97444086.54904
      2963.316  
  22789442.774   121608833.01905     -3795.691           0.000           0.00000
         0.000  
  20597665.461   109951726.57107     -3313.816    20597670.317    85518034.07704
     -2577.418  
  22867329.344   122153169.14404      1553.573    22867335.293    95008042.38705
      1208.331  
  23001789.328   123000905.38107      4092.737    23001795.035    95667391.76906
      3183.246  
  20041701.130   107209584.78608      2095.839    20041707.929    83385261.02106
      1630.097  
 20  9 26  5 34 20.0000000  0 15G30G20G18G15G 5G29G13R 7R 8R 1R 6R22
                                R16R24R23
  23845208.819   125307415.78648      -488.078    23845210.902    97642151.25245
      -380.324  
  23272375.061   122297160.16347      3141.598    23272375.641    95296491.80445
      2447.995  
  21032659.044   110527367.71249      1969.914    21032659.149    86125223.30548
      1534.992  
  20556380.034   108024508.21749      1923.339    20556379.918    84174942.72148
      1498.707  
  22129520.134   116291411.04949     -2765.539    22129519.972    90616682.14147
     -2154.969  
  22667032.233   119116055.35248     -3093.973    22667032.784    92817707.49947
     -2410.890  
  20506165.651   107760629.13349      -119.156    20506164.964    83969318.37948
       -92.852  
  19537566.038   104586121.29209     -1477.253    19537569.671    81344775.70208
     -1148.979  
  20134162.126   107817535.45608      2132.551    20134165.799    83858091.08108
      1658.651  
  23433626.620   125266174.97906      3808.026    23433636.092    97429273.49104
      2961.805  
  22793000.076   121627815.12205     -3796.366           0.000           0.00000
         0.000  
  20600771.688   109968307.57107     -3317.550    20600776.473    85530930.40404
     -2580.319  
  22865876.949   122145410.70804      1549.020    22865882.932    95002008.03404
      1204.788  
  22997963.317   122980446.01307      4091.034    22997969.077    95651478.93206
      3181.921  
  20039744.333   107199117.20908      2091.633    20039751.126    83377119.57206
      1626.820  
 20  9 26  5 34 25.0000000  0 15G30G20G18G15G 5G29G13R 7R 8R 1R 6R22
                                R16R24R23
  23845674.749   125309864.23647      -491.203    23845676.776    97644059.11646
      -382.757  
  23269386.574   122281455.65247      3140.319    23269387.194    95284254.55244
      2447.007  
  21030785.706   110517523.34649      1967.772    21030785.822    86117552.37648
      1533.323  
  20554551.350   108014898.41649      1920.429    20554551.204    84167454.57048
      1496.437  
  22132152.159   116305242.33948     -2766.745    22132151.955    90627459.76447
     -2155.910  
  22669977.146   119131530.81748     -3095.964    22669977.657    92829766.29647
     -2412.445  
  20506280.692   107761233.70949      -122.625    20506280.013    83969789.48548
       -95.550  
  19538947.124   104593514.32309     -1479.922    19538950.758    81350525.83308
     -1151.055  
  20132172.278   107806879.88408      2129.823    20132175.938    83849803.41008
      1656.527  
  23430064.776   125247134.10106      3807.347    23430074.063    97414463.94304
      2961.272  
  22796557.729   121646799.34205     -3797.163           0.000           0.00000
         0.000  
  20603880.710   109984903.67907     -3320.769    20603885.505    85543838.48404
     -2582.823  
  22864428.306   122137672.09904      1545.871    22864434.283    94995989.13604
      1202.343  
  22994138.621   122959993.57806      4089.538    22994144.371    95635571.46506
      3180.749  
  20037791.102   107188668.89809      2087.780    20037797.886    83368993.10506
      1623.824  
 20  9 26  5 34 30.0000000  0 15G30G20G18G15G 5G29G13R 7R 8R 1R 6R22
                                R16R24R23
  23846143.513   125312327.70047      -494.332    23846145.611    97645978.69845
      -385.198  
  23266398.652   122265753.80047      3139.929    23266399.224    95272019.31645
      2446.695  
  21028914.423   110507689.87749      1965.598    21028914.515    86109889.93447
      1531.629  
  20552725.397   108005302.99849      1917.659    20552725.252    84159977.63048
      1494.280  
  22134785.207   116319078.88149     -2767.663    22134784.949    90638241.49647
     -2156.620  
  22672923.778   119147015.40948     -3098.065    22672924.224    92841832.21247
     -2414.082  
  20506398.884   107761854.93949      -125.882    20506398.237    83970273.56248
       -98.090  
  19540330.633   104600920.38709     -1482.456    19540334.274    81356286.11008
     -1153.022  
  20130184.867   107796237.16908      2127.202    20130188.481    83841525.75308
      1654.491  
  23426503.609   125228097.21906      3807.574    23426512.696    97399657.49504
      2961.449  
  22800115.525   121665784.92705     -3797.520           0.000           0.00000
         0.000  
  20606992.513   110001514.47307     -3323.887    20606997.316    85556757.97604
     -2585.250  
  22862983.244   122129952.33604      1542.094    22862989.119    94989984.87505
      1199.401  
  22990315.090   122939547.44006      4088.710    22990320.864    95619668.94806
      3180.113  
  20035841.382   107178239.11809      2084.102    20035848.135    83360881.05606
      1620.969  
 20  9 26  5 34 35.0000000  0 15G30G20G18G15G 5G29G13R 7R 8R 1R 6R22
                                R16R24R23
  23846614.858   125314804.72847      -497.055    23846617.059    97647908.85746
      -387.316  
  23263410.947   122250053.30347      3139.633    23263411.547    95259785.18245
      2446.468  
  21027044.960   110497865.87949      1963.425    21027045.025    86102234.87247
      1529.941  
  20550901.902   107995720.56149      1914.672    20550901.752    84152510.79848
      1491.952  
  22137418.991   116332919.35448     -2768.870    22137418.686    90649026.27047
     -2157.566  
  22675871.863   119162507.70248     -3099.526    22675872.245    92853904.11647
     -2415.219  
  20506519.999   107762491.43249      -129.175    20506519.365    83970769.53048
      -100.655  
  19541716.318   104608338.06609     -1485.151    19541719.950    81362055.40908
     -1155.121  
  20128199.542   107785605.87208      2124.546    20128203.138    83833256.96508
      1652.426  
  23422942.956   125209063.11005      3806.266    23422951.918    97384853.21404
      2960.429  
  22803673.593   121684770.95904     -3797.074           0.000           0.00000
         0.000  
  20610106.816   110018138.52207     -3326.628    20610111.592    85569687.80104
     -2587.383  
  22861541.429   122122250.48405      1538.648    22861547.282    94983994.56005
      1196.727  
  22986492.496   122919106.40906      4087.687    22986498.281    95603770.36906
      3179.309  
  20033894.867   107167826.63808      2080.327    20033901.615    83352782.45706
      1618.027  
 20  9 26  5 34 40.0000000  0 15G30G20G18G15G 5G29G13R 7R 8R 1R 6R22
                                R16R24R23
  23847089.501   125317298.99648      -500.562    23847091.732    97649852.43946
      -390.051  
  23260424.196   122234357.75947      3138.629    23260424.773    95247554.87645
      2445.679  
  21025178.006   110488054.99849      1960.827    21025178.061    86094590.03048
      1527.918  
  20549081.571   107986154.72249      1911.433    20549081.421    84145056.90748
      1489.430  
  22140054.200   116346767.28449     -2770.621    22140053.789    90659816.85847
     -2158.929  
  22678822.100   119178011.33548     -3101.843    22678822.466    92865984.87147
     -2417.020  
  20506644.686   107763146.79249      -133.098    20506644.062    83971280.20448
      -103.715  
  19543104.851   104615770.96009     -1488.237    19543108.470    81367836.55408
     -1157.523  
  20126217.054   107774989.55308      2121.738    20126220.609    83824999.83408
      1650.241  
  23419383.430   125190035.27805      3805.305    23419392.382    97370053.81204
      2959.680  
  22807232.197   121703760.60405     -3797.909           0.000           0.00000
         0.000  
  20613224.222   110034779.42007     -3330.015    20613228.983    85582630.70904
     -2590.015  
  22860103.840   122114569.95404      1533.878    22860109.318    94978020.80504
      1193.011  
  22982671.595   122898673.98906      4085.710    22982677.330    95587878.48706
      3177.769  
  20031952.264   107157435.08108      2076.211    20031959.042    83344700.14706
      1614.831  
 20  9 26  5 34 45.0000000  0 15G30G20G18G15G 5G29G13R 7R 8R 1R 6R22
                                R16R24R23
  23847567.600   125319811.42048      -503.694    23847569.735    97651810.18545
      -392.488  
  23257438.508   122218668.01547      3138.073    23257439.183    95235329.13245
      2445.254  
  21023313.700   110478258.19449      1958.746    21023313.777    86086956.16248
      1526.296  
  20547264.584   107976606.45249      1908.710    20547264.431    84137616.70048
      1487.308  
  22142690.989   116360623.60948     -2771.354    22142690.516    90670614.00247
     -2159.495  
  22681774.696   119193527.23548     -3103.648    22681775.026    92878075.17347
     -2418.429  
  20506773.155   107763821.99449      -136.367    20506772.556    83971806.33648
      -106.262  
  19544496.427   104623220.24009     -1490.659    19544500.027    81373630.43408
     -1159.406  
  20124237.585   107764389.36908      2119.101    20124241.118    83816755.26008
      1648.190  
  23415825.314   125171014.76705      3803.761    23415834.130    97355260.09504
      2958.483  
  22810791.652   121722755.06905     -3798.315           0.000           0.00000
         0.000  
  20616344.975   110051438.17707     -3332.715    20616349.759    85595587.51604
     -2592.116  
  22858670.156   122106911.56604      1530.007    22858675.602    94972064.32404
      1190.012  
  22978852.458   122878251.25105      4084.472    22978858.210    95571994.15306
      3176.816  
  20030013.801   107147065.48909      2072.550    20030020.569    83336634.90306
      1611.980  
 20  9 26  5 34 50.0000000  0 15G30G20G18G15G 5G29G13R 7R 8R 1R 6R22
                                R16R24R23
  23848048.281   125322337.32148      -506.414    23848050.410    97653778.40845
      -394.612  
  23254453.081   122202979.52347      3137.284    23254453.700    95223104.32945
      2444.632  
  21021451.224   110468470.81549      1956.289    21021451.294    86079329.63748
      1524.383  
  20545450.038   107967071.04449      1905.801    20545449.903    84130186.51348
      1485.039  
  22145328.493   116374483.69448     -2772.511    22145327.917    90681414.06247
     -2160.402  
  22684728.695   119209050.76448     -3105.628    22684729.031    92890171.42347
     -2419.973  
  20506904.519   107764512.31849      -139.535    20506903.928    83972344.25248
      -108.733  
  19545890.127   104630680.82709     -1493.358    19545893.728    81379433.11308
     -1161.503  
  20122260.191   107753800.38608      2116.906    20122263.670    83808519.38508
      1646.483  
  23412267.568   125151996.82705      3802.823    23412276.442    97340468.40804
      2957.757  
  22814351.261   121741749.44504     -3798.926           0.000           0.00000
         0.000  
  20619468.209   110068110.02307     -3335.753    20619472.894    85608554.49504
     -2594.479  
  22857239.780   122099271.03704      1525.902    22857245.255    94966121.68505
      1186.812  
  22975034.346   122857833.50005      4082.609    22975039.975    95556113.69006
      3175.362  
  20028078.544   107136713.10708      2068.652    20028085.292    83328583.04406
      1608.948  
 20  9 26  5 34 55.0000000  0 15G30G20G18G15G 5G29G13R 7R 8R 1R 6R22
                                R16R24R23
  23848531.751   125324877.97448      -509.652    23848533.809    97655758.12846
      -397.136  
  23251468.149   122187293.56947      3136.979    23251468.754    95210881.50446
      2444.398  
  21019590.770   110458694.12649      1954.168    21019590.823    86071711.44348
      1522.727  
  20543638.171   107957549.80349      1902.785    20543638.081    84122767.37348
      1482.690  
  22147966.951   116388348.82448     -2773.628    22147966.338    90692218.04847
     -2161.273  
  22687684.378   119224583.07548     -3107.516    22687684.736    92902274.50847
     -2421.444  
  20507039.009   107765219.13049      -143.148    20507038.448    83972895.02348
      -111.543  
  19547286.265   104638154.27209     -1496.063    19547289.823    81385245.79508
     -1163.604  
  20120285.164   107743224.17708      2113.910    20120288.625    83800293.45508
      1644.152  
  23408710.657   125132982.78406      3802.370    23408719.554    97325679.73804
      2957.402  
  22817911.047   121760745.08305     -3799.882           0.000           0.00000
         0.000  
  20622594.096   110084796.22407     -3338.937    20622598.760    85621532.65504
     -2596.957  
  22855812.982   122091649.30504      1522.151    22855818.414    94960193.67405
      1183.894  
  22971217.318   122837421.94905      4081.651    22971222.876    95540238.04906
      3174.613  
  20026146.729   107126379.19708      2064.710    20026153.446    83320545.55906
      1605.883  
 20  9 26  5 35  0.0000000  0 15G30G20G18G15G 5G29G13R 7R 8R 1R 6R22
                                R16R24R23
  23849018.316   125327435.01847      -513.023    23849020.377    97657750.63546
      -399.757  
  23248484.042   122171611.69847      3135.828    23248484.712    95198661.88245
      2443.504  
  21017732.657   110448929.73749      1951.625    21017732.715    86064102.83248
      1520.745  
  20541829.320   107948044.32249      1899.441    20541829.249    84115360.50848
      1480.086  
  22150606.657   116402220.54048     -2774.960    22150606.007    90703027.17947
     -2162.312  
  22690642.007   119240125.83548     -3109.690    22690642.455    92914385.75247
     -2423.140  
  20507176.933   107765943.95549      -146.788    20507176.386    83973459.82548
      -114.382  
  19548685.092   104645642.11509     -1498.948    19548688.630    81391069.67308
     -1165.851  
  20118312.832   107732662.20808      2110.804    20118316.244    83792078.58808
      1641.737  
  23405154.708   125113974.32505      3801.515    23405163.605    97310895.40904
      2956.738  
  22821471.482   121779743.68305     -3800.270           0.000           0.00000
         0.000  
  20625722.972   110101498.37307     -3342.030    20625727.671    85634523.20604
     -2599.363  
  22854390.029   122084048.20604      1518.944    22854395.499    94954281.72405
      1181.397  
  22967401.834   122817018.46606      4079.988    22967407.224    95524368.67206
      3173.319  
  20024218.730   107116065.54409      2060.624    20024225.443    83312523.83906
      1602.730  
 20  9 26  5 35  5.0000000  0 14G30G20G18G15G 5G29G13R 7R 8R 1R 6R22
                                R24R23
  23849507.692   125330006.76747      -515.363    23849509.811    97659754.59845
      -401.582  
  23245500.360   122155932.34847      3136.070    23245500.978    95186444.21045
      2443.687  
  21015876.584   110439176.03949      1949.945    21015876.631    86056502.54248
      1519.433  
  20540023.184   107938553.01349      1897.054    20540023.106    84107964.68748
      1478.222  
  22153247.324   116416097.21348     -2775.788    22153246.652    90713840.17947
     -2162.953  
  22693601.368   119255677.40948     -3110.909    22693601.851    92926503.85647
     -2424.089  
  20507317.987   107766685.20049      -149.808    20507317.477    83974037.41348
      -116.737  
  19550086.243   104653142.61909     -1501.137    19550089.802    81396903.39708
     -1167.551  
  20116342.797   107722112.66608      2108.737    20116346.206    83783873.38808
      1640.125  
  23401599.582   125094969.67305      3801.257    23401608.412    97296114.03204
      2956.539  
  22825032.012   121798743.54604     -3799.882           0.000           0.00000
         0.000  
  20628854.562   110118214.76507     -3344.562    20628859.235    85647524.83704
     -2601.332  
  22963587.495   122796621.16806      4078.823    22963592.759    95508504.07506
      3172.418  
  20022294.124   107105770.17009      2057.347    20022300.862    83304516.33106
      1600.159  
 20  9 26  5 35 10.0000000  0 14G30G20G18G15G 5G29G13R 7R 8R 1R 6R22
                                R24R23
  23849999.898   125332593.20348      -518.417    23850001.979    97661770.00846
      -403.965  
  23242517.111   122140255.42448      3135.352    23242517.691    95174228.43145
      2443.133  
  21014022.539   110429433.00149      1947.648    21014022.609    86048910.57148
      1517.647  
  20538219.738   107929075.81049      1894.019    20538219.649    84100579.86248
      1475.858  
  22155888.911   116429978.81549     -2776.769    22155888.273    90724656.98847
     -2163.719  
  22696562.397   119271237.69248     -3112.897    22696562.930    92938628.73247
     -2425.640  
  20507462.168   107767442.84349      -152.972    20507461.675    83974627.78648
      -119.202  
  19551489.799   104660655.87109     -1503.734    19551493.370    81402747.03408
     -1169.574  
  20114375.123   107711575.79908      2106.371    20114378.538    83775678.05808
      1638.288  
  23398045.090   125075968.90306      3799.921    23398053.940    97281335.68604
      2955.499  
  22828592.663   121817744.54805     -3799.938           0.000           0.00000
         0.000  
  20631988.773   110134945.48807     -3347.555    20631993.501    85660537.62204
     -2603.655  
         0.000           0.00000         0.000    22959779.525    95492645.41416
      3171.359  
  20020373.011   107095493.42008      2053.655    20020379.764    83296523.31006
      1597.288  
 20  9 26  5 35 15.0000000  0 14G30G20G18G15G 5G29G13R 7R 8R 1R 6R22
                                R24R23
  23850495.348   125335196.90147      -522.437    23850497.413    97663798.85145
      -407.097  
  23239534.858   122124583.45147      3133.913    23239535.442    95162016.52546
      2442.016  
  21012170.998   110419703.17949      1944.668    21012171.102    86041328.89448
      1515.323  
  20536419.454   107919615.25349      1890.605    20536419.374    84093208.00548
      1473.198  
  22158531.927   116443867.89448     -2778.675    22158531.318    90735479.65847
     -2165.202  
  22699525.534   119286809.17548     -3115.359    22699526.099    92950762.35147
     -2427.558  
  20507609.932   107768219.38249      -157.097    20507609.454    83975232.88848
      -122.413  
  19552896.198   104668184.34209     -1507.249    19552899.781    81408602.50908
     -1172.304  
  20112410.271   107701054.07608      2102.988    20112413.659    83767494.50008
      1635.656  
  23394491.835   125056974.44206      3798.066    23394500.674    97266562.22804
      2954.050  
  22832154.162   121836749.35704     -3800.656           0.000           0.00000
         0.000  
  20635126.158   110151693.06307     -3351.108    20635130.876    85673563.50204
     -2606.421  
  22955962.684   122755847.90715      4075.495    22955967.949    95476792.58106
      3169.840  
  20018455.827   107085237.74408      2049.077    20018462.601    83288546.66406
      1593.723  
 20  9 26  5 35 20.0000000  0 14G30G20G18G15G 5G29G13R 7R 8R 1R 6R22
                                R24R23
  23850993.885   125337816.73247      -525.375    23850995.888    97665840.27345
      -409.386  
  23236553.388   122108915.47247      3133.035    23236553.907    95149807.73045
      2441.323  
  21010321.785   110409985.52849      1942.340    21010321.894    86033756.69748
      1513.508  
  20534622.151   107910170.36049      1887.512    20534622.080    84085848.35648
      1470.788  
  22161176.143   116457763.37449     -2779.758    22161175.561    90746307.29747
     -2166.051  
  22702490.631   119302390.89848     -3117.414    22702491.179    92962903.94947
     -2429.156  
  20507761.091   107769013.75749      -160.632    20507760.620    83975851.88448
      -125.168  
  19554305.218   104675726.96609     -1509.961    19554308.799    81414468.99608
     -1174.418  
  20110448.035   107690546.45508      2100.090    20110451.427    83759321.90508
      1633.402  
  23390939.515   125037985.31805      3796.999    23390948.361    97251792.92204
      2953.223  
  22835716.134   121855756.91004     -3802.198           0.000           0.00000
         0.000  
  20638266.498   110168456.28507     -3354.296    20638271.191    85686601.55704
     -2608.902  
  22952152.659   122735473.61506      4074.370    22952157.820    95460945.92706
      3168.956  
  20016542.374   107075002.09308      2045.101    20016549.178    83280585.60806
      1590.633  
 20  9 26  5 35 25.0000000  0 14G30G20G18G15G 5G29G13R 7R 8R 1R 6R22
                                R24R23
  23851495.534   125340452.75748      -528.563    23851497.438    97667894.31845
      -411.871  
  23233572.620   122093251.42947      3132.836    23233573.113    95137601.97045
      2441.172  
  21008474.895   110400280.02749      1940.004    21008475.000    86026193.97748
      1511.690  
  20532827.819   107900741.02449      1884.741    20532827.722    84078500.82348
      1468.628  
  22163821.591   116471665.23848     -2780.789    22163820.987    90757139.90547
     -2166.852  
  22705457.633   119317982.75348     -3119.250    22705458.261    92975053.43747
     -2430.590  
  20507915.654   107769825.92749      -164.233    20507915.164    83976484.74948
      -127.979  
  19555716.907   104683283.72109     -1512.516    19555720.458    81420346.47608
     -1176.401  
  20108488.439   107680052.90708      2097.520    20108491.818    83751160.26208
      1631.397  
  23387388.127   125019001.54806      3796.586    23387397.059    97237027.78804
      2952.897  
  22839278.572   121874767.04504     -3802.241           0.000           0.00000
         0.000  
  20641409.788   110185235.22907     -3357.140    20641414.466    85699651.84304
     -2611.113  
  22948344.002   122715107.04806      4072.934    22948349.115    95445105.25806
      3167.831  
  20014632.694   107064786.56309      2041.296    20014639.477    83272640.19106
      1587.672  
 20  9 26  5 35 30.0000000  0 15G30G20G18G15G 5G29G13R 7R 8R 1R 6R22
                                R16R24R23
  23851999.951   125343103.52048      -531.632    23852001.863    97669959.85446
      -414.262  
  23230592.362   122077589.88247      3131.895    23230592.771    95125398.18945
      2440.437  
  21006630.045   110390585.27549      1937.874    21006630.157    86018639.62148
      1510.026  
  20531036.178   107891325.88549      1881.602    20531036.091    84071164.36248
      1466.183  
  22166467.979   116485572.06948     -2781.770    22166467.400    90767976.40247
     -2167.616  
  22708426.309   119333583.34648     -3120.910    22708426.983    92987209.73047
     -2431.883  
  20508073.335   107770654.48849      -167.555    20508072.823    83977130.36848
      -130.566  
  19557130.923   104690853.18909     -1515.421    19557134.489    81426233.83208
     -1178.664  
  20106531.201   107669571.82808      2094.895    20106534.543    83743008.31408
      1629.363  
  23383837.586   125000021.74905      3795.457    23383846.449    97222265.74904
      2952.026  
  22842841.208   121893778.39104     -3802.679           0.000           0.00000
         0.000  
  20644555.741   110202028.41407     -3359.706    20644560.417    85712713.20204
     -2613.109  
  22845929.863   122038857.08214      1493.999    22845935.649    94919134.35915
      1161.999  
  22944536.511   122694746.80806      4071.554    22944541.577    95429269.53506
      3166.766  
  20012726.480   107054589.50709      2037.370    20012733.237    83264709.14906
      1584.668  
 20  9 26  5 35 35.0000000  0 15G30G20G18G15G 5G29G13R 7R 8R 1R 6R22
                                R16R24R23
  23852507.202   125345768.95448      -534.202    23852509.082    97672036.79745
      -416.266  
  23227612.547   122061930.81647      3131.961    23227612.776    95113196.32545
      2440.488  
  21004787.235   110380901.24149      1935.914    21004787.332    86011093.62348
      1508.500  
  20529247.231   107881924.90249      1878.886    20529247.151    84063838.92048
      1464.066  
  22169115.302   116499483.77949     -2782.690    22169114.745    90778816.67947
     -2168.336  
  22711396.661   119349192.61748     -3122.418    22711397.306    92999372.80147
     -2433.058  
  20508234.123   107771499.37049      -170.397    20508233.610    83977788.73048
      -132.776  
  19558547.313   104698435.20409     -1517.476    19558550.881    81432130.95808
     -1180.258  
  20104576.332   107659103.47008      2092.750    20104579.638    83734866.26408
      1627.695  
  23380287.738   124981045.74706      3795.328    23380296.556    97207506.66204
      2951.925  
  22846404.211   121912790.91204     -3802.663           0.000           0.00000
         0.000  
  20647704.310   110218835.78007     -3362.718    20647709.001    85725785.59104
     -2615.452  
  22844532.681   122031393.99304      1490.913    22844538.634    94913329.73605
      1159.601  
  22940730.230   122674392.90906      4070.687    22940735.241    95413438.71506
      3166.085  
  20010823.738   107044410.99709      2033.930    20010830.481    83256792.53506
      1581.929  
 20  9 26  5 35 40.0000000  0 15G30G20G18G15G 5G29G13R 7R 8R 1R 6R22
                                R16R24R23
  23853017.426   125348450.04248      -538.008    23853019.275    97674125.95445
      -419.230  
  23224633.385   122046275.18047      3130.625    23224633.564    95100997.13845
      2439.448  
  21002946.655   110371228.89849      1933.062    21002946.746    86003556.73148
      1506.276  
  20527461.152   107872539.05749      1875.434    20527461.093    84056525.27848
      1461.370  
  22171763.747   116513401.35849     -2784.401    22171763.188    90789661.54647
     -2169.664  
  22714368.817   119364811.55948     -3125.089    22714369.511    93011543.38946
     -2435.141  
  20508398.195   107772361.57549      -174.477    20508397.666    83978460.57648
      -135.960  
  19559966.272   104706030.87309     -1520.706    19559969.815    81438038.69408
     -1182.776  
  20102623.970   107648648.47308      2089.382    20102627.227    83726734.60408
      1625.073  
  23376738.734   124962074.72105      3793.371    23376747.571    97192751.44004
      2950.397  
  22849967.715   121931805.64004     -3803.761           0.000           0.00000
         0.000  
  20650855.795   110235658.37407     -3366.258    20650860.440    85738869.83104
     -2618.198  
  22843139.363   122023950.82504      1486.426    22843145.273    94907540.60505
      1156.105  
  22936925.318   122654046.33707      4067.938    22936930.233    95397613.61106
      3163.957  
  20008924.670   107034252.14009      2029.597    20008931.365    83248891.19206
      1578.570  
 20  9 26  5 35 45.0000000  0 15G30G20G18G15G 5G29G13R 7R 8R 1R 6R22
                                R16R24R23
  23853530.615   125351146.80848      -540.414    23853532.433    97676227.34445
      -421.102  
  23221654.911   122030623.06947      3130.710    23221655.012    95088800.68645
      2439.516  
  21001108.304   110361568.26549      1931.340    21001108.390    85996028.96848
      1504.941  
  20525677.976   107863168.37549      1873.180    20525677.912    84049223.45348
      1459.620  
  22174413.323   116527324.85249     -2784.854    22174412.768    90800511.01047
     -2170.019  
  22717342.802   119380440.08548     -3126.375    22717343.525    93023721.44747
     -2436.140  
  20508565.595   107773241.14349      -177.218    20508565.019    83979145.95448
      -138.093  
  19561387.744   104713640.19109     -1522.672    19561391.284    81443957.05408
     -1184.300  
  20100674.144   107638207.14908      2087.391    20100677.355    83718613.58208
      1623.522  
  23373190.728   124943108.46906      3793.280    23373199.538    97177999.92904
      2950.327  
  22853531.515   121950822.29004     -3802.988           0.000           0.00000
         0.000  
  20654010.066   110252495.99307     -3368.585    20654014.736    85751965.74804
     -2620.016  
  22841749.761   122016527.60204      1483.184    22841755.617    94901766.99505
      1153.582  
  22933121.769   122633707.24106      4067.077    22933126.628    95381794.34006
      3163.284  
  20007029.270   107024112.80609      2026.327    20007035.918    83241005.05106
      1576.030  
 20  9 26  5 35 50.0000000  0 15G30G20G18G15G 5G29G13R 7R 8R 1R 6R22
                                R16R24R23
  23854046.476   125353857.73848      -543.875    23854048.366    97678339.75246
      -423.796  
  23218676.800   122014972.86747      3129.507    23218676.912    95076605.73744
      2438.578  
  20999271.890   110351917.84949      1928.929    20999271.984    85988509.16348
      1503.058  
  20523897.393   107853811.35049      1869.738    20523897.353    84041932.26648
      1456.937  
  22177063.753   116541252.70448     -2786.319    22177063.219    90811363.88147
     -2171.164  
  22720318.366   119396076.71648     -3128.441    22720319.038    93035905.83447
     -2437.749  
  20508736.002   107774136.54649      -180.726    20508735.387    83979843.67548
      -140.827  
  19562811.471   104721261.51309     -1525.687    19562815.018    81449884.74508
     -1186.648  
  20098726.552   107627777.81808      2084.382    20098729.706    83710501.88108
      1621.187  
  23369643.366   124924145.50705      3792.276    23369652.123    97163250.98804
      2949.554  
  22857095.292   121969839.59805     -3803.402           0.000           0.00000
         0.000  
  20657166.919   110269347.29707     -3371.918    20657171.580    85765072.30504
     -2622.604  
  22840363.615   122009122.96804      1478.913    22840369.488    94896007.82304
      1150.262  
  22929319.305   122613374.03807      4065.711    22929324.139    95365979.61806
      3162.218  
  20005137.227   107013991.53009      2022.207    20005143.862    83233132.95806
      1572.827  
 20  9 26  5 35 55.0000000  0 15G30G20G18G15G 5G29G13R 7R 8R 1R 6R22
                                R16R24R23
  23854565.437   125356585.05547      -547.121    23854567.424    97680464.92946
      -426.332  
  23215699.437   121999326.87547      3128.777    23215699.575    95064414.07045
      2438.012  
  20997437.859   110342279.88449      1926.480    20997437.925    85980999.05948
      1501.152  
  20522119.824   107844470.18849      1866.625    20522119.799    84034653.44848
      1454.511  
  22179715.406   116555187.17448     -2787.387    22179714.948    90822221.89447
     -2171.991  
  22723295.913   119411723.64448     -3130.046    22723296.533    93048098.24147
     -2439.000  
  20508909.835   107775049.97949      -184.335    20508909.177    83980555.44248
      -143.636  
  19564237.856   104728897.06109     -1528.425    19564241.403    81455823.50508
     -1188.781  
  20096781.656   107617362.86308      2081.612    20096784.750    83702401.36408
      1619.031  
  23366096.967   124905188.28206      3791.348    23366105.787    97148506.50005
      2948.824  
  22860659.665   121988859.71304     -3804.374           0.000           0.00000
         0.000  
  20660326.683   110286214.45807     -3374.750    20660331.413    85778191.20604
     -2624.808  
  22838981.330   122001738.92104      1474.840    22838987.199    94890264.66605
      1147.093  
  22925518.401   122593048.92807      4063.901    22925523.189    95350171.23006
      3160.813  
  20003248.990   107003890.60909      2018.137    20003255.554    83225276.67506
      1569.655  
 20  9 26  5 36  0.0000000  0 15G30G20G18G15G 5G29G13R 7R 8R 1R 6R22
                                R16R24R23
  23855087.412   125359328.27148      -550.257    23855089.491    97682602.51646
      -428.773  
  23212722.787   121983684.63247      3128.124    23212722.923    95052225.30445
      2437.499  
  20995606.104   110332653.91749      1923.960    20995606.165    85973498.31048
      1499.191  
  20520345.209   107835144.43049      1863.730    20520345.166    84027386.62348
      1452.257  
  22182368.220   116569127.74448     -2788.645    22182367.848    90833084.66947
     -2172.972  
  22726275.303   119427380.41248     -3132.101    22726275.892    93060298.31147
     -2440.602  
  20509087.034   107775981.00849      -187.819    20509086.308    83981280.92147
      -146.355  
  19565666.850   104736546.67109     -1531.199    19565670.407    81461773.20208
     -1190.937  
  20094839.313   107606961.73708      2078.887    20094842.378    83694311.61008
      1616.909  
  23362551.576   124886236.20005      3789.894    23362560.439    97133766.02505
      2947.702  
  22864224.687   122007882.29305     -3804.684           0.000           0.00000
         0.000  
  20663489.364   110303097.03607     -3377.824    20663494.088    85791322.09704
     -2627.198  
  22837602.713   121994375.06705      1470.339    22837608.748    94884537.26505
      1143.602  
  22921718.949   122572731.48606      4062.769    22921723.633    95334368.76806
      3159.930  
  20001364.459   106993809.63809      2014.276    20001370.987    83217435.92906
      1566.659  
 20  9 26  5 36  5.0000000  0 15G30G20G18G15G 5G29G13R 7R 8R 1R 6R22
                                R16R24R23
  23855612.453   125362087.53247      -553.559    23855614.616    97684752.59946
      -431.343  
  23209746.914   121968046.31247      3126.987    23209747.006    95040039.64145
      2436.617  
  20993776.686   110323040.07449      1921.594    20993776.702    85966006.99848
      1497.343  
  20518573.551   107825834.24649      1860.522    20518573.507    84020131.94548
      1449.757  
  22185022.214   116583074.51248     -2789.905    22185021.861    90843952.28447
     -2173.957  
  22729256.578   119443047.14848     -3134.155    22729257.160    93072506.13647
     -2442.207  
  20509267.603   107776929.71849      -191.468    20509266.780    83982020.17248
      -149.199  
  19567098.427   104744210.04409     -1534.077    19567101.966    81467733.59908
     -1193.175  
  20092899.637   107596574.70308      2076.081    20092902.649    83686232.80008
      1614.727  
  23359007.196   124867289.33305      3788.961    23359016.069    97119029.58704
      2946.968  
  22867789.976   122026907.35704     -3805.296           0.000           0.00000
         0.000  
  20666654.909   110319995.05307     -3381.128    20666659.661    85804464.98804
     -2629.770  
  22836228.160   121987031.70005      1466.128    22836234.098    94878825.74905
      1140.323  
  22917921.004   122552421.85407      4061.141    22917925.475    95318572.40306
      3158.663  
  19999483.688   106983748.65609      2010.184    19999490.169    83209610.71406
      1563.472  
 20  9 26  5 36 10.0000000  0 15G30G20G18G15G 5G29G13R 7R 8R 1R 6R22
                                R16R24R23
  23856140.282   125364861.76547      -556.516    23856142.582    97686914.31045
      -433.651  
  23206771.555   121952410.72947      3126.952    23206771.651    95027856.05945
      2436.589  
  20991949.359   110313437.27949      1919.448    20991949.336    85958524.30048
      1495.672  
  20516804.634   107816538.55149      1857.691    20516804.611    84012888.54948
      1447.550  
  22187677.170   116597026.46548     -2790.918    22187676.836    90854823.93147
     -2174.746  
  22732239.507   119458722.70148     -3136.011    22732240.141    93084720.85047
     -2443.648  
  20509451.318   107777895.02549      -194.776    20509450.450    83982772.36548
      -151.773  
  19568532.444   104751886.38709     -1536.542    19568535.963    81473704.08508
     -1195.094  
  20090962.281   107586200.50008      2073.542    20090965.326    83678163.98208
      1612.754  
  23355463.528   124848346.67605      3787.527    23355472.372    97104296.44504
      2945.858  
  22871355.533   122045933.78905     -3805.456           0.000           0.00000
         0.000  
  20669823.161   110336907.36607     -3383.827    20669827.908    85817619.01604
     -2631.867  
  22834857.173   121979707.72905      1462.645    22834863.054    94873129.31204
      1137.608  
  22914124.311   122532119.07608      4059.512    22914128.708    95302781.35106
      3157.398  
  19997606.441   106973706.62109      2006.601    19997612.864    83201800.24206
      1560.688  
 20  9 26  5 36 15.0000000  0 15G30G20G18G15G 5G29G13R 7R 8R 1R 6R22
                                R16R24R23
  23856671.126   125367651.71147      -559.714    23856673.482    97689088.29046
      -436.144  
  23203796.892   121936778.67347      3126.215    23203797.000    95015675.23644
      2436.008  
  20990124.285   110303846.32749      1917.031    20990124.201    85951050.83548
      1493.784  
  20515038.613   107807258.08449      1854.417    20515038.582    84005657.01948
      1445.000  
  22190333.257   116610984.35848     -2792.136    22190332.886    90865700.20247
     -2175.695  
  22735224.266   119474407.87148     -3138.254    22735224.935    93096943.05147
     -2445.398  
  20509638.342   107778877.71749      -198.289    20509637.459    83983538.10348
      -154.516  
  19569968.994   104759576.29209     -1539.582    19569972.495    81479685.12508
     -1197.457  
  20089027.475   107575839.85708      2070.772    20089030.526    83670105.70308
      1610.597  
  23351920.860   124829409.08406      3786.980    23351929.697    97089567.21204
      2945.434  
  22874921.496   122064962.32705     -3806.210           0.000           0.00000
         0.000  
  20672994.229   110353834.80307     -3387.188    20672999.006    85830784.78404
     -2634.484  
  22833489.993   121972403.84505      1458.633    22833495.694    94867448.52604
      1134.492  
  22910328.990   122511823.78807      4058.335    22910333.330    95286996.14406
      3156.484  
  19995732.926   106963684.42109      2002.323    19995739.296    83194005.19706
      1557.358  
 20  9 26  5 36 20.0000000  0 15G30G20G18G15G 5G29G13R 7R 8R 1R 6R22
                                R16R24R23
  23857204.900   125370456.86947      -562.722    23857207.337    97691274.14945
      -438.483  
  23200822.740   121921149.68147      3125.520    23200822.863    95003496.83146
      2435.469  
  20988301.344   110294266.70549      1914.770    20988301.244    85943586.19348
      1492.023  
  20513275.410   107797992.35749      1851.484    20513275.366    83998436.97548
      1442.715  
  22192990.378   116624947.65448     -2793.543    22192989.937    90876580.69147
     -2176.788  
  22738210.775   119490102.08248     -3140.008    22738211.386    93109172.29147
     -2446.762  
  20509828.575   107779877.23949      -201.870    20509827.668    83984316.94448
      -157.305  
  19571408.008   104767279.32309     -1542.035    19571411.492    81485676.36808
     -1199.362  
  20087095.142   107565492.33608      2067.930    20087098.210    83662057.64208
      1608.390  
  23348379.001   124810475.97806      3786.070    23348387.855    97074841.50004
      2944.726  
  22878487.749   122083992.44304     -3806.750           0.000           0.00000
         0.000  
  20676168.038   110370776.81207     -3390.008    20676172.824    85843961.90504
     -2636.675  
  22832126.423   121965119.55204      1454.354    22832132.045    94861782.96904
      1131.164  
  22906534.894   122491535.49106      4056.765    22906539.251    95271216.36706
      3155.261  
  19993862.933   106953681.34509      1998.460    19993869.321    83186225.03206
      1554.354  
 20  9 26  5 36 25.0000000  0 15G30G20G18G15G 5G29G13R 7R 8R 1R 6R22
                                R16R24R23
  23857741.604   125373277.42147      -565.370    23857744.078    97693471.98246
      -440.550  
  23197849.249   121905523.97346      3125.116    23197849.290    94991320.95245
      2435.155  
  20986480.605   110284698.59849      1912.491    20986480.481    85936130.53348
      1490.253  
  20511515.046   107788741.58049      1848.726    20511514.987    83991228.57848
      1440.563  
  22195648.602   116638916.56048     -2794.292    22195648.072    90887465.56247
     -2177.371  
  22741199.047   119505805.55948     -3141.479    22741199.644    93121408.76847
     -2447.906  
  20510022.045   107780893.77449      -205.027    20510021.095    83985109.05848
      -159.761  
  19572849.491   104774995.59909     -1544.444    19572852.990    81491677.92408
     -1201.233  
  20085165.303   107555158.07008      2065.448    20085168.332    83654019.89208
      1606.461  
  23344838.096   124791547.43305      3785.159    23344846.849    97060119.30004
      2944.011  
  22882054.306   122103024.33904     -3806.719           0.000           0.00000
         0.000  
  20679344.624   110387733.58107     -3392.628    20679349.426    85857150.49404
     -2638.714  
  22830766.310   121957855.07304      1451.308    22830772.093    94856132.83204
      1128.800  
  22902742.212   122471254.46906      4055.862    22902746.504    95255442.22105
      3154.554  
  19991996.607   106943697.76008      1994.901    19992002.990    83178460.03306
      1551.590  
 20  9 26  5 36 30.0000000  0 15G30G20G18G15G 5G29G13R 7R 8R 1R 6R22
                                R16R24R23
  23858280.889   125376111.32448      -568.453    23858283.385    97695680.19746
      -442.952  
  23194875.994   121889899.38247      3124.645    23194876.012    94979145.93645
      2434.788  
  20984661.683   110275140.00149      1910.520    20984661.526    85928682.28148
      1488.714  
  20509757.147   107779503.72649      1845.949    20509757.073    83984030.24648
      1438.397  
  22198307.464   116652889.00248     -2795.047    22198306.916    90898353.17647
     -2177.961  
  22744188.678   119521516.20648     -3143.125    22744189.323    93133650.81847
     -2449.190  
  20510218.371   107781925.32149      -208.034    20510217.382    83985912.85248
      -162.108  
  19574293.046   104782723.00109     -1546.816    19574296.553    81497688.11408
     -1203.081  
  20083237.577   107544835.27708      2063.207    20083240.563    83645991.05208
      1604.710  
  23341297.680   124772621.56706      3784.729    23341306.343    97045399.20704
      2943.683  
  22885620.723   122122055.95205     -3806.808           0.000           0.00000
         0.000  
  20682523.625   110404703.11707     -3395.582    20682528.391    85870349.01804
     -2641.012  
  22829409.714   121950608.31705      1447.222    22829415.413    94850496.48204
      1125.617  
  22898950.558   122450978.69806      4054.602    22898954.740    95239672.20006
      3153.582  
  19990133.558   106933731.57709      1991.265    19990139.901    83170708.55206
      1548.762  
 20  9 26  5 36 35.0000000  0 15G30G20G18G15G 5G29G13R 7R 8R 1R 6R22
                                R16R24R23
  23858823.605   125378963.43948      -572.394    23858826.099    97697902.64745
      -446.022  
  23191903.847   121874281.01647      3122.687    23191903.849    94966975.80144
      2433.261  
  20982845.494   110265595.77149      1907.386    20982845.319    85921245.21848
      1486.273  
  20508002.619   107770283.62249      1841.980    20508002.525    83976845.75848
      1435.309  
  22200967.928   116666869.80548     -2797.152    22200967.335    90909247.30247
     -2179.601  
  22747180.585   119537238.94048     -3145.671    22747181.305    93145902.29547
     -2451.176  
  20510418.471   107782976.73049      -212.434    20510417.453    83986732.14048
      -165.535  
  19575739.613   104790466.58809     -1550.413    19575743.091    81503710.90708
     -1205.882  
  20081312.856   107534528.58208      2059.664    20081315.808    83637974.73608
      1601.961  
  23337758.568   124753703.14506      3783.183    23337767.300    97030684.88404
      2942.477  
  22889188.190   122141092.14205     -3807.757           0.000           0.00000
         0.000  
  20685705.920   110421690.20607     -3399.207    20685710.681    85883561.19004
     -2643.832  
  22828057.217   121943384.20704      1442.242    22828062.977    94844877.69604
      1121.737  
  22895160.798   122430713.11707      4051.980    22895164.881    95223910.09905
      3151.534  
  19988274.653   106923787.75409      1986.425    19988281.024    83162974.47006
      1544.992  
 20  9 26  5 36 40.0000000  0 15G30G20G18G15G 5G29G13R 7R 8R 1R 6R22
                                R16R24R23
  23859369.531   125381832.39148      -575.382    23859372.072    97700138.18945
      -448.351  
  23188932.612   121858667.25847      3122.484    23188932.647    94954809.25745
      2433.109  
  20981031.771   110256064.52949      1905.159    20981031.591    85913818.27248
      1484.534  
  20506251.215   107761079.86949      1839.409    20506251.095    83969674.01048
      1433.305  
  22203629.728   116680857.59748     -2797.961    22203629.099    90920146.87647
     -2180.233  
  22750174.542   119552972.28848     -3147.249    22750175.303    93158162.02847
     -2452.405  
  20510622.074   107784046.57249      -215.448    20510621.021    83987565.78148
      -167.887  
  19577188.891   104798224.77809     -1552.984    19577192.356    81509745.05608
     -1207.879  
  20079390.921   107524236.76808      2057.234    20079393.847    83629969.99308
      1600.069  
  23334220.719   124734791.00106      3782.300    23334229.437    97015975.47004
      2941.792  
  22892756.094   122160131.62904     -3807.516           0.000           0.00000
         0.000  
  20688891.252   110438693.53507     -3402.128    20688895.961    85896785.99604
     -2646.104  
  22826708.851   121936181.41804      1438.581    22826714.536    94839275.54604
      1118.898  
  22891372.621   122410456.22107      4050.733    22891376.604    95208154.73505
      3150.570  
  19986419.665   106913864.81709      1982.812    19986426.013    83155256.63106
      1542.187  
 20  9 26  5 36 45.0000000  0 15G30G20G18G15G 5G29G13R 7R 8R 1R 6R22
                                R16R24R23
  23859918.102   125384715.21648      -577.520    23859920.716    97702384.54545
      -450.016  
  23185961.731   121843055.29847      3122.378    23185961.803    94942644.08544
      2433.023  
  20979219.974   110246543.37949      1903.418    20979219.791    85906399.19348
      1483.180  
  20504502.371   107751889.63349      1836.883    20504502.252    83962512.78748
      1431.335  
  22206292.272   116694849.48248     -2798.554    22206291.711    90931049.63847
     -2180.695  
  22753169.949   119568713.35448     -3148.781    22753170.758    93170427.79447
     -2453.602  
  20510828.638   107785132.01249      -218.421    20510827.536    83988411.58048
      -170.199  
  19578640.368   104805994.77309     -1554.854    19578643.834    81515788.38508
     -1209.335  
  20077471.188   107513956.71808      2055.120    20077474.091    83621974.40108
      1598.422  
  23330683.442   124715881.94806      3781.520    23330692.081    97001268.44104
      2941.187  
  22896324.147   122179171.41304     -3807.988           0.000           0.00000
         0.000  
  20692079.067   110455710.02607     -3404.421    20692083.742    85910021.02904
     -2647.887  
  22825363.938   121928997.03804      1434.816    22825369.566    94833687.68904
      1115.965  
  22887585.565   122390205.19506      4049.952    22887589.327    95192403.93705
      3149.964  
  19984568.030   106903959.88309      1979.266    19984574.367    83147552.79306
      1539.426  
 20  9 26  5 36 50.0000000  0 15G30G20G18G15G 5G29G13R 7R 8R 1R 6R22
                                R16R24R23
  23860469.486   125387612.97648      -581.272    23860472.155    97704642.53546
      -452.940  
  23182991.395   121827446.17247      3121.593    23182991.424    94930481.13145
      2432.405  
  20977410.287   110237033.31549      1900.676    20977410.103    85898988.75748
      1481.043  
  20502756.260   107742713.88049      1833.504    20502756.165    83955362.85348
      1428.703  
  22208955.771   116708846.38948     -2800.070    22208955.255    90941956.31347
     -2181.875  
  22756167.024   119584463.09248     -3151.078    22756167.824    93182700.30947
     -2455.391  
  20511038.325   107786233.98649      -222.253    20511037.213    83989270.26848
      -173.183  
  19580094.226   104813777.38709     -1558.042    19580097.691    81521841.52908
     -1211.815  
  20075553.857   107503689.61908      2051.905    20075556.771    83613988.89308
      1595.926  
  23327146.918   124696977.07406      3780.589    23327155.454    96986564.66704
      2940.457  
  22899892.466   122198212.48705     -3808.976           0.000           0.00000
         0.000  
  20695269.456   110472740.79407     -3407.604    20695274.133    85923267.18004
     -2650.362  
  22824022.741   121921831.98104      1430.398    22824028.190    94828114.88604
      1112.531  
  22883799.743   122369960.98007      4048.007    22883803.290    95176658.45205
      3148.449  
  19982719.962   106894074.02409      1975.046    19982726.288    83139863.79106
      1536.148  
 20  9 26  5 36 55.0000000  0 15G30G20G18G15G 5G29G13R 7R 8R 1R 6R22
                                R16R24R23
  23861023.851   125390526.15648      -584.167    23861026.548    97706912.55646
      -455.199  
  23180021.710   121811840.34147      3120.812    23180021.673    94918320.74645
      2431.801  
  20975602.819   110227534.88149      1898.362    20975602.619    85891587.38448
      1479.242  
  20501013.024   107733553.14349      1830.504    20501012.912    83948224.61848
      1426.366  
  22211620.318   116722848.83648     -2801.198    22211619.832    90952867.31147
     -2182.758  
  22759165.843   119600222.05348     -3152.886    22759166.711    93194980.00047
     -2456.797  
  20511251.287   107787353.08149      -225.668    20511250.177    83990142.29048
      -175.848  
  19581550.529   104821573.31409     -1560.597    19581554.052    81527905.03208
     -1213.796  
  20073639.011   107493435.74008      2049.422    20073641.948    83606013.66208
      1593.996  
  23323611.323   124678077.10406      3779.472    23323619.857    96971864.70204
      2939.589  
  22903461.031   122217255.22204     -3809.378           0.000           0.00000
         0.000  
  20698462.618   110489786.16907     -3410.480    20698467.305    85936524.69104
     -2652.602  
  22822684.968   121914686.80604      1427.203    22822690.554    94822557.53304
      1110.047  
  22880015.312   122349724.14507      4046.309    22880018.734    95160918.69305
      3147.129  
  19980875.595   106884207.78209      1971.159    19980881.891    83132190.04706
      1533.120  
 20  9 26  5 37  0.0000000  0 14G30G20G18G15G 5G29G13R 7R 8R 1R 6R22
                                R24R23
  23861581.117   125393454.51548      -586.710    23861583.849    97709194.38846
      -457.180  
  23177052.619   121796237.63547      3120.316    23177052.598    94906162.78744
      2431.410  
  20973797.509   110218047.82349      1896.640    20973797.323    85884194.87148
      1477.902  
  20499272.602   107724407.19749      1827.995    20499272.472    83941097.90348
      1424.409  
  22214285.861   116736856.60748     -2801.769    22214285.438    90963782.45747
     -2183.198  
  22762166.416   119615989.98148     -3154.184    22762167.286    93207266.69647
     -2457.809  
  20511467.428   107788489.00249      -228.438    20511466.312    83991027.41948
      -178.007  
  19583009.279   104829382.24209     -1562.714    19583012.844    81533978.62808
     -1215.448  
  20071726.648   107483195.24708      2047.074    20071729.646    83598048.83708
      1592.167  
  23320076.515   124659181.53006      3778.832    23320085.031    96957168.16304
      2939.093  
  22907029.944   122236299.50305     -3809.077           0.000           0.00000
         0.000  
  20701658.426   110506846.07707     -3413.125    20701663.222    85949793.50104
     -2654.656  
  22876232.218   122329494.52507      4045.647    22876235.580    95145184.54205
      3146.613  
  19979034.813   106874360.90109      1967.683    19979041.158    83124531.36406
      1530.418  
 20  9 26  5 37  5.0000000  0 14G30G20G18G15G 5G29G13R 7R 8R 1R 6R22
                                R24R23
  23862140.943   125396396.26448      -590.281    23862143.711    97711486.64945
      -459.964  
  23174083.801   121780636.23047      3119.565    23174083.786    94894005.84245
      2430.832  
  20971994.030   110208570.38149      1893.961    20971993.849    85876809.85348
      1475.812  
  20497534.642   107715274.21849      1824.637    20497534.504    83933981.30548
      1421.793  
  22216952.032   116750867.90148     -2803.133    22216951.672    90974700.33547
     -2184.261  
  22765168.294   119631765.01948     -3156.401    22765169.174    93219558.92547
     -2459.535  
  20511686.402   107789639.90949      -232.207    20511685.313    83991924.22448
      -180.945  
  19584470.130   104837202.25909     -1565.656    19584473.734    81540060.86308
     -1217.737  
  20069816.361   107472965.93308      2044.184    20069819.410    83590092.70708
      1589.922  
  23316542.243   124640288.75705      3777.651    23316550.672    96942473.81704
      2938.179  
  22910598.602   122255343.51605     -3809.671           0.000           0.00000
         0.000  
  20704856.646   110523918.48607     -3416.339    20704861.541    85963072.03504
     -2657.155  
  22872450.108   122309270.22807      4043.651    22872453.448    95129454.51505
      3145.058  
  19977197.301   106864531.54409      1963.562    19977203.708    83116886.30506
      1527.215  
 20  9 26  5 37 10.0000000  0 14G30G20G18G15G 5G29G13R 7R 8R 1R 6R22
                                R24R23
  23862704.195   125399355.92348      -593.457    23862706.968    97713792.87446
      -462.438  
  23171116.041   121765040.54647      3118.680    23171116.049    94881853.39346
      2430.145  
  20970193.219   110199107.05449      1891.503    20970193.044    85869435.82948
      1473.894  
  20495800.020   107706158.68649      1821.581    20495799.854    83926878.29848
      1419.413  
  22219619.761   116764887.25648     -2804.445    22219619.456    90985624.49547
     -2185.284  
  22768172.459   119647551.73448     -3158.261    22768173.373    93231860.24447
     -2460.992  
  20511909.118   107790810.31849      -235.854    20511908.013    83992836.23748
      -183.785  
  19585933.919   104845037.97309     -1568.534    19585937.565    81546155.31208
     -1219.972  
  20067909.150   107462752.68508      2041.324    20067912.151    83582149.07308
      1587.694  
  23313009.332   124621403.26006      3776.464    23313017.681    96927785.09404
      2937.250  
  22914168.174   122274391.71404     -3809.969           0.000           0.00000
         0.000  
  20708058.138   110541008.20607     -3419.515    20708063.058    85976364.03604
     -2659.628  
  22868669.816   122289055.96307      4041.988    22868673.201    95113732.33205
      3143.769  
  19975363.903   106854724.19609      1959.526    19975370.343    83109258.37206
      1524.074  
 20  9 26  5 37 15.0000000  0 14G30G20G18G15G 5G29G13R 7R 8R 1R 6R22
                                R24R23
  23863270.407   125402331.16448      -596.378    23863273.200    97716111.25046
      -464.711  
  23168148.978   121749448.43347      3118.508    23168148.964    94869703.70745
      2430.008  
  20968394.676   110189655.58549      1889.354    20968394.498    85862071.05348
      1472.227  
  20494068.287   107697058.39949      1818.617    20494068.098    83919787.17448
      1417.104  
  22222288.554   116778912.35548     -2805.312    22222288.304    90996553.13847
     -2185.960  
  22771178.398   119663347.76548     -3159.979    22771179.259    93244168.84247
     -2462.328  
  20512135.105   107791997.98249      -238.972    20512134.018    83993761.68848
      -186.215  
  19587400.219   104852887.18909     -1570.945    19587403.880    81552260.25908
     -1221.852  
  20066004.382   107452552.86708      2038.949    20066007.401    83574215.88708
      1585.848  
  23309477.357   124602522.70505      3775.719    23309485.774    96913100.25104
      2936.676  
  22917738.155   122293441.97505     -3810.035           0.000           0.00000
         0.000  
  20711262.349   110558112.68907     -3422.219    20711267.348    85989667.51804
     -2661.730  
  22864891.067   122268849.35707      4040.741    22864894.448    95098016.10805
      3142.805  
  19973534.209   106844936.68909      1955.691    19973540.703    83101645.86806
      1521.093  
 20  9 26  5 37 20.0000000  0 15G30G20G18G15G 5G29G13R 7R 8R 1R 6R22
                                R16R24R23
  23863839.263   125405320.43048      -599.594    23863842.045    97718440.54545
      -467.215  
  23165182.272   121733858.25847      3117.444    23165182.305    94857555.51645
      2429.176  
  20966598.101   110180214.39449      1887.090    20966597.929    85854714.27848
      1470.461  
  20492339.156   107687971.78949      1815.616    20492338.943    83912706.69548
      1414.762  
  22224958.185   116792941.64448     -2806.609    22224957.950    91007485.04847
     -2186.972  
  22774185.812   119679151.52548     -3161.819    22774186.634    93256483.44847
     -2463.762  
  20512364.082   107793201.32449      -242.589    20512362.991    83994699.35748
      -189.030  
  19588868.687   104860748.14009     -1573.710    19588872.368    81558374.31808
     -1224.000  
  20064101.892   107442365.02608      2036.074    20064104.895    83566292.01608
      1583.613  
  23305945.886   124583645.40705      3774.609    23305954.361    96898417.93704
      2935.812  
  22921308.092   122312492.46504     -3810.336           0.000           0.00000
         0.000  
  20714469.089   110575230.45507     -3425.093    20714474.088    86002981.32904
     -2663.965  
  22816052.211   121879255.24615      1407.120    22816057.609    94794998.21714
      1094.422  
  22861113.397   122248648.79907      4039.273    22861116.799    95082304.54205
      3141.651  
  19971707.956   106835167.50309      1951.668    19971714.472    83094047.61406
      1517.961  
 20  9 26  5 37 25.0000000  0 15G30G20G18G15G 5G29G13R 7R 8R 1R 6R22
                                R16R24R23
  23864411.408   125408327.13548      -602.628    23864414.193    97720783.42645
      -469.585  
  23162216.562   121718273.37947      3116.781    23162216.559    94845411.46845
      2428.660  
  20964804.108   110170786.89649      1884.488    20964803.969    85847368.18648
      1468.433  
  20490613.267   107678902.24149      1812.733    20490613.022    83905639.52548
      1412.519  
  22227629.246   116806978.44448     -2807.624    22227629.051    91018422.79347
     -2187.761  
  22777195.326   119694966.40748     -3163.651    22777196.169    93268806.73847
     -2465.188  
  20512596.687   107794423.70649      -246.011    20512595.603    83995651.86348
      -191.702  
  19590340.008   104868624.32909     -1576.410    19590343.695    81564500.25908
     -1226.098  
  20062202.272   107432192.77308      2033.229    20062205.275    83558380.26108
      1581.397  
  23302415.793   124564775.06705      3773.366    23302424.319    96883741.03704
      2934.839  
  22924878.870   122331546.57404     -3810.680           0.000           0.00000
         0.000  
  20717678.896   110592364.84007     -3428.144    20717683.919    86016308.06504
     -2666.339  
  22814737.130   121872230.75705      1402.984    22814742.543    94789534.72704
      1091.211  
  22857337.579   122228457.77407      4037.676    22857340.970    95066600.42005
      3140.413  
  19969885.774   106825420.05609      1947.617    19969892.335    83086466.26906
      1514.812  
 20  9 26  5 37 30.0000000  0 15G30G20G18G15G 5G29G13R 7R 8R 1R 6R22
                                R16R24R23
  23864986.221   125411347.83148      -605.379    23864988.983    97723137.21945
      -471.723  
  23159251.230   121702690.45447      3116.629    23159251.140    94833268.94644
      2428.546  
  20963012.071   110161369.67849      1882.558    20963011.931    85840030.08948
      1466.925  
  20488889.967   107669846.33049      1809.948    20488889.730    83898582.96548
      1410.347  
  22230301.108   116821019.39248     -2808.379    22230300.904    91029363.80447
     -2188.348  
  22780206.332   119710789.00848     -3165.112    22780207.162    93281136.03547
     -2466.324  
  20512832.264   107795661.76349      -249.097    20512831.190    83996616.58648
      -194.105  
  19591813.526   104876512.21809     -1578.496    19591817.224    81570635.27208
     -1227.723  
  20060304.902   107422032.40908      2031.093    20060307.907    83550477.75908
      1579.737  
  23298886.236   124545908.00105      3773.293    23298894.803    96869066.66803
      2934.788  
  22928449.679   122350601.18805     -3810.511           0.000           0.00000
         0.000  
  20720891.226   110609512.51007     -3430.645    20720896.307    86029645.13904
     -2668.281  
  22813425.694   121865224.95905      1399.293    22813431.004    94784085.79805
      1088.340  
  22853562.858   122208272.83206      4036.417    22853566.223    95050901.05005
      3139.437  
  19968066.977   106815690.84509      1944.124    19968073.600    83078899.10606
      1512.125  
 20  9 26  5 37 35.0000000  0 15G30G20G18G15G 5G29G13R 7R 8R 1R 6R22
                                R16R24R23
  23865563.947   125414383.70648      -609.016    23865566.672    97725502.82245
      -474.566  
  23156286.505   121687110.68847      3115.366    23156286.430    94821128.86045
      2427.554  
  20961222.214   110151963.94849      1879.539    20961222.096    85832700.95048
      1464.569  
  20487169.493   107660805.24349      1806.409    20487169.246    83891537.96548
      1407.589  
  22232974.005   116835065.65448     -2810.284    22232973.804    91040308.94247
     -2189.835  
  22783219.001   119726620.50048     -3167.667    22783219.835    93293472.24047
     -2468.319  
  20513071.016   107796916.60249      -253.108    20513069.977    83997594.37948
      -197.230  
  19593289.459   104884413.06609     -1581.855    19593293.180    81576780.35908
     -1230.335  
  20058410.033   107411885.47408      2027.813    20058413.047    83542585.70208
      1577.188  
  23295357.599   124527045.60005      3771.059    23295366.077    96854395.96203
      2933.050  
  22932020.772   122369657.22404     -3811.792           0.000           0.00000
         0.000  
  20724106.236   110626674.42107     -3434.198    20724111.295    86042993.28304
     -2671.047  
  22812117.868   121858238.94105      1394.983    22812123.171    94778652.20904
      1084.983  
  22849789.555   122188095.28206      4034.340    22849792.841    95035207.38504
      3137.820  
  19966251.821   106805981.04609      1939.593    19966258.494    83071347.04406
      1508.574  
 20  9 26  5 37 40.0000000  0 15G30G20G18G15G 5G29G13R 7R 8R 1R 6R22
                                R16R24R23
  23866144.964   125417437.00148      -611.805    23866147.622    97727881.99645
      -476.733  
  23153322.815   121671536.26247      3114.839    23153322.711    94808992.95945
      2427.144  
  20959434.980   110142571.91049      1877.390    20959434.856    85825382.47348
      1462.897  
  20485452.252   107651781.20349      1803.520    20485452.000    83884506.25448
      1405.339  
  22235648.381   116849119.53648     -2811.156    22235648.152    91051260.01347
     -2190.516  
  22786233.772   119742463.01348     -3169.254    22786234.573    93305817.05547
     -2469.551  
  20513313.391   107798190.47949      -256.316    20513312.396    83998587.01148
      -199.726  
  19594768.201   104892329.07909     -1584.367    19594771.975    81582937.26708
     -1232.284  
  20056518.039   107401753.93208      2025.050    20056521.084    83534705.61608
      1575.039  
  23291830.220   124508189.86505      3771.344    23291838.776    96839730.39304
      2933.266  
  22935592.467   122388716.94005     -3812.042           0.000           0.00000
         0.000  
  20727324.310   110643853.06207     -3437.121    20727329.425    86056354.44604
     -2673.320  
  22810814.271   121851274.83205      1390.378    22810819.512    94773235.70504
      1081.406  
  22846018.002   122167927.37507      4033.027    22846021.323    95019521.25605
      3136.800  
  19964440.720   106796292.97009      1935.871    19964447.468    83063811.86306
      1505.671  
 20  9 26  5 37 45.0000000  0 15G30G20G18G15G 5G29G13R 7R 8R 1R 6R22
                                R16R24R23
  23866728.756   125420504.84848      -615.019    23866731.389    97730272.52045
      -479.241  
  23150359.560   121655964.34947      3114.047    23150359.543    94796858.99945
      2426.531  
  20957649.801   110133190.73149      1875.113    20957649.692    85818072.46148
      1461.125  
  20483737.735   107642771.39049      1800.476    20483737.459    83877485.62248
      1402.968  
  22238323.645   116863178.07948     -2812.058    22238323.394    91062214.71347
     -2191.218  
  22789250.070   119758313.73148     -3170.895    22789250.901    93318168.25747
     -2470.831  
  20513558.847   107799480.54849      -259.691    20513557.903    83999592.25848
      -202.354  
  19596249.269   104900257.34809     -1586.976    19596253.018    81589103.69308
     -1234.319  
  20054628.397   107391634.91708      2022.621    20054631.445    83526835.27408
      1573.147  
  23288303.602   124489338.25805      3769.922    23288312.144    96825068.05004
      2932.164  
  22939164.391   122407777.66205     -3812.577           0.000           0.00000
         0.000  
  20730545.003   110661045.40107     -3439.937    20730550.126    86069726.25204
     -2675.511  
  22809514.147   121844329.92605      1386.574    22809519.470    94767834.10505
      1078.441  
  22842247.565   122147766.12706      4031.331    22842251.048    95003840.29605
      3135.477  
  19962633.157   106786623.85209      1931.883    19962639.928    83056291.43706
      1502.570  
 20  9 26  5 37 50.0000000  0 15G30G20G18G15G 5G29G13R 7R 8R 1R 6R22
                                R16R24R23
  23867315.516   125423588.38848      -618.460    23867318.155    97732675.29146
      -481.918  
  23147396.982   121640396.14847      3113.183    23147397.002    94784727.95346
      2425.855  
  20955866.933   110123821.60349      1872.352    20955866.830    85810771.84448
      1458.972  
  20482026.156   107633776.97949      1797.233    20482025.873    83870476.99148
      1400.441  
  22241000.014   116877242.46348     -2813.535    22240999.742    91073173.97647
     -2192.366  
  22792268.155   119774173.84548     -3173.129    22792268.971    93330526.78447
     -2472.569  
  20513807.608   107800787.98349      -263.445    20513806.686    84000611.04648
      -205.281  
  19597732.849   104908199.03609     -1589.933    19597736.569    81595280.56008
     -1236.617  
  20052741.276   107381529.59708      2019.448    20052744.356    83518975.58308
      1570.679  
  23284777.890   124470491.77305      3768.952    23284786.487    96810409.72303
      2931.410  
  22942736.680   122426840.14605     -3812.460           0.000           0.00000
         0.000  
  20733768.504   110678252.57607     -3443.051    20733773.562    86083109.60104
     -2677.934  
  22808217.957   121837405.41005      1382.992    22808223.164    94762448.37505
      1075.659  
  22838478.695   122127612.81607      4029.680    22838482.270    94988165.49905
      3134.195  
  19960829.364   106776974.71309      1927.594    19960836.123    83048786.55006
      1499.234  
 20  9 26  5 37 55.0000000  0 15G30G20G18G15G 5G29G13R 7R 8R 1R 6R22
                                R16R24R23
  23867905.318   125426687.94148      -621.242    23867907.920    97735090.52745
      -484.089  
  23144435.192   121624831.83647      3112.839    23144435.243    94772599.91845
      2425.590  
  20954086.393   110114464.77149      1870.363    20954086.292    85803480.80948
      1457.426  
  20480317.529   107624798.20849      1794.468    20480317.281    83863480.56248
      1398.289  
  22243677.536   116891312.90648     -2814.503    22243677.250    91084137.95246
     -2193.124  
  22795288.063   119790043.53848     -3174.523    22795288.910    93342892.77347
     -2473.660  
  20514059.719   107802112.98849      -266.496    20514058.801    84001643.50948
      -207.663  
  19599218.998   104916154.48009     -1592.176    19599222.744    81601468.13408
     -1238.358  
  20050856.770   107371438.24508      2017.183    20050859.896    83511126.75108
      1568.922  
  23281253.140   124451650.68305      3767.773    23281261.812    96795755.58003
      2930.499  
  22946309.377   122445904.86605     -3813.327           0.000           0.00000
         0.000  
  20736994.784   110695474.92807     -3445.823    20736999.813    86096504.76104
     -2680.090  
  22806925.466   121830501.50204      1378.620    22806930.738    94757078.66804
      1072.261  
  22834711.354   122107467.65106      4028.836    22834714.956    94972497.04205
      3133.539  
  19959029.338   106767345.84709      1924.015    19959036.110    83041297.44306
      1496.457  
 20  9 26  5 38  0.0000000  0 15G30G20G18G15G 5G29G13R 7R 8R 1R 6R22
                                R16R24R23
  23868497.719   125429801.15748      -624.296    23868500.282    97737516.40245
      -486.468  
  23141473.701   121609269.21747      3112.226    23141473.811    94760473.22545
      2425.112  
  20952307.745   110105117.94449      1868.226    20952307.674    85796197.56948
      1455.761  
  20478611.450   107615832.76549      1791.613    20478611.197    83856494.49848
      1396.062  
  22246355.765   116905387.12248     -2815.461    22246355.458    91095104.86347
     -2193.871  
  22798309.383   119805920.52448     -3176.293    22798310.228    93355264.44047
     -2475.038  
  20514314.767   107803453.30749      -269.844    20514313.839    84002687.91247
      -210.273  
  19600707.247   104924121.22109     -1594.667    19600711.050    81607664.48208
     -1240.300  
  20048974.425   107361358.53408      2014.672    20048977.606    83503286.98408
      1566.968  
  23277729.000   124432812.66705      3767.500    23277737.662    96781103.80003
      2930.277  
  22949882.164   122464969.50204     -3813.437           0.000           0.00000
         0.000  
  20740223.457   110712709.89307     -3448.387    20740228.495    86109909.73104
     -2682.082  
  22805636.452   121823615.85005      1375.269    22805641.791    94751723.16505
      1069.651  
  22830945.187   122087328.38507      4026.816    22830948.807    94956833.17905
      3131.972  
  19957232.661   106757734.93509      1920.210    19957239.465    83033822.28106
      1493.491  
 20  9 26  5 38  5.0000000  0 15G30G20G18G15G 5G29G13R 7R 8R 1R 6R22
                                R16R24R23
  23869093.269   125432930.95047      -627.464    23869095.825    97739955.20645
      -488.938  
  23138513.101   121593711.15847      3111.636    23138513.211    94748350.06445
      2424.652  
  20950531.576   110095784.07849      1865.754    20950531.506    85788924.42848
      1453.836  
  20476908.467   107606883.62649      1788.316    20476908.234    83849521.14748
      1393.491  
  22249035.287   116919468.01348     -2816.727    22249034.956    91106076.98946
     -2194.854  
  22801332.628   119821807.72448     -3178.297    22801333.514    93367644.07047
     -2476.597  
  20514573.285   107804811.83149      -273.382    20514572.345    84003746.51047
      -213.026  
  19602198.162   104932102.29909     -1597.757    19602202.028    81613871.99108
     -1242.699  
  20047094.851   107351293.59208      2011.688    20047098.079    83495458.69708
      1564.645  
  23274205.987   124413980.77005      3765.401    23274214.770    96766456.78703
      2928.644  
  22953455.366   122484037.04105     -3813.640           0.000           0.00000
         0.000  
  20743455.108   110729960.72907     -3451.473    20743460.200    86123327.03404
     -2684.483  
  22804351.431   121816751.53005      1370.949    22804356.769    94746384.25204
      1066.288  
  22827180.677   122067198.01507      4025.046    22827184.356    94941176.25305
      3130.598  
  19955439.957   106748145.11009      1916.059    19955446.719    83026363.53206
      1490.266  
 20  9 26  5 38 10.0000000  0 15G30G20G18G15G 5G29G13R 7R 8R 1R 6R22
                                R16R24R23
  23869691.894   125436076.86847      -630.351    23869694.475    97742406.57845
      -491.187  
  23135553.316   121578157.19647      3110.969    23135553.401    94736230.07645
      2424.128  
  20948757.786   110086462.69049      1863.335    20948757.727    85781661.00748
      1451.949  
  20475208.509   107597950.28349      1785.516    20475208.231    83842560.10748
      1391.313  
  22251715.971   116933555.13448     -2817.761    22251715.612    91117053.95247
     -2195.664  
  22804357.714   119837704.62648     -3179.852    22804358.643    93380031.24947
     -2477.808  
  20514835.170   107806188.04249      -276.534    20514834.259    84004818.88048
      -215.480  
  19603691.692   104940097.25509     -1600.218    19603695.559    81620090.28508
     -1244.617  
  20045217.892   107341242.78208      2009.078    20045221.169    83487641.40208
      1562.613  
  23270684.028   124395154.41105      3765.120    23270692.836    96751814.09604
      2928.430  
  22957029.154   122503107.02105     -3813.710           0.000           0.00000
         0.000  
  20746689.598   110747226.65907     -3454.570    20746694.651    86136756.08404
     -2686.890  
  22803070.257   121809907.94704      1367.289    22803075.599    94741061.47004
      1063.440  
  22823417.728   122047075.99407      4023.698    22823421.423    94925525.77005
      3129.538  
  19953651.058   106738575.83309      1912.137    19953657.814    83018920.76206
      1487.214  
 20  9 26  5 38 15.0000000  0 15G30G20G18G15G 5G29G13R 7R 8R 1R 6R22
                                R16R24R23
  23870293.270   125439237.40348      -634.108    23870295.976    97744869.31146
      -494.113  
  23132593.998   121562605.90747      3109.472    23132594.085    94724112.23145
      2422.969  
  20946986.064   110077152.28949      1860.672    20946986.017    85774406.14848
      1449.871  
  20473511.276   107589031.26349      1781.977    20473510.982    83835610.21848
      1388.551  
  22254397.567   116947646.95248     -2819.105    22254397.159    91128034.59647
     -2196.710  
  22807384.360   119853609.72448     -3182.234    22807385.301    93392424.84347
     -2479.663  
  20515100.157   107807580.49949      -280.542    20515099.220    84005903.91248
      -218.609  
  19605187.489   104948104.43309     -1603.011    19605191.353    81626318.09108
     -1246.784  
  20043343.297   107331204.62708      2005.823    20043346.587    83479833.95708
      1560.086  
  23267162.898   124376332.14105      3763.995    23267171.705    96737174.56104
      2927.555  
  22960603.013   122522177.56705     -3814.940           0.000           0.00000
         0.000  
  20749926.690   110764506.35207     -3457.616    20749931.697    86150195.84404
     -2689.261  
  22801792.691   121803083.76205      1362.441    22801797.990    94735753.79304
      1059.676  
  22819656.127   122026960.89707      4022.120    22819659.839    94909880.70705
      3128.315  
  19951865.724   106729025.50109      1907.690    19951872.464    83011492.72106
      1483.757  
 20  9 26  5 38 20.0000000  0 15G30G20G18G15G 5G29G13R 7R 8R 1R 6R22
                                R16R24R23
  23870897.672   125442413.77848      -636.761    23870900.460    97747344.41746
      -496.184  
  23129635.434   121547058.48547      3109.233    23129635.517    94711997.35945
      2422.780  
  20945216.697   110067854.13949      1858.612    20945216.638    85767160.84148
      1448.270  
  20471816.996   107580127.82749      1779.348    20471816.720    83828672.46948
      1386.500  
  22257080.280   116961744.70248     -2820.043    22257079.896    91139019.85947
     -2197.437  
  22810412.805   119869524.25248     -3183.616    22810413.747    93404825.76247
     -2480.746  
  20515368.465   107808990.40249      -283.605    20515367.513    84007002.53048
      -220.991  
  19606685.846   104956125.25909     -1605.261    19606689.662    81632556.52708
     -1248.534  
  20041471.301   107321180.39108      2003.586    20041474.610    83472037.33308
      1558.344  
  23263642.792   124357515.22105      3762.839    23263651.605    96722539.18404
      2926.652  
  22964177.373   122541250.28705     -3813.960           0.000           0.00000
         0.000  
  20753166.507   110781800.93407     -3460.191    20753171.471    86163647.18104
     -2691.265  
  22800519.091   121796280.10905      1358.690    22800524.289    94730462.04305
      1056.758  
  22815896.024   122006853.87607      4020.999    22815899.734    94894241.91805
      3127.445  
  19950084.171   106719495.45609      1904.082    19950090.907    83004080.46306
      1480.948  
 20  9 26  5 38 25.0000000  0 15G30G20G18G15G 5G29G13R 7R 8R 1R 6R22
                                R16R24R23
  23871504.912   125445604.93647      -639.824    23871507.694    97749831.03445
      -498.562  
  23126677.413   121531513.85747      3108.500    23126677.556    94699884.65945
      2422.207  
  20943449.434   110058567.17449      1856.160    20943449.356    85759924.23948
      1446.355  
  20470125.504   107571238.91649      1776.406    20470125.212    83821746.05548
      1384.211  
  22259763.934   116975847.34048     -2821.077    22259763.548    91150008.93447
     -2198.246  
  22813442.877   119885447.19748     -3185.265    22813443.807    93417233.22647
     -2482.031  
  20515639.904   107810416.72949      -286.909    20515638.913    84008113.95948
      -223.565  
  19608186.502   104964158.48009     -1607.866    19608190.279    81638804.57508
     -1250.566  
  20039601.733   107311169.13208      2000.983    20039605.046    83464250.79308
      1556.316  
  23260123.454   124338702.49805      3761.999    23260132.168    96707907.09704
      2925.999  
  22967751.805   122560324.23605     -3814.402           0.000           0.00000
         0.000  
  20756409.023   110799109.39107     -3462.828    20756413.987    86177109.31004
     -2693.316  
  22799249.230   121789495.89605      1354.848    22799254.301    94725185.43405
      1053.770  
  22812137.239   121986754.08407      4019.155    22812140.976    94878608.73605
      3126.008  
  19948306.223   106709984.63309      1900.305    19948312.954    82996683.16406
      1478.016  
 20  9 26  5 38 30.0000000  0 15G30G20G18G15G 5G29G13R 7R 8R 1R 6R22
                                R16R24R23
  23872115.039   125448811.27247      -643.180    23872117.870    97752329.47845
      -501.179  
  23123719.985   121515972.34047      3107.914    23123720.161    94687774.40245
      2421.749  
  20941684.374   110049291.78249      1853.617    20941684.301    85752696.66748
      1444.379  
  20468436.830   107562364.87249      1773.063    20468436.523    83814831.22048
      1381.604  
  22262448.592   116989955.21748     -2822.304    22262448.184    91161002.07346
     -2199.203  
  22816474.592   119901378.90648     -3187.265    22816475.514    93429647.56147
     -2483.582  
  20515914.525   107811859.84249      -290.563    20515913.537    84009238.46748
      -226.413  
  19609689.563   104972204.41809     -1610.801    19609693.343    81645062.52908
     -1252.843  
  20037734.620   107301170.85308      1998.132    20037737.910    83456474.36208
      1554.101  
  23256604.956   124319894.45305      3760.902    23256613.660    96693278.62204
      2925.144  
  22971326.551   122579399.45305     -3815.551           0.000           0.00000
         0.000  
  20759654.099   110816431.98407     -3466.214    20759659.066    86190582.42204
     -2695.949  
  22797982.923   121782731.63404      1350.308    22797988.105    94719924.36505
      1050.237  
  22808379.851   121966661.70807      4017.667    22808383.603    94862981.34105
      3124.848  
  19946531.938   106700493.37409      1895.940    19946538.663    82989301.07306
      1474.620  
 20  9 26  5 38 35.0000000  0 15G30G20G18G15G 5G29G13R 7R 8R 1R 6R22
                                R16R24R23
  23872728.012   125452032.53047      -645.472    23872730.886    97754839.54945
      -502.969  
  23120763.144   121500433.79047      3107.675    23120763.226    94675666.43545
      2421.563  
  20939921.468   110040027.74249      1851.867    20939921.421    85745477.93748
      1443.011  
  20466750.975   107553505.52049      1770.655    20466750.637    83807927.83148
      1379.730  
  22265134.196   117004068.10048     -2822.887    22265133.777    91171999.12547
     -2199.656  
  22819507.905   119917319.04048     -3188.500    22819508.861    93442068.42247
     -2484.551  
  20516192.290   107813319.51049      -293.433    20516191.286    84010375.86648
      -228.651  
  19611194.981   104980263.04009     -1612.730    19611198.814    81651330.34508
     -1254.351  
  20035869.973   107291185.78708      1995.895    20035873.260    83448708.19108
      1552.359  
  23253087.383   124301090.91405      3760.203    23253096.036    96678653.66404
      2924.601  
  22974901.538   122598475.83405     -3814.930           0.000           0.00000
         0.000  
  20762901.875   110833768.54707     -3468.831    20762906.811    86204066.41604
     -2697.984  
  22796720.226   121775987.00505      1347.797    22796725.519    94714678.54205
      1048.281  
  22804623.855   121946576.64706      4016.647    22804627.640    94847359.62505
      3124.055  
  19944761.297   106691021.66909      1892.515    19944768.067    82981934.19906
      1471.956  
 20  9 26  5 38 40.0000000  0 15G30G20G18G15G 5G29G13R 7R 8R 1R 6R22
                                R16R24R23
  23873343.935   125455269.35347      -649.152    23873346.795    97757361.74945
      -505.836  
  23117806.934   121484898.83347      3106.233    23117807.077    94663561.28045
      2420.440  
  20938160.834   110030775.67549      1849.277    20938160.820    85738268.53948
      1440.996  
  20465067.989   107544661.46249      1767.233    20465067.655    83801036.36048
      1377.065  
  22267820.875   117018186.63348     -2824.371    22267820.476    91183000.58447
     -2200.809  
  22822542.975   119933268.25648     -3190.840    22822543.946    93454496.36947
     -2486.370  
  20516473.331   107814796.32649      -297.238    20516472.331    84011526.63748
      -231.612  
  19612702.853   104988334.79609     -1615.749    19612706.729    81657608.37108
     -1256.699  
  20034007.850   107281214.20008      1992.714    20034011.109    83440952.52408
      1549.891  
  23249570.606   124282292.19705      3759.922    23249579.272    96664032.47004
      2924.387  
  22978476.816   122617553.95305     -3815.937           0.000           0.00000
         0.000  
  20766152.333   110851119.65407     -3471.597    20766157.200    86217561.72804
     -2700.132  
  22795461.430   121769262.71005      1342.891    22795466.718    94709448.57205
      1044.472  
  22800869.409   121926499.59107      4014.315    22800873.206    94831744.14405
      3122.245  
  19942994.373   106681569.84709      1888.168    19943001.172    82974582.78606
      1468.573  
 20  9 26  5 38 45.0000000  0 15G30G20G18G15G 5G29G13R 7R 8R 1R 6R22
                                R16R24R23
  23873962.877   125458521.85247      -651.922    23873965.624    97759896.15945
      -507.995  
  23114851.426   121469367.59347      3105.862    23114851.631    94651459.03846
      2420.152  
  20936402.510   110021535.77449      1846.780    20936402.518    85731068.61748
      1439.046  
  20463387.973   107535832.88449      1764.195    20463387.610    83794156.95148
      1374.698  
  22270508.681   117032310.98948     -2825.315    22270508.255    91194006.56047
     -2201.550  
  22825579.771   119949226.62948     -3192.491    22825580.793    93466931.46747
     -2487.660  
  20516757.663   107816290.43749      -300.609    20516756.659    84012690.88348
      -234.241  
  19614213.241   104996420.05309     -1618.229    19614217.153    81663896.90208
     -1258.628  
  20032148.286   107271256.38408      1990.281    20032151.553    83433207.56708
      1547.995  
  23246054.851   124263498.84705      3758.722    23246063.493    96649415.46604
      2923.453  
  22982052.346   122636633.88405     -3815.668           0.000           0.00000
         0.000  
  20769405.578   110868485.53807     -3474.640    20769410.419    86231068.51204
     -2702.504  
  22794206.408   121762558.91805      1338.488    22794211.751    94704234.52904
      1041.051  
  22797116.355   121906430.70006      4012.781    22797120.252    94816135.00605
      3121.051  
  19941231.268   106672138.39609      1884.246    19941238.084    82967247.21106
      1465.495  
 20  9 26  5 38 50.0000000  0 15G30G20G18G15G 5G29G13R 7R 8R 1R 6R22
                                R16R24R23
  23874584.946   125461790.78048      -655.675    23874587.738    97762443.39145
      -510.917  
  23111896.768   121453840.79247      3104.605    23111897.067    94639360.24645
      2419.175  
  20934646.654   110012308.71849      1844.011    20934646.653    85723878.70448
      1436.886  
  20461711.029   107527020.45749      1760.656    20461710.646    83787290.12748
      1371.941  
  22273197.697   117046441.77248     -2826.965    22273197.255    91205017.56347
     -2202.832  
  22828618.446   119965194.84848     -3194.812    22828619.503    93479374.22847
     -2489.468  
  20517045.422   107817802.53049      -304.437    20517044.439    84013869.13448
      -237.227  
  19615726.209   105004519.21309     -1621.546    19615730.153    81670196.25708
     -1261.202  
  20030291.415   107261313.14008      1987.027    20030294.738    83425473.93708
      1545.465  
  23242540.150   124244711.56805      3756.558    23242548.858    96634803.15504
      2921.773  
  22985628.400   122655716.35905     -3816.898           0.000           0.00000
         0.000  
  20772661.691   110885866.83107     -3478.022    20772666.496    86244587.28404
     -2705.132  
  22792955.444   121755876.24405      1334.445    22792960.694    94699036.88604
      1037.902  
  22793365.022   121886370.60607      4010.809    22793369.016    94800532.73105
      3119.522  
  19939472.035   106662727.77809      1879.742    19939478.868    82959927.84206
      1462.020  
 20  9 26  5 38 55.0000000  0 15G30G20G18G15G 5G29G13R 7R 8R 1R 6R22
                                R16R24R23
  23875209.961   125465074.94848      -658.484    23875212.729    97765002.46946
      -513.108  
  23108942.771   121438317.34048      3104.335    23108942.989    94627264.04445
      2418.964  
  20932893.016   110003093.41449      1841.964    20932893.010    85716697.95448
      1435.297  
  20460036.928   107518223.08749      1757.848    20460036.540    83780435.03848
      1369.749  
  22275887.753   117060577.92648     -2827.773    22275887.298    91216032.74647
     -2203.465  
  22831658.765   119981171.83348     -3196.090    22831659.878    93491823.83547
     -2490.465  
  20517336.376   107819331.53549      -307.527    20517335.429    84015060.56548
      -239.632  
  19617241.611   105012631.28309     -1623.672    19617245.549    81676505.64608
     -1262.854  
  20028437.018   107251383.08708      1984.507    20028440.386    83417750.56408
      1543.508  
  23239026.373   124225928.94705      3756.288    23239035.079    96620194.46904
      2921.562  
  22989204.813   122674800.38005     -3817.019           0.000           0.00000
         0.000  
  20775920.423   110903262.37907     -3480.479    20775925.214    86258117.15003
     -2707.043  
  22791708.221   121749213.86605      1330.660    22791713.461    94693855.04104
      1034.953  
  22789615.143   121866318.25407      4009.671    22789619.195    94784936.46806
      3118.637  
  19937716.511   106653337.00309      1876.195    19937723.363    82952623.91006
      1459.262  
 20  9 26  5 39  0.0000000  0 15G30G20G18G15G 5G29G13R 7R 8R 1R 6R22
                                R16R24R23
  23875838.077   125468375.68547      -661.555    23875840.881    97767574.45846
      -515.500  
  23105989.650   121422798.49048      3103.464    23105989.843    94615171.46345
      2418.285  
  20931141.856   109993891.13149      1839.461    20931141.865    85709527.33848
      1433.343  
  20458365.941   107509441.99349      1754.824    20458365.539    83773592.63248
      1367.394  
  22278579.064   117074720.70048     -2828.995    22278578.606    91227053.07847
     -2204.417  
  22834701.010   119997158.84748     -3197.965    22834702.140    93504281.23647
     -2491.925  
  20517630.800   107820878.67749      -310.964    20517629.894    84016266.13248
      -242.312  
  19618759.672   105020757.48709     -1626.312    19618763.544    81682826.01308
     -1264.913  
  20026585.433   107241467.96308      1981.863    20026588.811    83410038.78908
      1541.445  
  23235513.930   124207152.48804      3755.444    23235522.543    96605590.57303
      2920.901  
  22992781.730   122693887.27605     -3817.750           0.000           0.00000
         0.000  
  20779182.082   110920673.40107     -3483.316    20779186.862    86271659.05204
     -2709.250  
  22790465.039   121742572.60705      1326.741    22790470.207    94688689.60304
      1031.905  
  22785866.907   121846274.90806      4008.074    22785871.112    94769347.21305
      3117.395  
  19935964.954   106643967.47909      1872.030    19935971.867    82945336.50206
      1456.022  
 20  9 26  5 39  5.0000000  0 15G30G20G18G15G 5G29G13R 7R 8R 1R 6R22
                                R16R24R23
  23876468.845   125471690.20948      -664.102    23876471.544    97770157.20145
      -517.483  
  23103036.891   121407281.51548      3103.230    23103037.064    94603080.33045
      2418.105  
  20929392.656   109984699.11649      1837.602    20929392.659    85702364.72848
      1431.894  
  20456697.535   107500674.49149      1752.347    20456697.132    83766760.81348
      1365.464  
  22281271.108   117088867.30248     -2829.523    22281270.636    91238076.39647
     -2204.827  
  22837744.648   120013153.08648     -3199.406    22837745.720    93516744.27847
     -2493.047  
  20517928.122   107822441.21249      -313.882    20517927.288    84017483.69348
      -244.586  
  19620279.894   105028895.26009     -1628.484    19620283.736    81689155.40108
     -1266.598  
  20024736.039   107231564.57408      1979.573    20024739.420    83402336.17008
      1539.668  
  23232001.981   124188379.32805      3754.593    23232010.572    96590989.24304
      2920.237  
  22996358.670   122712973.92005     -3817.507           0.000           0.00000
         0.000  
  20782446.188   110938097.20007     -3485.628    20782450.916    86285210.88204
     -2711.047  
  22789225.228   121735950.04005      1322.883    22789230.464    94683538.71704
      1028.906  
  22782119.835   121826237.81907      4006.831    22782124.189    94753762.81306
      3116.430  
  19934216.788   106634616.09509      1868.633    19934223.778    82938063.20706
      1453.382  
 20  9 26  5 39 10.0000000  0 15G30G20G18G15G 5G29G13R 7R 8R 1R 6R22
                                R16R24R23
  23877102.275   125475018.71748      -667.772    23877104.865    97772750.85445
      -520.343  
  23100084.523   121391766.58848      3102.535    23100084.725    94590990.77445
      2417.554  
  20927645.451   109975517.61849      1834.831    20927645.457    85695210.32148
      1429.733  
  20455031.767   107491920.75849      1749.012    20455031.331    83759939.72948
      1362.866  
  22283963.910   117103018.00848     -2831.046    22283963.408    91249102.91347
     -2206.016  
  22840789.700   120029154.78648     -3201.534    22840790.738    93529213.12147
     -2494.706  
  20518228.438   107824019.38149      -317.694    20518227.673    84018713.43748
      -247.555  
  19621802.250   105037044.42709     -1631.477    19621806.112    81695493.63608
     -1268.929  
  20022888.884   107221673.27108      1976.738    20022892.279    83394642.92708
      1537.461  
  23228490.732   124169609.75205      3752.917    23228499.262    96576390.69504
      2918.937  
  22999935.469   122732060.80805     -3817.585           0.000           0.00000
         0.000  
  20785712.694   110955533.90807     -3488.977    20785717.329    86298772.75804
     -2713.652  
  22787988.967   121729346.24605      1318.448    22787994.186    94678402.44804
      1025.460  
  22778374.089   121806207.13306      4005.222    22778378.515    94738183.42206
      3115.175  
  19932472.119   106625283.38809      1864.234    19932479.135    82930804.43806
      1449.960  
 20  9 26  5 39 15.0000000  0 15G30G20G18G15G 5G29G13R 7R 8R 1R 6R22
                                R16R24R23
  23877738.883   125478363.80048      -670.433    23877741.387    97775357.40145
      -522.417  
  23097133.055   121376256.33147      3101.651    23097133.244    94578904.86245
      2416.871  
  20925900.740   109966349.19249      1832.460    20925900.748    85688066.09148
      1427.891  
  20453369.112   107483183.41949      1745.882    20453368.678    83753131.41448
      1360.430  
  22286657.969   117117175.41748     -2831.979    22286657.457    91260134.65247
     -2206.742  
  22843836.620   120045166.45948     -3203.046    22843837.691    93541689.75847
     -2495.878  
  20518532.189   107825615.69949      -321.003    20518531.474    84019957.32448
      -250.133  
  19623327.250   105045207.83709     -1633.979    19623331.175    81701842.96508
     -1270.874  
  20021044.505   107211796.73208      1974.011    20021047.895    83386961.19508
      1535.344  
  23224980.573   124150846.28204      3752.460    23224989.076    96561796.91404
      2918.586  
  23003512.987   122751150.35205     -3818.145           0.000           0.00000
         0.000  
  20788982.033   110972986.10907     -3491.980    20788986.699    86312346.69004
     -2715.988  
  22786756.770   121722763.88505      1314.753    22786761.954    94673282.83304
      1022.585  
  22774629.938   121786185.69207      4003.270    22774634.541    94722611.19606
      3113.651  
  19930731.437   106615971.91009      1860.355    19930738.446    82923562.18106
      1446.940  
 20  9 26  5 39 20.0000000  0 15G30G20G18G15G 5G29G13R 7R 8R 1R 6R22
                                R16R24R23
  23878378.230   125481723.52848      -673.605    23878380.649    97777975.38446
      -524.891  
  23094182.085   121360748.75547      3101.097    23094182.214    94566821.04445
      2416.437  
  20924158.154   109957191.93649      1830.323    20924158.195    85680930.56848
      1426.227  
  20451709.190   107474460.49649      1743.102    20451708.770    83746334.33848
      1358.262  
  22289352.917   117131337.49648     -2832.882    22289352.423    91271170.02847
     -2207.444  
  22846885.103   120061186.27948     -3204.897    22846886.140    93554172.70847
     -2497.331  
  20518839.061   107827228.28849      -324.250    20518838.367    84021213.87748
      -252.667  
  19624854.513   105053383.46009     -1636.570    19624858.468    81708201.76308
     -1272.890  
  20019202.538   107201932.92908      1971.422    20019205.920    83379289.34108
      1533.324  
  23221471.195   124132086.99005      3751.840    23221479.795    96547206.36204
      2918.098  
  23007090.635   122770240.80305     -3818.879           0.000           0.00000
         0.000  
  20792253.984   110990451.84907     -3494.531    20792258.603    86325931.14404
     -2717.972  
  22785528.307   121716201.12405      1310.632    22785533.461    94668178.47105
      1019.382  
  22770887.146   121766171.42507      4001.957    22770891.969    94707044.55006
      3112.628  
  19928994.342   106606679.53209      1856.543    19929001.349    82916334.77906
      1443.977  
 20  9 26  5 39 25.0000000  0 15G30G20G18G15G 5G29G13R 7R 8R 1R 6R22
                                R16R24R23
  23879020.618   125485099.26947      -677.105    23879023.043    97780605.82045
      -527.616  
  23091231.881   121345245.32748      3099.930    23091232.011    94554740.45245
      2415.530  
  20922417.959   109948047.24249      1827.405    20922418.002    85673804.82948
      1423.949  
  20450052.304   107465753.44149      1739.516    20450051.873    83739549.61948
      1355.465  
  22292048.997   117145505.58248     -2834.488    22292048.536    91282210.09547
     -2208.694  
  22849935.385   120077215.49448     -3206.918    22849936.399    93566663.00947
     -2498.901  
  20519149.291   107828858.55849      -328.187    20519148.621    84022484.22248
      -255.729  
  19626384.338   105061572.66909     -1639.516    19626388.267    81714571.15208
     -1275.183  
  20017363.211   107192083.32008      1968.132    20017366.582    83371628.52908
      1530.765  
  23217962.816   124113333.47505      3750.004    23217971.551    96532620.31204
      2916.668  
  23010668.530   122789333.29405     -3818.684           0.000           0.00000
         0.000  
  20795528.775   111007932.56407     -3498.047    20795533.344    86339527.25104
     -2720.706  
  22784303.780   121709659.26305      1305.719    22784308.856    94663090.35904
      1015.559  
  22767145.986   121746165.73007      4000.426    22767150.984    94691484.56705
      3111.437  
  19927261.134   106597407.97309      1852.054    19927268.137    82909123.56706
      1440.487  
 20  9 26  5 39 30.0000000  0 15G30G20G18G15G 5G29G13R 7R 8R 1R 6R22
                                R16R24R23
  23879666.365   125488492.56948      -679.863    23879668.705    97783249.94845
      -529.765  
  23088282.806   121329747.58747      3099.354    23088282.963    94542664.31445
      2415.082  
  20920680.448   109938916.65849      1825.238    20920680.509    85666690.08848
      1422.262  
  20448398.713   107457063.73249      1736.875    20448398.301    83732778.42548
      1353.409  
  22294746.547   117159681.27448     -2835.194    22294746.094    91293256.08246
     -2209.245  
  22852987.705   120093255.70548     -3208.526    22852988.724    93579161.86347
     -2500.156  
  20519463.149   107830507.95649      -331.254    20519462.483    84023769.46748
      -258.121  
  19627917.013   105069777.07409     -1641.874    19627920.919    81720952.35508
     -1277.015  
  20015526.810   107182249.35408      1965.691    20015530.159    83363979.89508
      1528.866  
  23214455.932   124094586.98404      3748.980    23214464.508    96518039.75604
      2915.883  
  23014247.304   122808429.50505     -3818.859           0.000           0.00000
         0.000  
  20798806.593   111025429.75007     -3500.562    20798811.139    86353136.16404
     -2722.664  
  22783083.438   121703139.88705      1302.241    22783088.428    94658019.72104
      1012.851  
  22763406.842   121726170.31406      3998.719    22763411.870    94675932.58706
      3110.113  
  19925532.046   106588158.61209      1848.203    19925539.074    82901929.62006
      1437.492  
 20  9 26  5 39 35.0000000  0 15G30G20G18G15G 5G29G13R 7R 8R 1R 6R22
                                R16R24R23
  23880314.602   125491899.07948      -682.362    23880316.903    97785904.36545
      -531.714  
  23085333.933   121314251.12247      3099.003    23085334.068    94530589.14544
      2414.809  
  20918944.801   109929795.83049      1823.191    20918944.868    85659582.95648
      1420.667  
  20446747.611   107448387.10249      1733.926    20446747.179    83726017.41848
      1351.109  
  22297444.699   117173860.22048     -2835.988    22297444.257    91304304.60747
     -2209.863  
  22856041.327   120109302.49848     -3210.043    22856042.319    93591665.85647
     -2501.336  
  20519779.833   107832172.14349      -334.258    20519779.152    84025066.23348
      -260.464  
  19629451.661   105077992.16409     -1644.102    19629455.566    81727341.86808
     -1278.749  
  20013692.506   107172426.73708      1963.355    20013695.826    83356340.08508
      1527.050  
  23210949.606   124075843.28805      3748.680    23210958.024    96503461.33404
      2915.645  
  23017825.746   122827524.85105     -3819.386           0.000           0.00000
         0.000  
  20802086.666   111042938.90807     -3502.983    20802091.199    86366754.38804
     -2724.546  
  22781866.372   121696638.41305      1298.191    22781871.289    94652963.00304
      1009.699  
  22759668.668   121706180.55706      3997.391    22759673.780    94660384.98805
      3109.078  
  19923806.326   106578927.08009      1844.491    19923813.315    82894749.54306
      1434.605  
 20  9 26  5 39 40.0000000  0 15G30G20G18G15G 5G29G13R 7R 8R 1R 6R22
                                R16R24R23
  23880965.832   125495321.37748      -685.808    23880968.145    97788571.09345
      -534.395  
  23082385.829   121298758.57448      3098.301    23082385.864    94518517.05445
      2414.265  
  20917211.523   109920687.36249      1820.660    20917211.600    85652485.45348
      1418.695  
  20445099.454   107439726.03949      1730.801    20445099.018    83719268.53848
      1348.676  
  22300143.986   117188045.00548     -2837.187    22300143.545    91315357.67947
     -2210.801  
  22859096.665   120125358.44248     -3212.012    22859097.646    93604176.97047
     -2502.871  
  20520099.823   107833853.69949      -337.901    20520099.128    84026376.54448
      -263.301  
  19630988.807   105086220.53509     -1646.879    19630992.728    81733741.72208
     -1280.905  
  20011860.773   107162617.86208      1960.722    20011864.081    83348710.96308
      1525.007  
  23207444.123   124057105.06305      3747.491    23207452.566    96488887.17904
      2914.719  
  23021404.712   122846622.33505     -3819.487           0.000           0.00000
         0.000  
  20805369.462   111060462.79107     -3505.848    20805374.026    86380384.06704
     -2726.773  
  22780653.264   121690157.83305      1294.374    22780658.036    94647922.55405
      1006.729  
  22755932.113   121686199.36307      3995.426    22755937.276    94644844.07906
      3107.555  
  19922084.436   106569716.06809      1840.354    19922091.331    82887585.42406
      1431.386  
 20  9 26  5 39 45.0000000  0 15G30G20G18G15G 5G29G13R 7R 8R 1R 6R22
                                R16R24R23
  23881619.908   125498758.63548      -688.878    23881622.164    97791249.47045
      -536.793  
  23079438.271   121283269.11347      3097.515    23079438.347    94506447.34244
      2413.648  
  20915480.443   109911590.44649      1818.258    20915480.536    85645396.94048
      1416.819  
  20443454.141   107431079.80149      1727.702    20443453.672    83712531.21548
      1346.262  
  22302844.184   117202234.79748     -2838.441    22302843.816    91326414.64947
     -2211.776  
  22862153.614   120141422.72448     -3213.633    22862154.607    93616694.59147
     -2504.132  
  20520422.968   107835551.80849      -341.211    20520422.245    84027699.75048
      -265.882  
  19632528.303   105094461.54409     -1649.273    19632532.232    81740151.39608
     -1282.773  
  20010031.538   107152822.29808      1957.698    20010034.845    83341092.19608
      1522.655  
  23203939.485   124038371.42205      3746.960    23203947.964    96474316.58004
      2914.308  
  23024983.773   122865720.89305     -3820.359           0.000           0.00000
         0.000  
  20808654.889   111078000.43507     -3509.125    20808659.403    86394024.45704
     -2729.323  
  22779443.859   121683697.03505      1289.961    22779448.570    94642897.49404
      1003.301  
  22752196.887   121666225.68206      3993.918    22752202.150    94629308.99406
      3106.379  
  19920366.232   106560524.64509      1836.336    19920373.037    82880436.53006
      1428.258  
 20  9 26  5 39 50.0000000  0 15G30G20G18G15G 5G29G13R 7R 8R 1R 6R22
                                R16R24R23
  23882277.289   125502213.06947      -692.559    23882279.491    97793941.24245
      -539.655  
  23076491.713   121267784.94547      3096.315    23076491.673    94494381.76445
      2412.714  
  20913751.973   109902507.30549      1815.374    20913752.073    85638319.17448
      1414.578  
  20441812.050   107422450.58649      1724.223    20441811.550    83705807.15548
      1343.551  
  22305545.754   117216431.80348     -2840.019    22305545.453    91337477.24847
     -2213.007  
  22865212.558   120157497.51948     -3215.813    22865213.568    93629220.39947
     -2505.831  
  20520749.676   107837268.70149      -345.164    20520748.936    84029037.58748
      -268.964  
  19634070.538   105102717.24809     -1652.507    19634074.496    81746572.49308
     -1285.288  
  20008205.175   107143042.08208      1954.762    20008208.498    83333485.37308
      1520.371  
  23200436.243   124019644.61805      3744.563    23200444.728    96459751.32104
      2912.440  
  23028563.482   122884822.52805     -3820.133           0.000           0.00000
         0.000  
  20811943.297   111095554.17907     -3512.366    20811947.785    86407677.35704
     -2731.844  
  22778238.631   121677258.51505      1285.577    22778243.312    94637889.76304
       999.894  
  22748463.622   121646261.89307      3992.172    22748468.868    94613781.61206
      3105.022  
  19918652.104   106551355.22009      1831.824    19918658.896    82873304.76106
      1424.753  
 20  9 26  5 39 55.0000000  0 15G30G20G18G15G 5G29G13R 7R 8R 1R 6R22
                                R16R24R23
  23882937.595   125505682.87647      -695.273    23882939.773    97796644.98545
      -541.776  
  23073545.848   121252304.31848      3095.832    23073545.798    94482318.93145
      2412.332  
  20912025.791   109893436.12749      1813.116    20912025.870    85631250.72248
      1412.816  
  20440172.867   107413836.61849      1721.409    20440172.351    83699094.97548
      1341.359  
  22308248.362   117230634.22648     -2840.987    22308248.149    91348544.05247
     -2213.762  
  22868273.137   120173581.03548     -3217.324    22868274.142    93641753.00147
     -2507.011  
  20521079.620   107839002.53849      -348.324    20521078.873    84030388.62648
      -271.426  
  19635615.171   105110985.85409     -1654.957    19635619.131    81753003.62208
     -1287.190  
  20006381.285   107133275.29508      1951.933    20006384.632    83325888.97308
      1518.168  
  23196933.926   124000922.69504      3743.586    23196942.323    96445189.85704
      2911.684  
  23032143.517   122903925.81505     -3821.480           0.000           0.00000
         0.000  
  20815234.378   111113122.03907     -3514.973    20815238.783    86421341.24004
     -2733.871  
  22777037.098   121670840.20305      1281.354    22777041.852    94632897.74704
       996.608  
  22744731.827   121626306.15307      3990.328    22744737.119    94598260.48006
      3103.590  
  19916941.726   106542205.87909      1828.004    19916948.507    82866188.60406
      1421.777  
 20  9 26  5 40  0.0000000  0 15G30G20G18G15G 5G29G13R 7R 8R 1R 6R22
                                R16R24R23
  23883600.515   125509166.82547      -698.378    23883602.701    97799359.75345
      -544.190  
  23070600.381   121236825.96947      3095.421    23070600.344    94470257.91545
      2412.016  
  20910301.664   109884375.71349      1811.000    20910301.730    85624190.65848
      1411.163  
  20438536.348   107405236.65249      1718.410    20438535.825    83692393.70548
      1339.020  
  22310951.764   117244840.79348     -2841.844    22310951.605    91359614.09947
     -2214.426  
  22871335.179   120189672.04748     -3219.140    22871336.187    93654291.43747
     -2508.425  
  20521412.561   107840752.12349      -351.679    20521411.825    84031751.94448
      -274.035  
  19637161.968   105119266.04109     -1657.284    19637165.949    81759443.77408
     -1289.003  
  20004559.709   107123520.84108      1949.421    20004563.045    83318302.18708
      1516.218  
  23193432.294   123982204.71305      3743.434    23193440.666    96430631.44304
      2911.558  
  23035723.491   122923029.33405     -3821.222           0.000           0.00000
         0.000  
  20818527.877   111130702.86407     -3517.855    20818532.255    86435015.21004
     -2736.113  
  22775839.268   121664440.98705      1277.859    22775843.962    94627920.59505
       993.895  
  22741001.376   121606357.34407      3988.500    22741006.666    94582744.74105
      3102.168  
  19915234.874   106533075.40609      1823.887    19915241.662    82859087.12606
      1418.577  
 20  9 26  5 40  5.0000000  0 15G30G20G18G15G 5G29G13R 7R 8R 1R 6R22
                                R16R24R23
  23884266.386   125512666.21547      -701.445    23884268.520    97802086.54446
      -546.581  
  23067655.670   121221351.25548      3094.621    23067655.618    94458199.69045
      2411.394  
  20908579.841   109875327.37849      1808.503    20908579.874    85617140.00948
      1409.223  
  20436902.723   107396651.98849      1715.418    20436902.196    83685704.35948
      1336.684  
  22313656.201   117259052.80048     -2842.999    22313656.105    91370688.38747
     -2215.327  
  22874398.866   120205771.77048     -3220.801    22874399.871    93666836.68247
     -2509.718  
  20521748.729   107842518.73249      -354.979    20521747.986    84033128.53048
      -276.609  
  19638711.211   105127559.19709     -1659.847    19638715.188    81765894.01008
     -1290.992  
  20002740.660   107113779.94708      1946.769    20002743.995    83310725.94108
      1514.152  
  23189931.656   123963491.76705      3742.285    23189940.051    96416076.95604
      2910.671  
  23039303.754   122942134.36705     -3821.483           0.000           0.00000
         0.000  
  20821824.044   111148297.93307     -3520.511    20821828.351    86448700.26204
     -2738.180  
  22774645.117   121658062.20205      1273.854    22774649.916    94622959.32305
       990.776  
  22737272.383   121586416.71207      3986.972    22737277.689    94567235.38705
      3100.980  
  19913531.818   106523965.20209      1819.866    19913538.629    82852001.41606
      1415.456  
 20  9 26  5 40 10.0000000  0 15G30G20G18G15G 5G29G13R 7R 8R 1R 6R22
                                R16R24R23
  23884934.992   125516180.01547      -704.569    23884937.110    97804824.56145
      -549.019  
  23064711.390   121205879.08347      3093.754    23064711.288    94446143.46345
      2410.715  
  20906860.103   109866290.09849      1805.948    20906860.130    85610097.97748
      1407.234  
  20435271.842   107388081.65349      1712.242    20435271.302    83679026.18248
      1334.214  
  22316361.530   117273269.40148     -2844.175    22316361.431    91381766.24447
     -2216.245  
  22877464.010   120221879.24448     -3222.828    22877465.034    93679387.95047
     -2511.297  
  20522087.945   107844301.35149      -358.527    20522087.191    84034517.57948
      -279.374  
  19640262.709   105135864.36309     -1662.680    19640266.671    81772353.58408
     -1293.199  
  20000924.000   107104051.71908      1944.069    20000927.296    83303159.54608
      1512.054  
  23186431.638   123944782.91805      3741.132    23186440.216    96401525.64704
      2909.769  
  23042884.067   122961239.88405     -3821.531           0.000           0.00000
         0.000  
  20825122.718   111165906.22807     -3523.188    20825127.000    86462395.59904
     -2740.261  
  22773454.649   121651702.84205      1269.578    22773459.528    94618013.15005
       987.445  
  22733544.721   121566483.20007      3985.555    22733550.020    94551731.53505
      3099.871  
  19911832.333   106514874.13309      1815.909    19911839.178    82844930.58006
      1412.371  
 20  9 26  5 40 15.0000000  0 15G30G20G18G15G 5G29G13R 7R 8R 1R 6R22
                                R16R24R23
  23885606.849   125519710.77547      -707.815    23885608.952    97807575.79545
      -551.551  
  23061768.087   121190412.10848      3092.941    23061767.923    94434091.28344
      2410.086  
  20905142.959   109857266.44449      1803.503    20905143.003    85603066.56448
      1405.328  
  20433644.162   107379528.16849      1709.125    20433643.611    83672361.12648
      1331.781  
  22319068.191   117287492.99948     -2845.312    22319068.076    91392849.56547
     -2217.128  
  22880531.097   120237996.95448     -3224.488    22880532.108    93691947.19847
     -2512.594  
  20522430.704   107846102.53349      -361.992    20522429.928    84035921.09448
      -282.070  
  19641816.904   105144183.99709     -1665.304    19641820.809    81778824.40108
     -1295.241  
  19999110.117   107094338.49108      1941.171    19999113.411    83295604.81308
      1509.801  
  23182932.932   123926080.82605      3739.659    23182941.586    96386979.60004
      2908.628  
  23046465.050   122980348.47505     -3821.625           0.000           0.00000
         0.000  
  20828424.302   111183530.37207     -3526.457    20828428.637    86476103.24804
     -2742.804  
  22772268.249   121645365.55705      1265.258    22772273.279    94613084.14604
       984.085  
  22729818.902   121546559.44707      3984.277    22729824.192    94536235.28305
      3098.878  
  19910136.911   106505804.89509      1811.785    19910143.787    82837876.72706
      1409.164  
 20  9 26  5 40 20.0000000  0 15G30G20G18G15G 5G29G13R 7R 8R 1R 6R22
                                R16R24R23
  23886281.752   125523257.47747      -710.831    23886283.845    97810339.46545
      -553.897  
  23058825.579   121174949.12647      3092.227    23058825.395    94422042.21745
      2409.527  
  20903428.218   109848255.35549      1801.022    20903428.233    85596044.93048
      1403.390  
  20432019.464   107370990.47749      1706.050    20432018.943    83665708.37948
      1329.390  
  22321775.986   117301722.46848     -2846.504    22321775.862    91403937.46447
     -2218.058  
  22883599.944   120254123.88548     -3226.434    22883600.942    93704513.62347
     -2514.109  
  20522776.768   107847921.20349      -365.516    20522776.003    84037338.24448
      -284.820  
  19643373.572   105152516.86909     -1668.038    19643377.452    81785305.52608
     -1297.367  
  19997298.913   107084639.48208      1938.363    19997302.192    83288061.14908
      1507.616  
  23179435.372   123907384.20805      3738.409    23179444.047    96372437.80704
      2907.651  
  23050046.482   122999459.08905     -3822.180           0.000           0.00000
         0.000  
  20831728.604   111201169.05507     -3529.132    20831733.032    86489822.22504
     -2744.886  
  22771085.877   121639049.16405      1261.117    22771090.800    94608171.39905
       980.867  
  22726094.735   121526644.27407      3982.102    22726099.927    94520745.71406
      3097.187  
  19908445.379   106496756.37109      1807.616    19908452.283    82830838.98106
      1405.922  
 20  9 26  5 40 25.0000000  0 15G30G20G18G15G 5G29G13R 7R 8R 1R 6R22
                                R16R24R23
  23886959.621   125526819.70247      -713.777    23886961.701    97813115.23146
      -556.195  
  23055883.748   121159489.85447      3091.613    23055883.536    94409996.01344
      2409.046  
  20901715.810   109839256.46949      1798.815    20901715.794    85589032.81148
      1401.671  
  20430397.722   107362468.22749      1703.227    20430397.207    83659067.67448
      1327.191  
  22324484.851   117315957.42748     -2847.309    22324484.689    91415029.62547
     -2218.688  
  22886670.494   120270259.64048     -3227.706    22886671.457    93717086.93147
     -2515.102  
  20523126.098   107849756.97749      -368.589    20523125.316    84038768.71848
      -287.215  
  19644932.729   105160862.94209     -1670.261    19644936.569    81791796.91608
     -1299.097  
  19995490.203   107074954.16908      1935.800    19995493.515    83280528.13408
      1505.621  
  23175938.765   123888692.90005      3737.843    23175947.508    96357900.14004
      2907.211  
  23053628.078   123018571.14405     -3822.230           0.000           0.00000
         0.000  
  20835035.619   111218822.02807     -3531.858    20835040.048    86503552.30204
     -2747.004  
  22769907.326   121632753.30305      1257.531    22769912.206    94603274.60404
       978.074  
  22722372.155   121506737.56207      3980.602    22722377.247    94505262.70705
      3096.016  
  19906757.706   106487728.20809      1803.819    19906764.594    82823817.08006
      1402.972  
 20  9 26  5 40 30.0000000  0 15G30G20G18G15G 5G29G13R 7R 8R 1R 6R22
                                R16R24R23
  23887639.962   125530395.04147      -716.824    23887642.029    97815901.21945
      -558.562  
  23052942.164   121144031.94548      3091.238    23052941.984    94397950.91345
      2408.758  
  20900005.268   109830267.41249      1796.491    20900005.249    85582028.35448
      1399.858  
  20428778.460   107353959.04249      1700.301    20428777.946    83652437.13248
      1324.905  
  22327194.320   117330195.56348     -2848.230    22327194.131    91426124.27647
     -2219.402  
  22889742.228   120286401.77648     -3229.211    22889743.165    93729665.21646
     -2516.273  
  20523478.235   107851607.46849      -371.854    20523477.424    84040210.66348
      -289.762  
  19646493.817   105169219.56809     -1672.714    19646497.626    81798296.51208
     -1301.004  
  19993683.653   107065280.23908      1933.222    19993686.976    83273003.96508
      1503.612  
  23172442.646   123870004.39105      3737.039    23172451.501    96343364.65404
      2906.586  
  23057209.675   123037682.51205     -3822.948           0.000           0.00000
         0.000  
  20838344.804   111236486.81207     -3534.608    20838349.301    86517291.57004
     -2749.144  
  22768732.093   121626475.48105      1253.684    22768736.961    94598391.84905
       975.086  
  22718650.648   121486836.73807      3979.219    22718655.675    94489784.27706
      3094.945  
  19905073.338   106478717.97409      1799.956    19905080.255    82816809.12006
      1399.964  
 20  9 26  5 40 35.0000000  0 15G30G20G18G15G 5G29G13R 7R 8R 1R 6R22
                                R16R24R23
  23888323.510   125533987.51647      -719.968    23888325.658    97818700.53545
      -561.019  
  23050001.594   121128579.30047      3090.261    23050001.487    94385909.91245
      2407.996  
  20898297.342   109821292.17149      1793.875    20898297.311    85575034.66348
      1397.823  
  20427162.449   107345466.87949      1696.929    20427161.948    83645819.86148
      1322.280  
  22329905.150   117344440.79348     -2849.477    22329904.934    91437224.43847
     -2220.375  
  22892815.958   120302554.27148     -3231.324    22892816.834    93742251.56747
     -2517.918  
  20523833.918   107853476.65749      -375.512    20523833.050    84041667.17448
      -292.605  
  19648057.614   105177590.63209     -1675.574    19648061.382    81804807.34408
     -1303.227  
  19991879.980   107055621.55608      1930.512    19991883.272    83265491.66208
      1501.504  
  23168947.898   123851322.77505      3735.854    23168956.728    96328834.51704
      2905.664  
  23060791.666   123056796.92005     -3823.191           0.000           0.00000
         0.000  
  20841657.012   111254167.47707     -3537.461    20841661.474    86531043.18404
     -2751.363  
  22767560.880   121620219.94705      1249.319    22767565.927    94593526.43504
       971.690  
  22714931.032   121466946.00006      3977.831    22714935.990    94474313.69706
      3093.867  
  19903393.118   106469729.77809      1795.647    19903400.008    82809818.30406
      1396.644  
 20  9 26  5 40 40.0000000  0 15G30G20G18G15G 5G29G13R 7R 8R 1R 6R22
                                R16R24R23
  23889009.855   125537594.31548      -722.687    23889012.077    97821511.02245
      -563.137  
  23047061.545   121113129.27348      3089.840    23047061.338    94373870.93345
      2407.668  
  20896591.528   109812327.99849      1791.953    20896591.463    85568049.59448
      1396.324  
  20425549.127   107336989.00249      1694.167    20425548.663    83639213.72648
      1320.129  
  22332616.778   117358690.42948     -2850.206    22332616.624    91448328.04247
     -2220.944  
  22895891.123   120318714.34348     -3232.710    22895891.955    93754843.82947
     -2518.999  
  20524192.650   107855361.77849      -378.488    20524191.769    84043136.09948
      -294.929  
  19649623.630   105185973.60509     -1677.714    19649627.324    81811327.43208
     -1304.894  
  19990078.676   107045975.56608      1927.937    19990081.929    83257989.22808
      1499.507  
  23165453.926   123832645.14705      3734.906    23165462.726    96314307.52004
      2904.929  
  23064373.724   123075911.84205     -3822.851           0.000           0.00000
         0.000  
  20844971.651   111271861.17907     -3539.770    20844976.183    86544804.94904
     -2753.156  
  22766393.167   121613983.92405      1244.957    22766398.588    94588676.18504
       968.297  
  22711212.770   121447062.53406      3975.813    22711217.683    94458848.78806
      3092.292  
  19901716.446   106460760.83809      1791.875    19901723.366    82802842.45806
      1393.680  
 20  9 26  5 40 45.0000000  0 15G30G20G18G15G 5G29G13R 7R 8R 1R 6R22
                                R16R24R23
  23889698.998   125541215.75847      -725.718    23889701.264    97824332.91246
      -565.500  
  23044122.022   121097682.03948      3089.121    23044121.725    94361834.14644
      2407.109  
  20894887.869   109803375.14649      1789.464    20894887.791    85561073.34348
      1394.382  
  20423938.585   107328525.67149      1691.191    20423938.167    83632618.92148
      1317.809  
  22335329.289   117372944.64648     -2851.452    22335329.181    91459435.22747
     -2221.914  
  22898967.784   120334882.21248     -3234.293    22898968.595    93767442.15447
     -2520.229  
  20524554.446   107857263.05749      -381.871    20524553.538    84044617.61048
      -297.565  
  19651191.921   105194368.63609     -1680.081    19651195.554    81817856.89008
     -1306.733  
  19988279.744   107036342.20808      1925.383    19988282.923    83250496.61708
      1497.516  
  23161960.691   123813972.02105      3734.815    23161969.640    96299783.99104
      2904.859  
  23067955.964   123095027.23904     -3823.171           0.000           0.00000
         0.000  
  20848288.749   111289568.13707     -3542.589    20848293.315    86558577.02904
     -2755.351  
  22765229.331   121607767.51204      1241.547    22765234.935    94583841.21705
       965.648  
  22707495.852   121427186.43706      3974.772    22707500.752    94443389.59705
      3091.487  
  19900043.461   106451811.40309      1787.929    19900050.394    82795881.79106
      1390.612  
 20  9 26  5 40 50.0000000  0 15G30G20G18G15G 5G29G13R 7R 8R 1R 6R22
                                R16R24R23
  23890391.425   125544854.45247      -729.585    23890393.782    97827168.27946
      -568.508  
  23041183.566   121082240.34448      3087.371    23041183.211    94349801.64344
      2405.738  
  20893186.867   109794436.32049      1786.276    20893186.791    85554108.03248
      1391.906  
  20422331.317   107320079.57849      1687.327    20422330.950    83626037.54348
      1314.796  
  22338043.210   117387206.24348     -2853.188    22338043.122    91470548.14547
     -2223.265  
  22902046.408   120351060.58348     -3236.628    22902047.202    93780048.66347
     -2522.054  
  20524919.854   107859183.23049      -386.034    20524918.928    84046113.85248
      -300.805  
  19652762.985   105202778.44509     -1683.563    19652766.560    81824397.84608
     -1309.440  
  19986483.681   107026724.34108      1921.949    19986486.808    83243016.05108
      1494.844  
  23158468.820   123795305.94205      3732.538    23158477.855    96285265.93304
      2903.085  
  23071538.887   123114146.18405     -3824.781           0.000           0.00000
         0.000  
  20851608.945   111307291.09907     -3546.218    20851613.497    86572361.54604
     -2758.176  
  22764069.753   121601573.66105      1236.077    22764075.590    94579023.77205
       961.390  
  22703780.825   121407320.64506      3972.546    22703785.772    94427938.46106
      3089.761  
  19898374.584   106442884.06609      1783.098    19898381.532    82788938.31106
      1386.855  
 20  9 26  5 40 55.0000000  0 15G30G20G18G15G 5G29G13R 7R 8R 1R 6R22
                                R16R24R23
  23891086.734   125548508.44947      -732.332    23891089.299    97830015.52746
      -570.652  
  23038245.755   121066802.16848      3087.007    23038245.383    94337771.91344
      2405.460  
  20891488.162   109785509.53549      1783.957    20891488.065    85547152.09748
      1390.094  
  20420726.969   107311648.73549      1684.375    20420726.632    83619468.06848
      1312.500  
  22340758.070   117401473.11748     -2854.249    22340758.054    91481665.18047
     -2224.094  
  22905126.686   120367247.46048     -3238.171    22905127.446    93792661.80847
     -2523.253  
  20525288.470   107861120.22449      -389.374    20525287.541    84047623.19648
      -303.409  
  19654336.425   105211200.91209     -1686.020    19654339.934    81830948.65708
     -1311.352  
  19984690.176   107017120.20608      1919.280    19984693.275    83235546.17508
      1492.772  
  23154977.981   123776644.74905      3730.831    23154987.011    96270751.69504
      2901.758  
  23075122.038   123133266.31304     -3824.164           0.000           0.00000
         0.000  
  20854931.755   111325028.08107     -3549.172    20854936.274    86586156.96604
     -2760.473  
  22762914.045   121595399.98205      1232.453    22762920.001    94574222.06005
       958.574  
  22700067.355   121387463.11405      3970.613    22700072.366    94412493.71106
      3088.246  
  19896709.568   106433977.22809      1779.117    19896716.492    82782010.77006
      1383.753  
 20  9 26  5 41  0.0000000  0 15G30G20G18G15G 5G29G13R 7R 8R 1R 6R22
                                R16R24R23
  23891784.906   125552177.68147      -735.281    23891787.618    97832874.68245
      -572.945  
  23035308.598   121051367.43148      3086.852    23035308.283    94325744.85644
      2405.340  
  20889791.732   109776594.73449      1782.050    20889791.636    85540205.50148
      1388.608  
  20419125.491   107303233.03949      1681.874    20419125.185    83612910.37948
      1310.546  
  22343473.930   117415745.18148     -2854.644    22343473.944    91492786.26247
     -2224.401  
  22908208.549   120383442.72748     -3239.815    22908209.254    93805281.48546
     -2524.535  
  20525660.255   107863073.93949      -392.124    20525659.343    84049145.57248
      -305.551  
  19655912.212   105219636.09609     -1687.999    19655915.682    81837509.35708
     -1312.894  
  19982899.136   107007529.23608      1917.129    19982902.209    83228086.54208
      1491.102  
  23151487.855   123757988.62005      3731.171    23151497.011    96256241.40304
      2902.027  
  23078705.355   123152387.76404     -3824.198           0.000           0.00000
         0.000  
  20858257.135   111342778.90307     -3551.164    20858261.666    86599963.15204
     -2762.020  
  22761762.097   121589246.60705      1228.641    22761768.121    94569436.09805
       955.609  
  22696355.324   121367613.71905      3969.113    22696360.449    94397055.28106
      3087.085  
  19895048.291   106425090.36209      1775.659    19895055.165    82775098.76806
      1381.070  
 20  9 26  5 41  5.0000000  0 15G30G20G18G15G 5G29G13R 7R 8R 1R 6R22
                                R16R24R23
  23892485.820   125555861.10347      -738.249    23892488.557    97835744.87745
      -575.257  
  23032371.900   121035935.13348      3086.016    23032371.569    94313719.69144
      2404.688  
  20888097.380   109767690.88649      1779.472    20888097.282    85533267.43848
      1386.597  
  20417526.723   107294831.54649      1678.824    20417526.442    83606363.76248
      1308.175  
  22346190.576   117430021.40848     -2855.836    22346190.563    91503910.58247
     -2225.331  
  22911291.782   120399645.35348     -3241.227    22911292.457    93817906.90347
     -2525.636  
  20526035.054   107865043.42549      -395.554    20526034.132    84050680.23948
      -308.222  
  19657490.136   105228082.88209     -1690.715    19657493.574    81844079.07408
     -1315.004  
  19981110.432   106997950.83908      1914.269    19981113.479    83220636.67008
      1488.874  
  23147998.519   123739336.36705      3729.816    23148007.840    96241734.12004
      2900.973  
  23082288.749   123171509.34604     -3824.339           0.000           0.00000
         0.000  
  20861584.903   111360542.63207     -3554.315    20861589.417    86613779.37604
     -2764.473  
  22760613.871   121583112.71205      1224.702    22760619.816    94564665.27205
       952.542  
  22692644.670   121347771.55706      3967.479    22692649.908    94381622.51506
      3085.820  
  19893390.561   106416222.59109      1771.570    19893397.406    82768201.61106
      1377.883  
 20  9 26  5 41 10.0000000  0 15G30G20G18G15G 5G29G13R 7R 8R 1R 6R22
                                R16R24R23
  23893189.810   125559560.81647      -741.405    23893192.583    97838627.78046
      -577.719  
  23029436.124   121020507.43248      3085.227    23029435.747    94301698.11444
      2404.074  
  20886405.538   109758800.16549      1776.953    20886405.428    85526339.61048
      1384.640  
  20415931.069   107286446.35949      1675.637    20415930.818    83599829.85548
      1305.691  
  22348908.465   117444304.00948     -2856.984    22348908.404    91515039.87747
     -2226.226  
  22914376.818   120415857.51348     -3243.226    22914377.464    93830539.74046
     -2527.195  
  20526413.256   107867030.82549      -399.042    20526412.330    84052228.86648
      -310.940  
  19659070.608   105236543.39609     -1693.395    19659074.030    81850659.47008
     -1317.090  
  19979324.459   106988387.00208      1911.421    19979327.481    83213198.14308
      1486.660  
  23144510.290   123720690.22005      3729.215    23144519.793    96227231.57304
      2900.499  
  23085872.580   123190633.39104     -3824.813           0.000           0.00000
         0.000  
  20864915.471   111378321.27007     -3557.257    20864920.014    86627607.20304
     -2766.761  
  22759469.575   121577000.24305      1220.285    22759475.542    94559911.13405
       949.109  
  22688935.706   121327938.68406      3965.729    22688941.081    94366196.93606
      3084.453  
  19891736.855   106407376.19409      1767.276    19891743.625    82761321.07106
      1374.546  
 20  9 26  5 41 15.0000000  0 15G30G20G18G15G 5G29G13R 7R 8R 1R 6R22
                                R16R24R23
  23893896.521   125563274.63948      -744.323    23893899.338    97841521.66746
      -579.996  
  23026500.826   121005082.08748      3084.808    23026500.406    94289678.38545
      2403.746  
  20884715.745   109749920.30549      1774.815    20884715.655    85519420.24148
      1382.973  
  20414338.110   107278075.24249      1672.652    20414337.847    83593306.90348
      1303.362  
  22351627.150   117458590.64348     -2857.956    22351627.046    91526172.32147
     -2226.984  
  22917463.206   120432076.90248     -3244.566    22917463.808    93843178.21347
     -2528.238  
  20526794.428   107869033.86949      -402.313    20526793.528    84053789.68148
      -313.491  
  19660653.246   105245015.50609     -1695.551    19660656.689    81857248.87808
     -1318.766  
  19977540.770   106978835.46008      1909.038    19977543.799    83205769.17108
      1484.809  
  23141022.917   123702048.09105      3727.555    23141032.462    96212732.15804
      2899.210  
  23089456.373   123209757.41204     -3824.328           0.000           0.00000
         0.000  
  20868248.363   111396112.60207     -3559.694    20868252.913    86641444.89604
     -2768.656  
  22758328.897   121570907.10305      1216.582    22758334.878    94555172.02205
       946.227  
  22685228.027   121308112.87206      3963.977    22685233.572    94350776.87206
      3083.097  
  19890086.652   106398548.87209      1763.409    19890093.414    82754455.37906
      1371.538  
 20  9 26  5 41 20.0000000  0 15G30G20G18G15G 5G29G13R 7R 8R 1R 6R22
                                R16R24R23
  23894606.193   125567003.86347      -748.008    23894609.009    97844427.55746
      -582.866  
  23023566.241   120989660.48848      3083.305    23023565.856    94277661.54745
      2402.570  
  20883028.272   109741052.63749      1771.820    20883028.211    85512510.37448
      1380.640  
  20412748.101   107269719.50149      1669.102    20412747.819    83586795.94248
      1300.598  
  22354346.836   117472882.62448     -2859.511    22354346.732    91537308.91847
     -2228.195  
  22920551.236   120448304.82748     -3246.808    22920551.840    93855823.34247
     -2529.983  
  20527178.823   107871053.84849      -406.155    20527177.947    84055363.68948
      -316.488  
  19662238.276   105253500.36009     -1698.773    19662241.761    81863848.20808
     -1321.273  
  19975759.589   106969297.56308      1905.890    19975762.664    83198350.80508
      1482.355  
  23137536.413   123683410.94805      3726.737    23137546.021    96198236.60004
      2898.573  
  23093040.528   123228882.86904     -3826.050           0.000           0.00000
         0.000  
  20871583.873   111413917.90507     -3562.855    20871588.415    86655293.46104
     -2771.113  
  22757192.079   121564834.36105      1211.331    22757198.053    94550448.79805
       942.147  
  22681522.134   121288295.54706      3962.094    22681527.688    94335363.44006
      3081.633  
  19888440.315   106389741.92609      1758.858    19888447.028    82747605.54106
      1367.999  
 20  9 26  5 41 25.0000000  0 15G30G20G18G15G 5G29G13R 7R 8R 1R 6R22
                                R16R24R23
  23895319.141   125570750.36847      -750.727    23895321.985    97847346.91945
      -584.979  
  23020632.681   120974244.34248      3083.160    23020632.247    94265648.97145
      2402.461  
  20881343.467   109732199.05049      1769.637    20881343.444    85505611.47648
      1378.937  
  20411161.371   107261381.05349      1666.348    20411161.074    83580298.45448
      1298.453  
  22357067.903   117487181.86348     -2860.140    22357067.800    91548451.17447
     -2228.683  
  22923641.257   120464543.18548     -3248.363    22923641.897    93868476.60746
     -2531.194  
  20527566.831   107873092.71849      -409.323    20527565.963    84056952.42248
      -318.952  
  19663826.057   105261999.87509     -1701.129    19663829.586    81870458.93908
     -1323.105  
  19973981.375   106959775.21708      1903.293    19973984.424    83190944.53108
      1480.336  
  23134051.355   123664781.06505      3725.086    23134060.999    96183746.72404
      2897.292  
  23096625.216   123248011.51404     -3825.089           0.000           0.00000
         0.000  
  20874922.363   111431739.11607     -3565.546    20874926.910    86669154.38804
     -2773.207  
  22756059.427   121558784.28105      1207.934    22756065.452    94545743.19005
       939.504  
  22677818.111   121268488.62906      3960.523    22677823.735    94319958.04106
      3080.405  
  19886798.158   106380957.36509      1755.093    19886804.824    82740773.10206
      1365.070  
 20  9 26  5 41 30.0000000  0 15G30G20G18G15G 5G29G13R 7R 8R 1R 6R22
                                R16R24R23
  23896034.892   125574511.60248      -753.487    23896037.744    97850277.73545
      -587.136  
  23017699.700   120958831.23647      3082.620    23017699.357    94253638.77945
      2402.043  
  20879660.879   109723357.05649      1767.331    20879660.876    85498721.60748
      1377.137  
  20409577.450   107253057.33449      1663.448    20409577.139    83573812.44348
      1296.194  
  22359789.887   117501485.86348     -2861.085    22359789.775    91559597.14447
     -2229.421  
  22926732.791   120480789.37248     -3249.805    22926733.417    93881135.95846
     -2532.319  
  20527957.959   107875147.92349      -412.508    20527957.077    84058553.87648
      -321.438  
  19665416.061   105270511.38509     -1703.273    19665419.646    81877079.00408
     -1324.773  
  19972205.586   106950265.94708      1900.815    19972208.614    83183548.44008
      1478.413  
  23130567.053   123646155.69205      3724.930    23130576.779    96169260.33804
      2897.168  
  23100209.879   123267140.90004     -3825.601           0.000           0.00000
         0.000  
  20878263.381   111449573.69907     -3568.308    20878267.909    86683025.74304
     -2775.352  
  22754930.551   121552754.08805      1203.866    22754936.640    94541053.04005
       936.335  
  22674115.674   121248689.47207      3959.383    22674121.194    94304558.70306
      3079.516  
  19885159.698   106372192.52509      1751.078    19885166.293    82733956.00806
      1361.949  
 20  9 26  5 41 35.0000000  0 15G30G20G18G15G 5G29G13R 7R 8R 1R 6R22
                                R16R24R23
  23896753.610   125578288.14647      -756.652    23896756.421    97853220.50545
      -589.597  
  23014767.365   120943421.71347      3081.609    23014767.038    94241631.35844
      2401.253  
  20877980.602   109714527.23249      1764.762    20877980.626    85491841.23548
      1375.141  
  20407996.454   107244748.98849      1660.113    20407996.122    83567338.41148
      1293.594  
  22362512.909   117515795.15848     -2862.473    22362512.773    91570747.24147
     -2230.504  
  22929825.949   120497044.02848     -3251.645    22929826.588    93893801.91446
     -2533.753  
  20528352.277   107877220.01549      -416.090    20528351.413    84060168.49248
      -324.229  
  19667008.455   105279035.71909     -1706.085    19667012.077    81883709.03608
     -1326.960  
  19970432.271   106940770.08308      1897.891    19970435.328    83176162.76508
      1476.133  
  23127083.762   123627535.53605      3723.523    23127093.518    96154777.99904
      2896.074  
  23103795.053   123286271.60704     -3827.335           0.000           0.00000
         0.000  
  20881607.003   111467422.08407     -3571.007    20881611.501    86696907.80404
     -2777.453  
  22753805.584   121546744.40905      1199.637    22753811.594    94536378.85005
       933.051  
  22670414.734   121228898.84807      3957.172    22670420.217    94289165.99106
      3077.800  
  19883525.078   106363448.16009      1746.887    19883531.610    82727154.83106
      1358.688  
 20  9 26  5 41 40.0000000  0 15G30G20G18G15G 5G29G13R 7R 8R 1R 6R22
                                R16R24R23
  23897475.051   125582079.19247      -759.664    23897477.849    97856174.56945
      -591.945  
  23011835.579   120928014.97647      3081.145    23011835.205    94229626.11944
      2400.886  
  20876302.506   109705708.74949      1762.535    20876302.524    85484969.68948
      1373.397  
  20406418.209   107236455.13149      1657.238    20406417.877    83560875.67048
      1291.354  
  22365236.777   117530108.87148     -2863.187    22365236.542    91581900.77747
     -2231.058  
  22932920.565   120513306.28248     -3253.391    22932921.187    93906473.78146
     -2535.116  
  20528749.647   107879308.17749      -419.233    20528748.801    84061795.63448
      -326.676  
  19668603.043   105287571.89109     -1708.395    19668606.714    81890348.28508
     -1328.750  
  19968661.388   106931287.01908      1895.167    19968664.442    83168787.05608
      1474.019  
  23123601.289   123608919.62805      3722.379    23123611.020    96140298.99203
      2895.187  
  23107380.170   123305402.75904     -3826.410           0.000           0.00000
         0.000  
  20884953.092   111485283.64007     -3573.972    20884957.564    86710800.12104
     -2779.761  
  22752684.219   121540754.33605      1196.246    22752690.129    94531719.91305
       930.414  
  22666715.262   121209115.73705      3955.769    22666720.705    94273779.12606
      3076.707  
  19881894.097   106354723.28909      1743.011    19881900.536    82720368.82406
      1355.675  
 20  9 26  5 41 45.0000000  0 15G30G20G18G15G 5G29G13R 7R 8R 1R 6R22
                                R16R24R23
  23898199.315   125585885.22347      -762.574    23898202.140    97859140.29546
      -594.214  
  23008904.397   120912611.51147      3080.668    23008904.033    94217623.42944
      2400.523  
  20874626.661   109696902.09049      1760.285    20874626.673    85478107.35748
      1371.651  
  20404842.821   107228176.25749      1654.565    20404842.453    83554424.60248
      1289.272  
  22367961.590   117544427.57548     -2863.968    22367961.324    91593058.20947
     -2231.667  
  22936016.715   120529576.56448     -3254.465    22936017.332    93919151.91446
     -2535.948  
  20529150.162   107881412.89649      -422.473    20529149.331    84063435.67547
      -329.203  
  19670199.974   105296120.35709     -1710.573    19670203.623    81896997.08708
     -1330.449  
  19966892.964   106921817.19308      1892.699    19966896.035    83161421.64008
      1472.098  
  23120119.730   123590308.51605      3722.125    23120129.467    96125823.69604
      2894.984  
  23110965.622   123324534.72904     -3826.687           0.000           0.00000
         0.000  
  20888301.689   111503158.49107     -3576.108    20888306.146    86724702.77504
     -2781.421  
  22751566.680   121534784.61305      1192.249    22751572.552    94527076.78605
       927.300  
  22663017.179   121189340.70606      3954.901    22663022.690    94258398.54906
      3076.031  
  19880266.826   106346018.46009      1739.063    19880273.207    82713598.40106
      1352.605  
 20  9 26  5 41 50.0000000  0 15G30G20G18G15G 5G29G13R 7R 8R 1R 6R22
                                R16R24R23
  23898926.460   125589706.39647      -765.874    23898929.242    97862117.84245
      -596.784  
  23005973.826   120897211.47447      3079.766    23005973.454    94205623.41745
      2399.812  
  20872953.098   109688107.45949      1757.594    20872953.119    85471254.40248
      1369.554  
  20403270.318   107219912.56949      1651.145    20403269.935    83547985.37248
      1286.605  
  22370687.386   117558751.38748     -2865.402    22370687.067    91604219.61147
     -2232.784  
  22939114.383   120545855.07348     -3256.507    22939115.028    93931836.46347
     -2537.542  
  20529553.860   107883534.31249      -426.047    20529553.038    84065088.72548
      -331.983  
  19671799.246   105304681.38509     -1713.527    19671802.879    81903655.66208
     -1332.745  
  19965127.067   106912360.73608      1889.976    19965130.131    83154066.62108
      1469.980  
  23116639.153   123571702.49106      3720.620    23116648.867    96111352.36004
      2893.820  
  23114551.151   123343667.98903     -3826.737           0.000           0.00000
         0.000  
  20891652.835   111521047.16707     -3579.069    20891657.333    86738616.17803
     -2783.726  
  22750452.900   121528835.18905      1187.351    22750458.833    94522449.46705
       923.491  
  22659320.632   121169574.04604      3952.304    22659326.229    94243024.46606
      3074.011  
  19878643.369   106337333.96509      1734.726    19878649.719    82706843.80206
      1349.229  
 20  9 26  5 41 55.0000000  0 14G30G20G18G15G 5G29G13R 7R 8R 1R22R16
                                R24R23
  23899656.584   125593543.19347      -769.293    23899659.292    97865107.52745
      -599.453  
  23003044.000   120881815.38647      3078.749    23003043.716    94193626.47445
      2399.027  
  20871281.910   109679325.30549      1755.125    20871281.923    85464411.16548
      1367.625  
  20401700.770   107211664.54349      1647.801    20401700.390    83541558.35048
      1284.000  
  22373414.208   117573080.74648     -2866.559    22373413.876    91615385.34147
     -2233.688  
  22942213.711   120562142.24748     -3258.434    22942214.378    93944527.75247
     -2539.043  
  20529960.818   107885672.89149      -429.723    20529960.002    84066755.14348
      -334.851  
  19673400.942   105313255.29309     -1716.226    19673404.544    81910324.26308
     -1334.843  
  19963363.753   106902918.27208      1886.883    19963366.855    83146722.48008
      1467.570  
  23113159.506   123553101.91005      3719.430    23113169.204    96096885.26504
      2892.890  
  20895006.570   111538949.85107     -3582.094    20895011.185    86752540.48904
     -2786.078  
  22749342.952   121522906.63905      1183.593    22749349.071    94517838.37305
       920.569  
  22655625.749   121149816.27905      3950.546    22655631.428    94227657.31706
      3072.648  
  19877023.780   106328670.19209      1730.601    19877030.080    82700105.31006
      1346.019  
 20  9 26  5 42  0.0000000  0 14G30G20G18G15G 5G29G13R 7R 8R 1R22R16
                                R24R23
  23900389.825   125597396.24547      -771.898    23900392.534    97868109.90446
      -601.483  
  23000115.067   120866423.95747      3077.772    23000114.831    94181633.17944
      2398.269  
  20869613.233   109670556.38249      1752.387    20869613.253    85457578.23948
      1365.495  
  20400134.334   107203432.86349      1644.733    20400133.954    83535144.05748
      1281.608  
  22376142.169   117587416.37448     -2867.699    22376141.877    91626555.95647
     -2234.570  
  22945314.847   120578438.79548     -3260.102    22945315.514    93957226.35246
     -2540.343  
  20530371.177   107887829.34449      -432.968    20530370.392    84068435.49948
      -337.382  
  19675005.150   105321842.87309     -1718.992    19675008.754    81917003.49408
     -1336.991  
  19961603.181   106893490.39608      1884.156    19961606.304    83139389.69108
      1465.448  
  23109681.045   123534507.44606      3718.531    23109690.751    96082422.91604
      2892.191  
  20898363.130   111556867.42907     -3584.995    20898367.787    86766476.37604
     -2788.335  
  22748237.124   121516999.66305      1178.851    22748243.325    94513244.05805
       916.882  
  22651932.688   121130067.98006      3948.601    22651938.427    94212297.53306
      3071.132  
  19875408.165   106320027.77409      1726.367    19875414.442    82693383.43306
      1342.729  
 20  9 26  5 42  5.0000000  0 14G30G20G18G15G 5G29G13R 7R 8R 1R22R16
                                R24R23
  23901125.859   125601264.16147      -774.921    23901128.573    97871123.86246
      -603.839  
  22997186.724   120851035.63147      3077.305    22997186.480    94169642.25844
      2397.894  
  20867946.789   109661799.15849      1750.448    20867946.793    85450754.42948
      1363.988  
  20398570.728   107195216.05749      1642.066    20398570.349    83528741.35248
      1279.531  
  22378871.071   117601756.75548     -2868.434    22378870.774    91637730.27147
     -2235.147  
  22948417.454   120594743.14048     -3261.496    22948418.105    93969931.03747
     -2541.426  
  20530784.647   107890002.14149      -436.059    20530783.877    84070128.58948
      -339.788  
  19676611.654   105330442.58009     -1721.046    19676615.244    81923692.15508
     -1338.598  
  19959845.068   106884075.55708      1881.641    19959848.180    83132067.04108
      1463.500  
  23106203.423   123515917.65606      3717.699    23106213.143    96067964.24103
      2891.547  
  20901722.150   111574798.26007     -3587.156    20901726.872    86780422.57204
     -2790.016  
  22747135.077   121511112.78805      1175.155    22747141.317    94508665.39505
       914.011  
  22648241.051   121110327.73206      3947.347    22648246.927    94196944.01906
      3070.155  
  19873796.275   106311405.37409      1722.589    19873802.545    82686677.12006
      1339.788  
 20  9 26  5 42 10.0000000  0 14G30G20G18G15G 5G29G13R 7R 8R 1R22R16
                                R24R23
  23901864.656   125605146.34247      -778.542    23901867.278    97874148.92345
      -606.659  
  22994258.879   120835649.92047      3076.555    22994258.683    94157653.41644
      2397.320  
  20866282.483   109653053.14149      1747.500    20866282.484    85443939.36248
      1361.687  
  20397009.840   107187013.59849      1638.487    20397009.466    83522349.83148
      1276.742  
  22381600.800   117616101.38948     -2869.926    22381600.472    91648907.89747
     -2236.308  
  22951521.456   120611054.84148     -3263.624    22951522.098    93982641.43446
     -2543.093  
  20531201.122   107892190.76649      -439.953    20531200.389    84071834.00848
      -342.824  
  19678220.325   105339053.95709     -1724.136    19678223.913    81930389.88808
     -1341.000  
  19958089.302   106874673.38608      1878.625    19958092.406    83124754.24408
      1461.151  
  23102726.620   123497332.18205      3716.065    23102736.250    96053508.88104
      2890.276  
  20905083.570   111592741.87707     -3590.800    20905088.338    86794378.71404
     -2792.848  
  22746036.699   121505245.45105      1170.659    22746042.937    94504101.90205
       910.507  
  22644550.794   121090594.92605      3944.723    22644556.785    94181596.28106
      3068.117  
  19872188.025   106302802.41509      1718.031    19872194.320    82679985.92706
      1336.242  
 20  9 26  5 42 15.0000000  0 15G30G20G18G15G 5G29G13R 7R 8R 1R 6R22
                                R16R24R23
  23902606.860   125609046.59147      -781.105    23902609.511    97877188.08846
      -608.656  
  22991332.340   120820270.73047      3075.929    22991332.084    94145669.64044
      2396.824  
  20864621.060   109644322.17649      1745.347    20864621.028    85437136.00948
      1360.008  
  20395452.416   107178829.28049      1635.609    20395452.036    83515972.44648
      1274.499  
  22384332.081   117630454.15248     -2870.660    22384331.725    91660091.86147
     -2236.883  
  22954627.567   120627377.65948     -3265.188    22954628.186    93995360.50246
     -2544.305  
  20531621.343   107894399.04049      -443.019    20531620.609    84073554.73848
      -345.215  
  19679831.873   105347680.66409     -1726.172    19679835.453    81937099.54608
     -1342.582  
  19956336.606   106865287.59208      1876.144    19956339.676    83117454.18308
      1459.222  
  23099251.348   123478754.67806      3715.374    23099260.964    96039059.73304
      2889.738  
  23132483.192   123439362.51514     -3828.315           0.000           0.00000
         0.000  
  20908448.091   111610702.00807     -3592.848    20908452.928    86808347.70604
     -2794.440  
  22744942.801   121499401.67005      1166.901    22744948.924    94499556.74005
       907.589  
  22640862.736   121070873.56606      3943.758    22640868.813    94166257.44006
      3067.371  
  19870584.103   106294222.70109      1714.230    19870590.443    82673312.82806
      1333.289  
 20  9 26  5 42 20.0000000  0 15G30G20G18G15G 5G29G13R 7R 8R 1R 6R22
                                R16R24R23
  23903351.727   125612960.70747      -784.526    23903354.310    97880238.04146
      -611.323  
  22988406.204   120804893.65547      3074.968    22988405.785    94133687.49644
      2396.077  
  20862961.685   109635601.97949      1742.612    20862961.614    85430341.04548
      1357.874  
  20393897.640   107170658.90849      1632.284    20393897.276    83509605.93448
      1271.910  
  22387064.057   117644810.71948     -2872.133    22387063.737    91671278.80447
     -2238.026  
  22957734.993   120643707.35548     -3267.117    22957735.627    94008084.95246
     -2545.809  
  20532044.491   107896622.69949      -446.652    20532043.741    84075287.45948
      -348.043  
  19681445.480   105356318.52709     -1729.102    19681449.073    81943817.89308
     -1344.854  
  19954586.178   106855913.97408      1873.358    19954589.242    83110163.59608
      1457.059  
  23095776.761   123460180.95706      3714.188    23095786.326    96024613.52704
      2888.816  
  23136070.567   123458504.24703     -3828.223           0.000           0.00000
         0.000  
  20911814.941   111628674.51307     -3596.316    20911819.848    86822326.30604
     -2797.140  
  22743852.256   121493576.95505      1162.844    22743858.489    94495026.41105
       904.434  
  22637176.158   121051159.37406      3941.667    22637182.199    94150924.22006
      3065.746  
  19868983.802   106285662.19909      1709.905    19868990.161    82666654.65306
      1329.921  
 20  9 26  5 42 25.0000000  0 15G30G20G18G15G 5G29G13R 7R 8R 1R 6R22
                                R16R24R23
  23904099.335   125616889.03547      -787.086    23904101.911    97883299.05846
      -613.319  
  22985480.546   120789519.15848      3074.515    22985479.981    94121707.38044
      2395.727  
  20861304.426   109626892.96049      1740.586    20861304.329    85423554.80548
      1356.301  
  20392345.593   107162502.84649      1629.688    20392345.237    83503250.56048
      1269.886  
  22389796.862   117659171.42748     -2872.613    22389796.500    91682468.94847
     -2238.401  
  22960843.767   120660044.22948     -3268.004    22960844.395    94020814.96547
     -2546.499  
  20532470.646   107898862.09549      -449.624    20532469.861    84077032.44348
      -350.359  
  19683061.309   105364968.05709     -1731.140    19683064.839    81950545.29908
     -1346.445  
  19952838.035   106846552.87008      1870.858    19952841.154    83102882.74408
      1455.113  
  23092302.914   123441611.31506      3713.578    23092312.335    96010170.48204
      2888.340  
  23139657.553   123477645.96603     -3828.160           0.000           0.00000
         0.000  
  20915184.173   111646659.58207     -3598.565    20915189.085    86836314.68104
     -2798.890  
  22742765.505   121487771.88205      1158.925    22742771.752    94490511.35305
       901.386  
  22633490.907   121031452.67706      3940.198    22633496.973    94135596.77206
      3064.593  
  19867387.089   106277120.95709      1706.249    19867393.482    82660011.47006
      1327.081  
 20  9 26  5 42 30.0000000  0 15G30G20G18G15G 5G29G13R 7R 8R 1R 6R22
                                R16R24R23
  23904850.018   125620833.49947      -790.594    23904852.581    97886372.67646
      -616.047  
  22982555.785   120774149.18348      3073.516    22982555.143    94109730.78244
      2394.945  
  20859649.662   109618197.05449      1737.675    20859649.537    85416778.76948
      1354.026  
  20390796.632   107154363.00149      1626.238    20390796.268    83496907.82348
      1267.198  
  22392530.792   117673538.19948     -2873.945    22392530.433    91693663.82547
     -2239.441  
  22963954.322   120676390.21148     -3270.328    22963954.915    94033552.08346
     -2548.312  
  20532900.171   107901119.20449      -453.272    20532899.359    84078791.22548
      -353.203  
  19684679.570   105373630.83009     -1733.996    19684683.088    81957283.01008
     -1348.668  
  19951092.614   106837206.25308      1867.734    19951095.717    83095613.15608
      1452.679  
  23088830.216   123423047.68906      3711.723    23088839.669    95995732.13404
      2886.898  
  23143245.145   123496790.04304     -3828.351           0.000           0.00000
         0.000  
  20918556.022   111664659.20707     -3601.573    20918561.103    86850314.38704
     -2801.227  
  22741682.864   121481988.20205      1154.421    22741688.997    94486012.93705
       897.882  
  22629807.388   121011755.34206      3938.390    22629813.550    94120276.63306
      3063.191  
  19865794.370   106268601.23209      1701.715    19865800.786    82653385.01606
      1323.551  
 20  9 26  5 42 35.0000000  0 15G30G20G18G15G 5G29G13R 7R 8R 1R 6R22
                                R16R24R23
  23905603.661   125624793.60748      -793.352    23905606.241    97889458.47546
      -618.194  
  22979631.773   120758783.24048      3073.078    22979631.174    94097757.30844
      2394.601  
  20857997.289   109609513.77449      1735.746    20857997.157    85410012.58048
      1352.530  
  20389250.703   107146239.05949      1623.479    20389250.358    83490577.48548
      1265.051  
  22395265.797   117687910.65248     -2874.594    22395265.464    91704863.13047
     -2239.949  
  22967066.481   120692744.81348     -3271.809    22967067.073    94046295.91447
     -2549.464  
  20533332.983   107903393.52049      -456.211    20533332.163    84080563.42448
      -355.491  
  19686300.249   105382306.57509     -1736.113    19686303.790    81964030.81208
     -1350.313  
  19949349.794   106827873.53108      1865.390    19949352.882    83088354.37308
      1450.858  
  23085358.587   123404489.78305      3710.918    23085367.997    95981298.23403
      2886.273  
  23146832.865   123515935.61803     -3828.828           0.000           0.00000
         0.000  
  20921930.517   111682672.95807     -3603.613    20921935.684    86864325.07204
     -2802.813  
  22740604.219   121476225.58305      1151.141    22740610.209    94481530.90205
       895.332  
  22626125.540   120992067.09306      3937.078    22626131.751    94104963.56206
      3062.172  
  19864205.606   106260102.41809      1697.882    19864212.038    82646774.82906
      1320.574  
 20  9 26  5 42 40.0000000  0 15G30G20G18G15G 5G29G13R 7R 8R 1R 6R22
                                R16R24R23
  23906360.026   125628768.32847      -796.921    23906362.604    97892555.65746
      -620.980  
  22976708.303   120743420.30148      3071.780    22976707.683    94085786.19445
      2393.593  
  20856347.139   109600842.14949      1732.651    20856346.986    85403255.46948
      1350.113  
  20387707.567   107138129.85449      1619.882    20387707.213    83484258.62948
      1262.245  
  22398001.711   117702287.72849     -2876.378    22398001.360    91716066.04247
     -2241.340  
  22970180.097   120709106.97348     -3273.602    22970180.710    94059045.64446
     -2550.862  
  20533768.868   107905684.01749      -460.155    20533768.037    84082348.22348
      -358.566  
  19687923.182   105390994.29509     -1739.257    19687926.720    81970787.92308
     -1352.762  
  19947609.441   106818553.89408      1862.190    19947612.499    83081105.77108
      1448.370  
  23081887.769   123385936.39505      3709.727    23081897.117    95966867.87104
      2885.351  
  23150420.833   123535081.57804     -3829.612           0.000           0.00000
         0.000  
  20925307.522   111700699.73407     -3607.019    20925312.753    86878345.90404
     -2805.464  
  22739529.125   121470482.96705      1146.042    22739535.191    94477064.41105
       891.362  
  22622445.288   120972386.94806      3934.667    22622451.462    94089656.77006
      3060.297  
  19862620.541   106251623.45109      1693.160    19862627.016    82640180.08106
      1316.897  
 20  9 26  5 42 45.0000000  0 15G30G20G18G15G 5G29G13R 7R 8R 1R 6R22
                                R16R24R23
  23907119.609   125632759.84148      -799.843    23907122.179    97895665.92646
      -623.257  
  22973785.814   120728062.51948      3071.316    22973785.174    94073819.10244
      2393.233  
  20854699.588   109592184.27449      1730.413    20854699.438    85396509.06948
      1348.370  
  20386167.629   107130037.49249      1616.933    20386167.303    83477952.89448
      1259.949  
  22400738.853   117716671.47448     -2877.339    22400738.540    91727274.14947
     -2242.085  
  22973295.547   120725478.86748     -3275.054    22973296.207    94071802.95647
     -2551.996  
  20534208.237   107907992.79049      -463.379    20534207.351    84084147.26448
      -361.077  
  19689548.730   105399696.01309     -1741.668    19689552.289    81977555.92408
     -1354.633  
  19945871.873   106809249.23408      1859.594    19945874.913    83073868.81508
      1446.352  
  23078418.230   123367389.81505      3708.690    23078427.588    95952442.78403
      2884.543  
  23154009.217   123554230.35203     -3829.793           0.000           0.00000
         0.000  
  20928687.454   111718741.66607     -3610.070    20928692.659    86892378.51204
     -2807.836  
  22738458.264   121464762.59105      1142.312    22738464.281    94472615.23405
       888.460  
  22618766.909   120952716.93607      3933.081    22618773.140    94074357.88106
      3059.063  
  19861039.595   106243166.58009      1689.406    19861046.114    82633602.51006
      1313.980  
 20  9 26  5 42 50.0000000  0 15G30G20G18G15G 5G29G13R 7R 8R 1R 6R22
                                R16R24R23
  23907881.824   125636765.36847      -802.336    23907884.447    97898787.13246
      -625.194  
  22970863.786   120712707.15848      3070.852    22970863.033    94061853.89445
      2392.871  
  20853054.154   109583537.42549      1728.437    20853053.991    85389771.26748
      1346.836  
  20384630.391   107121959.22149      1614.304    20384630.075    83471658.13848
      1257.898  
  22403476.762   117731059.12948     -2877.961    22403476.426    91738485.30347
     -2242.569  
  22976412.310   120741857.69148     -3276.641    22976413.056    94084565.68447
     -2553.230  
  20534650.566   107910317.18249      -466.300    20534649.646    84085958.48348
      -363.354  
  19691176.438   105408409.10509     -1743.707    19691179.954    81984332.77708
     -1356.215  
  19944136.619   106799956.96508      1857.383    19944139.636    83066641.51008
      1444.632  
  23074949.386   123348847.13705      3708.800    23074958.761    95938020.74103
      2884.625  
  23157597.722   123573378.92704     -3829.386           0.000           0.00000
         0.000  
  20932069.672   111736795.99107     -3611.878    20932074.854    86906420.75404
     -2809.242  
  22737391.149   121459061.59805      1138.320    22737397.017    94468181.14805
       885.359  
  22615089.993   120933054.34806      3931.729    22615096.131    94059064.76506
      3058.012  
  19859462.251   106234729.01109      1685.602    19859468.831    82627039.96106
      1311.023  
 20  9 26  5 42 55.0000000  0 15G30G20G18G15G 5G29G13R 7R 8R 1R 6R22
                                R16R24R23
  23908647.030   125640786.55547      -806.218    23908649.679    97901920.50445
      -628.226  
  22967942.541   120697355.87848      3069.461    22967941.815    94049891.86844
      2391.788  
  20851411.127   109574903.26249      1725.093    20851410.959    85383043.35948
      1344.230  
  20383096.155   107113896.72049      1610.655    20383095.850    83465375.67948
      1255.059  
  22406215.721   117745452.29948     -2879.684    22406215.345    91749700.74947
     -2243.914  
  22979530.715   120758245.08348     -3278.559    22979531.506    94097335.05747
     -2554.727  
  20535096.177   107912658.76049      -470.366    20535095.204    84087783.09448
      -366.522  
  19692806.531   105417135.02809     -1746.828    19692809.992    81991119.60608
     -1358.644  
  19942403.964   106790678.64708      1853.910    19942406.998    83059425.04008
      1441.929  
  23071481.590   123330310.09406      3706.710    23071490.988    95923603.08104
      2883.004  
  23161186.339   123592528.85004     -3829.952           0.000           0.00000
         0.000  
  20935454.506   111754864.27607     -3615.336    20935459.642    86920473.85104
     -2811.933  
  22736327.839   121453381.55305      1133.987    22736333.644    94463763.31705
       881.987  
  22611414.738   120913400.76206      3929.089    22611420.781    94043778.64006
      3055.957  
  19857888.850   106226312.46709      1680.714    19857895.471    82620493.76506
      1307.222  
 20  9 26  5 43  0.0000000  0 15G30G20G18G15G 5G29G13R 7R 8R 1R 6R22
                                R16R24R23
  23909415.296   125644823.78647      -809.027    23909417.981    97905066.41446
      -630.413  
  22965022.157   120682009.12647      3069.301    22965021.327    94037933.36244
      2391.659  
  20849770.601   109566282.20649      1723.046    20849770.410    85376325.64748
      1342.632  
  20381565.002   107105850.42849      1607.858    20381564.698    83459105.83848
      1252.878  
  22408955.843   117759851.52148     -2880.226    22408955.417    91760920.91947
     -2244.336  
  22982650.886   120774641.47448     -3280.233    22982651.680    94110111.46047
     -2556.030  
  20535545.132   107915017.94249      -473.477    20535544.110    84089621.41548
      -368.944  
  19694439.075   105425874.28409     -1748.878    19694442.535    81997916.80208
     -1360.241  
  19940673.987   106781414.82308      1851.507    19940677.031    83052219.85208
      1440.062  
  23068014.946   123311779.11306      3705.609    23068024.351    95909190.11204
      2882.141  
  23164775.313   123611680.95704     -3830.762           0.000           0.00000
         0.000  
  20938842.069   111772947.15907     -3618.004    20938847.176    86934538.31704
     -2814.007  
  22735268.669   121447723.19205      1129.890    22735274.384    94459362.38805
       878.804  
  22607741.320   120893756.84706      3927.949    22607747.208    94028500.03306
      3055.070  
  19856319.447   106217917.31609      1676.964    19856326.107    82613964.19706
      1304.300  
 20  9 26  5 43  5.0000000  0 15G30G20G18G15G 5G29G13R 7R 8R 1R 6R22
                                R16R24R23
  23910186.284   125648875.26447      -811.749    23910188.959    97908223.40945
      -632.531  
  22962102.315   120666665.00347      3068.340    22962101.383    94025976.90244
      2390.910  
  20848132.236   109557672.44949      1720.660    20848132.020    85369616.74548
      1340.770  
  20380036.575   107097818.49149      1604.805    20380036.280    83452847.18848
      1250.495  
  22411696.712   117774254.94648     -2881.269    22411696.290    91772144.36547
     -2245.148  
  22985772.366   120791044.99348     -3281.429    22985773.184    94122893.40747
     -2556.960  
  20535997.075   107917392.88849      -476.613    20535996.017    84091472.02448
      -371.390  
  19696073.784   105434625.01109     -1751.340    19696077.229    82004722.92108
     -1362.156  
  19938946.382   106772163.48308      1848.914    19938949.408    83045024.36208
      1438.039  
  23064549.109   123293252.35405      3704.546    23064558.508    95894780.44004
      2881.316  
  23168364.431   123630833.18004     -3831.125           0.000           0.00000
         0.000  
  20942231.906   111791042.40307     -3620.171    20942237.073    86948612.37804
     -2815.690  
  22734213.115   121442084.39105      1125.589    22734218.811    94454976.65405
       875.456  
  22604069.249   120874120.57006      3926.503    22604075.062    94013227.39105
      3053.948  
  19854753.702   106209541.69809      1673.008    19854760.388    82607449.82706
      1301.257  
 20  9 26  5 43 10.0000000  0 15G30G20G18G15G 5G29G13R 7R 8R 1R 6R22
                                R16R24R23
  23910960.226   125652942.23147      -814.758    23910962.899    97911392.47146
      -634.874  
  22959183.185   120651324.84248      3067.823    22959182.154    94014023.55344
      2390.511  
  20846496.265   109549075.27049      1718.491    20846496.061    85362917.64148
      1339.082  
  20378511.149   107089802.25849      1601.772    20378510.856    83446600.77348
      1248.137  
  22414438.637   117788663.76348     -2882.058    22414438.143    91783372.01447
     -2245.766  
  22988895.439   120807456.94548     -3282.930    22988896.274    94135681.93547
     -2558.133  
  20536452.261   107919784.87549      -479.883    20536451.174    84093335.90948
      -373.938  
  19697710.888   105443388.49609     -1753.819    19697714.341    82011538.95208
     -1364.086  
  19937221.346   106762925.93208      1846.289    19937224.384    83037839.60808
      1436.003  
  23061084.338   123274731.16806      3704.055    23061093.724    95880375.08304
      2880.933  
  23171953.835   123649986.70904     -3830.003           0.000           0.00000
         0.000  
  20945624.375   111809151.54007     -3623.097    20945629.538    86962697.25604
     -2817.968  
  22733161.521   121436466.49905      1121.605    22733167.131    94450607.18905
       872.359  
  22600398.900   120854493.31107      3924.577    22600404.528    93997961.73506
      3052.448  
  19853191.885   106201187.03009      1669.081    19853198.572    82600951.75706
      1298.176  
 20  9 26  5 43 15.0000000  0 15G30G20G18G15G 5G29G13R 7R 8R 1R 6R22
                                R16R24R23
  23911736.806   125657023.12247      -817.859    23911739.475    97914572.38646
      -637.296  
  22956264.512   120635987.07847      3067.175    22956263.497    94002072.04745
      2390.007  
  20844862.377   109540489.09549      1715.844    20844862.167    85356227.11948
      1337.019  
  20376988.390   107081800.07649      1598.714    20376988.102    83440365.31648
      1245.750  
  22417181.278   117803076.40948     -2883.194    22417180.744    91794602.63247
     -2246.647  
  22992019.815   120823875.65648     -3284.534    22992020.664    94148475.72847
     -2559.382  
  20536910.381   107922192.31349      -483.370    20536909.264    84095211.83448
      -376.656  
  19699350.037   105452163.04909     -1756.320    19699353.523    82018363.60408
     -1366.031  
  19935498.628   106753700.76208      1843.495    19935501.673    83030664.48008
      1433.832  
  23057620.259   123256213.83406      3703.257    23057629.627    95865972.73704
      2880.313  
  23175543.111   123669140.05304     -3831.112           0.000           0.00000
         0.000  
  20949019.147   111827272.93607     -3625.694    20949024.254    86976791.66504
     -2819.987  
  22732113.454   121430867.88105      1117.520    22732119.069    94446252.72005
       869.184  
  22596730.013   120834873.53207      3923.347    22596735.397    93982701.88405
      3051.488  
  19851633.666   106192851.64009      1664.839    19851640.373    82594468.67106
      1294.875  
 20  9 26  5 43 20.0000000  0 15G30G20G18G15G 5G29G13R 7R 8R 1R 6R22
                                R16R24R23
  23912516.457   125661120.56147      -821.155    23912519.165    97917765.21346
      -639.863  
  22953346.782   120620654.30647      3065.918    22953345.887    93990124.42045
      2389.023  
  20843231.074   109531916.51149      1713.054    20843230.889    85349547.18148
      1334.847  
  20375468.816   107073814.59649      1595.277    20375468.532    83434142.86848
      1243.073  
  22419925.124   117817495.50848     -2884.679    22419924.597    91805838.28347
     -2247.805  
  22995145.997   120840303.75648     -3286.636    22995146.871    94161276.83847
     -2561.019  
  20537371.939   107924617.81449      -487.003    20537370.806    84097101.83548
      -379.483  
  19700991.813   105460951.42109     -1759.223    19700995.267    82025199.01308
     -1368.285  
  19933778.679   106744490.54408      1840.453    19933781.744    83023500.97808
      1431.465  
  23054157.554   123237703.09706      3701.257    23054166.757    95851575.52204
      2878.762  
  23179132.923   123688295.66904     -3831.835           0.000           0.00000
         0.000  
  20952416.647   111845409.05307     -3628.711    20952421.728    86990897.52604
     -2822.336  
  22731069.502   121425291.36805      1112.804    22731075.148    94441915.42705
       865.515  
  22593063.036   120815263.87107      3921.066    22593068.215    93967449.94906
      3049.715  
  19850079.557   106184538.11109      1660.395    19850086.246    82588002.59106
      1291.414  
 20  9 26  5 43 25.0000000  0 14G30G20G18G15G 5G29G13R 7R 8R 1R22R16
                                R24R23
  23913299.229   125665234.18347      -824.617    23913302.010    97920970.58446
      -642.566  
  22950429.885   120605326.12548      3065.023    22950429.040    93978180.38845
      2388.324  
  20841602.302   109523357.19249      1710.495    20841602.112    85342877.58448
      1332.854  
  20373952.348   107065845.47549      1592.145    20373952.076    83427933.17248
      1240.632  
  22422670.124   117831920.80448     -2885.652    22422669.628    91817078.75847
     -2248.563  
  22998273.895   120856740.91148     -3288.429    22998274.800    94174084.99547
     -2562.421  
  20537836.841   107927061.01549      -490.444    20537835.716    84099005.62648
      -382.168  
  19702636.078   105469753.23609     -1761.754    19702639.507    82032044.87808
     -1370.253  
  19932061.417   106735294.83608      1837.687    19932064.534    83016348.76408
      1429.312  
  23050695.991   123219198.62206      3700.117    23050705.151    95837183.19204
      2877.870  
  20955816.858   111863559.73707     -3631.796    20955821.953    87005014.71504
     -2824.733  
  22730029.723   121419736.55505      1108.487    22730035.256    94437595.00005
       862.151  
  22589397.819   120795663.90506      3918.941    22589402.922    93952205.52906
      3048.065  
  19848529.469   106176246.12309      1656.062    19848536.154    82581553.26906
      1288.047  
 20  9 26  5 43 30.0000000  0 14G30G20G18G15G 5G29G13R 7R 8R 1R22R16
                                R24R23
  23914084.852   125669363.03147      -827.522    23914087.812    97924187.87446
      -644.828  
  22947513.689   120590001.66347      3064.523    22947512.846    93966239.27844
      2387.945  
  20839975.895   109514810.30649      1707.992    20839975.717    85336217.67348
      1330.902  
  20372438.837   107057891.85549      1589.055    20372438.552    83421735.54748
      1238.223  
  22425416.129   117846351.34148     -2886.694    22425415.660    91828323.32947
     -2249.375  
  23001403.344   120873186.18348     -3289.819    23001404.244    94186899.48346
     -2563.500  
  20538304.944   107929521.03649      -493.723    20538303.813    84100922.53147
      -384.718  
  19704282.644   105478567.49709     -1764.194    19704286.077    82038900.40908
     -1372.155  
  19930346.753   106726112.86208      1834.973    19930349.913    83009207.24108
      1427.199  
  23047235.361   123200699.48106      3699.359    23047244.443    95822794.96704
      2877.136  
  20959219.622   111881723.92207     -3634.371    20959224.731    87019142.41304
     -2826.738  
  22728993.707   121414202.59205      1104.609    22728999.236    94433290.81505
       859.141  
  22585734.178   120776072.82706      3917.238    22585739.311    93936968.04306
      3046.742  
  19846983.261   106167974.95409      1652.022    19846989.960    82575120.13106
      1284.902  
 20  9 26  5 43 35.0000000  0 14G30G20G18G15G 5G29G13R 7R 8R 1R22R16
                                R24R23
  23914873.298   125673506.31347      -830.030    23914876.315    97927416.41045
      -646.776  
  22944598.065   120574680.05148      3064.163    22944597.303    93954300.36744
      2387.660  
  20838351.673   109506274.90149      1705.969    20838351.483    85329566.70748
      1329.324  
  20370928.100   107049952.82049      1586.324    20370927.798    83415549.29348
      1236.098  
  22428162.936   117860786.09848     -2887.362    22428162.524    91839571.18447
     -2249.898  
  23004534.198   120889638.70948     -3291.164    23004535.070    94199719.62947
     -2564.546  
  20538776.080   107931996.96749      -496.733    20538774.981    84102851.82148
      -387.070  
  19705931.375   105487393.25209     -1766.358    19705934.793    82045764.88208
     -1373.840  
  19928634.472   106716943.70308      1832.644    19928637.670    83002075.68108
      1425.391  
  23043775.483   123182204.63506      3698.980    23043784.540    95808410.11704
      2876.987  
  20962624.714   111899900.78507     -3636.469    20962629.908    87033279.97504
     -2828.366  
  22727961.495   121408688.48605      1100.441    22727966.930    94429002.06305
       855.895  
  22582071.940   120756489.66806      3916.269    22582077.141    93921736.70306
      3045.988  
  19845440.768   106159723.65609      1648.167    19845447.491    82568702.46006
      1281.905  
 20  9 26  5 43 40.0000000  0 14G30G20G18G15G 5G29G13R 7R 8R 1R22R16
                                R24R23
  23915664.707   125677665.04247      -833.073    23915667.667    97930656.95846
      -649.152  
  22941683.169   120559362.38548      3063.479    22941682.346    93942364.51344
      2387.125  
  20836729.841   109497752.11249      1703.507    20836729.636    85322925.57548
      1327.406  
  20369420.356   107042029.47549      1583.233    20369420.068    83409375.26348
      1233.687  
  22430910.759   117875226.22348     -2888.273    22430910.434    91850823.23147
     -2250.605  
  23007666.647   120906099.53048     -3292.766    23007667.495    94212546.23147
     -2565.797  
  20539250.432   107934489.89549      -499.949    20539249.376    84104794.36048
      -389.573  
  19707582.543   105496231.77009     -1768.788    19707585.926    82052639.28908
     -1375.727  
  19926924.757   106707788.44508      1829.831    19926927.983    82994954.92808
      1423.203  
  23040316.698   123163715.47906      3697.375    23040325.755    95794029.66804
      2875.734  
  20966032.406   111918091.40207     -3639.370    20966037.636    87047428.22004
     -2830.625  
  22726933.057   121403195.28505      1096.858    22726938.553    94424729.56805
       853.108  
  22578411.381   120736915.66706      3913.710    22578416.763    93906512.47706
      3043.995  
  19843902.192   106151493.31109      1644.179    19843908.907    82562301.07906
      1278.805  
 20  9 26  5 43 45.0000000  0 14G30G20G18G15G 5G29G13R 7R 8R 1R22R16
                                R24R23
  23916459.125   125681839.57647      -836.523    23916462.064    97933909.85045
      -651.836  
  22938769.090   120544049.01948      3062.352    22938768.305    93930432.03444
      2386.245  
  20835110.457   109489242.25749      1700.620    20835110.257    85316294.52248
      1325.160  
  20367915.647   107034122.11349      1579.890    20367915.362    83403213.68248
      1231.077  
  22433659.644   117889672.05648     -2889.844    22433659.387    91862079.70347
     -2251.832  
  23010800.728   120922568.95248     -3294.714    23010801.506    94225379.54446
     -2567.312  
  20539728.093   107937000.14649      -503.898    20539727.085    84106750.40248
      -392.647  
  19709236.105   105505083.26109     -1771.547    19709239.497    82059523.78108
     -1377.875  
  19925217.708   106698647.33508      1826.765    19925220.923    82987845.17708
      1420.812  
  23036858.912   123145232.16306      3696.086    23036868.050    95779653.77404
      2874.733  
  20969442.783   111936295.94207     -3642.121    20969448.004    87061587.30304
     -2832.766  
  22725908.683   121397723.57305      1092.203    22725914.244    94420473.79205
       849.488  
  22574752.749   120717351.13306      3911.766    22574758.095    93891295.64006
      3042.484  
  19842367.548   106143284.09709      1639.746    19842374.259    82555916.14006
      1275.354  
 20  9 26  5 43 50.0000000  0 14G30G20G18G15G 5G29G13R 7R 8R 1R22R16
                                R24R23
  23917256.125   125686027.87447      -839.276    23917259.119    97937173.47146
      -653.979  
  22935855.452   120528737.93448      3061.597    22935854.678    93918501.31244
      2385.656  
  20833493.147   109480743.36149      1698.586    20833492.948    85309672.00348
      1323.574  
  20366413.612   107026228.80449      1577.226    20366413.339    83397063.05748
      1229.004  
  22436409.239   117904121.59048     -2890.495    22436409.068    91873339.09247
     -2252.336  
  23013936.065   120939044.91848     -3296.000    23013936.780    94238217.93746
     -2568.316  
  20540208.665   107939525.68949      -506.827    20540207.702    84108718.35848
      -394.933  
  19710891.684   105513945.76409     -1773.664    19710895.087    82066416.84308
     -1379.516  
  19923512.931   106689518.39508      1824.495    19923516.159    82980744.89408
      1419.051  
  23033401.892   123126752.72006      3695.171    23033410.995    95765280.89504
      2874.023  
  20972855.416   111954512.59007     -3644.824    20972860.601    87075755.79504
     -2834.867  
  22724887.843   121392270.96005      1088.035    22724893.530    94416232.88805
       846.250  
  22571095.338   120697794.06106      3910.374    22571100.834    93876084.59606
      3041.402  
  19840836.567   106135094.22209      1635.832    19840843.257    82549546.24206
      1272.313  
 20  9 26  5 43 55.0000000  0 14G30G20G18G15G 5G29G13R 7R 8R 1R22R16
                                R24R23
  23918056.160   125690231.92847      -842.397    23918059.074    97940449.34046
      -656.417  
  22932942.649   120513431.11447      3060.968    22932941.898    93906573.93245
      2385.172  
  20831878.293   109472257.39849      1695.875    20831878.131    85303059.56848
      1321.461  
  20364914.605   107018351.47249      1573.988    20364914.355    83390924.87448
      1226.479  
  22439159.933   117918576.80048     -2891.766    22439159.828    91884602.87147
     -2253.328  
  23017073.025   120955529.44448     -3297.620    23017073.666    94251063.02147
     -2569.577  
  20540692.523   107942068.53749      -510.352    20540691.628    84110699.79648
      -397.679  
  19712549.686   105522821.08809     -1776.292    19712553.064    82073319.87008
     -1381.565  
  19921810.759   106680403.53008      1821.519    19921814.039    82973655.56308
      1416.737  
  23029945.956   123108279.17106      3693.699    23029955.035    95750912.59604
      2872.878  
  20976270.602   111972743.18207     -3647.409    20976275.848    87089935.13704
     -2836.879  
  22723871.168   121386839.85005      1084.464    22723876.846    94412008.69405
       843.472  
  22567439.760   120678246.38706      3908.730    22567445.325    93860880.83706
      3040.120  
  19839309.534   106126925.59309      1631.590    19839316.256    82543192.86406
      1269.015  
 20  9 26  5 44  0.0000000  0 14G30G20G18G15G 5G29G13R 7R 8R 1R22R16
                                R24R23
  23918859.098   125694451.45947      -845.480    23918862.081    97943737.29846
      -658.815  
  22930030.603   120498128.26847      3060.020    22930029.917    93894649.63945
      2384.426  
  20830265.841   109463784.06549      1693.230    20830265.733    85296456.97548
      1319.397  
  20363418.589   107010489.82249      1570.473    20363418.356    83384798.91448
      1223.742  
  22441911.630   117933037.31948     -2892.844    22441911.588    91895870.80347
     -2254.168  
  23020211.554   120972022.21248     -3299.645    23020212.122    94263914.50647
     -2571.155  
  20541179.623   107944628.35849      -513.897    20541178.792    84112694.46448
      -400.444  
  19714210.019   105531709.01109     -1779.116    19714213.366    82080232.69908
     -1383.757  
  19920111.209   106671302.54608      1818.694    19920114.489    82966577.02908
      1414.539  
  23026491.152   123089811.10706      3693.004    23026500.160    95736548.56304
      2872.336  
  20979688.373   111990987.31907     -3650.374    20979693.551    87104125.01704
     -2839.184  
  22722858.319   121381429.73305      1079.499    22722864.044    94407800.81905
       839.604  
  22563786.013   120658708.00107      3906.554    22563791.469    93845684.33106
      3038.429  
  19837786.450   106118778.05709      1627.063    19837793.153    82536855.89106
      1265.487  
 20  9 26  5 44  5.0000000  0 14G30G20G18G15G 5G29G13R 7R 8R 1R22R16
                                R24R23
  23919665.093   125698686.99347      -848.671    23919668.111    97947037.70346
      -661.308  
  22927119.415   120482830.00147      3059.222    22927118.809    93882728.91845
      2383.805  
  20828655.919   109455323.96249      1690.659    20828655.822    85289864.68848
      1317.398  
  20361925.663   107002644.44549      1567.598    20361925.446    83378685.63448
      1221.504  
  22444664.491   117947503.76248     -2893.895    22444664.475    91907143.35247
     -2254.987  
  23023351.710   120988523.78148     -3301.109    23023352.264    94276772.86347
     -2572.296  
  20541670.051   107947205.67149      -517.128    20541669.260    84114702.75648
      -402.960  
  19715872.832   105540610.11709     -1781.438    19715876.113    82087155.77608
     -1385.565  
  19918414.374   106662216.04208      1815.813    19918417.610    82959509.74408
      1412.293  
  23023037.383   123071349.26406      3691.897    23023046.466    95722189.37304
      2871.476  
  20983108.830   112009245.73107     -3653.164    20983113.875    87118325.99704
     -2841.355  
  22721849.480   121376041.20004      1075.601    22721855.245    94403609.76105
       836.577  
  22560134.017   120639179.29406      3904.742    22560139.437    93830495.34306
      3037.023  
  19836267.411   106110652.03909      1623.094    19836274.057    82530535.65606
      1262.406  
 20  9 26  5 44 10.0000000  0 15G30G20G18G15G 5G29G13R 7R 8R 1R 6R22
                                R16R24R23
  23920473.814   125702936.81947      -851.440    23920476.796    97950349.28746
      -663.456  
  22924208.718   120467534.58747      3058.737    22924208.213    93870810.42245
      2383.434  
  20827048.189   109446875.37549      1688.659    20827048.124    85283281.37248
      1315.836  
  20360435.514   106994813.68949      1564.832    20360435.319    83372583.75048
      1219.352  
  22447418.158   117961974.44148     -2894.672    22447418.190    91918419.20047
     -2255.594  
  23026493.236   121005032.42048     -3302.425    23026493.763    94289636.74346
     -2573.319  
  20542163.494   107949798.85549      -520.261    20542162.758    84116723.42148
      -405.402  
  19717537.796   105549522.73509     -1783.749    19717541.012    82094087.81008
     -1387.362  
  19916719.915   106653142.29108      1813.499    19916723.092    82952452.38508
      1410.499  
  23019584.498   123052891.73706      3691.190    23019593.579    95707833.53904
      2870.929  
  23215042.397   123879914.53214     -3832.866           0.000           0.00000
         0.000  
  20986531.632   112027516.56907     -3655.566    20986536.585    87132536.63404
     -2843.222  
  22720844.414   121370672.53605      1071.812    22720850.150    94399434.12705
       833.628  
  22556483.463   120619658.64006      3903.172    22556488.903    93815312.62406
      3035.800  
  19834752.047   106102545.95509      1619.315    19834758.680    82524230.92306
      1259.469  
 20  9 26  5 44 15.0000000  0 15G30G20G18G15G 5G29G13R 7R 8R 1R 6R22
                                R16R24R23
  23921285.657   125707202.86447      -854.675    23921288.612    97953673.50746
      -665.976  
  22921298.934   120452243.88447      3057.531    22921298.546    93858895.60445
      2382.491  
  20825443.028   109438440.20049      1685.796    20825442.988    85276708.51248
      1313.608  
  20358948.481   106986999.36849      1561.293    20358948.303    83366494.66748
      1216.590  
  22450172.975   117976451.19448     -2895.991    22450172.990    91929699.77347
     -2256.620  
  23029636.437   121021549.99148     -3304.417    23029636.934    94302507.56646
     -2574.875  
  20542660.332   107952409.72649      -523.788    20542659.612    84118757.86248
      -408.152  
  19719205.237   105558448.74409     -1786.390    19719208.396    82101030.25408
     -1389.417  
  19915028.167   106644083.21408      1810.405    19915031.346    82945406.44708
      1408.093  
  23016132.691   123034440.56806      3689.574    23016141.820    95693482.64704
      2869.667  
  23218634.521   123899082.91704     -3833.562           0.000           0.00000
         0.000  
  20989956.997   112045801.74307     -3658.246    20989962.006    87146758.43304
     -2845.304  
  22719843.439   121365325.72405      1067.386    22719849.139    94395275.52105
       830.194  
  22552834.877   120600148.07707      3901.374    22552840.219    93800137.75006
      3034.402  
  19833240.770   106094461.55009      1614.792    19833247.355    82517943.05106
      1255.945  
 20  9 26  5 44 20.0000000  0 15G30G20G18G15G 5G29G13R 7R 8R 1R 6R22
                                R16R24R23
  23922100.432   125711484.40747      -857.016    23922103.306    97957009.72946
      -667.813  
  22918389.977   120436957.24147      3057.402    22918389.528    93846983.94045
      2382.391  
  20823840.280   109430017.79549      1683.574    20823840.250    85270145.60148
      1311.874  
  20357464.469   106979200.86449      1558.402    20357464.321    83360417.91848
      1214.340  
  22452928.840   117990933.36748     -2896.602    22452928.858    91940984.59147
     -2257.093  
  23032781.208   121038075.81248     -3305.687    23032781.755    94315384.83347
     -2575.858  
  20543160.392   107955037.65349      -526.851    20543159.713    84120805.59948
      -410.539  
  19720875.021   105567387.35209     -1788.570    19720878.153    82107982.51608
     -1391.108  
  19913339.010   106635038.07608      1807.957    19913342.214    82938371.33608
      1406.184  
  23012682.108   123015995.10106      3688.703    23012691.122    95679136.19904
      2868.991  
  23222226.756   123918252.58404     -3833.844           0.000           0.00000
         0.000  
  20993385.049   112064100.69907     -3661.136    20993390.006    87160990.94104
     -2847.554  
  22718846.506   121359999.97705      1063.550    22718852.107    94391133.26005
       827.202  
  22549188.046   120580646.79806      3899.488    22549193.269    93784970.08906
      3032.934  
  19831733.453   106086398.32809      1610.761    19831740.007    82511671.65906
      1252.816  
 20  9 26  5 44 25.0000000  0 15G30G20G18G15G 5G29G13R 7R 8R 1R 6R22
                                R16R24R23
  23922917.736   125715779.21547      -860.391    23922920.543    97960356.33646
      -670.438  
  22915481.325   120421672.35948      3056.925    22915480.917    93835073.66845
      2382.023  
  20822239.528   109421605.85049      1681.250    20822239.525    85263590.83748
      1310.062  
  20355983.032   106971415.86249      1555.698    20355982.883    83354351.67748
      1212.230  
  22455685.314   118005418.70248     -2897.383    22455685.384    91952271.85447
     -2257.703  
  23035927.108   121054607.59848     -3307.038    23035927.684    94328266.72847
     -2576.918  
  20543663.267   107957680.31149      -530.062    20543662.617    84122864.81048
      -413.034  
  19722546.742   105576336.36309     -1790.742    19722549.865    82114942.85208
     -1392.805  
  19911652.066   106626004.56808      1805.574    19911655.256    82931345.27908
      1404.335  
  23009232.198   122997553.04106      3688.183    23009241.075    95664792.39304
      2868.585  
  23225818.983   123937421.27504     -3833.191           0.000           0.00000
         0.000  
  20996815.159   112082410.79607     -3663.292    20996820.097    87175232.12904
     -2849.230  
  22717853.230   121354693.13605      1059.499    22717858.659    94387005.73105
       824.054  
  22545542.526   120561152.50506      3897.905    22545547.581    93769807.86605
      3031.703  
  19830229.649   106078353.92509      1606.809    19830236.190    82505414.90006
      1249.733  
 20  9 26  5 44 30.0000000  0 14G30G20G18G15G 5G29G13R 7R 8R 1R22R16
                                R24R23
  23923738.042   125720089.76447      -863.593    23923740.848    97963715.22346
      -672.930  
  22912573.558   120406391.87848      3055.578    22912573.099    93823166.79445
      2380.969  
  20820641.260   109413206.95549      1678.468    20820641.276    85257046.24648
      1307.895  
  20354504.640   106963646.92449      1552.167    20354504.490    83348297.96548
      1209.480  
  22458442.861   118019909.74348     -2898.875    22458442.956    91963563.55447
     -2258.866  
  23039074.625   121071147.91448     -3309.097    23039075.207    94341155.27847
     -2578.523  
  20544169.459   107960340.30249      -533.781    20544168.811    84124937.53148
      -415.938  
  19724220.878   105585298.14009     -1793.796    19724223.985    82121913.12208
     -1395.180  
  19909967.796   106616985.37708      1802.304    19909970.979    82924330.35508
      1401.792  
  23005783.275   122979116.91506      3686.335    23005792.148    95650453.21204
      2867.152  
  21000247.909   112100734.98707     -3666.211    21000252.773    87189484.26704
     -2851.499  
  22716863.845   121349407.73805      1054.613    22716869.253    94382894.87305
       820.254  
  22541898.811   120541667.85806      3895.996    22541903.765    93754653.14506
      3030.215  
  19828729.822   106070330.89609      1602.261    19828736.362    82499174.76606
      1246.198  
 20  9 26  5 44 35.0000000  0 14G30G20G18G15G 5G29G13R 7R 8R 1R22R16
                                R24R23
  23924561.623   125724417.11847      -866.866    23924564.361    97967087.18246
      -675.484  
  22909666.805   120391116.76048      3054.569    22909666.334    93811264.10845
      2380.183  
  20819045.661   109404822.12049      1675.797    20819045.703    85250512.60648
      1305.813  
  20353029.502   106955895.04949      1548.769    20353029.357    83342257.54248
      1206.828  
  22461201.691   118034407.43048     -2900.085    22461201.788    91974860.44847
     -2259.812  
  23042223.931   121087697.68848     -3310.918    23042224.529    94354051.19347
     -2579.940  
  20544679.109   107963018.59549      -537.542    20544678.489    84127024.51248
      -418.867  
  19725897.569   105594273.81708     -1796.469    19725900.717    82128894.20508
     -1397.253  
  19908286.334   106607981.25608      1799.315    19908289.509    82917327.15608
      1399.469  
  23002335.732   122960687.75906      3685.277    23002344.528    95636119.43404
      2866.327  
  21003683.476   112119074.02707     -3669.226    21003688.277    87203747.95804
     -2853.847  
  22715878.611   121344144.82505      1050.612    22715884.109    94378801.50105
       817.144  
  22538257.101   120522193.90606      3893.577    22538261.908    93739506.72706
      3028.335  
  19827234.188   106062330.35409      1597.905    19827240.746    82492952.12506
      1242.816  
 20  9 26  5 44 40.0000000  0 14G30G20G18G15G 5G29G13R 7R 8R 1R22R16
                                R24R23
  23925387.894   125728759.01547      -869.809    23925390.570    97970470.49746
      -677.769  
  22906760.641   120375844.76548      3054.261    22906760.121    93799363.87045
      2379.945  
  20817452.318   109396449.14149      1673.262    20817452.402    85243988.21348
      1303.840  
  20351557.206   106948158.05049      1545.902    20351557.062    83336228.71048
      1204.597  
  22463961.387   118048909.60148     -2900.941    22463961.466    91986160.83747
     -2260.477  
  23045374.645   121104254.67848     -3312.250    23045375.240    94366952.73647
     -2580.977  
  20545191.815   107965712.91749      -540.511    20545191.201    84129123.98348
      -421.180  
  19727576.440   105603261.35108     -1798.734    19727579.619    82135884.50808
     -1399.019  
  19906607.302   106598990.24008      1797.105    19906610.486    82910334.14608
      1397.749  
  22998889.087   122942263.40606      3684.305    22998897.735    95621789.37504
      2865.570  
  21007121.379   112137425.75307     -3671.894    21007126.231    87218021.51404
     -2855.921  
  22714897.243   121338902.12805      1046.676    22714902.668    94374723.86105
       814.082  
  22534616.855   120502728.37507      3892.339    22534621.622    93724366.88106
      3027.375  
  19825742.317   106054349.94209      1594.012    19825748.906    82486745.13306
      1239.781  
 20  9 26  5 44 45.0000000  0 14G30G20G18G15G 5G29G13R 7R 8R 1R22R16
                                R24R23
  23926216.950   125733115.45047      -872.890    23926219.573    97973865.12446
      -680.180  
  22903855.064   120360575.85347      3053.581    22903854.574    93787466.01745
      2379.413  
  20815861.212   109388087.91549      1671.249    20815861.313    85237472.97048
      1302.272  
  20350087.700   106940435.80949      1543.109    20350087.540    83330211.38848
      1202.422  
  22466721.916   118063416.09448     -2901.628    22466721.966    91997464.59447
     -2261.012  
  23048526.720   121120818.82048     -3313.344    23048527.335    94379859.84946
     -2581.832  
  20545707.564   107968423.22449      -543.457    20545706.957    84131235.91748
      -423.473  
  19729257.487   105612260.25309     -1800.812    19729260.641    82142883.64408
     -1400.636  
  19904930.700   106590012.04808      1794.539    19904933.850    82903351.10908
      1395.754  
  22995443.285   122923843.58606      3683.519    22995451.899    95607462.86004
      2864.960  
  21010561.605   112155789.94807     -3673.961    21010566.521    87232304.76504
     -2857.526  
  22713919.610   121333679.50605      1043.194    22713924.980    94370661.84205
       811.378  
  22530978.317   120483271.28807      3891.219    22530983.010    93709233.61506
      3026.503  
  19824254.196   106046389.59209      1590.270    19824260.797    82480553.75806
      1236.874  
