     2              OBSERVATION DATA    M                   RINEX VERSION / TYPE
LEICA GEO OFFICE 7.0                    26-9-20 23:45       PGM / RUN BY / DATE
                                                            OBSERVER / AGENCY
HABG                                                        MARKER NAME
HABG                                                        MARKER NUMBER
468588              LEICA GX1220GG      5.60                REC # / TYPE / VERS
                    LEIAX1202GG                             ANT # / TYPE
 -1164126.9432  3810905.6476  4964508.0520                  APPROX POSITION XYZ
        1.5250        0.0000        0.0000                  ANTENNA: DELTA H/E/N
L1PhaOff:   0.0644  L2PhaOff:   0.0640                      COMMENT
     1     1                                                WAVELENGTH FACT L1/2
     6    C1    L1    D1    P2    L2    D2                  # / TYPES OF OBSERV
  2020     9    26     8    54   45.000000                  TIME OF FIRST OBS
  2020     9    26    10    31   25.000000                  TIME OF LAST OBS
    18                                                      LEAP SECONDS
    24                                                      # OF SATELLITES
          C1    L1    D1    P2    L2    D2                  COMMENT
   G 1   654   654   654   651   651   651                  PRN / # OF OBS
   G 2     0     0     0     0     0     0                  PRN / # OF OBS
   G 3     0     0     0     0     0     0                  PRN / # OF OBS
   G 4     0     0     0     0     0     0                  PRN / # OF OBS
   G 5     0     0     0     0     0     0                  PRN / # OF OBS
   G 6     0     0     0     0     0     0                  PRN / # OF OBS
   G 7     0     0     0     0     0     0                  PRN / # OF OBS
   G 8     0     0     0     0     0     0                  PRN / # OF OBS
   G 9     0     0     0     0     0     0                  PRN / # OF OBS
   G10  1161  1161  1161  1161  1161  1161                  PRN / # OF OBS
   G11  1011  1011  1011  1005  1005  1005                  PRN / # OF OBS
   G12  1121  1121  1121  1118  1118  1118                  PRN / # OF OBS
   G13     0     0     0     0     0     0                  PRN / # OF OBS
   G14     0     0     0     0     0     0                  PRN / # OF OBS
   G15   341   341   341   341   341   341                  PRN / # OF OBS
   G16     0     0     0     0     0     0                  PRN / # OF OBS
   G17     0     0     0     0     0     0                  PRN / # OF OBS
   G18   101   101   101    99    99    99                  PRN / # OF OBS
   G19     0     0     0     0     0     0                  PRN / # OF OBS
   G20  1161  1161  1161  1161  1161  1161                  PRN / # OF OBS
   G21  1161  1161  1161  1161  1161  1161                  PRN / # OF OBS
   G22    70    70    70    70    70    70                  PRN / # OF OBS
   G23     0     0     0     0     0     0                  PRN / # OF OBS
   G24  1157  1157  1157  1157  1157  1157                  PRN / # OF OBS
   G25   721   721   721   720   720   720                  PRN / # OF OBS
   G26     0     0     0     0     0     0                  PRN / # OF OBS
   G27     0     0     0     0     0     0                  PRN / # OF OBS
   G28     0     0     0     0     0     0                  PRN / # OF OBS
   G29     0     0     0     0     0     0                  PRN / # OF OBS
   G30     0     0     0     0     0     0                  PRN / # OF OBS
   G31   511   511   511   510   510   510                  PRN / # OF OBS
   G32  1161  1161  1161  1161  1161  1161                  PRN / # OF OBS
   R 1  1161  1161  1161  1161  1161  1161                  PRN / # OF OBS
   R 2  1161  1161  1161  1161  1161  1161                  PRN / # OF OBS
   R 3   483   483   483   482   482   482                  PRN / # OF OBS
   R 4     0     0     0     0     0     0                  PRN / # OF OBS
   R 5     0     0     0     0     0     0                  PRN / # OF OBS
   R 6     0     0     0     0     0     0                  PRN / # OF OBS
   R 7     0     0     0     0     0     0                  PRN / # OF OBS
   R 8   516   516   516   515   515   515                  PRN / # OF OBS
   R 9     0     0     0     0     0     0                  PRN / # OF OBS
   R10   893   893   893     0     0     0                  PRN / # OF OBS
   R11  1161  1161  1161  1161  1161  1161                  PRN / # OF OBS
   R12  1098  1098  1098  1091  1091  1091                  PRN / # OF OBS
   R13     0     0     0     0     0     0                  PRN / # OF OBS
   R14     0     0     0     0     0     0                  PRN / # OF OBS
   R15     0     0     0     0     0     0                  PRN / # OF OBS
   R16     0     0     0     0     0     0                  PRN / # OF OBS
   R17   798   798   798   798   798   798                  PRN / # OF OBS
   R18  1148  1148  1148  1106  1106  1106                  PRN / # OF OBS
   R19   136   136   136   136   136   136                  PRN / # OF OBS
   R20     0     0     0     0     0     0                  PRN / # OF OBS
   R21     0     0     0     0     0     0                  PRN / # OF OBS
   R22     0     0     0     0     0     0                  PRN / # OF OBS
   R23     0     0     0     0     0     0                  PRN / # OF OBS
   R24   139   139   139   140   140   140                  PRN / # OF OBS
                                                            END OF HEADER
 20  9 26  8 54 45.0000000  0 16G11G20G18G15G21G32G24G10R11R 8R 1R10
                                R17R 2R18R24
  24175762.546   127044487.78245      1503.617    24175760.025    98995696.12241
      1171.645  
  20397040.026   107187184.91449     -1629.754    20397039.105    83522488.73048
     -1269.940  
  24173454.038   127032353.70947     -3845.956    24173456.017    98986254.59844
     -2996.855  
  23654238.283   124303850.09647     -3410.328    23654238.648    96860140.89246
     -2657.406  
  23110412.751   121446038.10448       915.226    23110411.841    94633270.40045
       713.160  
  22533834.275   118416097.89048      2776.319    22533837.216    92272294.94746
      2163.371  
  20768384.207   109138652.19749     -1134.289    20768386.104    85043130.54948
      -883.870  
  20563144.077   108060070.28149       991.753    20563145.780    84202667.51249
       772.793  
  20794181.738   111117823.11408      2870.734    20794186.703    86425004.46207
      2232.792  
  22007826.424   117850909.88707     -3088.813    22007830.173    91661834.34107
     -2402.409  
  19484447.430   104155591.92108      -902.418    19484454.015    81009942.44706
      -701.878  
  21005004.822   111968496.30007     -1664.124           0.000           0.00000
         0.000  
  21360590.487   114304834.25808     -1455.772    21360594.538    88903777.57206
     -1132.266  
  21271537.570   113509001.09408      2948.397    21271543.316    88284800.20007
      2293.194  
  22663814.956   120980975.82804      2140.492    22663821.635    94096340.90205
      1664.836  
  23015930.634   123076534.01806     -4123.601    23015935.663    95726201.43905
     -3207.249  
 20  9 26  8 54 50.0000000  0 15G20G18G15G21G32G24G10R11R 8R 1R10R17
                                R 2R18R24
  20398591.960   107195340.35549     -1632.246    20398591.049    83528843.61648
     -1271.883  
  24177113.442   127051584.25847     -3845.956    24177115.577    99001239.44645
     -2996.847  
  23657483.326   124320903.10247     -3410.706    23657483.746    96873428.96145
     -2657.694  
  23109543.344   121441469.31148       912.652    23109542.282    94629710.32645
       711.160  
  22531193.082   118402218.29348      2775.612    22531196.030    92261479.66747
      2162.813  
  20769464.957   109144331.60549     -1137.354    20769466.895    85047556.08448
      -886.250  
  20562201.616   108055117.58649       989.445    20562203.324    84198808.28248
       770.996  
  20791497.294   111103478.44208      2867.312    20791502.264    86413847.49707
      2230.133  
  22010710.791   117866355.41307     -3089.617    22010714.458    91673847.50506
     -2403.038  
  19485292.667   104160110.23108      -904.617    19485299.231    81013456.67006
      -703.594  
  21006567.811   111976828.03607     -1668.125           0.000           0.00000
         0.000  
  21361952.944   114312124.63608     -1460.062    21361956.851    88909447.83107
     -1135.608  
  21268775.298   113494261.17708      2947.284    21268781.015    88273335.84407
      2292.336  
  22661811.759   120970281.56205      2137.156    22661818.327    94088023.00504
      1662.054  
  23019786.466   123097155.13106     -4124.633    23019791.933    95742240.03305
     -3208.054  
 20  9 26  8 54 55.0000000  0 16G11G20G18G15G21G32G24G10R11R 8R 1R10
                                R17R 2R18R24
  24172906.011   127029476.46955      1498.941    24172898.917    98984019.73851
      1168.020  
  20400146.060   107203507.10849     -1634.168    20400145.151    83535207.31148
     -1273.382  
  24180772.877   127070814.49946     -3846.155    24180774.947    99016224.04645
     -2997.012  
  23660728.445   124337956.41147     -3410.414    23660728.909    96886717.23946
     -2657.469  
  23108676.046   121436911.50348       910.827    23108674.951    94626158.78446
       709.729  
  22528552.510   118388341.90348      2775.195    22528555.456    92250666.89947
      2162.488  
  20770548.366   109150024.92649     -1139.749    20770550.319    85051992.43048
      -888.116  
  20561261.118   108050175.23349       987.843    20561262.837    84194957.11548
       769.749  
  20788815.668   111089148.58408      2864.879    20788820.598    86402702.05807
      2228.237  
  22013595.850   117881804.46207     -3089.703    22013599.383    91685863.42607
     -2403.105  
  19486139.758   104164638.44908      -906.109    19486146.313    81016978.61506
      -704.753  
  21008134.400   111985179.02307     -1671.890           0.000           0.00000
         0.000  
  21363318.964   114319434.35908     -1463.410    21363322.840    88915133.20005
     -1138.207  
  21266013.472   113479524.07307      2947.438    21266019.282    88261873.65607
      2292.453  
  22659811.461   120959611.83414      2134.468    22659820.385    94079734.91816
      1660.140  
  23023643.356   123117780.12806     -4125.152    23023648.912    95758281.70105
     -3208.456  
 20  9 26  8 55  0.0000000  0 16G11G20G18G15G21G32G24G10R11R 8R 1R10
                                R17R 2R18R24
  24171481.265   127021993.46805      1495.184           0.000           0.00000
         0.000  
  20401702.678   107211687.09749     -1637.883    20401701.766    83541581.32648
     -1276.276  
  24184432.547   127090046.13547     -3846.641    24184434.652    99031209.73845
     -2997.383  
  23663973.961   124355011.89847     -3411.660    23663974.431    96900007.23245
     -2658.438  
  23107811.118   121432366.46248       907.320    23107810.082    94622617.16345
       706.996  
  22525912.892   118374470.64948      2773.214    22525915.856    92239858.14747
      2160.944  
  20771634.825   109155734.24649     -1143.964    20771636.807    85056441.26148
      -891.405  
  20560322.964   108045245.16949       984.371    20560324.653    84191115.50048
       767.038  
  20786137.149   111074835.35808      2860.604    20786142.050    86391569.54907
      2224.913  
  22016481.879   117897259.14107     -3091.813    22016485.457    91697883.73107
     -2404.745  
  19486989.053   104169178.44608      -909.602    19486995.558    81020509.71206
      -707.473  
  21009704.894   111993550.73707     -1676.733           0.000           0.00000
         0.000  
  21364688.983   114326765.54408     -1468.922    21364692.862    88920835.26506
     -1142.496  
  21263252.643   113464791.92008      2945.347    21263258.476    88250415.28907
      2290.819  
  22657814.758   120948954.23505      2128.895    22657823.314    94071445.63806
      1655.796  
  23027501.415   123138410.87006     -4127.175    23027506.972    95774327.79805
     -3210.035  
 20  9 26  8 55  5.0000000  0 15G11G20G18G15G21G32G24G10R11R 8R 1R10
                                R17R 2R24
  24170060.920   127014528.72345      1491.374    24170051.657    98972320.21652
      1162.109  
  20403262.357   107219883.20249     -1640.539    20403261.454    83547967.89748
     -1278.347  
  24188093.068   127109282.20846     -3847.602    24188095.240    99046198.85945
     -2998.141  
  23667220.422   124372072.29147     -3412.203    23667220.942    96913301.02646
     -2658.859  
  23106949.177   121427837.12048       904.651    23106948.215    94619087.83746
       704.925  
  22523274.829   118360607.40948      2772.226    22523277.757    92229055.63547
      2160.175  
  20772724.875   109161462.52949     -1147.207    20772726.896    85060904.83848
      -893.930  
  20559387.687   108040330.22749       981.859    20559389.376    84187285.66749
       765.082  
  20783462.291   111060541.82408      2857.019    20783467.191    86380452.37207
      2222.124  
  22019369.530   117912721.94207     -3093.336    22019373.088    91709910.32907
     -2405.937  
  19487841.132   104173733.11308      -912.101    19487847.579    81024052.26006
      -709.464  
  21011279.837   112001946.25707     -1681.293           0.000           0.00000
         0.000  
  21366063.487   114334120.94708     -1472.973    21366067.414    88926556.12207
     -1145.647  
  21260493.198   113450067.61608      2944.745    21260499.165    88238963.09107
      2290.362  
  23031360.992   123159050.26307     -4128.390    23031366.785    95790380.66005
     -3210.973  
 20  9 26  8 55 10.0000000  0 16G11G20G18G15G21G32G24G10R11R 8R 1R10
                                R17R 2R18R24
  24168643.617   127007081.46747      1487.887    24168640.313    98966517.15744
      1159.418  
  20404824.933   107228094.59849     -1643.929    20404824.039    83554366.38848
     -1280.987  
  24191754.197   127128521.85046     -3848.253    24191756.440    99061190.76945
     -2998.648  
  23670467.731   124389137.01747     -3413.863    23670468.284    96926598.22545
     -2660.151  
  23106090.107   121423322.70847       901.367    23106089.071    94615570.13045
       702.366  
  22520638.140   118346751.42148      2770.175    22520641.034    92218258.75747
      2158.574  
  20773818.375   109167208.90949     -1151.081    20773820.430    85065382.54948
      -896.945  
  20558455.145   108035429.68349       978.625    20558456.820    84183467.07048
       762.565  
  20780790.984   111046267.16808      2853.058    20780795.886    86369349.87007
      2219.046  
  22022258.566   117928192.44407     -3094.882    22022262.163    91721942.94607
     -2407.137  
  19488695.853   104178301.89908      -915.300    19488702.255    81027605.75106
      -711.844  
  21012859.174   112010364.94607     -1686.124           0.000           0.00000
         0.000  
  21367442.368   114341499.80908     -1478.223    21367446.412    88932295.19607
     -1149.737  
  21257735.082   113435350.18608      2942.698    21257741.151    88227516.21407
      2288.769  
         0.000           0.00000         0.000    22653840.880    94054909.21616
      1649.164  
  23035222.049   123179697.50506     -4130.233    23035227.868    95806439.61605
     -3212.410  
 20  9 26  8 55 15.0000000  0 16G11G20G18G15G21G32G24G10R11R 8R 1R10
                                R17R 2R18R24
  24167229.467   126999649.90347      1485.577    24167228.110    98960726.32844
      1157.601  
  20406390.081   107236319.50549     -1645.851    20406389.202    83560775.40648
     -1282.483  
  24195415.729   127147763.30146     -3847.636    24195418.060    99076184.11445
     -2998.164  
  23673715.472   124406204.13647     -3413.277    23673716.001    96939897.27246
     -2659.698  
  23105233.635   121418821.45148       899.543    23105232.486    94612062.65145
       700.938  
  22518002.501   118332900.88848      2770.128    22518005.344    92207466.14147
      2158.543  
  20774914.936   109172971.37749     -1153.593    20774917.006    85069872.78448
      -898.902  
  20557525.004   108030541.73249       976.813    20557526.683    84179658.28349
       761.152  
  20778122.845   111032009.60108      2850.301    20778127.796    86358260.66807
      2216.901  
  22025148.744   117943668.90407     -3095.390    22025152.370    91733980.18107
     -2407.531  
  19489552.802   104182882.75208      -916.910    19489559.197    81031168.63106
      -713.156  
  21014442.438   112018804.79407     -1689.461           0.000           0.00000
         0.000  
  21368825.283   114348900.22207     -1481.854    21368829.414    88938051.06506
     -1152.558  
  21254978.036   113420638.43308      2942.335    21254984.174    88216073.73906
      2288.479  
  22651848.823   120917093.29316      2117.352    22651856.584    94046669.19206
      1646.828  
  23039084.346   123200350.79006     -4130.664    23039090.027    95822503.26205
     -3212.746  
 20  9 26  8 55 20.0000000  0 16G11G20G18G15G21G32G24G10R11R 8R 1R10
                                R17R 2R18R24
  24165817.952   126992232.15347      1482.460    24165817.364    98954946.21345
      1155.159  
  20407957.427   107244555.96349     -1647.977    20407956.555    83567193.42248
     -1284.137  
  24199077.216   127167004.57847     -3848.046    24199079.498    99091177.27945
     -2998.480  
  23676963.320   124423271.78747     -3412.999    23676963.850    96953196.73145
     -2659.487  
  23104379.227   121414331.41048       897.331    23104378.032    94608563.90145
       699.211  
  22515367.534   118319053.88548      2769.472    22515370.351    92196676.28247
      2158.030  
  20776014.196   109178748.05749     -1156.362    20776016.267    85074374.10448
      -901.066  
  20556596.888   108025664.41449       974.929    20556598.567    84175857.77049
       759.680  
  20775457.569   111017767.23508      2847.371    20775462.555    86347183.27908
      2214.621  
  22028039.604   117959149.04708     -3096.141    22028043.305    91746020.29207
     -2408.112  
  19490411.627   104187473.75508      -918.812    19490418.058    81034739.42706
      -714.632  
  21016029.374   112027263.93008     -1693.223           0.000           0.00000
         0.000  
  21370211.865   114356320.25508     -1485.647    21370216.037    88943822.22207
     -1155.503  
  21252221.630   113405929.94208      2941.805    21252227.804    88204633.81107
      2288.070  
  22649867.747   120906516.71106      2114.137    22649874.232    94038442.92505
      1644.324  
  23042947.330   123221008.11907     -4131.762    23042953.235    95838570.05705
     -3213.593  
 20  9 26  8 55 25.0000000  0 16G11G20G18G15G21G32G24G10R11R 8R 1R10
                                R17R 2R18R24
  24164408.860   126984826.23047      1479.382    24164408.561    98949175.40145
      1152.761  
  20409526.602   107252802.00549     -1650.812    20409525.723    83573618.90348
     -1286.352  
  24202738.284   127186243.62146     -3848.066    24202740.672    99106168.73745
     -2998.491  
  23680210.875   124440337.95647     -3413.550    23680211.377    96966494.99746
     -2659.918  
  23103526.592   121409850.56748       894.667    23103525.353    94605072.35445
       697.147  
  22512732.852   118305208.41048      2768.315    22512735.606    92185887.59847
      2157.124  
  20777115.771   109184536.96849     -1159.547    20777117.878    85078884.92248
      -903.547  
  20555670.411   108020795.77749       972.219    20555672.102    84172064.02148
       757.570  
  20772794.732   111003537.93808      2843.769    20772799.754    86336116.05707
      2211.820  
  22030930.855   117974631.12807     -3097.245    22030934.562    91758061.90007
     -2408.973  
  19491271.977   104192072.88308      -921.332    19491278.411    81038316.51906
      -716.589  
  21017619.470   112035740.12908     -1697.547           0.000           0.00000
         0.000  
  21371601.745   114363757.94308     -1490.125    21371605.938    88949607.08606
     -1158.988  
  21249465.482   113391222.61208      2940.753    21249471.632    88193194.79606
      2287.258  
  22647890.228   120895955.76306      2110.359    22647896.209    94030228.88506
      1641.386  
  23046810.795   123241667.45707     -4132.608    23046816.795    95854638.43505
     -3214.351  
 20  9 26  8 55 30.0000000  0 16G11G20G18G15G21G32G24G10R11R 8R 1R10
                                R17R 2R18R24
  24163003.461   126977440.18447      1475.063    24163003.432    98943420.04144
      1149.397  
  20411099.134   107261065.71649     -1654.477    20411098.262    83580058.15748
     -1289.207  
  24206400.525   127205488.63746     -3849.562    24206402.803    99121164.83545
     -2999.663  
  23683459.705   124457410.67547     -3415.229    23683460.270    96979798.42546
     -2661.223  
  23102677.201   121405387.04848       890.772    23102676.094    94601594.27845
       694.109  
  22510099.980   118291372.54448      2766.351    22510102.670    92175106.41847
      2155.597  
  20778221.255   109190346.26549     -1164.015    20778223.376    85083411.65948
      -907.023  
  20554747.125   108015943.91049       968.577    20554748.842    84168283.36248
       754.733  
  20770135.905   110989330.03408      2839.296    20770140.941    86325065.47907
      2208.344  
  22033823.824   117990123.15607     -3099.543    22033827.651    91770111.23207
     -2410.757  
  19492135.438   104196688.45208      -924.722    19492141.847    81041906.40106
      -719.137  
  21019214.358   112044241.71908     -1702.597           0.000           0.00000
         0.000  
  21372996.453   114371221.33608     -1495.319    21373000.642    88955411.93907
     -1163.030  
  21246711.111   113376524.91708      2938.222    21246717.230    88181763.25507
      2285.285  
  22645916.323   120885418.51706      2104.914    22645922.639    94022033.30006
      1637.167  
  23050676.064   123262336.97907     -4135.179    23050681.937    95870714.71305
     -3216.253  
 20  9 26  8 55 35.0000000  0 16G11G20G18G15G21G32G24G10R11R 8R 1R10
                                R17R 2R18R24
  24161601.395   126970070.81048      1472.508    24161601.317    98937677.64345
      1147.401  
  20412674.389   107269343.79849     -1656.796    20412673.543    83586508.60848
     -1291.016  
  24210063.188   127224736.21746     -3849.223    24210065.541    99136162.94445
     -2999.397  
  23686709.179   124474486.65147     -3415.348    23686709.749    96993104.37246
     -2661.312  
  23101830.473   121400937.52648       888.848    23101829.440    94598127.12244
       692.604  
  22507468.338   118277543.05149      2765.374    22507470.977    92164330.20147
      2154.836  
  20779329.960   109196172.54649     -1166.793    20779332.089    85087951.62348
      -909.187  
  20553826.412   108011105.52649       966.516    20553828.114    84164513.19948
       753.128  
  20767480.446   110975140.12808      2836.324    20767485.495    86314028.88807
      2206.031  
  22036718.099   118005621.86807     -3100.000    22036721.911    91782165.78606
     -2411.112  
  19493001.258   104201316.97508      -926.737    19493007.697    81045506.34806
      -720.801  
  21020813.373   112052765.36708     -1707.031           0.000           0.00000
         0.000  
  21374395.467   114378707.30408     -1499.210    21374399.584    88961234.36806
     -1166.055  
  21243958.000   113361833.63008      2938.227    21243963.998    88170336.69507
      2285.285  
  22643946.793   120874902.12905      2101.398    22643953.152    94013853.91606
      1634.422  
  23054542.684   123283013.37406     -4135.894    23054548.451    95886796.34905
     -3216.813  
 20  9 26  8 55 40.0000000  0 15G11G20G15G21G32G24G10R11R 8R 1R10R17
                                R 2R18R24
  24160202.223   126962716.38948      1469.112    24160201.611    98931946.95744
      1144.761  
  20414252.095   107277634.66649     -1659.566    20414251.264    83592969.01948
     -1293.172  
  23689959.042   124491564.29447     -3416.219    23689959.589    97006411.64145
     -2661.987  
  23100986.103   121396500.45548       886.003    23100985.119    94594669.67845
       690.394  
  22504837.593   118263718.32648      2764.336    22504840.234    92153557.68347
      2154.023  
  20780441.603   109202014.27049     -1170.094    20780443.746    85092503.60948
      -911.765  
  20552907.946   108006279.05149       963.901    20552909.670    84160752.29348
       751.090  
  20764828.092   110960966.69108      2832.577    20764833.124    86303005.11307
      2203.117  
  22039613.272   118021125.54307     -3101.559    22039617.078    91794224.20907
     -2412.323  
  19493869.246   104205956.92708      -929.452    19493875.702    81049115.22506
      -722.906  
  21022416.172   112061309.40708     -1711.062           0.000           0.00000
         0.000  
  21375798.341   114386214.02308     -1503.690    21375802.356    88967072.92606
     -1169.539  
  21241205.694   113347146.67408      2936.698    21241211.603    88158913.51706
      2284.093  
  22641979.979   120864404.67406      2097.047    22641986.785    94005689.11207
      1631.023  
  23058410.237   123303694.88705     -4136.433    23058415.837    95902881.95404
     -3217.229  
 20  9 26  8 55 45.0000000  0 15G11G20G15G21G32G24G10R11R 8R 1R10R17
                                R 2R18R24
  24158805.150   126955374.00547      1467.026    24158804.274    98926225.62445
      1143.141  
  20415831.659   107285935.36448     -1661.500    20415830.842    83599437.09547
     -1294.680  
  23693208.636   124508640.65448     -3415.663    23693209.167    97019717.87246
     -2661.563  
  23100143.551   121392072.87548       884.414    23100142.600    94591219.63845
       689.151  
  22502207.185   118249895.38048      2764.210    22502209.785    92142786.56147
      2153.930  
  20781555.638   109207868.53049     -1172.433    20781557.784    85097065.37648
      -913.585  
  20551991.187   108001461.51449       962.159    20551992.916    84156998.36948
       749.733  
  20762178.262   110946806.74107      2830.077    20762183.265    86291991.84006
      2201.175  
  22042508.893   118036631.39908     -3101.683    22042512.690    91806284.29707
     -2412.426  
  19494738.859   104210605.29008      -930.937    19494745.264    81052730.60506
      -724.066  
  21024022.247   112069870.87807     -1714.421           0.000           0.00000
         0.000  
  21377204.513   114393738.54608     -1506.909    21377208.514    88972925.32707
     -1172.047  
  21238453.747   113332461.69508      2936.363    21238459.589    88147491.88707
      2283.840  
  22640016.133   120853923.15606      2094.335    22640023.227    93997536.87907
      1628.938  
  23062278.093   123324378.61606     -4137.461    23062283.773    95918969.25504
     -3217.976  
 20  9 26  8 55 50.0000000  0 15G11G20G15G21G32G24G10R11R 8R 1R10R17
                                R 2R18R24
  24157411.618   126948050.22648      1463.147    24157410.451    98920518.74944
      1140.109  
  20417414.331   107294252.39348     -1665.070    20417413.496    83605917.89146
     -1297.460  
  23696459.182   124525722.20248     -3416.804    23696459.617    97033028.13746
     -2662.452  
  23099304.006   121387661.25747       880.827    23099303.014    94587781.98745
       686.355  
  22499578.368   118236080.69348      2762.191    22499580.953    92132021.87046
      2152.351  
  20782673.293   109213741.75449     -1176.698    20782675.462    85101641.89647
      -916.914  
  20551077.350   107996659.48749       959.055    20551079.122    84153256.56648
       747.316  
  20759532.138   110932666.62607      2825.995    20759537.146    86280994.01805
      2197.999  
  22045406.153   118052145.75408     -3103.496    22045409.841    91818351.01906
     -2413.836  
  19495611.209   104215268.68708      -934.065    19495617.700    81056357.71805
      -726.492  
  21025632.805   112078456.24708     -1719.515           0.000           0.00000
         0.000  
  21378615.209   114401287.46508     -1511.996    21378619.206    88978796.69206
     -1175.995  
  21235703.273   113317784.66808      2934.594    21235709.062    88136076.43007
      2282.465  
  22638056.750   120843464.11607      2089.358    22638063.791    93989402.00907
      1625.051  
  23066147.688   123345071.04605     -4139.652    23066153.327    95935063.37801
     -3219.723  
 20  9 26  8 55 55.0000000  0 15G11G20G15G21G32G24G10R11R 8R 1R10R17
                                R 2R18R24
  24156021.148   126940743.16348      1459.727    24156020.067    98914824.98344
      1137.453  
  20418999.771   107302583.84148     -1667.644    20418998.933    83612409.92947
     -1299.465  
  23699710.338   124542807.17248     -3416.995    23699710.804    97046341.11146
     -2662.594  
  23098467.164   121383263.87048       878.242    23098466.338    94584355.47045
       684.344  
  22496950.813   118222272.58448      2761.147    22496953.297    92121262.30746
      2151.543  
  20783794.196   109219632.10849     -1179.590    20783796.401    85106231.76347
      -919.164  
  20550166.122   107991871.07549       956.422    20550167.929    84149525.31948
       745.261  
  20756889.367   110918544.92407      2822.527    20756894.558    86270010.46305
      2195.301  
  22048304.660   118067666.99808     -3104.640    22048308.234    91830423.09706
     -2414.723  
  19496486.032   104219945.18108      -936.440    19496492.573    81059994.99105
      -728.348  
  21027247.582   112087063.85108     -1723.468           0.000           0.00000
         0.000  
  21380030.096   114408858.93808     -1516.269    21380033.993    88984685.63107
     -1179.315  
  21232954.016   113303114.07708      2933.645    21232959.781    88124665.95507
      2281.718  
  22636101.297   120833025.93107      2085.823    22636108.197    93981283.46407
      1622.313  
  23070018.503   123365770.37706     -4141.335           0.000           0.00000
         0.000  
 20  9 26  8 56  0.0000000  0 15G11G20G15G21G32G24G10R11R 8R 1R10R17
                                R 2R18R24
  24154633.809   126933452.52348      1456.414    24154632.720    98909143.96645
      1134.871  
  20420587.883   107310929.49048     -1670.641    20420587.072    83618913.03047
     -1301.796  
  23702962.094   124559895.20148     -3417.628    23702962.594    97059656.45946
     -2663.090  
  23097632.906   121378880.31648       875.261    23097632.288    94580939.70645
       682.020  
  22494324.410   118208470.58749      2759.733    22494326.856    92110507.50445
      2150.440  
  20784918.280   109225539.14549     -1183.129    20784920.465    85110834.65247
      -921.921  
  20549257.423   107987095.98549       953.676    20549259.276    84145804.47548
       743.121  
  20754250.025   110904441.20607      2819.070    20754255.314    86259040.90405
      2192.605  
  22051204.333   118083194.58507     -3106.293    22051207.772    91842500.10206
     -2416.007  
  19497363.228   104224634.54507      -938.937    19497369.831    81063642.27805
      -730.332  
  21028866.417   112095693.09208     -1727.762           0.000           0.00000
         0.000  
  21381449.205   114416452.62608     -1520.828    21381452.976    88990591.84806
     -1182.867  
  21230205.910   113288449.59308      2932.187    21230211.637    88113260.26006
      2280.589  
  22634149.707   120822608.18307      2081.581    22634156.273    93973180.78107
      1619.008  
  23073890.724   123386476.13406     -4141.679           0.000           0.00000
         0.000  
 20  9 26  8 56  5.0000000  0 15G11G20G18G15G21G32G24G10R11R 8R 1R10
                                R17R 2R18
  24153249.633   126926178.28448      1453.141    24153248.400    98903475.72244
      1132.315  
  20422178.644   107319289.08848     -1673.401    20422177.843    83625427.00147
     -1303.952  
  24232045.113   127340265.20154     -3852.453    24232050.323    99226194.39154
     -3001.909  
  23706214.404   124576986.14248     -3418.698    23706214.963    97072974.14945
     -2663.917  
  23096801.289   121374510.45247       872.227    23096800.824    94577534.59445
       679.656  
  22491699.167   118194674.65149      2758.464    22491701.553    92099757.47947
      2149.457  
  20786045.562   109231463.02549     -1186.769    20786047.740    85115450.68648
      -924.749  
  20548351.254   107982334.06749       950.870    20548353.110    84142093.87848
       740.934  
  20751614.037   110890355.22308      2815.292    20751619.274    86248085.09507
      2189.664  
  22054105.205   118098728.65707     -3107.542    22054108.633    91854582.17906
     -2416.976  
  19498242.804   104229336.63308      -942.008    19498249.449    81067299.40506
      -732.632  
  21030489.342   112104344.10008     -1732.738           0.000           0.00000
         0.000  
  21382872.388   114424068.33607     -1525.660    21382876.109    88996515.18106
     -1186.629  
  21227458.863   113273791.07508      2930.769    21227464.620    88101859.15007
      2279.484  
  22632202.107   120812210.88506      2077.000    22632208.415    93965094.01107
      1615.445  
 20  9 26  8 56 10.0000000  0 16G11G20G18G15G21G32G24G10R11R 8R 1R10
                                R17R 2R18R24
  24151869.029   126918923.37948      1450.047    24151868.013    98897822.57744
      1129.910  
  20423772.717   107327665.90548     -1675.979    20423771.909    83631954.37346
     -1305.960  
  24235712.780   127359528.32902     -3850.194           0.000           0.00000
         0.000  
  23709467.866   124594083.07648     -3418.891    23709468.390    97086296.29546
     -2664.085  
  23095972.900   121370157.36547       870.198    23095972.502    94574142.62745
       678.082  
  22489075.659   118180887.80448      2757.367    22489077.994    92089014.47646
      2148.602  
  20787176.574   109237406.46949     -1189.565    20787178.754    85120081.93648
      -926.937  
  20547448.175   107977588.45049       948.511    20547450.057    84138396.02548
       739.102  
  20748981.913   110876290.14108      2811.780    20748987.212    86237145.63306
      2186.941  
  22057007.818   118114272.10808     -3108.503    22057011.230    91866671.48706
     -2417.688  
  19499125.350   104234054.41008      -944.163    19499132.004    81070968.84005
      -734.348  
  21032116.942   112113019.84508     -1736.733           0.000           0.00000
         0.000  
  21384300.215   114431709.20607     -1529.733    21384303.988    89002458.04706
     -1189.800  
  21224713.517   113259141.56608      2930.066    21224719.381    88090465.14107
      2278.944  
  22630258.831   120801836.86007      2073.741    22630264.840    93957025.27407
      1612.898  
  23081639.228   123427896.17916     -4144.183    23081644.660    95999499.74513
     -3223.281  
 20  9 26  8 56 15.0000000  0 15G11G20G15G21G32G24G10R11R 8R 1R10R17
                                R 2R18R24
  24150490.517   126911679.37447      1447.297    24150489.586    98892177.86744
      1127.761  
  20425368.404   107336051.23448     -1678.211    20425367.602    83638488.40847
     -1307.694  
  23712720.837   124611177.40048     -3419.226    23712721.313    97099616.56646
     -2664.335  
  23095146.094   121365812.59348       867.727    23095145.790    94570757.06946
       676.148  
  22486452.298   118167101.63649      2756.375    22486454.532    92078271.99446
      2147.815  
  20788309.699   109243361.11449     -1192.340    20788311.868    85124721.90947
      -929.101  
  20546546.574   107972850.56549       946.479    20546548.463    84134704.14848
       737.512  
  20746352.129   110862237.40207      2808.405    20746357.394    86226215.71805
      2184.316  
  22059910.550   118129816.29608     -3109.871    22059913.909    91878761.42007
     -2418.793  
  19500009.248   104238779.31908      -946.112    19500015.928    81074643.77705
      -735.906  
  21033747.491   112121711.62108     -1740.448           0.000           0.00000
         0.000  
  21385731.154   114439366.51108     -1533.089    21385734.924    89008413.73407
     -1192.405  
  21221968.284   113244492.57208      2928.996    21221974.180    88079071.47506
      2278.104  
  22628318.218   120791477.54706      2070.816    22628324.108    93948968.05807
      1610.640  
  23085514.635   123448618.88107     -4145.519    23085518.219    96015617.49405
     -3224.280  
 20  9 26  8 56 20.0000000  0 16G11G20G18G15G21G32G24G10R11R 8R 1R10
                                R17R 2R18R24
  24149114.930   126904450.46247      1444.074    24149113.778    98886544.97744
      1125.253  
  20426966.505   107344449.27849     -1680.934    20426965.698    83645032.31148
     -1309.824  
  24243041.910   127398056.16457     -3852.163    24243045.126    99271239.73954
     -3001.687  
  23715974.172   124628273.38147     -3419.401    23715974.629    97112938.19345
     -2664.464  
  23094321.606   121361480.31648       865.292    23094321.393    94567381.23946
       674.245  
  22483829.784   118153320.20448      2755.714    22483831.990    92067533.21846
      2147.309  
  20789445.792   109249331.28949     -1195.566    20789447.956    85129374.03248
      -931.609  
  20545647.277   107968124.69649       943.813    20545649.140    84131021.63449
       735.433  
  20743725.434   110848201.20108      2805.495    20743730.691    86215298.65407
      2182.046  
  22062814.238   118145365.69507     -3110.710    22062817.701    91890855.42006
     -2419.440  
  19500895.312   104243515.74908      -948.433    19500901.959    81078327.63106
      -737.620  
  21035381.840   112130423.58707     -1744.495           0.000           0.00000
         0.000  
  21387165.962   114447044.58608     -1537.555    21387169.715    89014385.58706
     -1195.875  
  21219223.965   113229848.23908      2928.395    21219229.824    88067681.41207
      2277.637  
  22626381.166   120781137.49106      2066.246    22626387.100    93940925.83407
      1607.085  
         0.000           0.00000         0.000    23089395.089    96031733.70214
     -3224.663  
 20  9 26  8 56 25.0000000  0 16G11G20G18G15G21G32G24G10R11R 8R 1R10
                                R17R 2R18R24
  24147744.051   126897246.09947      1439.570    24147742.735    98880931.15944
      1121.737  
  20428568.855   107352869.68749     -1685.289    20428568.055    83651593.66448
     -1313.214  
  24246708.325   127417327.87146     -3854.598    24246710.322    99286256.66545
     -3003.585  
  23719229.622   124645380.57547     -3421.585    23719229.975    97126268.45046
     -2666.176  
  23093501.368   121357170.03148       861.097    23093501.188    94564022.57246
       670.983  
  22481210.007   118139553.08748      2753.042    22481212.180    92056805.59747
      2145.226  
  20790586.616   109255326.39149     -1200.429    20790588.784    85134045.53148
      -935.401  
  20544752.066   107963420.30149       939.706    20544753.909    84127355.87748
       732.233  
  20741103.643   110834191.33208      2800.456    20741108.945    86204402.10007
      2178.133  
  22065720.684   118160929.58007     -3113.038    22065724.154    91902960.63307
     -2421.258  
  19501785.279   104248273.19608      -952.609    19501791.926    81082027.85106
      -740.921  
  21037021.814   112139165.60508     -1750.355           0.000           0.00000
         0.000  
  21388606.481   114454753.12608     -1543.464    21388610.244    89020381.13306
     -1200.472  
  21216482.282   113215218.08808      2925.719    21216488.135    88056302.41307
      2275.558  
         0.000           0.00000         0.000    22624455.750    93932906.97717
      1602.375  
  23093269.680   123490090.65216     -4148.749    23093273.587    96047866.65105
     -3226.819  
 20  9 26  8 56 30.0000000  0 16G11G20G18G15G21G32G24G10R11R 8R 1R10
                                R17R 2R18R24
  24146374.965   126890051.47147      1438.371    24146373.507    98875324.96344
      1120.809  
  20430172.594   107361297.35849     -1685.621    20430171.794    83658160.67748
     -1313.477  
  24250375.320   127436594.96446     -3851.987    24250377.092    99301269.97744
     -3001.555  
  23722484.307   124662483.90347     -3419.242    23722484.536    97139595.70645
     -2664.347  
  23092682.451   121352866.78148       860.773    23092682.310    94560669.40545
       670.734  
  22478590.072   118125785.33348      2754.238    22478592.257    92046077.48147
      2146.160  
  20791729.323   109261331.35849     -1201.370    20791731.499    85138724.72648
      -936.137  
  20543858.102   107958722.42749       939.542    20543859.904    84123695.20048
       732.109  
  20738483.948   110820192.54108      2799.288    20738489.281    86193514.16907
      2177.226  
  22068627.051   118176492.98207     -3111.949    22068630.508    91915065.49507
     -2420.409  
  19502676.369   104253036.48608      -952.488    19502683.015    81085732.63906
      -740.827  
  21038664.568   112147922.44008     -1752.112           0.000           0.00000
         0.000  
  21390049.808   114462476.78608     -1545.684    21390053.566    89026388.43206
     -1202.199  
  21213740.507   113200587.26708      2927.078    21213746.324    88044922.91407
      2276.616  
  22622520.269   120760549.42115      2059.519    22622526.061    93924897.57707
      1601.852  
  23097148.392   123510832.36706     -4148.074    23097152.251    96063999.07105
     -3226.289  
 20  9 26  8 56 35.0000000  0 16G11G20G18G15G21G32G24G10R11R 8R 1R10
                                R17R 2R18R24
  24145007.990   126882867.66047      1434.129    24145006.537    98869727.23144
      1117.508  
  20431777.947   107369733.58149     -1689.687    20431777.159    83664734.37848
     -1316.640  
  24254040.746   127455858.68646     -3854.081    24254043.582    99316280.63945
     -3003.180  
  23725738.463   124679584.70547     -3421.621    23725738.776    97152920.99546
     -2666.207  
  23091865.132   121348571.80348       856.547    23091864.982    94557322.67545
       667.438  
  22475970.228   118112018.17848      2751.784    22475972.460    92035349.85047
      2144.250  
  20792874.157   109267347.46849     -1206.046    20792876.341    85143412.60048
      -939.781  
  20542965.630   107954032.35749       935.574    20542967.403    84120040.58848
       729.016  
  20735866.578   110806206.04808      2794.500    20735871.900    86182635.78607
      2173.500  
  22071533.580   118192057.18607     -3114.792    22071537.001    91927170.99706
     -2422.616  
  19503568.749   104257806.95508      -956.469    19503575.448    81089443.01706
      -743.921  
  21040310.354   112156695.34307     -1757.745           0.000           0.00000
         0.000  
  21391496.129   114470216.90408     -1551.272    21391499.985    89032408.49407
     -1206.551  
  21210998.761   113185956.84508      2924.222    21211004.611    88033543.66107
      2274.391  
  22620593.889   120750266.61405      2053.819    22620599.955    93916899.86707
      1597.418  
  23101027.333   123531574.74806     -4149.952    23101031.191    96080132.01404
     -3227.874  
 20  9 26  8 56 40.0000000  0 16G11G20G18G15G21G32G24G10R11R 8R 1R10
                                R17R 2R18R24
  24143645.426   126875707.11447      1430.578    24143643.915    98864147.58343
      1114.737  
  20433387.266   107378190.67249     -1692.831    20433386.492    83671324.29448
     -1319.094  
  24257708.417   127475131.49246     -3854.926    24257711.104    99331298.40545
     -3003.844  
  23728994.517   124696695.25847     -3422.351    23728994.833    97166253.90845
     -2666.766  
  23091051.753   121344297.49848       853.340    23091051.670    94553992.04945
       664.937  
  22473352.881   118098263.98548      2750.172    22473355.147    92024632.29947
      2142.991  
  20794023.469   109273387.11349     -1209.707    20794025.648    85148118.82148
      -942.633  
  20542076.980   107949362.40849       932.757    20542078.711    84116401.66748
       726.820  
  20733253.877   110792244.53208      2790.452    20733259.202    86171776.83807
      2170.352  
  22074442.613   118207634.64707     -3116.194    22074445.923    91939286.77506
     -2423.714  
  19504464.868   104262597.10008      -959.378    19504471.511    81093168.67506
      -746.188  
  21041961.477   112165496.72307     -1762.391           0.000           0.00000
         0.000  
  21392947.889   114477985.93708     -1555.922    21392951.855    89038451.08606
     -1210.160  
  21208259.442   113171339.56608      2922.960    21208265.367    88022174.68907
      2273.413  
  22618672.518   120740011.04805      2048.858    22618678.645    93908923.29107
      1593.554  
  23104908.737   123552330.35906     -4151.512    23104912.394    96096275.27205
     -3228.956  
 20  9 26  8 56 45.0000000  0 16G11G20G18G15G21G32G24G10R11R 8R 1R10
                                R17R 2R18R24
  24142285.949   126868562.73647      1427.520    24142284.410    98858580.51344
      1112.348  
  20434999.202   107386661.57449     -1695.375    20434998.467    83677925.00148
     -1321.073  
  24261376.403   127494406.14246     -3854.909    24261379.322    99346317.61445
     -3003.824  
  23732251.108   124713808.47847     -3422.512    23732251.348    97179588.88945
     -2666.895  
  23090240.950   121340036.73448       851.030    23090240.868    94550671.98346
       663.140  
  22470736.667   118084515.66049      2749.358    22470738.953    92013919.32747
      2142.358  
  20795175.893   109279443.14449     -1212.616    20795178.059    85152837.81548
      -944.897  
  20541190.813   107944705.50749       930.354    20541192.503    84112772.92249
       724.952  
  20730644.489   110778300.72008      2787.218    20730649.765    86160931.66207
      2167.836  
  22077352.749   118223218.22906     -3117.109    22077355.999    91951407.35906
     -2424.417  
  19505363.286   104267399.75708      -961.472    19505369.927    81096904.08506
      -747.813  
  21043616.554   112174319.49707     -1766.354           0.000           0.00000
         0.000  
  21394403.763   114485776.77007     -1560.055    21394407.794    89044510.61707
     -1213.379  
  21205521.186   113156727.73908      2922.108    21205527.096    88010809.96907
      2272.753  
  22616755.002   120729775.84306      2045.305    22616761.135    93900962.52207
      1590.781  
  23108791.227   123573092.02906     -4152.770    23108794.650    96112423.19505
     -3229.940  
 20  9 26  8 56 50.0000000  0 16G11G20G18G15G21G32G24G10R11R 8R 1R10
                                R17R 2R18R24
  24140928.797   126861430.72948      1425.026    24140927.415    98853023.12744
      1110.409  
  20436613.040   107395142.47549     -1697.406    20436612.345    83684533.50048
     -1322.652  
  24265043.800   127513678.94046     -3854.409    24265046.899    99361335.35444
     -3003.441  
  23735507.442   124730920.59647     -3422.374    23735507.621    97192923.00146
     -2666.789  
  23089432.005   121335785.78948       849.175    23089431.938    94547359.55146
       661.690  
  22468120.867   118070769.44349      2748.910    22468123.138    92003208.00047
      2142.007  
  20796330.727   109285511.83549     -1215.112    20796332.895    85157566.67348
      -946.840  
  20540306.416   107940057.90849       928.335    20540308.087    84109151.41548
       723.375  
  20728037.703   110764370.84808      2784.281    20728042.896    86150097.31407
      2165.546  
  22080263.304   118238804.05706     -3117.582    22080266.503    91963529.65806
     -2424.789  
  19506263.359   104272210.97308      -963.379    19506269.935    81100646.14106
      -749.292  
  21045274.950   112183159.71507     -1769.875           0.000           0.00000
         0.000  
  21395862.945   114493585.43008     -1563.655    21395867.027    89050584.01107
     -1216.180  
  21202783.380   113142118.15808      2921.730    21202789.229    87999446.96207
      2272.457  
  22614840.559   120719557.01406      2041.866    22614846.963    93893014.57707
      1588.116  
  23112674.018   123593855.83706     -4153.565    23112677.798    96128572.79704
     -3230.558  
 20  9 26  8 56 55.0000000  0 16G11G20G18G15G21G32G24G10R11R 8R 1R10
                                R17R 2R18R24
  24139574.727   126854315.01148      1421.374    24139573.307    98847478.40543
      1107.566  
  20438229.518   107403637.15549     -1700.203    20438228.876    83691152.73648
     -1324.831  
  24268711.616   127532953.63246     -3855.327    24268714.075    99376354.57545
     -3004.160  
  23738764.244   124748035.36347     -3422.987    23738764.412    97206259.17146
     -2667.262  
  23088625.661   121331548.42448       846.027    23088625.626    94544057.71145
       659.238  
  22465506.192   118057029.14249      2747.538    22465508.439    91992501.27647
      2140.941  
  20797488.700   109291596.93349     -1218.672    20797490.834    85162308.30548
      -949.617  
  20539424.495   107935423.38349       925.633    20539426.159    84105540.09848
       721.272  
  20725434.245   110750458.75808      2780.726    20725439.391    86139276.79207
      2162.784  
  22083174.857   118254395.91506     -3119.195    22083178.151    91975656.66306
     -2426.038  
  19507165.757   104277034.77808      -966.062    19507172.328    81104397.99506
      -751.383  
  21046937.338   112192021.20507     -1774.343           0.000           0.00000
         0.000  
  21397326.241   114501415.88308     -1568.233    21397330.300    89056674.37807
     -1219.738  
  21200046.626   113127514.15608      2920.374    21200052.411    87988088.30807
      2271.401  
  22612929.981   120709358.34406      2037.801    22612936.394    93885082.28107
      1584.957  
  23116557.967   123614625.58806     -4154.511    23116561.863    96144727.02405
     -3231.292  
 20  9 26  8 57  0.0000000  0 16G11G20G18G15G21G32G24G10R11R 8R 1R10
                                R17R 2R18R24
  24138224.015   126847217.00247      1417.984    24138222.649    98841947.53243
      1104.929  
  20439848.919   107412147.19949     -1703.359    20439848.320    83697783.93248
     -1327.297  
  24272380.292   127552231.68546     -3855.479    24272383.081    99391376.41744
     -3004.272  
  23742021.801   124765154.34846     -3423.972    23742022.068    97219598.66746
     -2668.031  
  23087822.194   121327326.17848       843.188    23087822.135    94540767.64345
       657.022  
  22462892.920   118043296.23949      2746.073    22462895.132    91981800.31447
      2139.796  
  20798650.099   109297700.03149     -1222.309    20798652.191    85167063.95948
      -952.453  
  20538545.368   107930803.47349       922.690    20538547.012    84101940.17048
       718.977  
  20722834.380   110736566.05708      2776.754    20722839.557    86128471.37107
      2159.699  
  22086088.042   118269995.60906     -3120.366    22086091.257    91987789.70906
     -2426.960  
  19508070.775   104281872.64508      -968.836    19508077.357    81108160.77006
      -753.543  
  21048604.018   112200905.61408     -1778.988           0.000           0.00000
         0.000  
  21398793.933   114509269.67308     -1573.003    21398797.930    89062782.87807
     -1223.453  
  21197311.270   113112917.61708      2918.823    21197317.008    87976735.43307
      2270.190  
  22611023.561   120699181.61607      2033.613    22611030.111    93877167.12207
      1581.707  
  23120443.381   123635402.76606     -4156.195    23120447.379    96160887.06605
     -3232.598  
 20  9 26  8 57  5.0000000  0 16G11G20G18G15G21G32G24G10R11R 8R 1R10
                                R17R 2R18R24
  24136876.059   126840133.53847      1415.042    24136874.701    98836427.97243
      1102.636  
  20441470.634   107420669.46049     -1705.765    20441470.089    83704424.65148
     -1329.172  
  24276048.787   127571510.04046     -3855.602    24276051.623    99406398.51545
     -3004.363  
  23745279.462   124782274.37646     -3424.789    23745279.898    97232938.93546
     -2668.671  
  23087021.005   121323115.93448       840.866    23087021.005    94537486.93246
       655.218  
  22460280.484   118029567.64049      2745.086    22460282.624    91971102.72047
      2139.026  
  20799814.299   109303817.88249     -1225.265    20799816.326    85171831.11948
      -954.757  
  20537668.433   107926195.05949       920.406    20537670.058    84098349.19248
       717.195  
  20720237.574   110722689.45008      2773.391    20720242.727    86117678.46607
      2157.081  
  22089001.943   118285599.44507     -3121.272    22089005.189    91999926.00906
     -2427.659  
  19508977.831   104286721.31808      -971.093    19508984.440    81111931.96706
      -755.300  
  21050274.423   112209809.71408     -1782.836           0.000           0.00000
         0.000  
  21400265.394   114517143.44608     -1576.964    21400269.348    89068906.92407
     -1226.526  
  21194576.690   113098325.06108      2917.741    21194582.357    87965385.67807
      2269.355  
  22609120.597   120689023.49806      2029.445    22609127.016    93869266.32506
      1578.452  
  23124329.568   123656184.33005     -4156.897    23124333.834    96177050.48305
     -3233.148  
 20  9 26  8 57 10.0000000  0 16G11G20G18G15G21G32G24G10R11R 8R 1R10
                                R17R 2R18R24
  24135531.410   126833067.48747      1411.801    24135529.928    98830921.94443
      1100.098  
  20443095.194   107429206.67549     -1708.792    20443094.690    83711077.02748
     -1331.530  
  24279717.987   127590791.37746     -3856.387    24279720.439    99421422.92144
     -3004.980  
  23748537.801   124799398.31345     -3425.246    23748538.522    97246282.23546
     -2669.030  
  23086222.656   121318920.42348       837.762    23086222.576    94534217.68545
       652.796  
  22457669.378   118015846.12149      2743.823    22457671.476    91960410.63147
      2138.043  
  20800981.842   109309953.23849     -1228.758    20800983.778    85176611.91948
      -957.477  
  20536794.192   107921600.91949       917.597    20536795.837    84094769.34148
       715.008  
  20717644.314   110708831.98208      2769.836    20717649.507    86106900.44007
      2154.315  
  22091917.345   118301210.82207     -3122.594    22091920.580    92012068.19706
     -2428.687  
  19509887.454   104291583.71008      -973.613    19509894.073    81115713.82406
      -757.257  
  21051949.045   112218736.33208     -1787.358           0.000           0.00000
         0.000  
  21401741.139   114525040.14708     -1581.273    21401745.043    89075048.80307
     -1229.883  
  21191843.535   113083740.01608      2916.444    21191849.125    87954041.75107
      2268.348  
  22607221.744   120678886.98007      2025.273    22607228.038    93861382.37306
      1575.206  
  23128217.142   123676973.02806     -4158.487    23128221.526    96193219.45205
     -3234.387  
 20  9 26  8 57 15.0000000  0 16G11G20G18G15G21G32G24G10R11R 8R 1R10
                                R17R 2R18R24
  24134189.624   126826016.57347      1408.133    24134188.135    98825427.77643
      1097.249  
  20444722.193   107437756.61249     -1711.698    20444721.691    83717739.32248
     -1333.792  
  24283387.301   127610073.50347     -3856.957    24283389.884    99436447.93745
     -3005.429  
  23751796.611   124816523.85046     -3425.960    23751797.517    97259626.77546
     -2669.585  
  23085426.683   121314737.40348       834.995    23085426.541    94530958.17945
       650.640  
  22455059.212   118002129.45449      2742.315    22455061.275    91949722.32547
      2136.871  
  20802152.302   109316103.92149     -1232.206    20802154.204    85181404.64848
      -960.164  
  20535922.254   107917018.82249       914.757    20535923.872    84091198.88148
       712.797  
  20715054.229   110694991.22708      2765.937    20715059.445    86096135.41407
      2151.285  
  22094833.637   118316827.09007     -3123.854    22094836.879    92024214.19906
     -2429.664  
  19510799.197   104296457.47008      -976.273    19510805.810    81119504.52406
      -759.327  
  21053627.462   112227683.11208     -1791.843           0.000           0.00000
         0.000  
  21403220.743   114532957.52708     -1585.844    21403224.631    89081206.76007
     -1233.437  
  21189111.119   113069159.28808      2915.124    21189116.655    87942701.17407
      2267.316  
  22605326.407   120668769.60206      2020.965    22605332.883    93853513.26007
      1571.858  
  23132105.606   123697766.58206     -4159.656    23132110.020    96209392.19505
     -3235.293  
 20  9 26  8 57 20.0000000  0 16G11G20G18G15G21G32G24G10R11R 8R 1R10
                                R17R 2R18R24
  24132851.035   126818982.74047      1405.563    24132849.623    98819946.88843
      1095.245  
  20446351.980   107446321.17249     -1713.979    20446351.465    83724413.00648
     -1335.573  
  24287057.027   127629358.35346     -3857.195    24287059.429    99451475.07745
     -3005.608  
  23755056.119   124833652.83647     -3425.690    23755057.130    97272974.03345
     -2669.374  
  23084633.468   121310568.87048       832.581    23084633.296    94527709.97545
       648.761  
  22452450.327   117988419.54449      2741.695    22452452.314    91939039.28246
      2136.387  
  20803326.044   109322271.78949     -1234.992    20803327.896    85186210.78348
      -962.331  
  20535052.968   107912450.69549       912.625    20535054.569    84087639.29548
       711.132  
  20712467.638   110681169.23708      2762.609    20712472.866    86085384.98807
      2148.695  
  22097751.209   118332450.33807     -3124.952    22097754.534    92036365.59807
     -2430.523  
  19511713.403   104301344.58008      -978.586    19511720.010    81123305.62006
      -761.120  
  21055310.005   112236651.92108     -1795.538           0.000           0.00000
         0.000  
  21404704.525   114540897.32408     -1590.000    21404708.467    89087382.14907
     -1236.672  
  21186380.025   113054585.52007      2914.453    21186385.525    87931366.03207
      2266.797  
  22603435.019   120658673.40207      2017.684    22603441.655    93845660.67007
      1569.304  
  23135995.243   123718566.81205     -4160.679    23135999.902    96225570.14705
     -3236.090  
 20  9 26  8 57 25.0000000  0 16G11G20G18G15G21G32G24G10R11R 8R 1R10
                                R17R 2R18R24
  24131515.202   126811963.20447      1402.729    24131513.888    98814477.09043
      1093.023  
  20447984.000   107454897.49549     -1716.383    20447983.517    83731095.85948
     -1337.441  
  24290726.804   127648642.97347     -3856.663    24290729.123    99466502.04944
     -3005.195  
  23758315.783   124850782.52147     -3425.890    23758316.866    97286321.85745
     -2669.522  
  23083842.466   121306411.97048       830.276    23083842.210    94524470.85945
       646.969  
  22449842.190   117974713.59849      2740.765    22449844.147    91928359.33947
      2135.660  
  20804502.478   109328454.05149     -1237.851    20804504.363    85191028.12648
      -964.563  
  20534185.821   107907893.71249       910.261    20534187.423    84084088.41648
       709.292  
  20709884.027   110667363.14208      2759.609    20709889.247    86074646.93007
      2146.363  
  22100669.596   118348077.57606     -3125.992    22100672.861    92048520.11006
     -2431.331  
  19512629.605   104306242.17608      -980.508    19512636.196    81127114.84806
      -762.620  
  21056996.185   112245640.14508     -1799.589           0.000           0.00000
         0.000  
  21406191.980   114548856.89908     -1593.968    21406195.947    89093572.92107
     -1239.757  
  21183649.535   113040015.35308      2913.551    21183655.066    87920033.67607
      2266.090  
  22601547.126   120648595.48406      2013.862    22601553.800    93837822.30307
      1566.339  
  23139885.686   123739370.91606     -4161.679    23139890.469    96241751.13205
     -3236.695  
 20  9 26  8 57 30.0000000  0 16G11G20G18G15G21G32G24G10R11R 8R 1R10
                                R17R 2R18R24
  24130182.423   126804959.84247      1399.230    24130181.062    98809019.95144
      1090.309  
  20449618.622   107463487.52349     -1719.188    20449618.163    83737789.39948
     -1339.625  
  24294396.920   127667929.37747     -3857.176    24294398.888    99481530.40545
     -3005.597  
  23761575.962   124867914.68946     -3426.516    23761577.056    97299671.57045
     -2670.019  
  23083054.017   121302268.52148       827.452    23083053.670    94521242.17045
       644.765  
  22447235.147   117961013.46449      2739.645    22447237.070    91917683.91947
      2134.788  
  20805682.018   109334652.57849     -1241.156    20805683.934    85195858.14748
      -967.136  
  20533321.148   107903349.76349       907.551    20533322.751    84080547.66648
       707.179  
  20707303.722   110653574.74008      2756.026    20707308.889    86063922.61007
      2143.574  
  22103588.946   118363710.74906     -3127.168    22103592.204    92060679.22506
     -2432.249  
  19513548.132   104311152.13608      -983.195    19513554.708    81130933.71806
      -764.706  
  21058686.285   112254649.48808     -1803.848           0.000           0.00000
         0.000  
  21407683.433   114556838.06008     -1598.409    21407687.425    89099780.49107
     -1243.206  
  21180920.199   113025451.09408      2912.433    21180925.711    87908705.93407
      2265.226  
  22599663.020   120638537.93407      2009.593    22599669.744    93829999.77206
      1563.012  
  23143777.160   123760180.69006     -4162.522    23143782.134    96257936.44105
     -3237.526  
 20  9 26  8 57 35.0000000  0 16G11G20G18G15G21G32G24G10R11R 8R 1R10
                                R17R 2R18R24
  24128852.887   126797973.42647      1395.651    24128851.413    98803575.97943
      1087.519  
  20451256.017   107472092.02949     -1722.261    20451255.535    83744494.19648
     -1342.027  
  24298067.493   127687218.24446     -3858.000    24298069.503    99496560.71045
     -3006.238  
  23764836.758   124885050.22247     -3427.616    23764837.819    97313023.97646
     -2670.867  
  23082268.287   121298139.35748       824.441    23082267.876    94518024.69645
       642.430  
  22444629.339   117947319.97548      2737.796    22444631.293    91907013.66847
      2133.343  
  20806864.793   109340868.10049     -1244.780    20806866.743    85200701.42948
      -969.956  
  20532459.103   107898819.65749       904.628    20532460.689    84077017.72648
       704.906  
  20704726.890   110639805.02708      2751.898    20704732.053    86053212.83607
      2140.367  
  22106509.616   118379350.80206     -3128.715    22106512.883    92072843.68506
     -2433.457  
  19514469.116   104316075.41808      -986.086    19514475.695    81134762.93606
      -766.961  
  21060380.548   112263680.67607     -1808.546           0.000           0.00000
         0.000  
  21409179.067   114564841.53007     -1602.835    21409183.053    89106005.39206
     -1246.651  
  21178192.087   113010893.55208      2910.691    21178197.639    87897383.45307
      2263.878  
  22597782.851   120628501.46406      2005.218    22597789.617    93822193.61607
      1559.608  
  23147669.920   123780996.99406     -4163.832    23147675.071    96274126.87705
     -3238.542  
 20  9 26  8 57 40.0000000  0 15G20G18G15G21G32G24G10R11R 8R 1R10R17
                                R 2R18R24
  20452896.683   107480713.75649     -1727.038    20452896.213    83751212.43448
     -1345.745  
  24301739.031   127706512.30646     -3860.003    24301741.132    99511595.01145
     -3007.800  
  23768098.699   124902191.77947     -3429.761    23768099.682    97326380.98046
     -2672.550  
  23081485.845   121294027.34748       820.027    23081485.341    94514820.53045
       638.983  
  22442025.343   117933635.85049      2735.308    22442027.311    91896350.73547
      2131.413  
  20808051.347   109347103.48449     -1249.843    20808053.307    85205560.14748
      -973.906  
  20531600.221   107894306.13749       900.313    20531601.797    84073500.70848
       701.543  
  20702154.075   110626056.68508      2746.875    20702159.226    86042519.69107
      2136.457  
  22109431.996   118395000.38906     -3131.679    22109435.328    92085015.59706
     -2435.754  
  19515393.054   104321014.54908      -990.234    19515399.616    81138604.48006
      -770.183  
  21062079.451   112272736.69207     -1814.684           0.000           0.00000
         0.000  
  21410679.384   114572870.09207     -1608.902    21410683.324    89112249.83806
     -1251.370  
  21175465.699   112996345.15007      2907.961    21175471.289    87886068.02507
      2261.749  
  22595907.280   120618489.00605      1999.187    22595914.206    93814406.22705
      1554.929  
  23151564.385   123801822.63506     -4166.636    23151569.727    96290324.62105
     -3240.723  
 20  9 26  8 57 45.0000000  0 17G11G20G18G15G21G32G12G24G10R11R 8R 1
                                R10R17R 2R18R24
  24126204.286   126784061.87057      1388.555    24126203.169    98792726.23953
      1081.992  
  20454540.659   107489352.87749     -1728.332    20454540.191    83757944.22048
     -1346.753  
  24305411.506   127725811.85546     -3859.602    24305413.614    99526633.61445
     -3007.483  
  23771361.834   124919339.70147     -3428.609    23771362.895    97339743.01046
     -2671.648  
  23080706.662   121289932.55748       818.659    23080706.020    94511629.75145
       637.913  
  22439423.160   117919961.31949      2735.316    22439425.110    91885695.25046
      2131.410  
  24592220.770   129232985.17616      3396.688           0.000           0.00000
         0.000  
  20809241.680   109353358.75649     -1251.902    20809243.647    85210434.38848
      -975.511  
  20530744.546   107889809.43949       898.820    20530746.099    84069996.76949
       700.374  
  20699585.330   110612330.05908      2744.316    20699590.469    86031843.43307
      2134.469  
  22112356.265   118410659.68506     -3131.445    22112359.611    92097195.03907
     -2435.573  
  19516320.041   104325969.98508      -991.437    19516326.587    81142458.70506
      -771.116  
  21063783.025   112281817.60207     -1817.601           0.000           0.00000
         0.000  
  21412184.470   114580924.11608     -1612.117    21412188.415    89118514.06807
     -1253.871  
  21172741.185   112981806.43508      2908.059    21172746.736    87874760.12107
      2261.820  
  22594036.178   120608500.28007      1996.554    22594042.927    93806637.18307
      1552.870  
         0.000           0.00000         0.000    23155466.244    96306531.82614
     -3240.948  
 20  9 26  8 57 50.0000000  0 17G11G20G18G15G21G32G12G24G10R11R 8R 1
                                R10R17R 2R18R24
  24124883.806   126777121.70247      1388.359    24124883.634    98787318.33945
      1081.831  
  20456185.435   107497996.13749     -1728.589    20456184.932    83764679.22148
     -1346.957  
  24309082.582   127745103.48946     -3857.120    24309084.708    99541666.03745
     -3005.554  
  23774623.675   124936480.57247     -3426.668    23774624.699    97353099.52045
     -2670.136  
  23079928.263   121285841.79048       818.270    23079927.553    94508442.15046
       637.617  
  22436820.282   117906283.07449      2736.464    22436822.233    91875036.93547
      2132.316  
  24588987.413   129215999.61747      3398.105    24588988.569   100687800.43453
      2647.875  
  20810433.306   109359620.82949     -1252.617    20810435.271    85215313.92348
      -976.069  
  20529889.529   107885316.23349       898.816    20529891.080    84066495.57748
       700.374  
  20697018.066   110598611.53208      2743.456    20697023.213    86021173.47607
      2133.801  
  22115279.815   118426315.31806     -3130.464    22115283.299    92109371.65907
     -2434.805  
  19517247.549   104330928.04408      -991.242    19517254.124    81146314.97106
      -770.969  
  21065488.744   112290909.98507     -1819.394           0.000           0.00000
         0.000  
  21413691.702   114588989.80307     -1613.952    21413695.668    89124787.35607
     -1255.305  
  21170015.893   112967263.75208      2909.242    21170021.473    87863449.17207
      2262.746  
  22592166.965   120598522.36007      1995.004    22592173.540    93798876.55507
      1551.663  
  23159356.311   123843485.00616     -4165.636    23159361.699    96322733.77104
     -3239.944  
 20  9 26  8 57 55.0000000  0 17G11G20G18G15G21G32G12G24G10R11R 8R 1
                                R10R17R 2R18R24
  24123565.111   126770193.47647      1382.300    24123564.730    98781919.80544
      1077.124  
  20457831.990   107506648.74949     -1733.223    20457831.470    83771421.52048
     -1350.563  
  24312753.115   127764392.42946     -3859.690    24312755.190    99556696.29944
     -3007.562  
  23777885.123   124953619.68747     -3429.332    23777886.154    97366454.66346
     -2672.210  
  23079151.606   121281760.27748       813.770    23079150.885    94505261.76145
       634.109  
  22434217.717   117892606.43949      2733.480    22434219.633    91864379.78447
      2129.979  
  24585755.119   129199013.45147      3395.198    24585756.690   100674564.45944
      2645.598  
  20811627.233   109365894.92649     -1257.710    20811629.199    85220202.82748
      -980.039  
  20529036.173   107880831.84949       894.129    20529037.752    84063001.24548
       696.718  
  20694453.414   110584906.59308      2737.945    20694458.502    86010514.09707
      2129.512  
  22118203.661   118441972.47706     -3133.785    22118207.199    92121549.44406
     -2437.386  
  19518176.589   104335894.20408      -995.820    19518183.147    81150177.54306
      -774.530  
  21067197.589   112300019.02407     -1825.218           0.000           0.00000
         0.000  
  21415202.193   114597072.71608     -1620.194    21415206.177    89131074.06807
     -1260.159  
  21167290.912   112952722.61008      2906.254    21167296.507    87852139.39507
      2260.418  
  22590300.762   120588560.44007      1988.813    22590307.259    93791128.41607
      1546.854  
  23163251.989   123864317.26006     -4168.527    23163257.475    96338936.57905
     -3242.203  
 20  9 26  8 58  0.0000000  0 17G11G20G18G15G21G32G12G24G10R11R 8R 1
                                R10R17R 2R18R24
  24122250.914   126763287.63447      1380.570    24122250.637    98776538.56444
      1075.758  
  20459482.319   107515321.25349     -1734.866    20459481.805    83778179.30248
     -1351.848  
  24316425.327   127783689.65743     -3859.996    24316427.510    99571733.14644
     -3007.789  
  23781148.270   124970767.54647     -3429.094    23781149.249    97379816.65146
     -2672.020  
  23078378.706   121277698.50048       811.992    23078377.879    94502096.74345
       632.719  
  22431617.447   117878941.89849      2733.210    22431619.331    91853732.10647
      2129.769  
  24582524.478   129182037.19346      3395.866    24582524.306   100661336.26241
      2646.132  
  20812825.431   109372191.43449     -1260.058    20812827.380    85225109.20748
      -981.862  
  20528186.499   107876366.74949       892.651    20528188.097    84059521.95948
       695.574  
  20691893.246   110571225.86108      2735.246    20691898.298    85999873.54107
      2127.413  
  22121129.817   118457642.03307     -3133.730    22121133.361    92133736.86906
     -2437.352  
  19519109.097   104340879.11808      -997.250    19519115.693    81154054.69706
      -775.641  
  21068911.597   112309155.49907     -1828.586           0.000           0.00000
         0.000  
  21416717.902   114605183.45607     -1623.401    21416721.863    89137382.45407
     -1262.641  
  21164568.196   112938193.48908      2906.172    21164573.771    87840838.96707
      2260.351  
  22588439.567   120578625.25407      1985.707    22588445.914    93783401.04907
      1544.437  
  23167150.075   123885161.73406     -4168.535    23167155.716    96355148.92505
     -3242.203  
 20  9 26  8 58  5.0000000  0 15G11G20G15G21G32G12G24G10R11R 8R 1R10
                                R17R 2R18
  24120937.758   126756388.82947      1378.983    24120937.807    98771162.89844
      1074.534  
  20461133.487   107523998.17049     -1736.066    20461132.967    83784940.53447
     -1352.781  
  23784410.108   124987908.68546     -3427.089    23784411.077    97393173.38246
     -2670.469  
  23077606.637   121273641.03348       810.836    23077605.751    94498935.04145
       631.812  
  22429016.525   117865273.95648      2733.785    22429018.297    91843081.74645
      2130.219  
  24579293.204   129165055.39147      3397.007    24579293.791   100648103.62744
      2647.007  
  20814024.943   109378494.94649     -1261.593    20814026.924    85230021.01648
      -983.062  
  20527337.561   107871905.55049       891.581    20527339.190    84056045.70148
       694.738  
  20689334.689   110557553.73908      2733.397    20689339.721    85989239.65407
      2125.968  
  22124055.336   118473308.02706     -3132.430    22124058.928    92145921.50106
     -2436.343  
  19520042.179   104345867.00408      -997.999    19520048.748    81157934.15206
      -776.227  
  21070627.833   112318303.75007     -1830.866           0.000           0.00000
         0.000  
  21418235.816   114613306.18107     -1626.276    21418239.824    89143700.15106
     -1264.874  
  21161844.780   112923660.84908      2906.745    21161850.344    87829535.79707
      2260.800  
  22586580.381   120568700.98007      1983.582    22586586.724    93775682.19506
      1542.788  
 20  9 26  8 58 10.0000000  0 15G11G20G15G21G32G12G24G10R11R 8R 1R10
                                R17R 2R18
  24119628.153   126749507.55947      1374.191    24119628.700    98765800.82544
      1070.788  
  20462787.501   107532690.10648     -1740.296    20462786.970    83791713.46347
     -1356.077  
  23787672.734   125005053.59046     -3429.651    23787673.600    97406532.99446
     -2672.469  
  23076837.365   121269598.48048       806.812    23076836.478    94495785.02945
       628.684  
  22426416.994   117851613.20548      2731.086    22426418.651    91832437.00645
      2128.112  
  24576062.881   129148078.49246      3394.534    24576063.813   100634874.90742
      2645.094  
  20815227.816   109384816.05449     -1266.305    20815229.814    85234946.58648
      -986.726  
  20526491.352   107867458.69649       887.410    20526493.008    84052580.63448
       691.487  
  20686779.746   110543900.83708      2728.237    20686784.759    85978620.76307
      2121.969  
  22126982.101   118488981.21706     -3135.757    22126985.874    92158111.72206
     -2438.933  
  19520977.889   104350868.66408     -1002.120    19520984.371    81161824.35106
      -779.425  
  21072348.228   112327474.26808     -1836.546           0.000           0.00000
         0.000  
  21419758.055   114621451.86308     -1631.855    21419762.032    89150035.62107
     -1269.229  
  21159122.754   112909135.50208      2904.059    21159128.311    87818238.31807
      2258.711  
  22584725.397   120558798.45107      1978.050    22584731.652    93767980.22107
      1538.484  
 20  9 26  8 58 15.0000000  0 15G11G20G15G21G32G12G24G10R11R 8R 1R10
                                R17R 2R18
  24118323.042   126742648.52947      1369.718    24118323.693    98760456.13344
      1067.313  
  20464445.287   107541401.73448     -1744.227    20464444.727    83798501.73447
     -1359.140  
  23790936.963   125022207.00747     -3431.288    23790937.779    97419899.29245
     -2673.729  
  23076071.779   121265575.45448       802.660    23076070.887    94492650.18645
       625.444  
  22423819.729   117837964.39248      2728.805    22423821.349    91821801.64344
      2126.352  
  24572834.167   129131111.36245      3392.477    24572835.091   100621653.79741
      2643.495  
  20816434.895   109391159.32949     -1270.805    20816436.920    85239889.39147
      -990.238  
  20525648.808   107863031.03349       883.762    20525650.451    84049130.50348
       688.641  
  20684229.288   110530272.05608      2723.569    20684234.292    85968020.61406
      2118.335  
  22129911.240   118504666.56406     -3138.276    22129915.145    92170311.43805
     -2440.886  
  19521917.011   104355888.86908     -1005.788    19521923.465    81165728.94805
      -782.285  
  21074073.714   112336672.04708     -1842.257           0.000           0.00000
         0.000  
  21421285.470   114629625.08906     -1637.542    21421289.412    89156392.58405
     -1273.648  
  21156402.954   112894622.06408      2901.395    21156408.454    87806950.09006
      2256.641  
  22582875.310   120548922.47007      1972.604    22582881.520    93760298.91107
      1534.250  
 20  9 26  8 58 20.0000000  0 16G11G20G18G15G21G32G12G24G10R11R 8R 1
                                R10R17R 2R18
  24117021.296   126735807.68047      1366.773    24117022.064    98755125.61844
      1065.020  
  20466106.059   107550129.02548     -1746.581    20466105.447    83805302.22847
     -1360.977  
  24331114.649   127860867.40615     -3860.871           0.000           0.00000
         0.000  
  23794202.055   125039364.99447     -3431.698    23794202.922    97433269.19645
     -2674.051  
  23075309.158   121261568.01348       800.171    23075308.326    94489527.50045
       623.511  
  22421223.975   117824323.45748      2727.633    22421225.523    91811172.32745
      2125.429  
  24569606.321   129114150.00945      3392.625    24569607.792   100608437.23544
      2643.612  
  20817645.429   109397520.78849     -1273.672    20817647.458    85244846.37147
      -992.473  
  20524809.131   107858618.46849       881.421    20524810.759    84045692.13748
       686.816  
  20681682.558   110516663.26108      2720.063    20681687.611    85957436.01407
      2115.604  
  22132841.920   118520360.00307     -3138.987    22132845.916    92182517.46405
     -2441.438  
  19522858.806   104360923.46308     -1007.973    19522865.275    81169644.74406
      -783.979  
  21075803.519   112345892.91508     -1845.874           0.000           0.00000
         0.000  
  21422817.174   114637821.89207     -1641.227    21422821.202    89162767.87006
     -1276.512  
  21153684.606   112880116.44108      2900.784    21153690.107    87795667.94006
      2256.167  
  22581029.416   120539068.86408      1968.823    22581035.535    93752634.97407
      1531.305  
 20  9 26  8 58 25.0000000  0 15G11G20G15G21G32G12G24G10R11R 8R 1R10
                                R17R 2R18
  24115721.221   126728975.17747      1364.671    24115722.095    98749801.58844
      1063.378  
  20467767.879   107558861.97849     -1747.812    20467767.260    83812107.10747
     -1361.938  
  23797466.141   125056517.57246     -3430.722    23797466.962    97446634.79846
     -2673.296  
  23074547.669   121257566.20548       799.207    23074546.858    94486409.23146
       622.757  
  22418627.810   117810680.42248      2728.358    22418629.421    91800541.41046
      2125.995  
  24566377.951   129097184.46946      3392.964    24566380.225   100595217.26242
      2643.862  
  20818857.532   109403890.49549     -1275.214    20818859.573    85249809.78248
      -993.675  
  20523970.427   107854211.04949       880.433    20523972.047    84042257.78249
       686.047  
  20679137.699   110503064.33508      2718.250    20679142.719    85946859.03707
      2114.188  
  22135772.082   118536051.13607     -3138.727    22135776.168    92194721.63906
     -2441.237  
  19523801.427   104365962.37008     -1008.671    19523807.882    81173563.88206
      -784.526  
  21077535.755   112355126.73807     -1848.956           0.000           0.00000
         0.000  
  21424351.470   114646032.00208     -1643.949    21424355.466    89169153.48507
     -1278.637  
  21150965.851   112865608.67508      2901.395    21150971.363    87784384.14307
      2256.641  
  22579185.849   120529227.65607      1966.323    22579191.866    93744980.71607
      1529.362  
 20  9 26  8 58 30.0000000  0 16G11G20G18G15G21G32G12G24G10R11R 8R 1
                                R10R17R 2R18
  24114424.821   126722161.55148      1359.730    24114425.544    98744492.30144
      1059.530  
  20469432.791   107567611.30748     -1752.171    20469432.198    83818924.74847
     -1365.332  
  24338458.747   127899466.74857     -3861.382    24338458.435    99661906.66454
     -3008.878  
  23800731.112   125073675.07747     -3432.566    23800731.996    97460004.28745
     -2674.727  
  23073789.246   121253580.50748       794.844    23073788.464    94483303.51245
       619.359  
  22416033.254   117797045.91048      2725.495    22416034.778    91789917.09346
      2123.754  
  24563150.809   129080225.12904      3389.508           0.000           0.00000
         0.000  
  20820073.204   109410278.86249     -1280.245    20820075.233    85254787.73447
      -997.594  
  20523134.730   107849819.40449       876.046    20523136.372    84038835.74048
       682.632  
  20676596.738   110489486.17707      2712.855    20676601.773    85936298.27407
      2109.999  
  22138703.922   118551750.81706     -3141.749    22138707.881    92206932.52804
     -2443.578  
  19524746.926   104371016.32508     -1012.897    19524753.348    81177494.75605
      -787.809  
  21079272.358   112364384.12207     -1854.395           0.000           0.00000
         0.000  
  21425890.223   114654266.14607     -1649.964    21425894.206    89175557.85506
     -1283.300  
  21148248.639   112851109.35708      2898.375    21148254.224    87773106.91506
      2254.297  
  22577346.564   120519409.45907      1960.788    22577352.500    93737344.35707
      1525.059  
 20  9 26  8 58 35.0000000  0 16G11G20G18G15G21G32G12G24G10R11R 8R 1
                                R10R17R 2R18
  24113133.156   126715372.71447      1356.097    24113134.027    98739202.25745
      1056.694  
  20471101.935   107576382.81348     -1755.707    20471101.356    83825759.70247
     -1368.082  
  24342133.108   127918778.14746     -3862.434    24342134.360    99676954.49443
     -3009.690  
  23803998.226   125090843.71947     -3433.909    23803999.063    97473382.47345
     -2675.772  
  23073035.036   121249617.04248       791.336    23073034.230    94480215.08345
       616.624  
  22413441.432   117783425.91648      2723.507    22413443.010    91779304.08246
      2122.210  
  24559925.935   129063278.27004      3388.944           0.000           0.00000
         0.000  
  20821293.598   109416692.04449     -1284.137    20821295.645    85259785.02547
     -1000.624  
  20522303.153   107845449.46449       872.621    20522304.837    84035430.58448
       679.961  
  20674060.758   110475934.70007      2708.366    20674065.832    85925758.24807
      2106.507  
  22141638.552   118567465.25506     -3143.413    22141642.375    92219154.90705
     -2444.879  
  19525696.334   104376091.48808     -1016.258    19525702.784    81181442.10005
      -790.421  
  21081014.566   112373671.28907     -1859.413           0.000           0.00000
         0.000  
  21427434.610   114662530.50507     -1654.792    21427438.557    89181985.67106
     -1287.069  
  21145534.155   112836624.63208      2896.483    21145539.810    87761841.02706
      2252.823  
  22575512.731   120509620.39307      1955.628    22575518.653    93729730.65707
      1521.047  
 20  9 26  8 58 40.0000000  0 15G11G20G18G15G21G32G24G10R11R 8R 1R10
                                R17R 2R18
  24111844.059   126708597.64848      1353.319    24111844.900    98733922.99844
      1054.531  
  20472773.208   107585165.44048     -1758.112    20472772.600    83832603.29547
     -1369.960  
  24345807.448   127938088.62046     -3862.566    24345809.565    99692001.59244
     -3009.804  
  23807265.398   125108012.35547     -3434.203    23807266.174    97486760.62445
     -2676.004  
  23072282.954   121245664.64148       789.016    23072282.149    94477135.27945
       614.815  
  22410850.215   117769809.29248      2722.437    22410851.908    91768693.73346
      2121.378  
  20822516.603   109423118.94849     -1287.328    20822518.645    85264793.00748
     -1003.112  
  20521473.622   107841090.15649       870.308    20521475.289    84032033.72548
       678.164  
  20671527.638   110462398.63507      2705.331    20671532.742    85915230.20007
      2104.148  
  22144573.678   118583183.09306     -3144.413    22144577.563    92231379.86104
     -2445.660  
  19526647.510   104381176.40908     -1018.359    19526654.031    81185397.03906
      -792.137  
  21082760.277   112382977.00408     -1863.515           0.000           0.00000
         0.000  
  21428982.534   114670813.72607     -1659.292    21428986.488    89188428.16706
     -1290.565  
  21142820.305   112822143.20008      2895.433    21142825.995    87750577.68706
      2251.999  
  22573682.258   120499849.20807      1951.851    22573688.149    93722130.84307
      1518.105  
 20  9 26  8 58 45.0000000  0 15G11G20G18G15G21G32G24G10R11R 8R 1R10
                                R17R 2R18
  24110558.317   126701840.68547      1349.941    24110558.916    98728657.82744
      1051.901  
  20474447.432   107593963.54848     -1760.656    20474446.815    83839458.95547
     -1371.945  
  24349482.567   127957402.53046     -3862.941    24349485.268    99707051.39144
     -3010.086  
  23810533.376   125125185.35147     -3434.589    23810534.163    97500142.17945
     -2676.309  
  23071533.808   121241727.66548       786.198    23071532.938    94474067.51045
       612.620  
  22408260.537   117756200.44348      2721.569    22408262.240    91758089.44445
      2120.601  
  20823743.049   109429563.87349     -1290.332    20823745.057    85269815.01947
     -1005.457  
  20520646.944   107836745.87249       867.913    20520648.605    84028648.56248
       676.293  
  20668998.246   110448882.64007      2701.589    20669003.443    85904717.74807
      2101.234  
  22147510.321   118598908.65306     -3145.246    22147514.177    92243610.84605
     -2446.304  
  19527601.395   104386275.69108     -1020.796    19527607.957    81189363.14605
      -793.952  
  21084510.283   112392305.45907     -1867.417           0.000           0.00000
         0.000  
  21430534.833   114679120.26908     -1662.914    21430538.791    89194888.80106
     -1293.383  
  21140107.999   112807669.65908      2894.636    21140113.605    87739320.48106
      2251.383  
  22571855.990   120490100.49407      1947.980    22571861.781    93714548.54107
      1515.101  
 20  9 26  8 58 50.0000000  0 17G11G20G18G15G21G32G12G24G10R11R 8R 1
                                R10R17R 2R18R24
  24109274.070   126695091.85847      1349.726    24109274.989    98723399.01645
      1051.730  
  20476122.703   107602767.12549     -1760.926    20476122.099    83846318.87048
     -1372.152  
  24353156.611   127976701.54656     -3860.702    24353159.768    99722118.76055
     -3008.339  
  23813800.214   125142352.67246     -3431.934    23813801.080    97513519.28246
     -2674.237  
  23070785.702   121237796.15448       786.155    23070784.820    94471004.00146
       612.589  
  22405670.428   117742589.39049      2722.640    22405672.166    91747483.46047
      2121.538  
  24550252.621   129012447.53656      3389.511    24550256.088   100529171.27451
      2641.172  
  20824971.015   109436016.75149     -1291.065    20824972.995    85274843.22448
     -1006.030  
  20519821.213   107832406.62549       867.613    20519822.846    84025267.31149
       676.059  
  20666470.713   110435376.42708      2700.613    20666475.978    85894212.89007
      2100.472  
  22150446.513   118614632.01606     -3144.117    22150450.409    92255840.05806
     -2445.438  
  19528556.104   104391379.15708     -1020.862    19528562.657    81193332.50206
      -794.007  
  21086262.709   112401646.72207     -1869.398           0.000           0.00000
         0.000  
  21432089.590   114687439.90207     -1665.132    21432093.555    89201359.64507
     -1295.102  
  21137395.214   112793193.62008      2895.762    21137400.768    87728061.32306
      2252.254  
  22570032.003   120480363.95907      1946.492    22570037.740    93706975.65106
      1513.933  
         0.000           0.00000         0.000    23206188.477    96517486.08414
     -3249.632  
 20  9 26  8 58 55.0000000  0 16G11G20G15G21G32G12G24G10R11R 8R 1R10
                                R17R 2R18R24
  24107992.188   126688355.42847      1344.863    24107992.987    98718149.83845
      1047.941  
  20477799.820   107611580.43449     -1764.874    20477799.244    83853186.37348
     -1375.230  
  23817066.761   125159518.52446     -3433.762    23817067.646    97526895.26046
     -2675.664  
  23070039.417   121233874.30548       782.203    23070038.450    94467948.02246
       609.508  
  22403080.712   117728980.33848      2720.313    22403082.441    91736879.00247
      2119.719  
  24547028.129   128995503.21845      3387.621    24547029.824   100515967.97945
      2639.702  
  20826201.315   109442481.93149     -1295.499    20826203.267    85279881.04248
     -1009.479  
  20518997.236   107828076.59749       863.933    20518998.844    84021893.28448
       673.194  
  20663945.842   110421884.31108      2695.902    20663951.179    85883719.04708
      2096.812  
  22153383.125   118630357.25307     -3146.445    22153387.033    92268070.80205
     -2447.233  
  19529512.372   104396490.99008     -1024.659    19529518.955    81197308.38006
      -796.960  
  21088018.275   112411004.90407     -1874.641           0.000           0.00000
         0.000  
  21433647.582   114695776.90408     -1670.288    21433651.552    89207843.97207
     -1299.117  
  21134682.829   112778719.63008      2893.430    21134688.292    87716803.79306
      2250.445  
  22568211.122   120470644.00307      1941.266    22568216.812    93699415.68307
      1509.870  
  23210091.416   124114793.78816     -4180.512    23210095.942    96533738.00805
     -3251.507  
 20  9 26  8 59  0.0000000  0 16G11G20G15G21G32G12G24G10R11R 8R 1R10
                                R17R 2R18R24
  24106714.702   126681641.97946      1340.395    24106715.405    98712918.60145
      1044.460  
  20479480.820   107620414.05449     -1768.563    20479480.250    83860069.71948
     -1378.104  
  23820335.027   125176693.56546     -3435.616    23820335.970    97540278.41046
     -2677.109  
  23069296.974   121229972.73848       778.430    23069295.989    94464907.86145
       606.569  
  22400493.372   117715383.83848      2718.136    22400495.073    91726284.31947
      2118.026  
  24543805.612   128978569.33946      3386.180    24543805.830   100502772.76444
      2638.590  
  20827435.945   109448969.92349     -1299.688    20827437.880    85284936.60748
     -1012.745  
  20518177.038   107823766.43149       860.269    20518178.630    84018534.70748
       670.335  
  20661425.616   110408417.11308      2691.089    20661430.973    85873244.54607
      2093.070  
  22156322.012   118646095.07806     -3148.679    22156325.992    92280311.33806
     -2448.977  
  19530472.224   104401622.07608     -1027.925    19530478.849    81201299.20406
      -799.500  
  21089779.063   112420390.77307     -1879.863           0.000           0.00000
         0.000  
  21435210.842   114704142.07108     -1675.562    21435214.783    89214350.18307
     -1303.219  
  21131972.794   112764258.20608      2891.190    21131978.199    87705556.02407
      2248.702  
  22566395.342   120460951.21407      1935.926    22566400.965    93691876.81407
      1505.715  
  23213999.339   124135701.33106     -4182.644    23214005.795    96549999.36604
     -3253.175  
 20  9 26  8 59  5.0000000  0 16G11G20G15G21G32G12G24G10R11R 8R 1R10
                                R17R 2R18R24
  24105441.993   126674953.65847      1335.910    24105442.693    98707706.93344
      1040.973  
  20481166.106   107629270.26249     -1772.401    20481165.549    83866970.67148
     -1381.093  
  23823605.476   125193880.01447     -3437.281    23823606.426    97553670.41046
     -2678.409  
  23068558.815   121226093.78348       774.952    23068557.817    94461885.29546
       603.854  
  22397908.869   117701802.24549      2715.909    22397910.551    91715701.28947
      2116.296  
  24540585.607   128961648.34745      3384.609    24540585.705   100489587.57845
      2637.362  
  20828675.363   109455482.98449     -1304.117    20828677.277    85290011.72948
     -1016.194  
  20517361.060   107819478.43449       856.574    20517362.636    84015193.41048
       667.456  
  20658910.518   110394977.16408      2686.422    20658915.862    85862791.28007
      2089.437  
  22159263.706   118661848.12506     -3150.887    22159267.719    92292563.71506
     -2450.691  
  19531436.099   104406774.60108     -1031.483    19531442.722    81205306.73206
      -802.265  
  21091545.484   112429806.72807     -1884.957           0.000           0.00000
         0.000  
  21436779.748   114712537.75808     -1680.910    21436783.716    89220880.18307
     -1307.375  
  21129265.538   112749811.77008      2889.031    21129270.987    87694319.90207
      2247.020  
  22564585.051   120451288.10207      1931.031    22564590.726    93684361.10007
      1501.914  
  23217911.410   124156623.31206     -4184.651    23217918.180    96566272.10005
     -3254.715  
 20  9 26  8 59 10.0000000  0 16G11G20G18G15G21G32G24G10R11R 8R 1R10
                                R17R 2R18R24
  24104171.010   126668275.00246      1334.910    24104171.642    98702502.75544
      1040.190  
  20482852.712   107638133.37348     -1773.241    20482852.148    83873876.98346
     -1381.746  
  24367859.092   128053964.38755     -3861.953    24367860.939    99782312.13054
     -3009.328  
  23826875.104   125211062.11845     -3435.363    23826876.112    97567059.07144
     -2676.910  
  23067821.975   121222221.66048       774.089    23067820.961    94458868.05746
       603.188  
  22395324.192   117688219.89848      2716.694    22395325.886    91705117.64347
      2116.906  
  20829916.545   109462005.43848     -1305.160    20829918.451    85295094.16247
     -1017.007  
  20516546.315   107815196.88849       856.094    20516547.868    84011857.13649
       667.085  
  20656397.530   110381548.51808      2684.870    20656402.811    85852346.76806
      2088.234  
  22162205.366   118677600.26405     -3150.148    22162209.372    92304815.34604
     -2450.125  
  19532401.044   104411932.81708     -1032.141    19532407.656    81209318.67006
      -802.781  
  21093314.513   112439236.67607     -1887.328           0.000           0.00000
         0.000  
  21438351.403   114720947.90907     -1683.347    21438355.360    89227421.40907
     -1309.270  
  21126558.157   112735364.44508      2889.874    21126563.618    87683083.09507
      2247.675  
  22562777.426   120441638.72307      1928.499    22562783.043    93676856.03207
      1500.058  
  23221822.992   124177543.88805     -4182.973    23221830.143    96582543.63804
     -3253.429  
 20  9 26  8 59 15.0000000  0 17G11G20G18G15G21G32G12G24G10R11R 8R 1
                                R10R17R 2R18R24
  24102902.030   126661606.81547      1333.226    24102902.526    98697306.78444
      1038.875  
  20484540.826   107647004.28649     -1774.168    20484540.260    83880789.39248
     -1382.468  
  24371534.816   128073278.35245     -3860.910    24371535.824    99797362.10744
     -3008.499  
  23830144.091   125228240.88846     -3434.909    23830145.208    97580445.12846
     -2676.558  
  23067086.605   121218357.29948       772.695    23067085.619    94455856.89045
       602.102  
  22392739.537   117674637.56648      2717.280    22392741.180    91694534.01647
      2117.362  
  24534144.302   128927797.78256      3385.956    24534144.168   100463219.28054
      2638.405  
  20831159.695   109468538.17649     -1306.914    20831161.616    85300184.62348
     -1018.374  
  20515732.943   107810922.65449       854.809    20515734.508    84008526.56348
       666.081  
  20653886.877   110368132.03508      2682.910    20653892.066    85841911.74307
      2086.707  
  22165146.961   118693352.21606     -3150.140    22165150.996    92317066.85506
     -2450.117  
  19533367.162   104417097.39708     -1032.855    19533373.771    81213335.57906
      -803.332  
  21095086.359   112448681.64707     -1889.457           0.000           0.00000
         0.000  
  21439925.868   114729373.40408     -1685.882    21439929.881    89233974.54307
     -1311.250  
  21123850.755   112720917.23208      2890.058    21123856.250    87671846.39007
      2247.824  
  22560972.426   120432003.91807      1926.285    22560978.006    93669362.32407
      1498.223  
  23225735.346   124198463.72107     -4183.191    23225742.269    96598814.57605
     -3253.605  
 20  9 26  8 59 20.0000000  0 17G11G20G18G15G21G32G12G24G10R11R 8R 1
                                R10R17R 2R18R24
  24101634.999   126654949.11546      1329.324    24101635.351    98692118.97744
      1035.831  
  20486230.412   107655883.02849     -1777.688    20486229.825    83887707.87848
     -1385.214  
  24375209.115   128092588.67256     -3862.444    24375210.055    99812408.28055
     -3009.698  
  23833412.375   125245416.27546     -3436.222    23833413.561    97593828.55046
     -2677.574  
  23066352.716   121214500.78148       769.379    23066351.789    94452851.79045
       599.512  
  22390154.909   117661055.41048      2715.491    22390156.540    91683950.50247
      2115.965  
  24530923.151   128910870.10845      3383.894    24530922.325   100450028.90044
      2636.800  
  20832404.785   109475081.19649     -1310.827    20832406.724    85305283.06848
     -1021.429  
  20514921.005   107806655.86249       851.418    20514922.582    84005201.79949
       663.440  
  20651378.485   110354727.88808      2678.577    20651383.597    85831486.27508
      2083.336  
  22168088.505   118709104.11506     -3151.773    22168092.545    92329318.33605
     -2451.382  
  19534334.524   104422268.56008     -1036.171    19534341.096    81217357.58606
      -805.913  
  21096861.064   112458141.66707     -1894.483           0.000           0.00000
         0.000  
  21441503.201   114737814.31307     -1690.930    21441507.236    89240539.69007
     -1315.171  
  21121143.365   112706469.92208      2888.328    21121148.915    87660609.59807
      2246.476  
  22559170.182   120422383.76107      1921.535    22559175.737    93661879.95307
      1494.522  
  23229647.675   124219383.04707     -4184.797    23229654.623    96615085.11505
     -3254.855  
 20  9 26  8 59 25.0000000  0 16G20G18G15G21G32G12G24G10R11R 8R 1R10
                                R17R 2R18R24
  20487923.839   107664782.01349     -1781.855    20487923.252    83894642.15048
     -1388.461  
  24378884.927   128111906.32246     -3864.065    24378886.831    99827460.99945
     -3010.969  
  23836682.502   125262600.75346     -3437.898    23836683.642    97607219.04845
     -2678.886  
  23065622.647   121210664.52048       765.296    23065621.799    94449862.51146
       596.331  
  22387572.697   117647485.86148      2712.546    22387574.354    91673376.85347
      2113.671  
  24527703.946   128893952.91746      3382.851    24527703.730   100436846.69843
      2635.984  
  20833654.224   109481647.04149     -1315.425    20833656.178    85310399.31048
     -1025.008  
  20514112.834   107802408.92249       847.378    20514114.432    84001892.49749
       660.293  
  20648874.738   110341348.74508      2673.484    20648879.792    85821080.28207
      2079.370  
  22171032.514   118724868.71306     -3154.011    22171036.503    92341579.69306
     -2453.125  
  19535305.514   104427458.81008     -1040.019    19535311.968    81221394.46106
      -808.902  
  21098640.957   112467629.40307     -1900.366           0.000           0.00000
         0.000  
  21443085.774   114746283.38907     -1696.608    21443089.900    89247126.74807
     -1319.585  
  21118438.346   112692035.26608      2885.516    21118443.917    87649382.63707
      2244.284  
  22557373.103   120412791.04706      1914.609    22557378.640    93654418.96105
      1489.136  
  23233562.195   124240297.43316     -4187.262    23233568.890    96631370.08216
     -3256.758  
 20  9 26  8 59 30.0000000  0 16G20G18G15G21G32G12G24G10R11R 8R 1R10
                                R17R 2R18R24
  20489620.283   107673696.82749     -1783.789    20489619.694    83901588.76448
     -1389.964  
  24382561.532   128131227.57447     -3864.132    24382563.990    99842516.50944
     -3011.015  
  23839953.534   125279789.76546     -3437.534    23839954.526    97620613.05245
     -2678.605  
  23064895.639   121206844.10148       763.219    23064894.760    94446885.56245
       594.715  
  22384992.017   117633924.45248      2712.074    22384993.689    91662809.52447
      2113.304  
  24524486.044   128877042.00845      3382.340    24524486.183   100423669.35144
      2635.594  
  20834907.146   109488231.25548     -1317.964    20834909.134    85315529.86247
     -1026.987  
  20513307.592   107798177.38249       845.441    20513309.228    83998595.19449
       658.785  
  20646374.829   110327989.98908      2670.499    20646379.801    85810690.14008
      2077.055  
  22173977.979   118740641.38807     -3154.632    22173981.885    92353847.32106
     -2453.605  
  19536279.271   104432663.81908     -1041.620    19536285.639    81225442.78506
      -810.151  
  21100425.187   112477140.25905     -1903.190           0.000           0.00000
         0.000  
  21444672.753   114754775.94907     -1700.016    21444676.935    89253732.06207
     -1322.237  
  21115734.891   112677608.99108      2885.323    21115740.474    87638162.21707
      2244.140  
  22555580.262   120403217.98917      1912.608    22555585.820    93646970.59916
      1487.585  
  23237477.956   124261236.30106     -4187.714    23237484.570    96647655.83205
     -3257.121  
 20  9 26  8 59 35.0000000  0 16G11G20G18G21G32G12G24G10R11R 1R10R17
                                R 2R18R12R24
  24097855.511   126635085.36555      1319.276    24097858.052    98676703.41255
      1028.007  
  20491317.983   107682618.20649     -1785.887    20491317.403    83908540.47447
     -1391.602  
  24386236.996   128150543.26646     -3863.621    24386239.272    99857567.73645
     -3010.608  
  23064169.865   121203030.25648       761.242    23064169.080    94443913.71346
       593.171  
  22382411.117   117620361.97848      2711.660    22382412.912    91652241.39147
      2112.984  
  24521267.319   128860127.86947      3382.304    24521267.566   100410489.49644
      2635.558  
  20836161.770   109494824.44348     -1320.449    20836163.749    85320667.39347
     -1028.926  
  20512503.528   107793951.99749       843.550    20512505.172    83995302.69148
       657.313  
  20643877.009   110314642.20808      2667.319    20643881.902    85800308.50906
      2074.577  
  19537253.989   104437873.99708     -1043.484    19537260.322    81229495.16505
      -811.597  
  21102212.082   112486664.78804     -1907.531           0.000           0.00000
         0.000  
  21446262.354   114763282.50507     -1703.542    21446266.617    89260348.29707
     -1324.972  
  21113031.237   112663181.45808      2884.659    21113036.744    87626940.79907
      2243.624  
  22553789.953   120393661.48008      1909.164    22553795.625    93639537.73307
      1484.901  
  23545268.969   125774600.09016      4617.577           0.000           0.00000
         0.000  
  23241393.396   124282173.19807     -4188.367    23241399.785    96663940.11306
     -3257.499  
 20  9 26  8 59 40.0000000  0 16G11G20G18G21G32G12G24G10R11R 1R10R17
                                R 2R18R12R24
  24096603.857   126628506.03646      1313.163    24096606.090    98671576.64644
      1023.242  
  20493020.405   107691564.43248     -1792.046    20493019.763    83915511.57247
     -1396.398  
  24389914.926   128169871.54146     -3866.961    24389917.225    99872628.74645
     -3013.210  
  23063448.835   121199241.27848       754.944    23063448.084    94440961.26246
       588.266  
  22379833.462   117606816.65448      2706.858    22379835.371    91641686.57447
      2109.238  
  24518051.553   128843229.00047      3377.937    24518052.046   100397321.54144
      2632.160  
  20837421.589   109501444.83848     -1327.151    20837423.590    85325826.17047
     -1034.145  
  20511704.134   107789751.09049       837.464    20511705.786    83992029.27448
       652.569  
  20641384.743   110301324.17208      2660.284    20641389.600    85789950.04407
      2069.109  
  19538233.187   104443108.05508     -1049.555    19538239.411    81233566.11005
      -816.320  
  21104004.886   112496221.66203     -1916.358           0.000           0.00000
         0.000  
  21447858.116   114771821.87307     -1711.495    21447862.375    89266990.01207
     -1331.167  
  21110330.793   112648771.28108      2879.965    21110336.274    87615732.87407
      2239.969  
  22552005.645   120384137.00708      1901.414    22552011.394    93632129.81307
      1478.875  
  23540948.417   125751522.85506      4613.316    23540955.324    97806761.41716
      3588.137  
  23245312.063   124303126.79207     -4192.480    23245318.350    96680237.36506
     -3260.887  
 20  9 26  8 59 45.0000000  0 15G11G20G18G21G32G12G24G10R11R 1R17R 2
                                R18R12R24
  24095353.895   126621937.75345      1312.874    24095354.883    98666458.50744
      1023.016  
  20494724.381   107700518.91648     -1791.659    20494723.676    83922489.09247
     -1396.098  
  24393591.943   128189195.92946     -3863.999    24393594.738    99887686.66945
     -3010.918  
  23062729.394   121195460.56348       755.405    23062728.650    94438015.26646
       588.629  
  22377255.929   117593271.94148      2709.125    22377257.918    91631132.27247
      2111.007  
  24514835.423   128826328.71846      3381.137    24514835.747   100384152.49044
      2634.656  
  20838683.445   109508075.99848     -1327.058    20838685.440    85330993.29647
     -1034.073  
  20510906.254   107785558.07749       837.956    20510907.896    83988761.98848
       652.953  
  20638894.845   110288019.00508      2659.944    20638899.735    85779601.58006
      2068.848  
  19539213.647   104448349.02007     -1048.883    19539219.790    81237642.41805
      -815.796  
  21449456.839   114780376.99407     -1712.281    21449461.120    89273643.99907
     -1331.777  
  21107630.366   112634361.43908      2882.098    21107635.865    87604525.24007
      2241.633  
  22550224.177   120374627.66108      1900.547    22550229.991    93624733.66907
      1478.203  
  23536627.526   125728441.99306      4616.565    23536634.528    97788809.65506
      3590.660  
  23249230.653   124324080.15807     -4190.288    23249236.731    96696534.40706
     -3259.117  
 20  9 26  8 59 50.0000000  0 16G11G20G18G15G21G32G12G24G10R11R 1R10
                                R17R 2R18R24
  24094107.374   126615388.92945      1307.000    24094108.123    98661355.57844
      1018.448  
  20496431.553   107709490.13649     -1796.315    20496430.856    83929479.64847
     -1399.730  
  24397270.088   128208524.77546     -3866.066    24397272.777    99902747.99945
     -3012.543  
  23853042.232   125348590.55556     -3440.878    23853043.351    97674224.88355
     -2681.202  
  23062013.137   121191696.66648       750.358    23062012.409    94435082.34946
       584.690  
  22374680.158   117579736.35949      2705.781    22374682.186    91620585.07846
      2108.401  
  24511620.788   128809435.66646      3377.031    24511621.290   100370989.13944
      2631.465  
  20839948.970   109514726.47249     -1332.542    20839950.966    85336175.47748
     -1038.348  
  20510111.497   107781381.50649       833.195    20510113.132    83985507.50049
       649.234  
  20636408.983   110274735.28308      2653.949    20636413.871    85769269.81407
      2064.187  
  19540196.983   104453605.51608     -1053.289    19540203.112    81241730.77406
      -819.233  
  21107600.989   112515389.91417     -1922.304           0.000           0.00000
         0.000  
  21451060.148   114788956.68808     -1718.901    21451064.461    89280317.08407
     -1336.929  
  21104931.741   112619961.15308      2878.484    21104937.237    87593325.02507
      2238.819  
  22548447.241   120365142.22107      1894.425    22548453.079    93617356.10607
      1473.440  
  23253150.536   124345041.90906     -4193.453    23253156.545    96712837.91505
     -3261.589  
 20  9 26  8 59 55.0000000  0 17G11G20G18G15G21G32G12G24G10R11R 8R 1
                                R10R17R 2R18R24
  24092863.586   126608851.90546      1306.754    24092863.114    98656261.81743
      1018.253  
  20498140.415   107718470.32648     -1795.136    20498139.784    83936477.20346
     -1398.808  
  24400947.601   128227844.79554     -3863.711    24400950.702    99917814.20953
     -3010.684  
  23856315.500   125365789.13547     -3438.262    23856316.731    97687626.35945
     -2679.167  
  23061298.613   121187941.75548       751.265    23061297.894    94432156.43446
       585.398  
  22372104.660   117566202.15349      2707.601    22372106.654    91610038.95547
      2109.815  
  24508406.074   128792541.91446      3380.312    24508406.130   100357825.03542
      2633.984  
  20841216.652   109521388.31048     -1332.328    20841218.630    85341366.56846
     -1038.175  
  20509318.358   107777213.53149       833.672    20509320.026    83982259.73849
       649.612  
  20633925.725   110261465.35007      2654.253    20633930.563    85758948.82406
      2064.426  
  22188718.614   118819566.78715     -3161.039           0.000           0.00000
         0.000  
  19541181.816   104458869.82707     -1052.684    19541187.903    81245825.27205
      -818.749  
  21109404.280   112525002.16107     -1923.214           0.000           0.00000
         0.000  
  21452666.538   114797552.83407     -1719.949    21452670.883    89287002.99207
     -1337.738  
  21102233.321   112605561.80308      2880.867    21102238.778    87582125.54306
      2240.676  
  22546673.315   120355672.72707      1893.238    22546679.208    93609990.98207
      1472.527  
  23257070.608   124366004.04306     -4191.465    23257076.448    96729141.78805
     -3260.034  
 20  9 26  9  0  0.0000000  0 17G11G20G18G15G21G32G24G10R11R 8R 1R10
                                R17R 2R18R12R24
  24091622.138   126602328.92246      1301.949    24091622.267    98651178.94645
      1014.503  
  20499851.383   107727461.74148     -1800.602    20499850.839    83943483.49947
     -1403.066  
  24404625.053   128247169.12445     -3864.930    24404628.006    99932872.09243
     -3011.659  
  23859588.055   125382987.83947     -3440.987    23859588.653    97701027.98947
     -2681.288  
  23060586.291   121184198.22848       745.933    23060585.545    94429239.42246
       581.245  
  22369529.874   117552671.59048      2704.550    22369531.844    91599495.66547
      2107.440  
  20842486.969   109528063.90249     -1337.813    20842488.917    85346568.30648
     -1042.452  
  20508527.323   107773056.52449       828.734    20508528.980    83979020.50349
       645.762  
  20631445.370   110248210.96007      2647.772    20631450.097    85748639.80206
      2059.379  
  22191672.740   118835369.71806     -3162.254    22191677.056    92427546.92716
     -2459.530  
  19542168.497   104464144.26508     -1057.464    19542174.597    81249927.58506
      -822.477  
  21111211.025   112534632.96907     -1929.878           0.000           0.00000
         0.000  
  21454276.479   114806167.82908     -1726.559    21454280.788    89293703.52007
     -1342.886  
  21099535.614   112591166.19908      2877.276    21099540.999    87570928.94406
      2237.878  
  22544902.734   120346221.46707      1887.086    22544908.657    93602639.95307
      1467.727  
  23523666.827   125659207.04413      4616.507    23523675.351    97734973.80414
      3590.585  
  23260991.164   124386969.11207     -4195.516    23260996.859    96745447.96406
     -3263.187  
 20  9 26  9  0  5.0000000  0 18G11G20G18G15G21G32G12G24G10R11R 8R 1
                                R10R17R 2R18R12R24
  24090386.233   126595834.51246      1296.234    24090386.067    98646118.38044
      1010.054  
  20501567.307   107736479.01449     -1806.188    20501566.796    83950509.93047
     -1407.421  
  24408304.725   128266506.80955     -3870.331    24408308.550    99947942.21054
     -3015.843  
  23862863.364   125400201.20147     -3444.191    23862864.096    97714440.94546
     -2683.796  
  23059878.880   121180480.60248       740.937    23059878.125    94426342.56146
       577.355  
  22366958.565   117539159.26849      2700.805    22366960.437    91588966.58746
      2104.522  
  24501980.463   128758775.57256      3373.230    24501981.317   100331515.93654
      2628.476  
  20843762.676   109534767.84949     -1343.574    20843764.608    85351792.14148
     -1046.945  
  20507741.135   107768925.01349       823.730    20507742.803    83975801.14749
       641.863  
  20628970.790   110234987.61308      2641.745    20628975.483    85738354.97407
      2054.687  
  22194626.366   118851191.15706     -3166.007    22194630.708    92439852.53405
     -2462.448  
  19543159.845   104469443.49208     -1062.054    19543165.936    81254049.21206
      -826.042  
  21113023.944   112544296.91307     -1935.870           0.000           0.00000
         0.000  
  21455892.699   114814816.51908     -1733.378    21455897.011    89300430.28607
     -1348.183  
  21096841.360   112576789.14108      2873.523    21096846.736    87559746.78506
      2234.956  
  22543138.415   120336803.34607      1880.801    22543144.345    93595314.73507
      1462.840  
         0.000           0.00000         0.000    23519357.925    97717035.35615
      3586.862  
  23264914.891   124407951.70006     -4198.000    23264920.809    96761767.70406
     -3265.117  
 20  9 26  9  0 10.0000000  0 17G11G20G15G21G32G12G24G10R11R 8R 1R10
                                R17R 2R18R12R24
  24089151.900   126589348.20347      1296.355    24089152.165    98641064.10344
      1010.144  
  20503284.217   107745501.43849     -1804.671    20503283.752    83957540.39248
     -1406.241  
  23866137.800   125417408.51247     -3440.444    23866138.450    97727849.25346
     -2680.866  
  23059172.481   121176768.29348       742.316    23059171.690    94423449.85945
       578.430  
  22364386.773   117525644.53748      2703.902    22364388.633    91578435.63746
      2106.937  
  24498768.325   128741895.70146      3376.640    24498769.091   100318362.78244
      2631.140  
  20845039.829   109541479.52149     -1342.738    20845041.784    85357022.02848
     -1046.289  
  20506955.859   107764798.38949       825.289    20506957.547    83972585.59249
       643.078  
  20626498.020   110221774.09908      2642.203    20626502.696    85728077.80707
      2055.047  
  22197580.259   118867009.80306     -3162.980    22197584.138    92452155.93605
     -2460.098  
  19544151.887   104474746.61708     -1060.473    19544158.003    81258173.86806
      -824.813  
  21114839.233   112553973.23707     -1935.948           0.000           0.00000
         0.000  
  21457511.329   114823477.91607     -1733.327    21457515.647    89307166.93607
     -1348.147  
  21094146.603   112562409.46908      2876.745    21094151.966    87548562.61406
      2237.472  
  22541376.407   120327397.47607      1880.496    22541382.346    93587999.09107
      1462.608  
  23515030.322   125613069.53916      4615.452           0.000           0.00000
         0.000  
  23268838.212   124428930.93006     -4195.066    23268844.073    96778084.90206
     -3262.827  
 20  9 26  9  0 15.0000000  0 15G20G18G15G21G32G12G24G10R11R 8R 1R10
                                R17R 2R24
  20505002.165   107754529.34649     -1806.285    20505001.707    83964575.12948
     -1407.495  
  24415660.706   128305161.34456     -3864.008    24415664.509    99978063.41255
     -3010.933  
  23869410.934   125434610.10245     -3440.172    23869411.710    97741253.07846
     -2680.655  
  23058467.125   121173061.43748       740.651    23058466.216    94420561.40646
       577.132  
  22361814.602   117512127.72049      2703.562    22361816.441    91567903.03547
      2106.668  
  24495555.391   128725011.74847      3376.905    24495556.254   100305206.53544
      2631.367  
  20846318.468   109548198.97149     -1344.772    20846320.490    85362257.98848
     -1047.870  
  20506171.561   107760676.91149       823.523    20506173.253    83969374.07048
       641.706  
  20624027.172   110208570.60508      2639.613    20624031.811    85717808.42107
      2053.030  
  22200533.361   118882826.15806     -3162.854    22200537.207    92464457.51805
     -2460.004  
  19545144.728   104480053.89308     -1062.085    19545150.843    81262301.73506
      -826.069  
  21116656.847   112563662.08108     -1939.238           0.000           0.00000
         0.000  
  21459132.359   114832152.12508     -1736.168    21459136.708    89313913.55407
     -1350.352  
  21091451.387   112548027.43408      2876.574    21091456.798    87537376.60307
      2237.336  
  23272760.634   124449906.85206     -4195.164    23272766.623    96794399.47705
     -3262.910  
 20  9 26  9  0 20.0000000  0 16G20G18G15G21G32G12G24G10R11R 8R 1R10
                                R17R 2R12R24
  20506722.923   107763572.02349     -1810.714    20506722.468    83971621.35948
     -1410.948  
  24419338.461   128324488.32347     -3866.047    24419342.349    99993123.39546
     -3012.508  
  23872684.818   125451815.23246     -3443.019    23872685.309    97754659.67045
     -2682.870  
  23057764.611   121169369.44848       736.418    23057763.600    94417684.53246
       573.831  
  22359243.788   117498618.06048      2700.417    22359245.602    91557376.03447
      2104.223  
  24492343.453   128708133.08346      3374.522    24492344.219   100292054.28744
      2629.492  
  20847600.394   109554935.66348     -1349.801    20847602.477    85367507.35648
     -1051.792  
  20505390.013   107756569.91149       819.374    20505391.716    83966173.80849
       638.472  
  20621559.943   110195386.73308      2634.112    20621564.645    85707554.30007
      2048.753  
  22203488.090   118898649.47406     -3166.147    22203492.489    92476764.54105
     -2462.563  
  19546140.103   104485374.80608     -1066.237    19546146.244    81266440.21906
      -829.301  
  21118478.571   112573372.95708     -1944.897           0.000           0.00000
         0.000  
  21460757.517   114840848.73907     -1741.820    21460761.912    89320677.57107
     -1354.753  
  21088757.607   112533652.78208      2873.570    21088762.950    87526196.32206
      2234.999  
  23506389.628   125566923.12915      4613.710           0.000           0.00000
         0.000  
  23276684.219   124470888.99306     -4197.327    23276690.383    96810718.89405
     -3264.597  
 20  9 26  9  0 25.0000000  0 16G20G18G15G21G32G12G24G10R11R 8R 1R10
                                R17R 2R12R24
  20508447.348   107772633.93549     -1814.917    20508446.854    83978682.58848
     -1414.226  
  24423017.678   128343822.30646     -3868.104    24423021.603   100008188.85946
     -3014.109  
  23875960.310   125469028.49547     -3444.316    23875961.206    97768072.57845
     -2683.891  
  23057065.753   121165696.83248       731.979    23057064.738    94414822.74646
       570.371  
  22356675.223   117485120.09849      2697.805    22356676.991    91546858.15947
      2102.183  
  24489133.371   128691264.24046      3372.023    24489134.274   100278909.84942
      2627.563  
  20848886.454   109561694.10949     -1354.309    20848888.596    85372773.64048
     -1055.312  
  20504612.086   107752481.90949       815.078    20504613.786    83962988.34749
       635.121  
  20619097.251   110182226.97808      2628.874    20619102.017    85697318.95007
      2044.680  
  22206445.197   118914484.52306     -3168.593    22206449.495    92489080.67905
     -2464.464  
  19547138.871   104490713.91608     -1070.215    19547145.090    81270592.87206
      -832.390  
  21120305.296   112583110.08607     -1950.621           0.000           0.00000
         0.000  
  21462387.739   114849572.22807     -1747.940    21462392.169    89327462.49307
     -1359.516  
  21086066.056   112519289.96208      2870.780    21086071.353    87515025.22507
      2232.824  
  23502071.753   125543857.19106      4611.234    23502080.226    97645238.84916
      3586.511  
  23280610.024   124491881.97805     -4200.042    23280616.213    96827046.73106
     -3266.711  
 20  9 26  9  0 30.0000000  0 16G20G18G15G21G32G12G24G10R11R 8R 1R10
                                R17R 2R12R24
  20510175.531   107781715.56849     -1816.917    20510175.007    83985759.17948
     -1415.785  
  24426698.283   128363163.79447     -3867.780    24426702.224   100023260.13345
     -3013.859  
  23879237.519   125486250.21647     -3443.960    23879238.350    97781492.09146
     -2683.608  
  23056370.658   121162043.95948       729.929    23056369.640    94411976.37146
       568.776  
  22354108.963   117471634.24849      2697.301    22354110.705    91536349.70847
      2101.792  
  24485925.269   128674405.67446      3371.733    24485925.823   100265773.24943
      2627.320  
  20850176.696   109568474.50249     -1357.129    20850178.871    85378057.07248
     -1057.504  
  20503837.848   107748413.32049       812.983    20503839.538    83959818.02349
       633.496  
  20616639.174   110169091.88508      2625.862    20616643.954    85687102.75807
      2042.335  
  22209404.857   118930331.52006     -3169.184    22209409.023    92501406.13104
     -2464.922  
  19548141.121   104496071.61308     -1072.140    19548147.402    81274759.96506
      -833.890  
  21122136.967   112592874.26407     -1954.387           0.000           0.00000
         0.000  
  21464023.038   114858323.25908     -1751.969    21464027.550    89334268.83707
     -1362.648  
  21083376.761   112504939.33608      2870.276    21083382.049    87503863.61707
      2232.434  
  23497755.467   125520799.52206      4612.227    23497764.089    97627305.13206
      3587.293  
  23284538.007   124512886.44506     -4200.530    23284544.118    96843383.54605
     -3267.082  
 20  9 26  9  0 35.0000000  0 18G11G20G18G15G21G32G12G24G10R11R 8R 1
                                R10R17R 2R18R12R24
  24083025.259   126557159.46057      1280.093    24083026.176    98615963.17154
       997.468  
  20511905.091   107790804.50249     -1818.675    20511904.543    83992841.46648
     -1417.151  
  24430377.897   128382500.17447     -3866.835    24430381.981   100038327.40645
     -3013.124  
  23882514.013   125503468.05946     -3443.323    23882514.603    97794908.58146
     -2683.112  
  23055676.965   121158398.51348       728.515    23055675.893    94409135.74945
       567.672  
  22351542.642   117458148.17248      2697.003    22351544.405    91525841.07747
      2101.558  
  24482716.766   128657545.00446      3372.660    24482717.361   100252635.07044
      2628.047  
  20851468.789   109575264.62149     -1359.082    20851471.003    85383348.07248
     -1059.027  
  20503064.958   107744351.79049       811.476    20503066.654    83956653.19349
       632.320  
  20614183.386   110155968.90008      2623.398    20614188.152    85676895.99607
      2040.418  
  22212363.825   118946178.19406     -3169.504    22212368.405    92513731.32105
     -2465.171  
  19549144.523   104501435.36908     -1073.425    19549150.863    81278931.77206
      -834.891  
  21123971.408   112602652.86607     -1957.168           0.000           0.00000
         0.000  
  21465661.092   114867088.94408     -1754.848    21465665.637    89341086.59907
     -1364.887  
  21080687.423   112490588.42408      2869.960    21080692.720    87492701.81106
      2232.190  
  22532621.311   120280656.55217      1859.402           0.000           0.00000
         0.000  
  23493438.441   125497737.65106      4612.887    23493446.901    97609368.14006
      3587.801  
  23288465.722   124533889.42505     -4200.832    23288471.764    96859719.15704
     -3267.319  
 20  9 26  9  0 40.0000000  0 16G11G20G15G21G32G12G24G10R11R 8R 1R10
                                R17R 2R18R24
  24081808.550   126550763.73547      1278.026    24081808.410    98610979.49544
       995.867  
  20513636.036   107799900.61549     -1820.097    20513635.507    83999929.34948
     -1418.262  
  23885789.633   125520681.90247     -3442.476    23885790.360    97808321.97546
     -2682.448  
  23054984.668   121154760.43748       726.707    23054983.522    94406300.88945
       566.262  
  22348976.242   117444661.71548      2697.120    22348978.037    91515332.16947
      2101.680  
  24479507.989   128640682.17547      3372.710    24479508.033   100239495.18941
      2628.078  
  20852762.765   109582064.50849     -1361.108    20852764.978    85388646.68548
     -1060.608  
  20502293.366   107740297.19949       810.113    20502295.076    83953493.77248
       631.258  
  20611729.841   110142857.86508      2620.929    20611734.624    85666698.52507
      2038.495  
  22215322.945   118962024.02106     -3169.352    22215327.836    92526055.87105
     -2465.050  
  19550149.087   104506805.12308     -1074.793    19550155.445    81283108.24106
      -835.953  
  21125808.512   112612445.66507     -1960.211           0.000           0.00000
         0.000  
  21467301.894   114875869.27207     -1757.651    21467306.457    89347915.73707
     -1367.065  
  21077997.944   112476237.15908      2870.375    21078003.271    87481539.72306
      2232.516  
  22530881.859   120271367.17807      1856.437           0.000           0.00000
         0.000  
  23292393.300   124554890.98005     -4200.276    23292399.173    96876053.68906
     -3266.886  
 20  9 26  9  0 45.0000000  0 18G11G20G18G15G21G32G12G24G10R11R 8R 1
                                R10R17R 2R18R12R24
  24080594.805   126544385.18047      1273.133    24080594.725    98606009.19244
       992.046  
  20515369.677   107809010.96049     -1824.309    20515369.149    84007028.32048
     -1421.539  
  24437736.959   128421166.80557     -3867.660    24437739.658   100068462.70755
     -3013.757  
  23889065.964   125537898.76647     -3444.320    23889066.851    97821737.72045
     -2683.887  
  23054295.072   121151136.71448       722.582    23054293.960    94403477.21545
       563.047  
  22346411.117   117431181.95549      2694.508    22346412.962    91504828.45647
      2099.617  
  24476300.094   128623824.19646      3369.890    24476299.283   100226359.05241
      2625.878  
  20854059.882   109588880.93849     -1365.644    20854062.093    85393958.18348
     -1064.141  
  20501524.441   107736256.59749       806.030    20501526.175    83950345.24948
       628.077  
  20609279.825   110129765.88208      2615.788    20609284.645    85656515.86907
      2034.504  
  22218283.352   118977876.52106     -3172.160    22218288.651    92538385.59205
     -2467.234  
  19551156.026   104512187.88208     -1078.534    19551162.454    81287294.82906
      -838.863  
  21127649.619   112622259.83507     -1965.621           0.000           0.00000
         0.000  
  21468946.759   114884671.39707     -1763.363    21468951.322    89354761.83307
     -1371.508  
  21075309.786   112461892.69508      2867.362    21075315.116    87470382.94506
      2230.176  
  22529145.631   120262099.26107      1850.793           0.000           0.00000
         0.000  
  23484802.732   125451599.86816      4611.375           0.000           0.00000
         0.000  
  23296321.793   124575898.08105     -4203.026    23296327.653    96892392.54906
     -3269.023  
 20  9 26  9  0 50.0000000  0 18G11G20G18G15G21G32G12G24G10R11R 8R 1
                                R10R17R 2R18R12R24
  24079386.400   126538032.59547      1269.069    24079386.126    98601059.14744
       988.886  
  20517107.748   107818144.52349     -1827.800    20517107.177    84014145.38048
     -1424.266  
  24441416.873   128440510.94647     -3868.770    24441421.328   100083536.02946
     -3014.629  
  23892344.692   125555127.62947     -3445.940    23892345.461    97835162.79845
     -2685.147  
  23053609.927   121147536.28148       718.824    23053608.883    94400671.69046
       560.121  
  22343848.927   117417717.83348      2692.468    22343850.850    91494336.94246
      2098.026  
  24473094.700   128606979.95446      3368.522    24473093.218   100213233.75141
      2624.832  
  20855361.885   109595723.04149     -1369.815    20855364.103    85399289.69548
     -1067.391  
  20500759.897   107732238.95349       802.391    20500761.644    83947214.62649
       625.238  
  20606835.116   110116702.19008      2611.164    20606839.970    85646355.23007
      2030.905  
  22221246.603   118993744.69306     -3173.938    22221252.266    92550727.50905
     -2468.621  
  19552167.148   104517592.90708     -1081.921    19552173.613    81291498.74006
      -841.496  
  21129496.453   112632104.46607     -1970.871           0.000           0.00000
         0.000  
  21470597.412   114893504.44107     -1768.484    21470602.003    89361631.98007
     -1375.491  
  21072624.563   112447564.04808      2865.523    21072629.892    87459238.45407
      2228.742  
  22527414.885   120252861.76407      1845.582           0.000           0.00000
         0.000  
  23480487.466   125428548.33506      4610.718           0.000           0.00000
         0.000  
  23300253.079   124596919.99905     -4204.585    23300258.932    96908742.89606
     -3270.237  
 20  9 26  9  0 55.0000000  0 18G11G20G18G15G21G32G12G24G10R11R 8R 1
                                R10R17R 2R18R12R24
  24078179.949   126531691.08647      1266.464    24078179.100    98596117.70543
       986.852  
  20518847.372   107827286.24849     -1830.069    20518846.767    84021268.80348
     -1426.026  
  24445097.141   128459850.94547     -3868.433    24445102.354   100098606.15546
     -3014.367  
  23895622.951   125572353.49347     -3445.878    23895623.530    97848585.53845
     -2685.104  
  23052926.369   121143944.19248       716.745    23052925.394    94397872.66646
       558.504  
  22341286.859   117404254.35748      2691.726    22341288.861    91483845.93147
      2097.448  
  24469889.095   128590134.57546      3368.304    24469887.717   100200107.47842
      2624.652  
  20856665.908   109602575.75849     -1372.512    20856668.125    85404629.48248
     -1069.488  
  20499996.871   107728229.25549       800.180    20499998.616    83944090.18549
       623.511  
  20604392.851   110103651.55908      2607.867    20604397.711    85636204.75307
      2028.340  
  22224209.757   119009613.11806     -3174.520    22224215.779    92563069.59405
     -2469.073  
  19553179.586   104523004.90708     -1084.027    19553186.042    81295708.08106
      -843.133  
  21131346.069   112641964.30207     -1974.508           0.000           0.00000
         0.000  
  21472250.901   114902353.03308     -1772.051    21472255.630    89368514.20107
     -1378.265  
  21069939.472   112433235.82508      2864.636    21069944.761    87448094.29006
      2228.050  
  22525687.167   120243639.74707      1841.866           0.000           0.00000
         0.000  
  23476171.686   125405493.62206      4610.219           0.000           0.00000
         0.000  
  23304184.280   124617941.33306     -4205.206    23304190.099    96925092.80606
     -3270.722  
 20  9 26  9  1  0.0000000  0 18G11G20G18G15G21G32G12G24G10R11R 8R 1
                                R10R17R 2R18R12R24
  24076977.657   126525371.15847      1262.569    24076976.294    98591193.10144
       983.820  
  20520590.543   107836446.60749     -1833.289    20520589.894    84028406.74348
     -1428.539  
  24448778.925   128479197.32147     -3869.437    24448783.868   100113681.24645
     -3015.151  
  23898902.402   125589586.78447     -3446.684    23898902.880    97862014.08446
     -2685.726  
  23052246.375   121140370.89248       713.406    23052245.433    94395088.27946
       555.902  
  22338726.939   117390802.04548      2689.922    22338728.970    91473363.60746
      2096.038  
  24466685.332   128573298.56347      3366.676    24466683.580   100186988.51041
      2623.374  
  20857973.916   109609449.45149     -1376.203    20857976.129    85409985.60248
     -1072.370  
  20499237.365   107724238.02549       796.996    20499239.086    83940980.12848
       621.030  
  20601955.032   110090624.56608      2603.840    20601959.884    85626072.63807
      2025.202  
  22227175.274   119025492.73606     -3176.289    22227181.381    92575420.43705
     -2470.445  
  19554195.310   104528434.40808     -1087.227    19554201.710    81299931.01706
      -845.624  
  21133200.509   112651849.97907     -1978.922           0.000           0.00000
         0.000  
  21473909.426   114911227.97708     -1777.125    21473914.135    89375416.91707
     -1382.210  
  21067256.554   112418919.07508      2862.851    21067261.779    87436959.04106
      2226.663  
  22523964.294   120234443.68107      1837.409           0.000           0.00000
         0.000  
  23471857.151   125382446.24206      4609.202           0.000           0.00000
         0.000  
  23308117.305   124638972.73506     -4206.440    23308123.203    96941450.52406
     -3271.684  
 20  9 26  9  1  5.0000000  0 18G11G20G18G15G21G32G12G24G10R11R 8R 1
                                R10R17R 2R18R12R24
  24075777.301   126519061.99447      1260.480    24075775.517    98586276.87044
       982.187  
  20522335.183   107845614.78349     -1834.679    20522334.534    84035550.78248
     -1429.621  
  24452459.829   128498539.13147     -3868.180    24452464.073   100128752.75945
     -3014.171  
  23902181.257   125606816.72147     -3445.809    23902181.564    97875439.99645
     -2685.054  
  23051567.890   121136805.55648       712.011    23051566.979    94392310.09046
       554.812  
  22336167.112   117377350.06048      2690.043    22336169.146    91462881.55447
      2096.137  
  24463481.267   128556461.02247      3367.832    24463479.070   100173868.39243
      2624.285  
  20859283.883   109616333.43749     -1378.027    20859286.101    85415349.74748
     -1073.792  
  20498479.291   107720254.41149       795.796    20498481.023    83937876.02049
       620.101  
  20599519.569   110077610.28208      2601.395    20599524.426    85615950.42907
      2023.309  
  22230140.619   119041372.39906     -3176.081    22230146.866    92587771.26706
     -2470.288  
  19555212.264   104533870.54808     -1088.069    19555218.608    81304159.13006
      -846.281  
  21135057.776   112661750.51007     -1981.691           0.000           0.00000
         0.000  
  21475570.778   114920118.11608     -1779.870    21475575.485    89382331.46907
     -1384.348  
  21064573.726   112404602.74308      2862.987    21064578.873    87425824.11007
      2226.765  
  22522244.362   120225262.72207      1834.371           0.000           0.00000
         0.000  
  23467542.027   125359395.21606      4610.457           0.000           0.00000
         0.000  
  23312050.031   124660003.32207     -4206.262    23312056.177    96957807.64006
     -3271.543  
 20  9 26  9  1 10.0000000  0 18G11G20G18G15G21G32G12G24G10R11R 8R 1
                                R10R17R 2R18R12R24
  24074579.600   126512767.56547      1257.484    24074577.562    98581372.16544
       979.862  
  20524082.092   107854794.79349     -1837.183    20524081.394    84042704.03848
     -1431.570  
  24456140.434   128517880.46647     -3868.078    24456144.211   100143823.93045
     -3014.093  
  23905460.112   125624047.27946     -3446.348    23905460.490    97888866.40045
     -2685.469  
  23050891.661   121133252.23148       709.551    23050890.811    94389541.26445
       552.898  
  22333608.104   117363902.41748      2689.132    22333610.147    91452402.88147
      2095.430  
  24460277.756   128539626.14547      3367.312    24460275.410   100160750.28043
      2623.878  
  20860596.553   109623231.65949     -1380.979    20860598.805    85420724.99048
     -1076.094  
  20497723.446   107716282.48649       793.313    20497725.175    83934781.00949
       618.160  
  20597087.255   110064612.85708      2597.789    20597092.129    85605841.32607
      2020.503  
  22233106.813   119057255.92007     -3176.655    22233113.113    92600125.11006
     -2470.737  
  19556231.239   104539317.42708     -1090.304    19556237.529    81308395.59006
      -848.015  
  21136918.594   112671670.00007     -1985.832           0.000           0.00000
         0.000  
  21477235.721   114929027.55708     -1783.688    21477240.392    89389261.04507
     -1387.313  
  21061891.620   112390290.53908      2862.008    21061896.773    87414692.39907
      2226.008  
  22520528.004   120216100.78207      1830.354           0.000           0.00000
         0.000  
  23463227.092   125336344.79606      4609.819    23463234.650    97483858.71816
      3585.417  
  23315983.412   124681037.00206     -4207.163    23315989.665    96974167.14206
     -3272.246  
 20  9 26  9  1 15.0000000  0 18G11G20G18G15G21G32G12G24G10R11R 8R 1
                                R10R17R 2R18R12R24
  24073385.004   126506490.13747      1253.906    24073382.786    98576480.69344
       977.073  
  20525831.680   107863988.84549     -1840.063    20525830.941    84049868.23748
     -1433.816  
  24459821.490   128537223.54947     -3868.593    24459825.089   100158896.45045
     -3014.492  
  23908739.503   125641280.66147     -3446.714    23908739.832    97902295.00845
     -2685.754  
  23050218.129   121129713.10548       706.722    23050217.347    94386783.51146
       550.691  
  22331050.335   117350461.37148      2687.582    22331052.426    91441929.34847
      2094.218  
  24457075.149   128522796.11347      3365.456    24457072.498   100147635.92443
      2622.421  
  20861912.361   109630146.36949     -1384.433    20861914.647    85426113.08148
     -1078.784  
  20496970.246   107712324.42449       790.382    20496971.966    83931696.80749
       615.883  
  20594658.500   110051634.48608      2594.020    20594663.399    85595747.04907
      2017.569  
  22236074.377   119073145.87207     -3178.301    22236080.563    92612483.96606
     -2472.015  
  19557252.619   104544777.16508     -1093.015    19557258.821    81312642.06406
      -850.124  
  21138783.400   112681610.61707     -1989.871           0.000           0.00000
         0.000  
  21478904.717   114937958.57108     -1788.339    21478909.343    89396207.38807
     -1390.934  
  21059210.782   112375985.29608      2860.613    21059215.986    87403566.10606
      2224.922  
  22518815.543   120206960.30007      1825.969           0.000           0.00000
         0.000  
  23458912.674   125313297.07706      4609.616    23458920.133    97465932.73406
      3585.257  
  23319917.763   124702076.02506     -4208.327    23319924.176    96990530.83606
     -3273.145  
 20  9 26  9  1 20.0000000  0 18G11G20G18G15G21G32G12G24G10R11R 8R 1
                                R10R17R 2R18R12R24
  24072192.844   126500225.20147      1251.289    24072190.294    98571598.92044
       975.026  
  20527583.090   107873192.43949     -1842.011    20527582.318    84057039.86548
     -1435.335  
  24463501.697   128556563.76147     -3867.992    24463505.624   100173966.72045
     -3014.022  
  23912018.585   125658512.35047     -3446.421    23912018.942    97915722.28845
     -2685.526  
  23049546.521   121126183.72248       704.367    23049545.759    94384033.34546
       548.858  
  22328492.948   117337022.30648      2687.434    22328495.096    91431457.35347
      2094.102  
  24453872.562   128505966.31247      3365.679    24453870.099   100134521.82243
      2622.604  
  20863230.422   109637072.95249     -1386.938    20863232.746    85431510.41248
     -1080.733  
  20496218.829   107708375.73249       788.444    20496220.571    83928619.91049
       614.370  
  20592232.471   110038670.67608      2590.836    20592237.384    85585664.08607
      2015.094  
  22239042.182   119089037.61407     -3178.835    22239048.204    92624844.21206
     -2472.430  
  19558275.562   104550245.31708     -1094.941    19558281.707    81316895.07206
      -851.624  
  21140651.224   112691567.60807     -1993.438           0.000           0.00000
         0.000  
  21480576.865   114946906.57108     -1791.789    21480581.482    89403166.93907
     -1393.616  
  21056530.295   112361681.82808      2860.141    21056535.507    87392441.18907
      2224.554  
  22517106.578   120197836.57307      1822.757           0.000           0.00000
         0.000  
  23454597.629   125290247.56606      4609.409    23454605.225    97448005.34106
      3584.952  
  23323852.200   124723115.88705     -4208.102    23323858.806    97006895.15006
     -3272.973  
 20  9 26  9  1 25.0000000  0 18G11G20G18G15G21G32G12G24G10R11R 8R 1
                                R10R17R 2R18R12R24
  24071004.230   126493978.99347      1247.449    24071001.687    98566731.74143
       972.038  
  20529337.495   107882411.84049     -1845.507    20529336.703    84064223.81048
     -1438.062  
  24467182.631   128575907.50947     -3869.222    24467186.417   100189039.76145
     -3014.984  
  23915298.609   125675748.74447     -3448.145    23915298.941    97929153.24545
     -2686.866  
  23048877.905   121122670.30848       700.957    23048877.171    94381295.62145
       546.198  
  22325937.148   117323591.64348      2685.210    22325939.312    91420991.90747
      2092.371  
  24450671.250   128489143.15147      3363.776    24450668.905   100121412.84443
      2621.121  
  20864551.990   109644017.83749     -1390.866    20864554.321    85436922.01048
     -1083.792  
  20495470.392   107704442.72949       785.051    20495472.151    83925555.22348
       611.722  
  20589810.363   110025727.79308      2586.323    20589815.300    85575597.40107
      2011.581  
  22242011.440   119104937.54507     -3181.027    22242017.412    92637210.79606
     -2474.136  
  19559301.244   104555728.27008     -1098.272    19559307.384    81321159.58906
      -854.214  
  21142523.391   112701547.66007     -1998.398           0.000           0.00000
         0.000  
  21482253.394   114955877.89008     -1796.508    21482258.003    89410144.63307
     -1397.289  
  21053851.358   112347386.85008      2857.961    21053856.577    87381322.88506
      2222.858  
  22515401.811   120188736.06807      1817.609           0.000           0.00000
         0.000  
  23450283.678   125267202.74906      4608.656    23450291.099    97430081.60306
      3584.512  
  23327788.129   124744162.78305     -4210.219    23327794.775    97023264.94106
     -3274.617  
 20  9 26  9  1 30.0000000  0 18G11G20G18G15G21G32G12G24G10R11R 8R 1
                                R10R17R 2R18R12R24
  24069819.120   126487751.35347      1244.035    24069816.593    98561879.07544
       969.378  
  20531094.861   107891646.83049     -1848.288    20531094.064    84071419.90948
     -1440.230  
  24470864.475   128595254.39047     -3869.348    24470867.965   100204115.24445
     -3015.077  
  23918579.362   125692989.49646     -3448.132    23918579.797    97942587.58345
     -2686.863  
  23048212.306   121119172.68548       698.269    23048211.659    94378570.21046
       544.105  
  22323382.912   117310169.07548      2684.090    22323385.054    91410532.77647
      2091.499  
  24447471.116   128472326.33147      3362.788    24447468.676   100108308.87844
      2620.354  
  20865876.971   109650980.78449     -1393.984    20865879.334    85442347.68748
     -1086.222  
  20494724.888   107700525.14349       782.352    20494726.660    83922502.56349
       609.621  
  20587392.108   110012805.52408      2582.785    20587397.084    85565546.75607
      2008.832  
  22244982.173   119120845.33806     -3182.194    22244988.198    92649583.51606
     -2475.043  
  19560329.615   104561225.59808     -1100.534    19560335.769    81325435.27306
      -855.977  
  21144399.868   112711550.43207     -2002.270           0.000           0.00000
         0.000  
  21483934.200   114964872.25708     -1800.762    21483938.825    89417140.26007
     -1400.594  
  21051173.953   112333100.13908      2856.809    21051179.232    87370211.00007
      2221.960  
  22513701.167   120179658.47407      1813.608           0.000           0.00000
         0.000  
  23445970.255   125244162.18606      4607.363    23445977.826    97412161.19206
      3583.671  
  23331725.201   124765216.54905     -4211.094    23331732.045    97039640.04806
     -3275.304  
 20  9 26  9  1 35.0000000  0 18G11G20G18G15G21G32G12G24G10R11R 8R 1
                                R10R17R 2R18R12R24
  24068637.059   126481540.20647      1240.433    24068634.634    98557039.20944
       966.566  
  20532854.823   107900895.42849     -1851.168    20532853.990    84078626.60648
     -1442.468  
  24474546.360   128614602.54147     -3870.097    24474549.738   100219191.70844
     -3015.664  
  23921860.633   125710232.56947     -3448.894    23921860.973    97956023.73145
     -2687.453  
  23047549.349   121115688.88548       695.128    23047548.720    94375855.55346
       541.655  
  22320829.854   117296752.66648      2682.694    22320831.996    91400078.42747
      2090.410  
  24444271.699   128455513.87646      3362.066    24444269.220   100095208.23441
      2619.788  
  20867204.990   109657959.63149     -1397.483    20867207.371    85447785.74448
     -1088.952  
  20493981.966   107696621.03049       779.378    20493983.755    83919460.39648
       607.305  
  20584977.380   109999901.95408      2578.792    20584982.365    85555510.65107
      2005.727  
  22247954.032   119136759.07307     -3183.413    22247960.046    92661960.84206
     -2475.995  
  19561360.327   104566735.43708     -1103.332    19561366.553    81329720.71206
      -858.147  
  21146280.185   112721573.73207     -2006.944           0.000           0.00000
         0.000  
  21485618.949   114973887.78108     -1805.354    21485623.568    89424152.33307
     -1404.163  
  21048497.680   112318819.53208      2855.379    21048503.022    87359103.86307
      2220.847  
  22512004.457   120170601.91407      1809.090           0.000           0.00000
         0.000  
  23441657.521   125221124.11706      4607.187    23441665.126    97394242.72406
      3583.371  
  23335663.236   124786275.08206     -4212.313    23335670.148    97056018.89806
     -3276.246  
 20  9 26  9  1 40.0000000  0 18G11G20G18G15G21G32G12G24G10R11R 8R 1
                                R10R17R 2R18R12R24
  24067458.130   126475345.79947      1237.410    24067455.793    98552212.43043
       964.218  
  20534617.391   107910157.75449     -1853.663    20534616.560    84085844.00048
     -1444.417  
  24478228.387   128633952.00547     -3869.688    24478231.720   100234269.18345
     -3015.348  
  23925142.403   125727478.16746     -3449.500    23925142.670    97969461.85545
     -2687.926  
  23046889.026   121112218.99148       692.832    23046888.446    94373151.74746
       539.866  
  22318277.971   117283342.52348      2681.483    22318280.094    91389628.97147
      2089.469  
  24441073.226   128438706.03547      3361.202    24441070.897   100082111.22943
      2619.112  
  20868536.055   109664954.49049     -1400.473    20868538.417    85453236.28048
     -1091.280  
  20493241.613   107692730.51049       776.895    20493243.436    83916428.81848
       605.367  
  20582566.173   109987017.19308      2575.245    20582571.144    85545489.17407
      2002.968  
  22250926.901   119152678.74607     -3184.672    22250932.992    92674342.77706
     -2476.976  
  19562393.422   104572257.82508     -1105.676    19562399.698    81334015.90606
      -859.968  
  21148164.421   112731617.86307     -2010.933           0.000           0.00000
         0.000  
  21487307.649   114982924.42008     -1809.234    21487312.265    89431180.82907
     -1407.188  
  21045822.689   112304545.45708      2854.227    21045828.031    87348001.81307
      2219.952  
  22510311.835   120161566.52207      1804.999           0.000           0.00000
         0.000  
  23437345.125   125198088.53906      4606.941    23437352.794    97376326.16106
      3583.175  
  23339602.114   124807338.75606     -4212.684    23339609.212    97072401.75206
     -3276.534  
 20  9 26  9  1 45.0000000  0 18G11G20G18G15G21G32G12G24G10R11R 8R 1
                                R10R17R 2R18R12R24
  24066282.275   126469167.23147      1234.227    24066279.814    98547397.96144
       961.733  
  20536382.429   107919432.90749     -1856.313    20536381.569    84093071.38848
     -1446.479  
  24481910.607   128653301.92347     -3869.930    24481913.900   100249347.06145
     -3015.535  
  23928424.502   125744725.43546     -3449.577    23928424.676    97982901.27845
     -2687.988  
  23046231.201   121108762.15748       690.183    23046230.660    94370458.09946
       537.800  
  22315727.128   117269937.78648      2680.370    22315729.206    91379183.73247
      2088.641  
  24437875.474   128421901.89247      3360.651    24437873.148   100069017.13943
      2618.699  
  20869870.020   109671964.49149     -1403.547    20869872.355    85458698.62848
     -1093.672  
  20492503.703   107688852.73749       774.301    20492505.535    83913407.17749
       603.352  
  20580158.296   109974150.41808      2571.573    20580163.303    85535481.68707
      2000.112  
  22253900.732   119168603.66306     -3185.581    22253906.835    92686728.85406
     -2477.676  
  19563428.729   104577792.04608     -1107.949    19563435.047    81338320.29206
      -861.741  
  21150052.334   112741681.87907     -2014.823           0.000           0.00000
         0.000  
  21489000.138   114991981.36108     -1813.159    21489004.729    89438225.09907
     -1410.242  
  21043148.758   112290276.85208      2853.108    21043154.090    87336904.02807
      2219.086  
  22508623.037   120152551.29007      1800.843           0.000           0.00000
         0.000  
  23433033.242   125175054.66907      4606.863    23433040.789    97358410.95406
      3583.116  
  23343541.769   124828406.51505     -4213.819    23343549.017    97088787.77406
     -3277.421  
 20  9 26  9  1 50.0000000  0 18G11G20G18G15G21G32G12G24G10R11R 8R 1
                                R10R17R 2R18R12R24
  24065109.347   126463004.08246      1231.163    24065107.030    98542595.51543
       959.348  
  20538149.809   107928720.48549     -1858.883    20538148.960    84100308.46348
     -1448.480  
  24485592.826   128672651.86347     -3870.215    24485595.931   100264424.89545
     -3015.758  
  23931706.844   125761973.88346     -3449.563    23931707.030    97996341.62544
     -2687.977  
  23045575.781   121105317.99748       687.522    23045575.223    94367774.35146
       535.733  
  22313177.237   117256538.04848      2679.336    22313179.271    91368742.39247
      2087.792  
  24434678.312   128405101.09846      3359.909    24434676.292   100055925.61144
      2618.112  
  20871206.818   109678989.47549     -1406.597    20871209.141    85464172.63548
     -1096.051  
  20491768.134   107684987.29649       771.757    20491769.968    83910395.15249
       601.370  
  20577753.751   109961301.22408      2568.082    20577758.775    85525487.87107
      1997.397  
  22256875.406   119184533.27906     -3186.714    22256881.536    92699118.53606
     -2478.559  
  19564466.169   104583337.56708     -1110.305    19564472.488    81342633.47206
      -863.573  
  21151943.883   112751765.24407     -2018.738           0.000           0.00000
         0.000  
  21490696.374   115001058.11008     -1817.265    21490700.944    89445284.79307
     -1413.434  
  21040475.690   112276013.03308      2852.104    21040481.043    87325809.95106
      2218.305  
  22506937.768   120143555.96207      1797.026           0.000           0.00000
         0.000  
  23428721.339   125152022.13406      4606.723    23428728.961    97340496.76606
      3583.007  
  23347482.125   124849477.83905     -4214.597    23347489.524    97105176.53406
     -3278.027  
 20  9 26  9  1 55.0000000  0 18G11G20G18G15G21G32G12G24G10R11R 8R 1
                                R10R17R 2R18R12R24
  24063939.338   126456856.61047      1228.394    24063937.286    98537805.26344
       957.184  
  20539919.586   107938020.63249     -1861.124    20539918.726    84107555.33048
     -1450.230  
  24489275.129   128692001.99647     -3869.719    24489278.231   100279502.92445
     -3015.370  
  23934989.364   125779223.63946     -3449.069    23934989.484    98009783.00546
     -2687.586  
  23044922.844   121101886.63548       685.348    23044922.247    94365100.55746
       534.035  
  22310628.318   117243143.48248      2678.625    22310630.353    91358305.06347
      2087.238  
  24431481.849   128388303.76246      3359.433    24431479.905   100042836.78544
      2617.746  
  20872546.482   109686029.42849     -1409.187    20872548.794    85469658.32148
     -1098.065  
  20491034.933   107681134.36249       769.601    20491036.787    83907392.86748
       599.690  
  20575352.488   109948469.75708      2564.813    20575357.573    85515507.85107
      1994.854  
  22259851.061   119200467.71407     -3187.188    22259857.157    92711511.98406
     -2478.925  
  19565505.683   104588894.49108     -1112.082    19565512.080    81346955.52906
      -864.952  
  21153839.239   112761868.30907     -2022.398           0.000           0.00000
         0.000  
  21492396.301   115010154.82308     -1821.094    21492400.875    89452360.01607
     -1416.409  
  21037803.696   112261754.88808      2851.519    21037809.098    87314720.29407
      2217.848  
  22505256.460   120134580.68307      1792.823           0.000           0.00000
         0.000  
  23424409.892   125128991.03306      4606.378    23424417.518    97322583.70806
      3582.738  
  23351423.346   124870552.94405     -4215.472    23351430.720    97121568.28106
     -3278.703  
 20  9 26  9  2  0.0000000  0 18G11G20G18G15G21G32G12G24G10R11R 8R 1
                                R10R17R 2R18R12R24
  24062772.337   126450724.98046      1224.531    24062770.546    98533027.37744
       954.180  
  20541691.813   107947333.62749     -1864.270    20541690.943    84114812.20047
     -1452.679  
  24492957.391   128711352.57147     -3870.530    24492960.584   100294581.26245
     -3016.008  
  23938272.154   125796475.13446     -3450.484    23938272.349    98023225.69845
     -2688.690  
  23044272.397   121098468.39048       681.836    23044271.763    94362436.99346
       531.301  
  22308080.456   117229754.34548      2676.925    22308082.442    91347871.98047
      2085.917  
  24428286.088   128371510.26847      3357.858    24428284.037   100029750.89341
      2616.511  
  20873889.045   109693084.57849     -1412.944    20873891.306    85475155.83848
     -1101.000  
  20490304.169   107677294.20049       766.366    20490306.020    83904400.52948
       597.163  
  20572954.651   109935656.35108      2560.441    20572959.743    85505541.87407
      1991.453  
  22262827.727   119216407.34607     -3188.609    22262833.767    92723909.45905
     -2480.034  
  19566547.480   104594463.27608     -1115.352    19566553.860    81351286.81206
      -867.495  
  21155738.231   112771991.22507     -2026.675           0.000           0.00000
         0.000  
  21494100.047   115019271.81908     -1825.683    21494104.535    89459451.00907
     -1419.980  
  21035132.647   112247501.75108      2849.762    21035138.019    87303634.51107
      2216.476  
  22503578.997   120125625.64507      1788.702           0.000           0.00000
         0.000  
  23420098.794   125105961.76507      4605.398    23420106.354    97304672.05706
      3581.977  
  23355365.322   124891631.99006     -4216.852    23355372.608    97137963.09506
     -3279.776  
 20  9 26  9  2  5.0000000  0 18G11G20G18G15G21G32G12G24G10R11R 8R 1
                                R10R17R 2R18R12R24
  24061608.988   126444612.38046      1220.621    24061607.503    98528264.28643
       951.128  
  20543467.071   107956662.57549     -1867.077    20543466.207    84122081.51548
     -1454.870  
  24496640.362   128730706.68347     -3870.852    24496643.348   100309662.37745
     -3016.250  
  23941555.829   125813731.39846     -3451.104    23941556.205    98036672.13246
     -2689.180  
  23043625.048   121095066.38748       679.055    23043624.377    94359786.09046
       529.132  
  22305534.227   117216373.79149      2675.645    22305536.162    91337445.57847
      2084.918  
  24425091.560   128354723.69146      3356.960    24425089.369   100016670.54444
      2615.820  
  20875235.080   109700158.07249     -1416.152    20875237.331    85480667.65248
     -1103.495  
  20489576.426   107673469.94749       763.563    20489578.290    83901420.59648
       594.983  
  20570560.760   109922864.15308      2556.651    20570565.830    85495592.39707
      1988.507  
  22265805.923   119232355.17207     -3190.030    22265811.821    92736313.32706
     -2481.141  
  19567592.058   104600046.95508     -1117.832    19567598.424    81355629.66806
      -869.429  
  21157641.538   112782137.20207     -2030.977           0.000           0.00000
         0.000  
  21495808.207   115028412.27608     -1830.030    21495812.624    89466560.24807
     -1423.363  
  21032463.274   112233257.62008      2848.288    21032468.642    87292555.76206
      2215.335  
  22501905.848   120116694.07307      1784.327           0.000           0.00000
         0.000  
  23415788.560   125082937.42507      4604.922    23415796.149    97286764.26606
      3581.609  
  23359308.515   124912718.07906     -4217.508    23359315.862    97154363.37106
     -3280.288  
 20  9 26  9  2 10.0000000  0 18G11G20G18G15G21G32G12G24G10R11R 8R 1
                                R10R17R 2R18R12R24
  24060448.685   126438515.66545      1217.772    24060447.498    98523513.57244
       948.909  
  20545244.756   107966004.40549     -1869.852    20545243.888    84129360.85248
     -1457.030  
  24500323.373   128750061.28847     -3871.358    24500326.351   100324743.87845
     -3016.652  
  23944839.714   125830989.30046     -3451.961    23944840.308    98050119.82745
     -2689.844  
  23042980.185   121091677.48848       676.288    23042979.527    94357145.38146
       526.973  
  22302989.052   117202998.74248      2674.258    22302990.971    91327023.47647
      2083.835  
  24421897.933   128337941.00147      3355.675    24421895.787   100003593.08142
      2614.809  
  20876584.030   109707246.78949     -1419.504    20876586.262    85486191.32848
     -1106.108  
  20488851.134   107669658.51249       760.745    20488852.999    83898450.65149
       592.788  
  20568170.264   109910090.06808      2552.788    20568175.311    85485656.99407
      1985.503  
  22268785.081   119248308.17307     -3191.421    22268790.940    92748721.18806
     -2482.227  
  19568638.807   104605642.49208     -1120.508    19568645.215    81359981.75206
      -871.511  
  21159548.554   112792302.98007     -2035.453           0.000           0.00000
         0.000  
  21497520.127   115037572.95108     -1834.527    21497524.450    89473685.22707
     -1426.855  
  21029794.921   112219019.02808      2846.949    21029800.317    87281481.28407
      2214.288  
  22500236.590   120107782.83507      1779.929           0.000           0.00000
         0.000  
  23411478.648   125059914.83507      4604.124    23411486.303    97268857.81406
      3580.983  
  23363252.529   124933808.24706     -4218.788    23363259.849    97170766.82206
     -3281.285  
 20  9 26  9  2 15.0000000  0 18G11G20G18G15G21G32G12G24G10R11R 8R 1
                                R10R17R 2R18R12R24
  24059291.397   126432435.20446      1215.101    24059290.460    98518775.63244
       946.840  
  20547024.979   107975359.44649     -1871.773    20547024.114    84136650.48948
     -1458.527  
  24504006.560   128769416.62747     -3871.249    24504009.532   100339825.94945
     -3016.562  
  23948123.993   125848249.20646     -3451.988    23948124.719    98063569.10045
     -2689.858  
  23042337.874   121088302.02648       674.257    23042337.177    94354515.15846
       525.395  
  22300444.958   117189629.49949      2673.648    22300446.937    91316605.89347
      2083.363  
  24418705.021   128321162.51446      3355.522    24418703.147    99990518.93941
      2614.699  
  20877935.907   109714351.04549     -1422.019    20877938.151    85491727.11948
     -1108.069  
  20488128.347   107665860.24449       758.777    20488130.206    83895490.96649
       591.249  
  20565783.245   109897334.43808      2549.839    20565788.256    85475735.96107
      1983.207  
  22271765.264   119264266.63807     -3191.722    22271771.102    92761133.33406
     -2482.448  
  19569687.837   104611250.06508     -1122.488    19569694.220    81364343.20006
      -873.050  
  21161459.454   112802488.96407     -2038.930           0.000           0.00000
         0.000  
  21499235.883   115046754.24708     -1837.882    21499240.185    89480826.22607
     -1429.468  
  21027127.654   112204786.29208      2846.456    21027133.083    87270411.40106
      2213.910  
  22498571.118   120098892.40507      1776.632           0.000           0.00000
         0.000  
  23407169.164   125036894.50207      4604.246    23407176.849    97250953.14106
      3581.086  
  23367197.406   124954902.74606     -4219.030    23367204.624    97187173.64406
     -3281.473  
 20  9 26  9  2 20.0000000  0 18G11G20G18G15G21G32G12G24G10R11R 8R 1
                                R10R17R 2R18R12R24
  24058137.233   126426370.84245      1210.746    24058136.359    98514050.12343
       943.433  
  20548807.656   107984727.47649     -1875.016    20548806.799    84143950.25247
     -1461.054  
  24507689.879   128788772.50347     -3871.542    24507692.803   100354908.42345
     -3016.792  
  23951408.680   125865510.85546     -3452.647    23951409.460    98077019.72045
     -2690.378  
  23041698.104   121084939.85648       670.823    23041697.406    94351895.27646
       522.715  
  22297901.921   117176265.84649      2671.815    22297903.943    91306192.66447
      2081.933  
  24415512.939   128304388.00747      3353.781    24415511.231    99977447.92143
      2613.340  
  20879290.725   109721470.60049     -1425.604    20879292.978    85497274.81548
     -1110.867  
  20487408.040   107662074.93849       755.558    20487409.878    83892541.37549
       588.746  
  20563399.608   109884597.06908      2545.535    20563404.601    85465829.11807
      1979.858  
  22274746.412   119280230.42407     -3193.479    22274752.200    92773549.59505
     -2483.819  
  19570739.078   104616869.61108     -1125.367    19570745.464    81368713.95506
      -875.289  
  21163374.051   112812694.81607     -2043.480           0.000           0.00000
         0.000  
  21500955.511   115055955.85608     -1842.644    21500959.735    89487983.03807
     -1433.171  
  21024461.480   112190559.23708      2844.558    21024466.957    87259345.92506
      2212.434  
  22496909.530   120090022.48107      1771.769           0.000           0.00000
         0.000  
  23402860.055   125013876.17307      4603.429    23402867.779    97233050.00506
      3580.444  
  23371142.950   124976001.43206     -4219.930    23371150.170    97203583.70506
     -3282.175  
 20  9 26  9  2 25.0000000  0 18G11G20G18G15G21G32G12G24G10R11R 8R 1
                                R10R17R 2R18R12R24
  24056986.431   126420324.02445      1207.487    24056985.878    98509338.31445
       940.894  
  20550593.109   107994110.06349     -1877.819    20550592.236    84151261.34848
     -1463.241  
  24511373.550   128808130.51347     -3871.425    24511376.607   100369992.57945
     -3016.698  
  23954694.011   125882775.88746     -3453.019    23954694.910    98090472.99545
     -2690.671  
  23041061.144   121081592.51648       668.136    23041060.394    94349286.97446
       520.625  
  22295360.278   117162909.42149      2670.636    22295362.319    91295785.07547
      2081.015  
  24412321.926   128287619.09047      3353.425    24412320.456    99964381.23142
      2613.062  
  20880648.738   109728607.00649     -1428.867    20880650.991    85502835.65148
     -1113.406  
  20486690.505   107658304.17449       752.785    20486692.311    83889603.12149
       586.585  
  20561019.716   109871879.61608      2541.723    20561024.697    85455937.77207
      1976.894  
  22277728.823   119296201.13306     -3194.586    22277734.501    92785971.24105
     -2484.684  
  19571792.869   104622502.66308     -1127.820    19571799.251    81373095.22006
      -877.199  
  21165292.724   112822922.29807     -2047.551           0.000           0.00000
         0.000  
  21502679.265   115065179.50708     -1846.684    21502683.417    89495156.99107
     -1436.312  
  21021796.644   112176339.43808      2843.390    21021802.168    87248286.09406
      2211.526  
  22495252.084   120081174.64107      1767.769           0.000           0.00000
         0.000  
  23398551.682   124990861.39907      4602.765    23398559.404    97215149.63406
      3579.930  
  23375089.520   124997105.70705     -4221.241    23375096.804    97219998.13006
     -3283.190  
 20  9 26  9  2 30.0000000  0 18G11G20G18G15G21G32G12G24G10R11R 8R 1
                                R10R17R 2R18R12R24
  24055838.547   126414292.38246      1204.487    24055838.285    98504638.36244
       938.562  
  20552380.863   108003504.71349     -1880.172    20552379.964    84158581.86147
     -1465.074  
  24515057.160   128827488.07647     -3871.719    24515060.124   100385076.40145
     -3016.926  
  23957979.509   125900041.69846     -3452.960    23957980.465    98103926.85545
     -2690.620  
  23040426.537   121078257.50948       665.866    23040425.785    94346688.26346
       518.859  
  22292819.535   117149557.66448      2669.781    22292821.563    91285381.10547
      2080.347  
  24409131.506   128270853.26146      3352.788    24409129.921    99951316.92843
      2612.554  
  20882009.510   109735757.87949     -1431.660    20882011.788    85508407.76348
     -1115.581  
  20485975.253   107654545.43949       750.483    20485977.040    83886674.23848
       584.789  
  20558643.062   109859179.50008      2538.179    20558648.090    85446059.90907
      1974.141  
  22280712.144   119312176.15007     -3195.480    22280717.579    92798396.28105
     -2485.375  
  19572848.686   104628146.67308     -1130.120    19572855.042    81377485.00206
      -878.987  
  21167214.958   112833168.73007     -2051.288           0.000           0.00000
         0.000  
  21504406.589   115074422.52008     -1850.593    21504410.725    89502346.00107
     -1439.355  
  21019132.803   112162124.61208      2842.371    21019138.287    87237230.12406
      2210.733  
  22493598.238   120072346.39407      1763.426           0.000           0.00000
         0.000  
  23394243.415   124967847.72206      4602.464    23394251.276    97197250.12706
      3579.695  
  23379036.664   125018213.11006     -4221.608    23379043.978    97236414.99306
     -3283.477  
 20  9 26  9  2 35.0000000  0 18G11G20G18G15G21G32G12G24G10R11R 8R 1
                                R10R17R 2R18R12R24
  24054693.698   126408276.53745      1202.027    24054693.626    98499950.61445
       936.633  
  20554171.028   108012912.06149     -1882.546    20554170.120    84165912.24748
     -1466.922  
  24518740.864   128846845.88747     -3871.332    24518743.753   100400160.37345
     -3016.629  
  23961265.316   125917309.01546     -3453.367    23961266.174    98117381.91145
     -2690.933  
  23039794.415   121074935.52848       663.034    23039793.637    94344099.69346
       516.647  
  22290279.815   117136211.25348      2669.145    22290281.817    91274981.30347
      2079.848  
  24405941.739   128254091.16946      3352.312    24405940.152    99938255.60743
      2612.191  
  20883373.182   109742923.83949     -1434.633    20883375.417    85513991.62548
     -1117.894  
  20485262.417   107650799.39649       748.133    20485264.192    83883755.24249
       582.956  
  20556269.789   109846497.38408      2534.789    20556274.822    85436196.04807
      1971.504  
  22283696.361   119328156.12107     -3196.624    22283701.563    92810825.12405
     -2486.270  
  19573906.675   104633802.29608     -1131.902    19573913.021    81381883.82406
      -880.366  
  21169140.899   112843434.73607     -2054.965           0.000           0.00000
         0.000  
  21506137.646   115083685.50608     -1854.414    21506141.761    89509550.55707
     -1442.319  
  21016469.941   112147914.97508      2841.305    21016475.403    87226178.16406
      2209.898  
  22491948.267   120063538.39107      1759.847           0.000           0.00000
         0.000  
  23389935.593   124944835.73307      4602.648    23389943.388    97179351.93306
      3579.836  
  23382984.539   125039324.17106     -4222.491    23382991.870    97252834.65606
     -3284.172  
 20  9 26  9  2 40.0000000  0 18G11G20G18G15G21G32G12G24G10R11R 8R 1
                                R10R17R 2R18R12R24
  24053551.856   126402276.86845      1198.047    24053551.890    98495275.58245
       933.543  
  20555963.684   108022332.50149     -1885.702    20555962.761    84173252.84648
     -1469.382  
  24522424.623   128866204.26246     -3872.199    24522427.483   100415244.82045
     -3017.300  
  23964551.536   125934578.18646     -3454.063    23964552.370    98130838.42644
     -2691.477  
  23039164.822   121071626.89948       660.093    23039164.016    94341521.56146
       514.359  
  22287741.197   117122870.59649      2667.226    22287743.146    91264585.99247
      2078.355  
  24402752.794   128237333.27747      3350.925    24402751.222    99925197.53843
      2611.112  
  20884739.764   109750105.24349     -1437.965    20884742.008    85519587.52648
     -1120.492  
  20484552.058   107647066.46749       745.050    20484553.840    83880846.47148
       580.558  
  20553899.976   109833833.75808      2530.632    20553904.970    85426346.57507
      1968.270  
  22286681.462   119344141.32907     -3197.784    22286686.521    92823258.05905
     -2487.171  
  19574966.869   104639469.92208     -1134.902    19574973.222    81386291.97406
      -882.707  
  21171070.531   112853720.82007     -2059.397           0.000           0.00000
         0.000  
  21507872.496   115092969.00408     -1859.055    21507876.653    89516771.03807
     -1445.934  
  21013808.221   112133711.40608      2839.894    21013813.573    87215130.95706
      2208.808  
  22490302.073   120054751.08807      1754.956           0.000           0.00000
         0.000  
  23385628.151   124921826.02607      4601.469    23385635.949    97161455.50906
      3578.933  
  23386933.263   125060439.46106     -4223.895    23386940.551    97269257.65906
     -3285.257  
 20  9 26  9  2 45.0000000  0 18G11G20G18G15G21G32G12G24G10R11R 8R 1
                                R10R17R 2R18R12R24
  24052413.456   126396294.81646      1195.027    24052413.646    98490614.22644
       931.183  
  20557759.070   108031767.34649     -1888.062    20557758.161    84180604.67748
     -1471.222  
  24526108.754   128885564.65846     -3872.218    24526111.632   100430330.82345
     -3017.316  
  23967838.388   125951850.58247     -3454.781    23967839.320    98144297.37645
     -2692.050  
  23038538.034   121068333.01448       657.703    23038537.215    94338954.88646
       512.491  
  22285203.907   117109536.98648      2666.159    22285205.785    91254196.17447
      2077.526  
  24399564.918   128220580.87347      3350.547    24399563.429    99912143.68144
      2610.813  
  20886109.559   109757303.47249     -1441.007    20886111.801    85525196.53648
     -1122.867  
  20483844.446   107643347.97049       742.569    20483846.202    83877948.93749
       578.625  
  20551533.887   109821189.87508      2527.085    20551538.793    85416512.43807
      1965.508  
  22289667.912   119360133.44407     -3198.598    22289672.868    92835696.40005
     -2487.797  
  19576029.634   104645150.97508     -1137.246    19576035.943    81390710.57006
      -884.522  
  21173004.175   112864028.10807     -2063.093           0.000           0.00000
         0.000  
  21509611.418   115102274.26708     -1863.004    21509615.557    89524008.46707
     -1449.007  
  21011147.811   112119515.01008      2839.015    21011153.163    87204089.32906
      2208.124  
  22488660.021   120045985.85806      1751.234           0.000           0.00000
         0.000  
  23381321.412   124898819.82807      4600.940    23381329.141    97143561.80306
      3578.511  
  23390882.935   125081560.09906     -4224.315    23390890.195    97285684.82406
     -3285.582  
 20  9 26  9  2 50.0000000  0 18G11G20G18G15G21G32G12G24G10R11R 8R 1
                                R10R17R 2R18R12R24
  24051278.192   126390329.59045      1191.554    24051278.513    98485966.01745
       928.483  
  20559557.096   108041215.97849     -1890.819    20559556.166    84187967.23648
     -1473.370  
  24529793.065   128904926.31047     -3871.961    24529795.859   100445417.80445
     -3017.120  
  23971125.767   125969125.53346     -3454.766    23971126.683    98157758.38945
     -2692.027  
  23037913.914   121065053.24148       654.680    23037913.126    94336399.22046
       510.136  
  22282667.825   117096209.87848      2664.999    22282669.713    91243811.41747
      2076.624  
  24396378.019   128203833.48146      3349.391    24396376.532    99899093.77843
      2609.909  
  20887482.404   109764517.72949     -1444.140    20887484.652    85530818.04048
     -1125.305  
  20483139.478   107639643.27749       739.809    20483141.202    83875062.17249
       576.473  
  20549171.377   109808565.21508      2523.241    20549176.224    85406693.26307
      1962.519  
  22292655.534   119376131.61807     -3199.933    22292660.434    92848139.41306
     -2488.840  
  19577094.726   104650844.72408     -1139.730    19577101.018    81395139.04706
      -886.457  
  21174941.691   112874356.19107     -2067.675           0.000           0.00000
         0.000  
  21511354.254   115111600.62808     -1867.308    21511358.395    89531262.30507
     -1452.352  
  21008488.674   112105325.12608      2837.523    21008493.978    87193052.75806
      2206.961  
  22487021.909   120037241.97407      1746.745           0.000           0.00000
         0.000  
  23377015.180   124875816.58107      4600.558    23377022.874    97125670.40406
      3578.218  
  23394833.531   125102685.52506     -4225.343    23394840.661    97302115.68906
     -3286.387  
 20  9 26  9  2 55.0000000  0 18G11G20G18G15G21G32G12G24G10R11R 8R 1
                                R10R17R 2R18R12R24
  24050145.886   126384379.65846      1187.929    24050146.193    98481329.69744
       925.655  
  20561357.432   108050676.74549     -1893.617    20561356.473    84195339.25848
     -1475.551  
  24533477.361   128924287.63646     -3872.711    24533480.163   100460504.53945
     -3017.702  
  23974413.332   125986401.42846     -3455.714    23974414.204    98171220.11246
     -2692.769  
  23037292.175   121061785.94848       651.758    23037291.411    94333853.27846
       507.858  
  22280132.664   117082887.58048      2663.586    22280134.543    91233430.41047
      2075.522  
  24393191.624   128187089.33146      3347.953    24393190.466    99886046.39944
      2608.789  
  20888858.005   109771746.36849     -1447.679    20888860.210    85536450.74848
     -1128.062  
  20482436.831   107635950.77949       736.941    20482438.496    83872184.89548
       574.234  
  20546812.108   109795958.03108      2519.242    20546816.887    85396887.68107
      1959.409  
  22295643.917   119392134.27007     -3201.434    22295648.850    92860585.90306
     -2490.007  
  19578161.938   104656549.52008     -1142.535    19578168.179    81399576.10806
      -888.636  
  21176882.752   112884703.13507     -2071.776           0.000           0.00000
         0.000  
  21513100.735   115120946.37208     -1871.362    21513104.856    89538531.21607
     -1455.507  
  21005830.520   112091140.39608      2836.081    21005835.754    87182020.20306
      2205.839  
  22485387.574   120028517.81307      1742.246           0.000           0.00000
         0.000  
  23372709.131   124852814.53507      4600.082    23372716.779    97107779.94306
      3577.840  
  23398784.794   125123814.20306     -4226.492    23398791.758    97318549.08806
     -3287.280  
 20  9 26  9  3  0.0000000  0 18G11G20G18G15G21G32G12G24G10R11R 8R 1
                                R10R17R 2R18R12R24
  24049016.725   126378445.84146      1185.652    24049017.049    98476705.91644
       923.882  
  20563160.220   108060150.48849     -1895.679    20563159.228    84202721.39248
     -1477.155  
  24537161.744   128943649.38646     -3871.770    24537164.505   100475591.61744
     -3016.969  
  23977701.212   126003679.04046     -3455.508    23977702.155    98184683.16245
     -2692.608  
  23036672.974   121058531.96048       649.781    23036672.221    94331317.70446
       506.323  
  22277598.579   117069570.96648      2663.120    22277600.474    91223053.82447
      2075.156  
  24390006.122   128170349.34547      3348.125    24390004.869    99873002.22643
      2608.921  
  20890236.514   109778990.26449     -1449.902    20890238.678    85542095.34548
     -1129.793  
  20481736.671   107632271.32149       734.905    20481738.278    83869317.77649
       572.648  
  20544456.285   109783369.28608      2516.272    20544461.010    85387096.44507
      1957.101  
  22298633.230   119408142.06507     -3201.840    22298638.166    92873036.42605
     -2490.319  
  19579231.368   104662266.30108     -1143.992    19579237.621    81404022.48906
      -889.777  
  21178827.536   112895070.11707     -2074.823           0.000           0.00000
         0.000  
  21514851.047   115130312.45708     -1874.953    21514855.138    89545815.94107
     -1458.300  
  21003173.396   112076961.25308      2835.647    21003178.616    87170991.96707
      2205.500  
  22483757.131   120019814.42707      1739.215           0.000           0.00000
         0.000  
  23368403.511   124829814.68806      4600.147    23368411.147    97089891.18406
      3577.894  
  23402736.763   125144946.87706     -4226.984    23402743.647    97334985.58806
     -3287.660  
 20  9 26  9  3  5.0000000  0 18G11G20G18G15G21G32G12G24G10R11R 8R 1
                                R10R17R 2R18R12R24
  24047890.523   126372527.51646      1181.891    24047890.925    98472094.25143
       920.949  
  20564965.365   108069636.55949     -1898.890    20564964.360    84210113.13748
     -1479.655  
  24540846.098   128963010.98447     -3873.062    24540848.864   100490678.54445
     -3017.980  
  23980989.319   126020957.78947     -3456.628    23980990.148    98198147.09746
     -2693.480  
  23036056.152   121055290.63648       646.472    23036055.394    94328791.99446
       503.742  
  22275065.461   117056259.37448      2661.410    22275067.364    91212681.16047
      2073.824  
  24386821.224   128153612.93747      3346.184    24386820.082    99859960.89743
      2607.413  
  20891617.816   109786248.86949     -1453.569    20891619.953    85547751.40348
     -1132.656  
  20481038.855   107628604.27149       731.633    20481040.432    83866460.33949
       570.102  
  20542103.796   109770798.26808      2511.909    20542108.464    85377318.99207
      1953.706  
  22301623.439   119424154.49907     -3203.305    22301628.295    92885490.52005
     -2491.465  
  19580302.909   104667994.36108     -1147.148    19580309.135    81408477.64806
      -892.227  
  21180776.004   112905456.42207     -2079.780           0.000           0.00000
         0.000  
  21516605.000   115139698.14908     -1879.608    21516609.063    89553115.91907
     -1461.921  
  21000517.237   112062787.35308      2833.902    21000522.477    87159967.81707
      2204.141  
  22482130.399   120011130.91707      1734.199           0.000           0.00000
         0.000  
  23364098.211   124806816.39107      4598.710    23364105.795    97072003.65006
      3576.777  
  23406689.291   125166082.72607     -4228.074    23406696.092    97351424.56106
     -3288.512  
 20  9 26  9  3 10.0000000  0 18G11G20G18G15G21G32G12G24G10R11R 8R 1
                                R10R17R 2R18R12R24
  24046767.721   126366626.90246      1178.937    24046768.069    98467496.37544
       918.648  
  20566773.284   108079137.17449     -1901.542    20566772.260    84217516.21948
     -1481.726  
  24544530.836   128982374.63546     -3872.843    24544533.646   100505767.07945
     -3017.808  
  23984277.946   126038239.85847     -3456.386    23984278.919    98211613.65945
     -2693.293  
  23035442.158   121052064.23348       643.672    23035441.444    94326277.91046
       501.559  
  22272533.712   117042955.06848      2660.237    22272535.647    91202314.17147
      2072.909  
  24383637.451   128136882.28147      3345.438    24383636.553    99846924.00544
      2606.831  
  20893002.329   109793524.40749     -1456.789    20893004.462    85553420.64448
     -1135.164  
  20480343.816   107624951.84749       729.082    20480345.387    83863614.30748
       568.117  
  20539755.061   109758247.40108      2508.210    20539759.694    85367557.20307
      1950.828  
  22304614.976   119440173.85507     -3204.542    22304619.753    92897949.99106
     -2492.429  
  19581376.995   104673736.09408     -1149.698    19581383.232    81412943.44806
      -894.210  
  21182728.451   112915864.06507     -2083.761           0.000           0.00000
         0.000  
  21518363.021   115149105.70808     -1883.609    21518367.051    89560432.90207
     -1465.034  
  20997862.452   112048620.75608      2832.625    20997867.670    87148949.35307
      2203.147  
  22480507.851   120002469.70907      1729.983           0.000           0.00000
         0.000  
  23359793.630   124783821.96307      4598.917    23359801.195    97054119.08606
      3576.934  
  23410642.893   125187224.25606     -4228.598    23410649.700    97367867.96506
     -3288.913  
 20  9 26  9  3 15.0000000  0 18G11G20G18G15G21G32G12G24G10R11R 8R 1
                                R10R17R 2R18R12R24
  24045647.875   126360742.04046      1175.655    24045648.135    98462910.77744
       916.094  
  20568583.591   108088650.37049     -1903.973    20568582.558    84224929.08448
     -1483.617  
  24548215.594   129001738.32447     -3872.793    24548218.488   100520855.67444
     -3017.765  
  23987566.936   126055523.33546     -3456.909    23987567.984    98225081.30045
     -2693.694  
  23034830.644   121048850.73248       641.410    23034829.912    94323773.87946
       499.797  
  22270002.997   117029656.04348      2659.094    22270004.868    91191951.30547
      2072.019  
  24380454.378   128120155.34147      3344.891    24380453.577    99833890.06344
      2606.409  
  20894389.666   109800814.88149     -1459.601    20894391.780    85559101.54048
     -1137.352  
  20479651.191   107621312.07949       726.554    20479652.744    83860778.11349
       566.144  
  20537409.641   109745714.46908      2504.664    20537414.338    85357809.38107
      1948.070  
  22307607.494   119456198.06007     -3205.555    22307612.248    92910413.28406
     -2493.211  
  19582453.246   104679489.21008     -1151.887    19582459.469    81417418.08306
      -895.914  
  21184684.535   112926291.18607     -2087.397           0.000           0.00000
         0.000  
  21520124.730   115158533.05908     -1887.585    21520128.732    89567765.28807
     -1468.120  
  20995208.730   112034459.76908      2831.523    20995213.969    87137935.26007
      2202.296  
  22478889.138   119993828.78006      1726.272           0.000           0.00000
         0.000  
  23355489.231   124760829.32806      4598.433    23355496.933    97036235.95606
      3576.563  
  23414597.161   125208369.13007     -4229.422    23414603.864    97384313.93105
     -3289.558  
 20  9 26  9  3 20.0000000  0 18G11G20G18G15G21G32G12G24G10R11R 8R 1
                                R10R17R 2R18R12R24
  24044531.160   126354873.66746      1172.218    24044531.510    98458338.01143
       913.414  
  20570396.410   108098176.92549     -1906.522    20570395.393    84232352.37347
     -1485.604  
  24551900.557   129021102.77846     -3872.863    24551903.451   100535944.82444
     -3017.820  
  23990856.327   126072809.01446     -3457.059    23990857.416    98238550.62945
     -2693.820  
  23034221.729   121045650.92848       638.862    23034220.968    94321280.54346
       497.816  
  22267473.425   117016363.04948      2658.230    22267475.288    91181593.13047
      2071.347  
  24377272.191   128103433.02246      3344.457    24377271.698    99820859.70944
      2606.073  
  20895779.930   109808120.80049     -1462.612    20895782.034    85564794.46448
     -1139.699  
  20478961.124   107617685.72049       724.117    20478962.648    83857952.38048
       564.241  
  20535067.754   109733200.35508      2501.163    20535072.508    85348076.18307
      1945.347  
  22310601.007   119472227.80807     -3206.460    22310605.780    92922880.83406
     -2493.918  
  19583531.802   104685254.64308     -1154.183    19583538.035    81421902.30906
      -897.699  
  21186644.421   112936738.51307     -2091.234           0.000           0.00000
         0.000  
  21521890.340   115167981.00908     -1891.359    21521894.269    89575113.68907
     -1471.063  
  20992556.131   112020304.86408      2830.438    20992561.384    87126925.89107
      2201.453  
  22477274.293   119985208.85007      1721.995           0.000           0.00000
         0.000  
  23351185.406   124737839.21906      4597.840    23351193.134    97018354.77906
      3576.098  
  23418552.183   125229518.19106     -4229.757    23418558.841    97400763.18405
     -3289.819  
 20  9 26  9  3 25.0000000  0 18G11G20G18G15G21G32G12G24G10R11R 8R 1
                                R10R17R 2R18R12R24
  24043417.798   126349022.90846      1168.383    24043418.042    98453779.04643
       910.434  
  20572211.977   108107717.79649     -1909.604    20572210.953    84239786.82148
     -1488.008  
  24555585.832   129040469.06347     -3873.520    24555588.768   100551035.42445
     -3018.335  
  23994146.346   126090097.80546     -3458.742    23994147.488    98252022.42545
     -2695.128  
  23033615.657   121042465.87348       635.522    23033614.831    94318798.67246
       495.211  
  22264945.172   117003077.14548      2656.430    22264947.073    91171240.47947
      2069.940  
  24374091.045   128086716.36447      3342.714    24374090.788    99807833.75744
      2604.714  
  20897173.404   109815443.52349     -1466.148    20897175.502    85570500.48148
     -1142.456  
  20478273.790   107614073.82349       720.965    20478275.328    83855137.91848
       561.788  
  20532729.606   109720706.18708      2496.914    20532734.372    85338358.49707
      1942.039  
  22313595.780   119488264.43307     -3207.753    22313600.553    92935353.76806
     -2494.918  
  19584612.843   104691033.46108     -1156.891    19584619.084    81426396.95406
      -899.805  
  21188608.244   112947207.04207     -2095.835           0.000           0.00000
         0.000  
  21523659.982   115177450.62908     -1896.077    21523663.901    89582478.94707
     -1474.726  
  20989904.913   112006157.24108      2828.891    20989910.149    87115922.18707
      2200.250  
  22475663.625   119976610.93307      1717.386           0.000           0.00000
         0.000  
  23346882.288   124714852.77107      4596.991    23346889.980    97000476.41206
      3575.438  
  23422508.208   125250672.55106     -4231.487    23422514.815    97417216.55005
     -3291.164  
 20  9 26  9  3 30.0000000  0 18G11G20G18G15G21G32G12G24G10R11R 8R 1
                                R10R17R 2R18R12R24
  24042307.394   126343187.28946      1165.069    24042307.620    98449231.80543
       907.851  
  20574029.808   108117270.65349     -1911.930    20574028.832    84247230.60548
     -1489.820  
  24559270.983   129059834.69247     -3873.188    24559274.038   100566125.51944
     -3018.069  
  23997436.462   126107387.26146     -3458.145    23997437.521    98265494.68545
     -2694.660  
  23033011.925   121039293.17648       633.054    23033011.080    94316326.44346
       493.288  
  22262417.826   116989795.94648      2655.656    22262419.740    91160891.50647
      2069.344  
  24370910.557   128070002.94347      3342.214    24370910.444    99794810.31143
      2604.320  
  20898569.593   109822780.51849     -1468.991    20898571.663    85576217.61848
     -1144.671  
  20477588.767   107610473.99949       718.602    20477590.289    83852332.86048
       559.948  
  20530394.763   109708229.46408      2493.433    20530399.518    85328654.38907
      1939.335  
  22316591.262   119504305.19707     -3208.605    22316596.045    92947829.91605
     -2495.585  
  19585695.935   104696823.14508     -1159.323    19585702.223    81430900.03406
      -901.698  
  21190575.667   112957694.35907     -2099.515           0.000           0.00000
         0.000  
  21525433.234   115186939.43708     -1899.913    21525437.155    89589859.12607
     -1477.714  
  20987254.591   111992014.42408      2827.882    20987259.814    87104922.21807
      2199.465  
  22474056.661   119968032.78406      1713.378           0.000           0.00000
         0.000  
  23342579.419   124691867.61307      4596.512    23342587.081    96982599.10206
      3575.066  
  23426464.745   125271829.74706     -4231.801    23426471.225    97433672.10905
     -3291.409  
 20  9 26  9  3 35.0000000  0 18G11G20G18G15G21G32G12G24G10R11R 8R 1
                                R10R17R 2R18R12R24
  24041200.155   126337368.71046      1162.043    24041200.324    98444697.89144
       905.500  
  20575850.274   108126837.32949     -1914.668    20575849.309    84254685.15548
     -1491.952  
  24562956.424   129079201.62946     -3873.265    24562959.455   100581216.62344
     -3018.137  
  24000727.069   126124679.30147     -3458.586    24000728.145    98278968.99145
     -2695.012  
  23032410.902   121036134.62148       630.410    23032409.976    94313865.24046
       491.230  
  22259891.749   116976521.32348      2654.398    22259893.682    91150547.65547
      2068.363  
  24367730.987   128053294.59347      3341.461    24367731.050    99781790.85045
      2603.733  
  20899968.832   109830133.59849     -1472.102    20899970.900    85581947.29248
     -1147.098  
  20476906.395   107606888.14449       715.788    20476907.916    83849538.68748
       557.758  
  20528063.550   109695772.17108      2489.605    20528068.307    85318965.38707
      1936.359  
  22319587.977   119520352.15707     -3210.030    22319592.606    92960310.86505
     -2496.694  
  19586781.462   104702625.69308     -1161.523    19586787.754    81435413.12706
      -903.409  
  21192546.936   112968202.30107     -2103.776           0.000           0.00000
         0.000  
  21527210.406   115196449.31708     -1903.938    21527214.361    89597255.68807
     -1480.843  
  20984605.483   111977878.28008      2826.660    20984610.732    87093927.45007
      2198.512  
  22472453.715   119959476.21306      1709.262           0.000           0.00000
         0.000  
  23338277.086   124668885.66806      4595.972    23338284.778    96964724.26506
      3574.645  
  23430422.177   125292991.60006     -4232.551    23430428.497    97450131.31305
     -3291.988  
 20  9 26  9  3 40.0000000  0 18G11G20G18G15G21G32G12G24G10R11R 8R 1
                                R10R17R 2R18R12R24
  24040096.106   126331567.01546      1159.371    24040095.963    98440177.03243
       903.398  
  20577673.315   108136417.62949     -1917.137    20577672.381    84262150.33048
     -1493.870  
  24566642.051   129098569.66647     -3873.273    24566645.181   100596308.58944
     -3018.141  
  24004018.108   126141973.70447     -3458.745    24004019.189    98292445.17245
     -2695.125  
  23031812.533   121032990.11248       627.680    23031811.552    94311414.98346
       489.101  
  22257366.859   116963253.12748      2653.250    22257368.831    91140208.81247
      2067.468  
  24364552.430   128036591.22547      3340.968    24364552.772    99768775.23844
      2603.351  
  20901371.168   109837502.70749     -1475.108    20901373.188    85587689.45948
     -1149.437  
  20476226.647   107603316.07349       713.270    20476228.166    83846755.25948
       555.792  
  20525735.964   109683334.09908      2485.983    20525740.706    85309291.33007
      1933.543  
  22322585.726   119536405.06107     -3210.901    22322590.280    92972796.44705
     -2497.371  
  19587869.286   104708440.76608     -1163.930    19587875.615    81439935.96506
      -905.281  
  21194522.063   112978730.59207     -2107.566           0.000           0.00000
         0.000  
  21528991.451   115205980.05208     -1907.827    21528995.434    89604668.47207
     -1483.871  
  20981957.610   111963748.81608      2825.519    20981962.892    87082937.87107
      2197.624  
  22470854.795   119950941.13006      1705.543           0.000           0.00000
         0.000  
  23333975.345   124645906.60006      4596.293    23333983.018    96946851.65806
      3574.895  
  23434380.420   125314158.01207     -4233.062    23434386.707    97466594.07605
     -3292.386  
 20  9 26  9  3 45.0000000  0 18G11G20G18G15G21G32G12G24G10R11R 8R 1
                                R10R17R 2R18R12R24
  24038994.715   126325779.41745      1155.848    24038994.691    98435667.28742
       900.667  
  20579498.466   108146008.80349     -1919.871    20579497.522    84269623.97648
     -1496.004  
  24570327.304   129117935.95646     -3873.565    24570330.319   100611399.20745
     -3018.366  
  24007309.086   126159267.81447     -3459.444    24007310.068    98305921.08545
     -2695.676  
  23031216.290   121029856.83248       625.077    23031215.276    94308973.45846
       487.070  
  22254842.666   116949988.49548      2652.246    22254844.662    91129872.73447
      2066.679  
  24361374.312   128019890.10347      3339.312    24361374.633    99755761.35044
      2602.054  
  20902775.942   109844884.84349     -1478.305    20902777.952    85593441.76448
     -1151.929  
  20475548.992   107599754.97549       710.703    20475550.506    83843980.38548
       553.792  
  20523411.424   109670912.49308      2482.022    20523416.120    85299630.08507
      1930.461  
  22325584.080   119552460.85907     -3211.680    22325588.645    92985284.28005
     -2497.976  
  19588958.970   104714265.75208     -1166.511    19588965.292    81444466.51206
      -907.288  
  21196500.500   112989276.52307     -2111.246           0.000           0.00000
         0.000  
  21530775.797   115215528.82308     -1911.718    21530779.874    89612095.29907
     -1486.894  
  20979310.382   111949622.94808      2824.198    20979315.712    87071951.08807
      2196.593  
  22469259.377   119942424.64906      1700.898           0.000           0.00000
         0.000  
  23329673.735   124622927.89506      4595.214    23329681.332    96928979.35606
      3574.059  
  23438338.956   125335325.95606     -4234.512    23438345.272    97483058.03105
     -3293.512  
 20  9 26  9  3 50.0000000  0 18G11G20G18G15G21G32G12G24G10R11R 8R 1
                                R10R17R 2R18R12R24
  24037896.809   126320010.38645      1151.804    24037896.272    98431171.97641
       897.512  
  20581326.525   108155615.34749     -1922.762    20581325.625    84277109.59448
     -1498.258  
  24574013.179   129137305.08246     -3874.198    24574016.084   100626492.01645
     -3018.858  
  24010600.788   126176565.95147     -3459.952    24010601.834    98319400.16044
     -2696.066  
  23030623.061   121026739.42448       622.120    23030621.994    94306544.31846
       484.770  
  22252320.030   116936732.07948      2650.574    22252322.000    91119543.07347
      2065.382  
  24358197.475   128003195.74647      3338.121    24358197.824    99742752.78645
      2601.137  
  20904184.083   109852284.70349     -1481.503    20904186.063    85599207.90048
     -1154.417  
  20474874.305   107596209.47049       707.718    20474875.802    83841217.64948
       551.464  
  20521090.821   109658511.95808      2478.081    20521095.473    85289985.24107
      1927.398  
  22328583.947   119568524.63907     -3213.145    22328588.436    92997778.33505
     -2499.113  
  19590051.400   104720105.13608     -1169.094    19590057.661    81449008.25106
      -909.300  
  21198483.024   112999844.77207     -2115.620           0.000           0.00000
         0.000  
  21532564.363   115225100.26807     -1916.597    21532568.495    89619539.74807
     -1490.690  
  20976664.779   111935505.53708      2822.777    20976670.153    87060970.88207
      2195.492  
  22467668.422   119933931.40007      1696.405           0.000           0.00000
         0.000  
  23325372.876   124599953.94707      4594.499    23325380.555    96911110.73806
      3573.499  
  23442298.663   125356500.29306     -4235.440    23442305.023    97499526.92205
     -3294.237  
 20  9 26  9  3 55.0000000  0 18G11G20G18G15G21G32G12G24G10R11R 8R 1
                                R10R17R 2R18R12R24
  24036801.875   126314257.28046      1149.020    24036801.372    98426688.97943
       895.335  
  20583156.989   108165234.50249     -1924.999    20583156.105    84284605.04347
     -1499.999  
  24577698.994   129156674.23347     -3873.745    24577701.861   100641584.81244
     -3018.511  
  24013892.843   126193865.59647     -3459.667    24013893.910    98332880.40945
     -2695.847  
  23030032.266   121023634.96348       619.563    23030031.284    94304125.27146
       482.776  
  22249798.402   116923481.08548      2649.809    22249800.435    91109217.62447
      2064.785  
  24355021.429   127986505.41947      3337.813    24355021.793    99729747.34744
      2600.895  
  20905595.062   109859699.54549     -1484.371    20905597.021    85604985.69348
     -1156.655  
  20474202.048   107592676.76449       705.405    20474203.544    83838464.89648
       549.667  
  20518773.669   109646129.67508      2474.878    20518778.214    85280354.57407
      1924.906  
  22331584.704   119584593.21407     -3213.991    22331589.002    93010276.11705
     -2499.776  
  19591145.991   104725956.16208     -1171.121    19591152.201    81453559.04506
      -910.874  
  21200469.235   113010432.48807     -2119.445           0.000           0.00000
         0.000  
  21534356.727   115234691.57008     -1920.097    21534360.836    89626999.64707
     -1493.414  
  20974020.235   111921393.58508      2821.921    20974025.628    87049994.93107
      2194.827  
  22466081.206   119925458.67106      1692.585           0.000           0.00000
         0.000  
  23321072.540   124576982.10406      4594.145    23321080.137    96893243.76606
      3573.222  
  23446258.919   125377677.96707     -4235.832    23446265.352    97515998.43505
     -3294.542  
 20  9 26  9  4  0.0000000  0 18G11G20G18G15G21G32G12G24G10R11R 8R 1
                                R10R17R 2R18R12R24
  24035710.066   126308520.75245      1145.390    24035709.565    98422218.93444
       892.507  
  20584989.986   108174866.93549     -1928.069    20584989.073    84292110.83348
     -1502.394  
  24581384.962   129176044.09446     -3874.421    24581387.849   100656678.22345
     -3019.030  
  24017185.296   126211167.24247     -3461.522    24017186.242    98346362.17745
     -2697.289  
  23029444.095   121020544.19848       616.628    23029443.121    94301716.87346
       480.488  
  22247277.920   116910236.11348      2648.284    22247280.002    91098896.87147
      2063.594  
  24351846.265   127969819.75347      3336.609    24351846.590    99716745.51444
      2599.953  
  20907009.004   109867129.79649     -1487.723    20907010.921    85610775.50348
     -1159.265  
  20473532.351   107589157.48249       702.319    20473533.847    83835722.59848
       547.258  
  20516460.030   109633766.25808      2470.668    20516464.502    85270738.58607
      1921.624  
  22334586.448   119600667.47707     -3215.729    22334590.728    93022778.32505
     -2501.129  
  19592242.867   104731819.49708     -1174.066    19592249.076    81458119.42606
      -913.163  
  21202459.172   113021040.13107     -2123.785           0.000           0.00000
         0.000  
  21536152.963   115244303.21508     -1924.589    21536156.959    89634475.38207
     -1496.901  
  20971376.846   111907287.86508      2820.487    20971382.246    87039023.82407
      2193.714  
  22464497.879   119917006.89106      1688.246           0.000           0.00000
         0.000  
  23316772.646   124554012.90506      4593.344    23316780.182    96875378.84306
      3572.601  
  23450220.059   125398859.74306     -4236.921    23450226.540    97532473.14205
     -3295.386  
 20  9 26  9  4  5.0000000  0 18G11G20G18G15G21G32G12G24G10R11R 8R 1
                                R10R17R 2R18R12R24
  24034621.660   126302801.54745      1142.238    24034621.101    98417762.44944
       890.066  
  20586825.646   108184513.36049     -1930.468    20586824.746    84299627.51548
     -1504.265  
  24585071.197   129195415.41947     -3874.082    24585074.005   100671772.73045
     -3018.773  
  24020478.302   126228471.72847     -3460.753    24020479.093    98359846.19445
     -2696.695  
  23028858.719   121017467.99548       613.828    23028857.732    94299319.83346
       478.305  
  22244758.768   116896998.09748      2647.035    22244760.909    91088581.54447
      2062.624  
  24348672.079   127953139.60547      3335.507    24348672.525    99703748.00044
      2599.098  
  20908426.067   109874576.45249     -1490.828    20908427.930    85616578.10448
     -1161.684  
  20472865.365   107585652.51249       699.758    20472866.879    83832991.44548
       545.261  
  20514150.107   109621422.72808      2466.980    20514154.580    85261138.06707
      1918.762  
  22337589.346   119616748.07507     -3216.374    22337593.563    93035285.46305
     -2501.629  
  19593342.177   104737695.94008     -1176.351    19593348.355    81462689.98706
      -914.944  
  21204453.048   113031668.76507     -2127.761           0.000           0.00000
         0.000  
  21537953.117   115253936.23808     -1928.457    21537957.114    89641967.73707
     -1499.909  
  20968734.766   111893189.21908      2819.199    20968740.165    87028058.20507
      2192.711  
  22462918.690   119908577.10006      1683.737           0.000           0.00000
         0.000  
  23312473.439   124531047.46506      4593.206    23312480.906    96857516.83306
      3572.495  
  23454182.161   125420046.38206     -4237.457    23454188.614    97548951.60306
     -3295.809  
 20  9 26  9  4 10.0000000  0 18G11G20G18G15G21G32G12G24G10R11R 8R 1
                                R10R17R 2R18R12R24
  24033536.207   126297097.45445      1138.855    24033535.584    98413317.68845
       887.418  
  20588663.530   108194171.57049     -1932.945    20588662.652    84307153.40248
     -1506.191  
  24588757.303   129214785.85147     -3874.198    24588760.157   100686866.56145
     -3018.862  
  24023771.356   126245776.65747     -3461.347    24023772.137    98373330.56845
     -2697.151  
  23028275.612   121014403.93648       611.433    23028274.685    94296932.25946
       476.441  
  22242240.482   116883764.60048      2646.120    22242242.675    91078269.73547
      2061.913  
  24345498.566   127936462.68347      3334.897    24345498.930    99690753.00344
      2598.620  
  20909845.779   109882037.15149     -1493.788    20909847.604    85622391.62048
     -1163.996  
  20472200.660   107582159.49249       697.289    20472202.174    83830269.62048
       543.344  
  20511843.422   109609096.56608      2463.281    20511847.924    85251551.06207
      1915.887  
  22340593.098   119632832.65607     -3217.694    22340597.142    93047795.67305
     -2502.655  
  19594443.448   104743583.14808     -1178.702    19594449.679    81467268.92906
      -916.773  
  21206450.366   113042315.78307     -2131.343           0.000           0.00000
         0.000  
  21539756.819   115263588.14708     -1932.160    21539760.830    89649474.76307
     -1502.796  
  20966093.509   111879095.24508      2818.104    20966098.948    87017096.23807
      2191.859  
  22461343.131   119900167.00406      1680.047           0.000           0.00000
         0.000  
  23308174.353   124508083.14806      4592.655    23308181.804    96839655.74006
      3572.070  
  23458144.647   125441235.48006     -4238.022    23458151.092    97565432.02105
     -3296.245  
 20  9 26  9  4 15.0000000  0 18G11G20G18G15G21G32G12G24G10R11R 8R 1
                                R10R17R 2R18R12R24
  24032453.818   126291410.17746      1135.593    24032453.326    98408886.14644
       884.894  
  20590504.025   108203843.49749     -1935.569    20590503.164    84314689.95947
     -1508.242  
  24592443.590   129234157.32747     -3874.073    24592446.402   100701961.18144
     -3018.765  
  24027064.891   126263084.08247     -3461.589    24027065.728    98386816.86645
     -2697.348  
  23027695.217   121011354.03048       608.691    23027694.331    94294555.71446
       474.304  
  22239723.473   116870537.63248      2644.769    22239725.678    91067963.02247
      2060.858  
  24342326.042   127919790.92747      3333.965    24342326.444    99677762.01744
      2597.890  
  20911268.524   109889513.75449     -1496.789    20911270.335    85628217.55748
     -1166.328  
  20471538.602   107578680.35849       694.648    20471540.108    83827558.59948
       541.281  
  20509540.361   109596789.79908      2459.780    20509544.943    85241979.14307
      1913.163  
  22343597.955   119648923.25107     -3218.355    22343601.936    93060310.56305
     -2503.172  
  19595547.110   104749483.01008     -1181.031    19595553.370    81471857.70606
      -918.582  
  21208451.526   113052983.24907     -2135.270           0.000           0.00000
         0.000  
  21541564.410   115273260.89807     -1936.492    21541568.412    89656998.00307
     -1506.163  
  20963453.561   111865007.94708      2816.921    20963458.919    87006139.44707
      2190.934  
  22459771.673   119891778.39506      1675.519    22459777.271    93249193.42115
      1303.180  
  23303875.911   124485121.92306      4592.042    23303883.300    96821797.00006
      3571.585  
  23462107.871   125462429.08906     -4238.969    23462114.419    97581915.93905
     -3296.979  
 20  9 26  9  4 20.0000000  0 18G11G20G18G15G21G32G12G24G10R11R 8R 1
                                R10R17R 2R18R12R24
  24031374.515   126285738.65245      1132.547    24031374.187    98404466.68944
       882.495  
  20592346.888   108213527.80749     -1938.441    20592346.021    84322236.18348
     -1510.473  
  24596129.833   129253528.65946     -3874.925    24596132.639   100717055.73544
     -3019.421  
  24030358.647   126280392.63947     -3462.191    24030359.435    98400304.07845
     -2697.813  
  23027117.243   121008316.91348       605.870    23027116.420    94292189.13846
       472.104  
  22237207.464   116857315.85049      2643.558    22237209.665    91057660.33847
      2059.914  
  24339154.262   127903123.01647      3332.757    24339154.638    99664774.06145
      2596.956  
  20912694.060   109897004.99949     -1500.140    20912695.876    85634054.88148
     -1168.944  
  20470878.947   107575213.84349       691.632    20470880.453    83824857.42448
       538.933  
  20507240.688   109584501.20108      2455.555    20507245.300    85232421.34607
      1909.875  
  22346603.651   119665018.64807     -3219.891    22346607.622    93072829.20305
     -2504.359  
  19596652.976   104755394.30908     -1183.960    19596659.201    81476455.38406
      -920.862  
  21210456.305   113063669.90907     -2139.562           0.000           0.00000
         0.000  
  21543375.668   115282953.15108     -1940.648    21543379.625    89664536.41607
     -1509.398  
  20960814.651   111850926.12408      2815.359    20960819.871    86995186.91907
      2189.719  
  22458203.926   119883410.08806      1671.379    22458209.621    93242684.74405
      1299.960  
  23299577.853   124462162.78106      4591.008    23299585.229    96803939.90506
      3570.785  
  23466071.769   125483625.67806     -4240.491    23466078.307    97598402.16005
     -3298.164  
 20  9 26  9  4 25.0000000  0 17G11G20G15G21G32G12G24G10R11R 8R 1R10
                                R17R 2R18R12R24
  24030297.505   126280079.01945      1131.190    24030297.335    98400056.66044
       881.453  
  20594191.397   108223220.73649     -1939.538    20594190.530    84329789.10548
     -1511.332  
  24033651.880   126297698.63147     -3461.035    24033652.587    98413789.23445
     -2696.913  
  23026541.022   121005288.91348       604.698    23026540.246    94289829.64746
       471.191  
  22234691.716   116844095.53549      2643.827    22234693.896    91047358.80847
      2060.125  
  24335982.504   127886455.31547      3333.405    24335982.941    99651786.24545
      2597.457  
  20914121.667   109904507.18549     -1501.577    20914123.519    85639900.74748
     -1170.062  
  20470220.987   107571756.14849       690.718    20470222.467    83822163.11248
       538.219  
  20504943.710   109572226.91108      2453.495    20504948.358    85222874.68107
      1908.273  
  22349609.528   119681114.66907     -3219.124    22349613.323    93085348.34105
     -2503.765  
  19597760.172   104761313.09308     -1184.730    19597766.446    81481058.88206
      -921.460  
  21212463.974   113074371.94807     -2142.215           0.000           0.00000
         0.000  
  21545189.811   115292661.12408     -1943.176    21545193.741    89672087.07007
     -1511.358  
  20958176.010   111836845.92408      2815.910    20958181.156    86984235.64707
      2190.148  
  22456639.351   119875058.31206      1668.813    22456645.067    93236188.91705
      1297.964  
  23295279.463   124439201.64707      4592.229    23295286.791    96786081.25506
      3571.733  
  23470035.418   125504821.52706     -4239.351    23470042.086    97614887.77105
     -3297.280  
 20  9 26  9  4 30.0000000  0 17G11G20G15G21G32G12G24G10R11R 8R 1R10
                                R17R 2R18R12R24
  24029223.713   126274436.29846      1126.609    24029223.900    98395659.71743
       877.878  
  20596038.500   108232927.29949     -1943.272    20596037.638    84337352.64248
     -1514.241  
  24036945.607   126315006.94047     -3462.245    24036946.212    98427276.23245
     -2697.855  
  23025967.460   121002274.98048       600.801    23025966.706    94287481.12946
       468.151  
  22232177.183   116830881.67048      2641.437    22232179.375    91037062.29647
      2058.261  
  24332811.703   127869792.67347      3331.460    24332812.248    99638802.34644
      2595.940  
  20915552.275   109912025.17349     -1505.824    20915554.161    85645758.92248
     -1173.370  
  20469565.658   107568312.34349       686.780    20469567.147    83819479.62348
       535.148  
  20502650.330   109559971.96808      2448.362    20502655.051    85213343.06307
      1904.280  
  22352616.548   119697216.75107     -3221.527    22352620.167    93097872.20805
     -2505.629  
  19598869.765   104767244.50508     -1188.003    19598876.045    81485672.19506
      -924.008  
  21214475.543   113085094.27107     -2146.776           0.000           0.00000
         0.000  
  21547007.882   115302389.82907     -1948.331    21547011.745    89679653.84407
     -1515.371  
  20955538.596   111822772.23608      2813.401    20955543.738    86973289.44707
      2188.202  
  22455078.814   119866727.97006      1663.016    22455084.496    93229709.75104
      1293.453  
  23290981.660   124416243.71107      4590.430    23290988.971    96768225.10806
      3570.336  
  23473999.934   125526021.73406     -4240.895    23474006.654    97631376.79205
     -3298.479  
 20  9 26  9  4 35.0000000  0 17G11G20G15G21G32G12G24G10R11R 8R 1R10
                                R17R 2R18R12R24
  24028154.143   126268815.42045      1121.937    24028154.112    98391279.74345
       874.227  
  20597889.144   108242652.37149     -1946.621    20597888.244    84344930.62947
     -1516.851  
  24040240.700   126332322.58447     -3463.957    24040241.331    98440768.94445
     -2699.190  
  23025397.554   120999280.10748       597.429    23025396.810    94285147.46646
       465.530  
  22229664.825   116817679.17348      2639.601    22229667.015    91026774.63447
      2056.831  
  24329642.856   127853140.17847      3329.723    24329643.534    99625826.40045
      2594.586  
  20916986.848   109919563.97249     -1509.628    20916988.766    85651633.29548
     -1176.339  
  20468913.903   107564887.28249       683.387    20468915.390    83816810.75549
       532.508  
  20500361.563   109547741.43208      2443.831    20500366.266    85203830.42807
      1900.753  
  22355625.506   119713329.77307     -3223.539    22355629.081    93110404.54105
     -2507.198  
  19599982.669   104773193.58408     -1191.512    19599988.923    81490299.26406
      -926.750  
  21216491.759   113095841.87107     -2151.777           0.000           0.00000
         0.000  
  21548830.651   115312144.24507     -1953.367    21548834.606    89687240.60907
     -1519.288  
  20952903.347   111808710.13908      2811.675    20952908.511    86962352.27507
      2186.858  
  22453523.183   119858424.21406      1658.530    22453528.746    93223251.26304
      1289.960  
  23286685.366   124393294.11406      4589.098    23286692.609    96750375.42805
      3569.296  
  23477966.231   125547231.17906     -4242.335    23477972.959    97647873.03405
     -3299.597  
 20  9 26  9  4 40.0000000  0 17G11G20G15G21G32G12G24G10R11R 8R 1R10
                                R17R 2R18R12R24
  24027087.991   126263212.47345      1118.452    24027088.107    98386913.84844
       871.519  
  20599742.528   108252392.03249     -1949.070    20599741.601    84352519.97248
     -1518.762  
  24043536.396   126349641.58347     -3463.772    24043536.948    98454264.25845
     -2699.047  
  23024830.501   120996300.38048       594.586    23024829.781    94282825.60946
       463.313  
  22227153.865   116804484.11248      2638.675    22227156.067    91016492.78247
      2056.108  
  24326475.175   127836493.80847      3329.323    24326475.909    99612855.25444
      2594.281  
  20918424.632   109927119.51349     -1512.496    20918426.545    85657520.73148
     -1178.573  
  20468264.972   107561477.09349       680.809    20468266.453    83814153.46848
       530.499  
  20498076.592   109535531.29908      2440.401    20498081.307    85194333.66307
      1898.089  
  22358635.750   119729449.74006     -3224.484    22358639.334    93122942.26305
     -2507.941  
  19601098.105   104779156.32208     -1193.461    19601104.331    81494936.95006
      -928.249  
  21218511.997   113106610.84507     -2155.574           0.000           0.00000
         0.000  
  21550657.546   115321920.42107     -1957.101    21550661.518    89694844.30207
     -1522.194  
  20950269.516   111794655.82508      2810.456    20950274.762    86951421.14507
      2185.910  
  22451971.902   119850143.06306      1654.258    22451977.297    93216810.47004
      1286.656  
  23282389.896   124370348.58206      4588.796    23282397.039    96732528.91005
      3569.062  
  23481933.519   125568445.89606     -4243.206    23481940.193    97664373.35605
     -3300.277  
 20  9 26  9  4 45.0000000  0 17G11G20G15G21G32G12G24G10R11R 8R 1R10
                                R17R 2R18R12R24
  24026024.677   126257624.31745      1116.229    24026024.673    98382559.45245
       869.784  
  20601598.103   108262143.14949     -1951.456    20601597.146    84360118.24347
     -1520.620  
  24046832.132   126366960.82547     -3464.054    24046832.665    98467759.76144
     -2699.270  
  23024265.723   120993332.51448       592.398    23024265.040    94280512.99546
       461.608  
  22224643.729   116791293.41449      2637.667    22224645.917    91006214.32747
      2055.323  
  24323308.098   127819850.54847      3328.281    24323308.816    99599886.47745
      2593.464  
  20919865.055   109934688.86249     -1515.316    20919866.959    85663418.92348
     -1180.770  
  20467618.267   107558078.63649       678.397    20467619.738    83811505.31148
       528.617  
  20495794.880   109523338.46208      2436.660    20495799.608    85184850.35007
      1895.179  
  22361646.669   119745573.35407     -3225.198    22361650.310    93135482.84205
     -2508.491  
  19602215.490   104785129.54208     -1195.897    19602221.723    81499582.78806
      -930.147  
  21220535.662   113117397.93007     -2159.308           0.000           0.00000
         0.000  
  21552487.873   115331715.11808     -1960.930    21552491.908    89702462.37607
     -1525.176  
  20947636.568   111780606.09708      2809.354    20947641.857    86940493.58007
      2185.055  
  22450424.233   119841881.28106      1650.176    22450429.555    93210384.60104
      1283.465  
  23278094.724   124347404.26006      4588.688    23278101.768    96714683.32505
      3568.980  
  23485901.247   125589662.83906     -4243.671    23485907.926    97680875.41705
     -3300.636  
 20  9 26  9  4 50.0000000  0 17G11G20G15G21G32G12G24G10R11R 8R 1R10
                                R17R 2R18R12R24
  24024964.643   126252053.11046      1112.608    24024964.575    98378218.24344
       866.961  
  20603456.248   108271907.73449     -1954.370    20603455.284    84367727.00747
     -1522.891  
  24050128.312   126384282.33747     -3464.644    24050128.746    98481257.03945
     -2699.723  
  23023703.572   120990378.66948       589.054    23023702.940    94278211.29146
       459.000  
  22222134.803   116778109.07849      2636.242    22222136.970    90995940.82847
      2054.215  
  24320142.047   127803212.37047      3327.457    24320142.793    99586921.67345
      2592.823  
  20921308.436   109942273.85149     -1518.655    20921310.321    85669329.31048
     -1183.367  
  20466974.182   107554693.95049       675.476    20466975.648    83808867.89849
       526.340  
  20493516.771   109511164.96908      2432.663    20493521.500    85175382.09007
      1892.070  
  22364658.662   119761702.81507     -3226.688    22364662.421    93148027.96006
     -2509.651  
  19603335.252   104791115.31008     -1198.410    19603341.476    81504238.38006
      -932.102  
  21222563.120   113128205.23507     -2163.734           0.000           0.00000
         0.000  
  21554322.088   115341530.40508     -1965.288    21554326.168    89710096.49607
     -1528.559  
  20945004.893   111766562.88108      2807.820    20945010.151    86929571.08707
      2183.858  
  22448880.517   119833640.94406      1645.667    22448885.982    93203975.41504
      1279.956  
  23273800.063   124324463.04607      4587.659    23273807.039    96696840.17706
      3568.180  
  23489869.698   125610883.77506     -4244.734    23489876.421    97697380.54706
     -3301.472  
 20  9 26  9  4 55.0000000  0 17G11G20G15G21G32G12G24G10R11R 8R 1R10
                                R17R 2R18R12R24
  24023907.554   126246497.60445      1109.488    24023907.365    98373889.30443
       864.542  
  20605316.779   108281684.79749     -1956.582    20605315.804    84375345.49548
     -1524.613  
  24053424.773   126401605.10447     -3464.395    24053425.196    98494755.29144
     -2699.526  
  23023143.929   120987437.78748       587.026    23023143.308    94275919.68946
       457.421  
  22219626.941   116764930.11249      2635.233    22219629.030    90985671.51247
      2053.430  
  24316976.715   127786578.34447      3326.159    24316977.450    99573960.09045
      2591.812  
  20922754.655   109949873.59549     -1521.379    20922756.505    85675251.19248
     -1185.492  
  20466332.535   107551322.07349       673.125    20466334.009    83806240.46448
       524.507  
  20491242.109   109499009.86308      2429.094    20491246.812    85165928.13507
      1889.297  
  22367671.613   119777837.03106     -3227.292    22367675.409    93160576.79006
     -2510.120  
  19604457.186   104797112.50308     -1200.585    19604463.368    81508902.86506
      -933.788  
  21224594.154   113139031.60107     -2166.995           0.000           0.00000
         0.000  
  21556159.934   115351365.28107     -1968.918    21556164.068    89717745.82607
     -1531.383  
  20942374.244   111752525.01408      2807.047    20942379.422    86918652.74207
      2183.257  
  22447340.704   119825421.22407      1642.011    22447346.173    93197582.32705
      1277.117  
  23269505.749   124301524.03006      4587.496    23269512.704    96678998.72806
      3568.051  
  23493838.729   125632107.81306     -4245.530    23493845.484    97713888.10305
     -3302.085  
 20  9 26  9  5  0.0000000  0 17G11G20G15G21G32G12G24G10R11R 8R 1R10
                                R17R 2R18R12R24
  24022853.498   126240958.12346      1106.449    24022853.246    98369572.73944
       862.156  
  20607179.682   108291474.44849     -1959.460    20607178.720    84382973.79247
     -1526.854  
  24056721.436   126418929.12347     -3465.055    24056721.844    98508254.51545
     -2700.047  
  23022586.749   120984509.91448       584.062    23022586.162    94273638.24146
       455.112  
  22217120.092   116751756.59148      2633.776    22217122.190    90975406.42247
      2052.293  
  24313812.177   127769948.46347      3325.190    24313812.989    99561001.77745
      2591.062  
  20924203.681   109957488.15049     -1524.694    20924205.489    85681184.60448
     -1188.077  
  20465693.330   107547963.02549       670.211    20465694.803    83803623.02149
       522.237  
  20488970.916   109486873.14308      2425.218    20488975.572    85156488.45007
      1886.276  
  22370685.468   119793976.15007     -3228.343    22370689.221    93173129.43005
     -2510.938  
  19605581.282   104803121.37708     -1203.172    19605587.448    81513576.44806
      -935.801  
  21226628.797   113149877.14407     -2171.457           0.000           0.00000
         0.000  
  21558001.501   115361219.72207     -1973.309    21558005.646    89725410.40007
     -1534.797  
  20939744.643   111738493.11408      2805.418    20939749.806    86907739.04507
      2181.992  
  22445804.715   119817222.01206      1637.261    22445810.127    93191205.23804
      1273.433  
  23265211.906   124278587.30806      4586.823    23265218.753    96661159.06506
      3567.531  
  23497808.327   125653334.94006     -4246.034    23497815.107    97730398.08205
     -3302.476  
 20  9 26  9  5  5.0000000  0 17G11G20G15G21G32G12G24G10R11R 8R 1R10
                                R17R 2R18R12R24
  24021802.549   126235434.88446      1102.956    24021802.315    98365268.97443
       859.448  
  20609045.044   108301276.95849     -1962.078    20609044.082    84390612.10647
     -1528.895  
  24060018.411   126436254.80947     -3465.522    24060018.861    98521755.03044
     -2700.413  
  23022032.140   120981595.42048       581.253    23022031.607    94271367.20946
       452.925  
  22214614.364   116738588.83949      2632.570    22214616.437    90965145.84547
      2051.351  
  24310648.527   127753323.18147      3324.257    24310649.434    99548047.01644
      2590.331  
  20925655.548   109965117.64149     -1527.632    20925657.341    85687129.66148
     -1190.367  
  20465056.641   107544617.17049       667.538    20465058.109    83801015.86649
       520.159  
  20486703.228   109474755.24108      2421.511    20486707.881    85147063.42307
      1883.398  
  22373700.358   119810120.43706     -3229.765    22373704.046    93185686.09905
     -2512.042  
  19606707.597   104809142.17508     -1205.664    19606713.737    81518259.27806
      -937.741  
  21228667.149   113160742.33008     -2175.370           0.000           0.00000
         0.000  
  21559846.700   115371094.18707     -1977.004    21559850.941    89733090.51107
     -1537.676  
  20937116.079   111724466.74908      2804.316    20937121.250    86896829.65607
      2181.133  
  22444272.670   119809043.62906      1633.063    22444277.787    93184844.25505
      1270.159  
  23260918.553   124255653.20706      4586.355    23260925.420    96643321.43706
      3567.163  
  23501778.616   125674565.54606     -4246.594    23501785.399    97746910.78306
     -3302.909  
 20  9 26  9  5 10.0000000  0 17G11G20G15G21G32G12G24G10R11R 8R 1R10
                                R17R 2R18R12R24
  24020755.041   126229929.78347      1099.344    24020754.932    98360979.27543
       856.628  
  20610913.194   108311094.22049     -1964.984    20610912.238    84398261.92347
     -1531.160  
  24063316.078   126453584.01547     -3466.089    24063316.485    98535258.31344
     -2700.852  
  23021480.439   120978696.18348       578.194    23021479.814    94269108.05646
       450.538  
  22212110.082   116725428.78249      2630.886    22212112.177    90954891.25747
      2050.042  
  24307486.067   127736704.30947      3323.387    24307487.068    99535097.25045
      2589.647  
  20927110.663   109972764.13349     -1531.102    20927112.420    85693087.96648
     -1193.069  
  20464422.818   107541286.41149       664.733    20464424.280    83798420.47449
       517.977  
  20484439.417   109462657.99908      2417.270    20484444.017    85137654.45607
      1880.093  
  22376716.519   119826271.87207     -3230.976    22376720.161    93198248.33005
     -2512.984  
  19607836.510   104815176.86308     -1208.167    19607842.630    81522952.93506
      -939.688  
  21230709.468   113171628.97908     -2179.534           0.000           0.00000
         0.000  
  21561696.026   115380990.46307     -1981.417    21561700.309    89740787.63307
     -1541.101  
  20934489.043   111710448.41308      2803.011    20934494.228    86885926.51107
      2180.121  
  22442744.841   119800888.10007      1628.667    22442749.969    93178501.07305
      1266.737  
  23256625.998   124232723.58406      4585.066    23256632.887    96625487.28605
      3566.163  
  23505749.894   125695801.54006     -4248.094    23505756.688    97763427.63005
     -3304.081  
 20  9 26  9  5 15.0000000  0 17G11G20G15G21G32G12G24G10R11R 8R 1R10
                                R17R 2R18R12R24
  24019710.672   126224441.31046      1096.176    24019710.550    98356702.51544
       854.160  
  20612783.852   108320924.65349     -1967.237    20612782.929    84405921.99947
     -1532.917  
  24066614.074   126470915.13247     -3466.012    24066614.469    98548763.06645
     -2700.792  
  23020931.349   120975810.63148       576.023    23020930.728    94266859.57846
       448.844  
  22209606.970   116712274.80749      2630.332    22209609.063    90944641.42347
      2049.609  
  24304324.557   127720090.30647      3322.612    24304325.514    99522151.27646
      2589.051  
  20928568.708   109980426.15049     -1533.792    20928570.470    85699058.37848
     -1195.164  
  20463791.565   107537969.15349       662.265    20463793.033    83795835.59248
       516.051  
  20482179.196   109450579.90608      2413.762    20482183.762    85128260.39607
      1877.371  
  22379733.666   119842428.68406     -3232.160    22379737.359    93210814.73005
     -2513.905  
  19608967.693   104821223.68408     -1210.395    19608973.825    81527656.00506
      -941.418  
  21232755.459   113182535.35708     -2183.046           0.000           0.00000
         0.000  
  21563549.169   115390906.91207     -1984.925    21563553.431    89748500.41207
     -1543.836  
  20931863.161   111696436.32908      2802.011    20931868.386    86875028.22707
      2179.340  
  22441220.979   119792753.84006      1624.597    22441226.031    93172174.44005
      1263.578  
  23252334.106   124209796.97606      4585.172    23252340.924    96607655.50506
      3566.250  
  23509721.845   125717041.18606     -4247.602    23509728.595    97779947.32705
     -3303.698  
 20  9 26  9  5 20.0000000  0 17G11G20G15G21G32G12G24G10R11R 8R 1R10
                                R17R 2R18R12R24
  24018669.432   126218969.58647      1093.354    24018669.517    98352438.84744
       851.960  
  20614657.035   108330768.39449     -1969.558    20614656.102    84413592.45447
     -1534.723  
  24069912.498   126488248.37247     -3466.336    24069912.761    98562269.49145
     -2701.039  
  23020384.909   120972938.94848       573.374    23020384.285    94264621.89246
       446.780  
  22207105.043   116699127.06249      2629.461    22207107.139    90934396.43247
      2048.930  
  24301163.957   127703481.43047      3321.940    24301164.912    99509209.32644
      2588.535  
  20930029.709   109988103.66549     -1536.437    20930031.430    85705040.85748
     -1197.222  
  20463162.915   107534665.57349       659.815    20463164.375    83793261.37548
       514.145  
  20479922.553   109438521.12208      2410.257    20479927.126    85118881.34807
      1874.645  
  22382751.850   119858591.14207     -3232.503    22382755.681    93223385.52606
     -2514.172  
  19610101.197   104827282.85408     -1212.468    19610107.336    81532368.70506
      -943.030  
  21234805.256   113193461.83507     -2186.953           0.000           0.00000
         0.000  
  21565406.092   115400843.74207     -1988.668    21565410.366    89756229.06007
     -1546.746  
  20929238.484   111682430.70708      2800.913    20929243.738    86864134.96407
      2178.484  
  22439701.211   119784640.96806      1621.035    22439706.142    93165864.43105
      1260.804  
  23248042.708   124186873.56906      4584.461    23248049.536    96589826.20905
      3565.695  
  23513694.451   125738284.77906     -4248.793    23513701.300    97796470.12805
     -3304.621  
 20  9 26  9  5 25.0000000  0 17G11G20G15G21G32G12G24G10R11R 8R 1R10
                                R17R 2R18R12R24
  24017631.062   126213512.69546      1089.629    24017631.249    98348186.72043
       849.066  
  20616532.424   108340623.69049     -1972.136    20616531.477    84421271.89247
     -1536.733  
  24073210.899   126505581.86947     -3466.526    24073211.248    98575776.11944
     -2701.190  
  23019840.763   120970079.31348       570.715    23019840.057    94262393.61845
       444.710  
  22204603.981   116685983.80148      2628.296    22204606.086    90924154.94447
      2048.023  
  24298003.994   127686875.83347      3320.843    24298004.899    99496269.88645
      2587.672  
  20931493.285   109995794.74949     -1539.555    20931495.025    85711033.90848
     -1199.656  
  20462536.538   107531373.87649       657.226    20462538.000    83790696.41248
       512.120  
  20477669.172   109426479.79608      2406.558    20477673.798    85109515.88907
      1871.769  
  22385770.762   119874757.43507     -3233.905    22385774.705    93235959.31106
     -2515.261  
  19611236.661   104833352.68308     -1214.890    19611242.868    81537089.68106
      -944.918  
  21236858.413   113204406.37508     -2190.457           0.000           0.00000
         0.000  
  21567266.474   115410799.11607     -1992.866    21567270.821    89763972.14307
     -1550.007  
  20926614.714   111668429.83108      2799.805    20926619.987    86853245.39107
      2177.621  
  22438185.107   119776547.68306      1616.944    22438190.073    93159569.65905
      1257.624  
  23243751.683   124163951.40106      4584.694    23243758.409    96571997.86905
      3565.875  
  23517667.454   125759530.36906     -4249.214    23517674.421    97812994.46905
     -3304.949  
 20  9 26  9  5 30.0000000  0 17G11G20G15G21G32G12G24G10R11R 8R 1R10
                                R17R 2R18R12R24
  24016595.885   126208072.74046      1085.941    24016596.123    98343947.80043
       846.179  
  20618410.346   108350492.30149     -1975.430    20618409.389    84428961.72547
     -1539.300  
  24076509.693   126522917.49047     -3467.444    24076510.105    98589284.38845
     -2701.909  
  23019299.288   120967233.56248       567.426    23019298.546    94260176.16046
       442.148  
  22202104.123   116672846.83049      2626.445    22202106.205    90913918.34847
      2046.581  
  24294845.051   127670275.38247      3319.167    24294845.857    99483334.45044
      2586.355  
  20932959.822   110003501.38749     -1543.167    20932961.548    85717039.07748
     -1202.469  
  20461912.756   107528095.88349       653.913    20461914.227    83788142.13349
       509.543  
  20475419.406   109414457.82308      2402.004    20475424.080    85100165.46707
      1868.226  
  22388790.790   119890929.42306     -3235.573    22388794.771    93248537.50006
     -2516.566  
  19612374.428   104839434.88508     -1218.073    19612380.700    81541820.28306
      -947.394  
  21238915.299   113215370.77107     -2195.371           0.000           0.00000
         0.000  
  21569130.616   115420774.76807     -1997.456    21569135.036    89771730.96707
     -1553.581  
  20923992.163   111654435.58108      2797.780    20923997.473    86842360.98607
      2176.050  
  22436673.017   119768475.88506      1611.741    22436678.048    93153291.61004
      1253.577  
  23239461.190   124141032.48007      4582.987    23239467.943    96554172.02906
      3564.542  
  23521641.276   125780779.71306     -4250.770    23521648.195    97829521.71305
     -3306.160  
 20  9 26  9  5 35.0000000  0 17G11G20G15G21G32G12G24G10R11R 8R 1R10
                                R17R 2R18R12R24
  24015563.928   126202649.77047      1082.813    24015564.482    98339722.12444
       843.750  
  20620290.875   108360374.51749     -1977.449    20620289.890    84436662.15647
     -1540.870  
  24079808.932   126540255.45346     -3467.526    24079809.433    98602794.45644
     -2701.972  
  23018760.471   120964401.96948       565.277    23018759.702    94257969.71245
       440.473  
  22199605.508   116659716.39848      2625.703    22199607.583    90903686.84646
      2046.004  
  24291687.090   127653680.31147      3318.777    24291687.743    99470403.21744
      2586.059  
  20934429.357   110011223.81849     -1545.819    20934431.067    85723056.57348
     -1204.535  
  20461291.642   107524831.90449       651.613    20461293.136    83785598.77749
       507.749  
  20473173.310   109402455.52508      2398.862    20473178.009    85090830.36007
      1865.781  
  22391811.931   119907107.34106     -3236.003    22391816.005    93261120.33106
     -2516.894  
  19613514.604   104845529.75108     -1219.984    19613520.838    81546560.72506
      -948.854  
  21240975.955   113226355.41207     -2198.581           0.000           0.00000
         0.000  
  21570998.674   115430771.15807     -2000.930    21571003.152    89779505.93206
     -1556.281  
  20921370.871   111640447.98908      2797.183    20921376.219    86831481.74707
      2175.582  
  22435164.950   119760425.81506      1608.456    22435169.912    93147030.45905
      1251.023  
  23235171.459   124118117.00807      4583.027    23235178.161    96536348.90506
      3564.578  
  23525615.815   125802033.35605     -4250.815    23525622.810    97846052.26705
     -3306.202  
 20  9 26  9  5 40.0000000  0 16G11G20G15G21G32G12G24G10R11R 8R 1R10
                                R17R 2R12R24
  24014535.082   126197242.93145      1080.375    24014536.138    98335510.03951
       841.851  
  20622173.838   108370269.55049     -1980.468    20622172.837    84444372.57147
     -1543.226  
  24083108.454   126557594.93147     -3468.124    24083108.934    98616305.73844
     -2702.437  
  23018224.224   120961583.75248       562.085    23018223.338    94255773.67446
       437.984  
  22197107.996   116646591.78949      2624.020    22197110.096    90893459.86647
      2044.687  
  24288530.047   127637089.84747      3317.320    24288530.431    99457475.61645
      2584.925  
  20935901.763   110018961.36349     -1549.183    20935903.498    85729085.83648
     -1207.156  
  20460673.022   107521581.10049       648.511    20460674.553    83783065.68949
       505.327  
  20470930.711   109390472.00808      2394.659    20470935.460    85081509.85607
      1862.512  
  22394834.016   119923290.37506     -3237.046    22394838.160    93273707.09606
     -2517.711  
  19614656.977   104851636.51608     -1222.737    19614663.236    81551310.43406
      -951.022  
  21243040.284   113237359.38307     -2203.207           0.000           0.00000
         0.000  
  21572870.406   115440787.20407     -2005.125    21572874.934    89787296.21707
     -1559.538  
  20918750.677   111626466.56908      2795.520    20918756.089    86820607.32507
      2174.293  
  23230882.146   124095204.30306      4581.754    23230888.879    96518527.92006
      3563.585  
  23529590.963   125823290.07506     -4252.012    23529597.964    97862585.25005
     -3307.030  
 20  9 26  9  5 45.0000000  0 17G11G20G15G21G32G12G24G10R11R 8R 1R10
                                R17R 2R18R12R24
  24013509.754   126191853.85944      1076.007    24013510.390    98331310.61542
       838.409  
  20624059.467   108380178.66049     -1983.015    20624058.469    84452093.95047
     -1545.207  
  24086408.513   126574937.29746     -3468.066    24086408.986    98629819.27444
     -2702.394  
  23017690.763   120958780.30148       559.425    23017689.856    94253589.18747
       435.917  
  22194611.849   116633474.23049      2623.137    22194613.922    90883238.41947
      2044.007  
  24285374.099   127620505.31947      3316.479    24285374.420    99444552.59044
      2584.266  
  20937377.269   110026715.10349     -1552.086    20937379.009    85735127.71548
     -1209.418  
  20460057.159   107518344.80849       646.151    20460058.737    83780543.89849
       503.491  
  20468691.882   109378508.72508      2390.952    20468696.680    85072205.08407
      1859.628  
  22397857.230   119939479.73707     -3238.097    22397861.492    93286298.82406
     -2518.522  
  19615801.895   104857756.47608     -1224.937    19615808.109    81556070.40806
      -952.733  
  21245108.501   113248384.02307     -2206.628           0.000           0.00000
         0.000  
  21574746.165   115450824.45707     -2009.125    21574750.687    89795102.93707
     -1562.660  
  20916131.853   111612492.30808      2794.429    20916137.296    86809738.45907
      2173.444  
  22432160.751   119744396.91715      1599.801    22432166.085    93134552.17414
      1244.285  
  23226593.620   124072295.64206      4581.594    23226600.342    96500710.06106
      3563.457  
  23533566.941   125844551.47906     -4252.335    23533574.022    97879121.87205
     -3307.379  
 20  9 26  9  5 50.0000000  0 17G11G20G15G21G32G12G24G10R11R 8R 1R10
                                R17R 2R18R12R24
  24012487.130   126186479.77747      1073.386    24012487.592    98327123.05443
       836.402  
  20625947.312   108390099.41749     -1985.313    20625946.306    84459824.41847
     -1546.995  
  24089708.758   126592280.17146     -3468.562    24089709.168    98643333.18844
     -2702.781  
  23017159.623   120955989.14248       557.058    23017158.714    94251414.28046
       434.073  
  22192116.594   116620361.35549      2622.046    22192118.663    90873020.59847
      2043.152  
  24282218.794   127603924.33247      3315.796    24282219.204    99431632.35144
      2583.738  
  20938855.411   110034482.76249     -1554.949    20938857.158    85741180.42548
     -1211.652  
  20459443.606   107515120.62949       643.645    20459445.204    83778031.55249
       501.539  
  20466456.460   109366563.21608      2387.336    20466461.231    85062914.15107
      1856.815  
  22400881.299   119955673.17606     -3239.116    22400885.573    93298893.73306
     -2519.313  
  19616948.806   104863887.18608     -1227.344    19616955.007    81560838.73406
      -954.601  
  21247180.222   113259427.08207     -2210.370           0.000           0.00000
         0.000  
  21576625.471   115460880.28107     -2012.858    21576629.913    89802924.11407
     -1565.565  
  20913514.004   111598523.05608      2793.276    20913519.405    86798873.48907
      2172.550  
  22430664.536   119736409.86307      1595.112    22430670.010    93128339.94105
      1240.629  
  23222305.413   124049388.56006      4581.387    23222312.122    96482893.45806
      3563.301  
  23537543.442   125865814.95706     -4252.641    23537550.422    97895660.13205
     -3307.612  
 20  9 26  9  5 55.0000000  0 17G11G20G15G21G32G12G24G10R11R 8R 1R10
                                R17R 2R18R12R24
  24011467.635   126181121.98147      1069.594    24011468.156    98322948.25944
       833.460  
  20627837.601   108400032.95349     -1988.554    20627836.564    84467564.83547
     -1549.526  
  24093009.202   126609624.46546     -3469.398    24093009.522    98656848.21043
     -2703.429  
  23016631.006   120953211.27248       553.733    23016630.060    94249249.71646
       431.480  
  22189622.423   116607254.20949      2620.362    22189624.472    90862807.23747
      2041.840  
  24279064.381   127587347.90547      3314.378    24279064.838    99418715.65745
      2582.633  
  20940336.415   110042265.42949     -1558.437    20940338.164    85747244.83548
     -1214.371  
  20458832.563   107511909.63849       640.504    20458834.212    83775529.48649
       499.093  
  20464224.505   109354636.54408      2383.085    20464229.308    85053637.84407
      1853.508  
  22403906.288   119971871.66506     -3240.621    22403910.584    93311492.54406
     -2520.487  
  19618097.920   104870029.70208     -1230.078    19618104.137    81565616.24806
      -956.730  
  21249255.553   113270489.42407     -2214.586           0.000           0.00000
         0.000  
  21578508.367   115470955.91507     -2017.448    21578512.805    89810760.73307
     -1569.129  
  20910897.202   111584559.64108      2791.464    20910902.608    86788013.05807
      2171.140  
  22429172.203   119728443.74906      1590.707    22429177.764    93122144.08005
      1237.210  
  23218017.655   124026484.27806      4580.254    23218024.433    96465079.02906
      3562.418  
  23541520.495   125887081.54606     -4254.223    23541527.498    97912200.79405
     -3308.843  
 20  9 26  9  6  0.0000000  0 17G11G20G15G21G32G12G24G10R11R 8R 1R10
                                R17R 2R18R12R24
  24010451.646   126175782.58046      1066.663    24010452.070    98318787.68145
       831.172  
  20629730.725   108409981.38749     -1990.766    20629729.648    84475316.85347
     -1551.249  
  24096310.369   126626972.52546     -3469.684    24096310.524    98670366.19845
     -2703.640  
  23016105.336   120950448.95048       551.366    23016104.376    94247097.25445
       429.633  
  22187129.753   116594155.01549      2619.531    22187131.795    90852600.08247
      2041.191  
  24275911.298   127570778.33847      3313.688    24275911.686    99405804.30844
      2582.089  
  20941820.667   110050065.16549     -1561.210    20941822.390    85753322.55548
     -1216.530  
  20458224.445   107508714.01849       638.016    20458226.128    83773039.39049
       497.152  
  20461996.541   109342730.91608      2379.438    20462001.304    85044377.92007
      1850.672  
  22406932.555   119988077.40806     -3241.266    22406936.960    93324097.01206
     -2520.987  
  19619249.640   104876186.33408     -1232.222    19619255.864    81570404.74506
      -958.395  
  21251334.905   113281573.32007     -2218.281           0.000           0.00000
         0.000  
  21580395.377   115481053.40607     -2021.058    21580399.772    89818614.34607
     -1571.933  
  20908281.937   111570604.33808      2790.612    20908287.361    86777158.93807
      2170.473  
  22427684.285   119720500.80006      1586.819    22427689.862    93115966.24605
      1234.194  
  23213730.871   124003584.92206      4580.054    23213737.652    96447268.43506
      3562.266  
  23545498.517   125908353.69606     -4254.602    23545505.539    97928745.78505
     -3309.136  
 20  9 26  9  6  5.0000000  0 17G11G20G15G21G32G12G24G10R11R 8R 1R10
                                R17R 2R18R12R24
  24009438.494   126170458.24247      1063.249    24009438.861    98314638.79143
       828.496  
  20631626.026   108419941.22949     -1993.059    20631624.929    84483077.77648
     -1553.030  
  24099611.607   126644320.77446     -3469.840    24099611.825    98683884.34743
     -2703.765  
  23015581.948   120947698.62448       548.776    23015580.995    94244954.15846
       427.616  
  22184637.913   116581060.27749      2618.542    22184639.989    90842396.39647
      2040.422  
  24272758.879   127554212.17347      3312.922    24272759.398    99392895.65445
      2581.499  
  20943307.526   110057878.62849     -1564.065    20943309.228    85759410.96948
     -1218.758  
  20457618.591   107505530.26649       635.397    20457620.295    83770558.54449
       495.113  
  20459771.829   109330842.88908      2375.694    20459776.639    85035131.68707
      1847.762  
  22409959.549   120004286.91706     -3242.429    22409963.992    93336704.40206
     -2521.894  
  19620403.366   104882353.53808     -1234.542    19620409.531    81575201.46606
      -960.198  
  21253417.567   113292675.08207     -2222.305           0.000           0.00000
         0.000  
  21582285.718   115491169.31607     -2024.851    21582290.199    89826482.26707
     -1574.886  
  20905667.668   111556654.03408      2789.789    20905673.049    86766308.69907
      2169.832  
  22426200.032   119712577.66106      1582.644    22426205.669    93109803.81705
      1230.944  
  23209444.425   123980686.99806      4579.390    23209451.160    96429458.94606
      3561.749  
  23549476.928   125929627.51707     -4254.969    23549483.913    97945292.07004
     -3309.429  
 20  9 26  9  6 10.0000000  0 17G11G20G15G21G32G12G24G10R11R 8R 1R10
                                R17R 2R18R12R24
  24008428.427   126165150.08546      1060.112    24008428.501    98310502.62844
       826.069  
  20633523.773   108429913.95649     -1996.112    20633522.674    84490848.72548
     -1555.418  
  24102913.134   126661670.56946     -3470.598    24102913.321    98697403.64344
     -2704.362  
  23015061.134   120944961.79248       545.797    23015060.178    94242821.56446
       425.296  
  22182147.182   116567971.42949      2616.937    22182149.303    90832197.29547
      2039.172  
  24269607.383   127537650.85747      3311.531    24269608.104    99379990.72544
      2580.413  
  20944797.218   110065707.04249     -1567.324    20944798.940    85765511.02748
     -1221.297  
  20457015.272   107502359.83749       632.469    20457016.984    83768088.08749
       492.831  
  20457550.682   109318973.87608      2371.727    20457555.539    85025900.24107
      1844.675  
  22412987.445   120020501.59906     -3243.663    22412991.975    93349315.81406
     -2522.854  
  19621559.277   104888532.63908     -1237.241    19621565.392    81580007.43406
      -962.301  
  21255503.859   113303796.28407     -2226.508           0.000           0.00000
         0.000  
  21584179.782   115501305.04907     -2029.449    21584184.353    89834365.60207
     -1578.464  
  20903054.458   111542709.38308      2787.933    20903059.869    86755462.87207
      2168.394  
  22424719.764   119704675.55006      1577.597    22424725.437    93103657.74006
      1227.016  
  23205158.429   123957791.97806      4578.613    23205165.193    96411651.70206
      3561.141  
  23553455.899   125950904.70206     -4255.578    23553462.806    97961840.98004
     -3309.898  
 20  9 26  9  6 15.0000000  0 17G11G20G15G21G32G12G24G10R11R 8R 1R10
                                R17R 2R18R12R24
  24007421.619   126159859.33547      1056.679    24007421.750    98306379.99744
       823.390  
  20635424.112   108439900.40049     -1998.633    20635423.038    84498630.36647
     -1557.378  
  24106215.051   126679022.91846     -3470.831    24106215.287    98710924.95244
     -2704.546  
  23014543.059   120942239.28648       543.348    23014542.081    94240700.13746
       423.387  
  22179657.744   116554889.34248      2615.926    22179659.888    90822003.46347
      2038.383  
  24266456.938   127521095.22047      3310.491    24266457.750    99367090.27045
      2579.609  
  20946289.951   110073551.37849     -1570.386    20946291.681    85771623.49348
     -1223.683  
  20456414.662   107499203.64149       629.930    20456416.387    83765628.71249
       490.854  
  20455333.283   109307124.76608      2367.976    20455338.162    85016684.26307
      1841.754  
  22416016.420   120036722.27806     -3244.437    22416021.060    93361931.90506
     -2523.452  
  19622717.598   104894724.59108     -1239.633    19622723.713    81584823.40906
      -964.159  
  21257593.984   113314937.95307     -2230.417           0.000           0.00000
         0.000  
  21586077.671   115511461.44307     -2033.355    21586082.385    89842265.01707
     -1581.504  
  20900442.691   111528772.24308      2786.952    20900448.062    86744622.87407
      2167.628  
  22423243.589   119696795.46706      1573.616    22423249.280    93097528.76606
      1223.921  
  23200873.091   123934900.84806      4578.050    23200879.986    96393847.49206
      3560.703  
  23557435.664   125972185.92207     -4256.905    23557442.473    97978393.04704
     -3310.628  
 20  9 26  9  6 20.0000000  0 17G11G20G15G21G32G12G24G10R11R 8R 1R10
                                R17R 2R18R12R24
  24006417.923   126154585.31446      1053.438    24006418.234    98302270.32845
       820.859  
  20637326.976   108449900.14049     -2001.152    20637325.962    84506422.36547
     -1559.344  
  24109517.433   126696377.33546     -3471.050    24109517.688    98724447.85944
     -2704.719  
  23014027.628   120939530.74248       540.394    23014026.686    94238589.58646
       421.086  
  22177169.502   116541813.60648      2614.547    22177171.684    90811814.58947
      2037.308  
  24263307.463   127504544.86347      3309.758    24263308.441    99354193.87644
      2579.030  
  20947785.609   110081411.11149     -1573.444    20947787.341    85777747.96948
     -1226.063  
  20455816.673   107496061.21749       627.160    20455818.390    83763180.07449
       488.694  
  20453119.576   109295295.23308      2364.000    20453124.459    85007483.52607
      1838.668  
  22419046.574   120052948.77205     -3245.991    22419051.246    93374552.52506
     -2524.659  
  19623878.307   104900929.09008     -1241.960    19623884.422    81589649.12906
      -966.059  
  21259687.847   113326099.32807     -2234.035           0.000           0.00000
         0.000  
  21587979.345   115521638.05907     -2037.226    21587984.140    89850180.14607
     -1584.511  
  20897832.040   111514841.18608      2785.656    20897837.372    86733787.60507
      2166.616  
  22421771.457   119688936.97206      1569.180    22421777.197    93091416.61406
      1220.469  
  23196588.452   123912013.01006      4577.211    23196595.398    96376045.85606
      3560.059  
  23561416.010   125993470.77406     -4257.472    23561422.705    97994947.89904
     -3311.375  
 20  9 26  9  6 25.0000000  0 17G11G20G15G21G32G12G24G10R11R 8R 1R10
                                R17R 2R18R12R24
  24005417.311   126149327.37546      1049.808    24005417.664    98298173.22645
       818.023  
  20639232.214   108459912.30049     -2003.745    20639231.244    84514224.05247
     -1561.358  
  24112819.974   126713732.80446     -3470.878    24112820.386    98737971.60444
     -2704.590  
  23013514.659   120936835.16448       537.738    23013513.741    94236489.13246
       419.016  
  22174682.308   116528743.25449      2613.382    22174684.489    90801629.91147
      2036.401  
  24260158.808   127487998.91747      3308.750    24260159.834    99341300.95144
      2578.246  
  20949284.016   110089285.32649     -1576.503    20949285.753    85783883.71548
     -1228.445  
  20455221.129   107492931.64649       624.507    20455222.845    83760741.44749
       486.625  
  20450909.327   109283484.26908      2360.327    20450914.193    84998297.23307
      1835.812  
  22422077.477   120069179.80905     -3246.680    22422082.218    93387176.66506
     -2525.195  
  19625041.141   104907144.97408     -1244.617    19625047.278    81594483.70806
      -968.038  
  21261785.248   113337279.52807     -2237.891           0.000           0.00000
         0.000  
  21589884.654   115531833.94107     -2041.222    21589889.493    89858110.28207
     -1587.621  
  20895222.555   111500916.22208      2784.370    20895227.781    86722957.08107
      2165.621  
  22420303.189   119681099.00507      1565.270    22420308.908    93085320.40206
      1217.429  
  23192304.278   123889127.59606      4576.500    23192311.262    96358246.12506
      3559.504  
  23565396.909   126014758.30606     -4257.870    23565403.366    98011504.85004
     -3311.680  
 20  9 26  9  6 30.0000000  0 17G11G20G15G21G32G12G24G10R11R 8R 1R10
                                R17R 2R18R12R24
  24004419.916   126144086.18646      1045.879    24004420.493    98294089.16243
       814.969  
  20641139.990   108469937.76149     -2006.710    20641139.072    84522036.10048
     -1563.672  
  24116122.997   126731090.36946     -3471.957    24116123.482    98751496.94944
     -2705.426  
  23013004.349   120934153.59348       534.488    23013003.453    94234399.61846
       416.484  
  22172196.334   116515679.30749      2612.019    22172198.489    90791450.21947
      2035.340  
  24257011.256   127471458.29448      3307.352    24257012.242    99328412.18344
      2577.155  
  20950785.407   110097175.03349     -1579.754    20950787.137    85790031.53748
     -1230.976  
  20454628.220   107489815.91649       621.434    20454629.926    83758313.60949
       484.234  
  20448702.736   109271692.82108      2356.218    20448707.572    84989126.11607
      1832.612  
  22425109.542   120085416.50106     -3247.925    22425114.252    93399805.19706
     -2526.168  
  19626206.265   104913373.23108     -1247.109    19626212.453    81599327.90206
      -969.977  
  21263886.322   113348479.65207     -2242.152           0.000           0.00000
         0.000  
  21591793.762   115542050.02606     -2045.246    21591798.638    89866056.13707
     -1590.746  
  20892614.202   111486997.58408      2782.848    20892619.396    86712131.47407
      2164.434  
  22418838.959   119673282.69506      1560.729    22418844.687    93079241.04806
      1213.901  
  23188020.756   123866245.82306      4575.729    23188027.784    96340449.18906
      3558.902  
  23569378.461   126036049.52006     -4259.093    23569384.723    98028064.66704
     -3312.632  
 20  9 26  9  6 35.0000000  0 17G11G20G15G21G32G12G24G10R11R 8R 1R10
                                R17R 2R18R12R24
  24003425.803   126138862.15147      1043.414    24003426.355    98290018.52442
       813.050  
  20643050.355   108479976.79449     -2008.944    20643049.467    84529858.72247
     -1565.413  
  24119426.505   126748450.32646     -3471.796    24119426.988    98765024.16045
     -2705.309  
  23012496.732   120931486.23348       532.179    23012495.881    94232321.16246
       414.683  
  22169711.618   116502622.03949      2610.879    22169713.744    90781275.73047
      2034.449  
  24253864.804   127454923.35547      3306.547    24253865.848    99315527.81845
      2576.531  
  20952289.782   110105080.51349     -1582.374    20952291.521    85796191.64748
     -1233.022  
  20454038.005   107486714.28849       619.249    20454039.698    83755896.75249
       482.530  
  20446499.896   109259921.26408      2352.616    20446504.665    84979970.47207
      1829.812  
  22428142.611   120101659.29505     -3249.391    22428147.463    93412438.48006
     -2527.309  
  19627373.808   104919614.35608     -1249.222    19627380.022    81604182.10906
      -971.621  
  21265991.242   113359699.75108     -2245.852           0.000           0.00000
         0.000  
  21593706.600   115552286.57507     -2049.069    21593711.629    89874017.90907
     -1593.723  
  20890007.174   111473086.01208      2781.937    20890012.309    86701311.37407
      2163.730  
  22417378.770   119665488.32306      1556.663    22417384.472    93073178.76706
      1210.738  
  23183738.008   123843367.71706      4575.812    23183745.000    96322655.10806
      3558.961  
  23573360.798   126057344.64606     -4258.824    23573366.844    98044627.50104
     -3312.426  
 20  9 26  9  6 40.0000000  0 17G11G20G15G21G32G12G24G10R11R 8R 1R10
                                R17R 2R18R12R24
  24002434.576   126133652.96547      1040.097    24002435.098    98285959.39843
       810.460  
  20644962.863   108490027.09449     -2011.362    20644961.989    84537690.11948
     -1567.300  
  24122730.046   126765810.30446     -3471.726    24122730.619    98778551.44644
     -2705.241  
  23011991.378   120928830.80248       529.753    23011990.545    94230251.99245
       412.792  
  22167227.735   116489569.07949      2610.065    22167229.789    90771104.59947
      2033.816  
  24250718.989   127438391.74047      3305.734    24250719.868    99302646.05544
      2575.898  
  20953796.691   110112999.31449     -1585.145    20953798.449    85802362.14148
     -1235.176  
  20453450.034   107483624.44849       616.710    20453451.720    83753489.08349
       480.550  
  20444300.297   109248167.24108      2348.854    20444305.082    84970828.45007
      1826.886  
  22431176.440   120117905.46805     -3249.784    22431181.309    93425074.37206
     -2527.612  
  19628543.225   104925865.81308     -1251.765    19628549.478    81609044.34906
      -973.598  
  21268099.465   113370937.57607     -2249.664           0.000           0.00000
         0.000  
  21595622.916   115562541.29407     -2052.656    21595628.026    89881993.79107
     -1596.516  
  20887401.017   111459179.15208      2780.749    20887406.138    86690494.92307
      2162.801  
  22415922.357   119657713.42406      1552.511    22415927.915    93067131.63606
      1207.508  
  23179455.527   123820491.06506      4575.104    23179462.502    96304862.15206
      3558.413  
  23577343.345   126078641.36406     -4259.926    23577349.333    98061191.58604
     -3313.289  
 20  9 26  9  6 45.0000000  0 17G11G20G15G21G32G12G24G10R11R 8R 1R10
                                R17R 2R18R12R24
  24001446.798   126128461.50247      1036.956    24001447.220    98281914.10943
       808.020  
  20646878.085   108500091.52949     -2014.167    20646877.195    84545532.53647
     -1569.484  
  24126034.133   126783173.18146     -3472.738    24126034.721    98792080.94244
     -2706.027  
  23011488.845   120926190.19148       526.702    23011488.055    94228194.37746
       410.417  
  22164745.201   116476523.37149      2608.496    22164747.260    90760939.11947
      2032.594  
  24247574.399   127421866.33647      3304.874    24247575.199    99289769.16344
      2575.230  
  20955306.687   110120934.30149     -1588.433    20955308.485    85808545.26548
     -1237.742  
  20452864.848   107480549.27249       613.781    20452866.542    83751092.84649
       478.265  
  20442104.452   109236433.56108      2344.886    20442109.293    84961702.26007
      1823.800  
  22434211.544   120134158.21405     -3251.191    22434216.436    93437715.38106
     -2528.707  
  19629715.172   104932130.50908     -1254.046    19629721.426    81613916.89206
      -975.371  
  21270211.575   113382196.09207     -2253.647           0.000           0.00000
         0.000  
  21597543.161   115572817.03707     -2057.180    21597548.359    89889986.02207
     -1600.030  
  20884796.244   111445279.58708      2779.253    20884801.329    86679684.15407
      2161.641  
  22414470.226   119649961.13106      1548.644    22414475.639    93061102.06406
      1204.495  
  23175173.915   123797618.80506      4574.070    23175180.808    96287072.63206
      3557.608  
  23581326.744   126099942.41706     -4260.358    23581332.656    98077759.08004
     -3313.613  
 20  9 26  9  6 50.0000000  0 17G11G20G15G21G32G12G24G10R11R 8R 1R10
                                R17R 2R18R12R24
  24000462.062   126123286.21047      1032.863    24000462.366    98277881.42143
       804.832  
  20648795.683   108510168.51049     -2016.921    20648794.798    84553384.73747
     -1571.632  
  24129338.451   126800537.36346     -3473.534    24129338.921    98805611.46244
     -2706.660  
  23010988.804   120923562.76948       524.168    23010988.081    94226147.03646
       408.440  
  22162263.752   116463483.29749      2607.293    22162265.817    90750778.02647
      2031.656  
  24244430.626   127405345.63647      3303.207    24244431.326    99276895.87145
      2573.926  
  20956819.494   110128884.06449     -1591.722    20956821.323    85814739.86648
     -1240.309  
  20452282.164   107477487.21549       610.726    20452283.844    83748706.82649
       475.887  
  20439912.204   109224718.88408      2340.702    20439917.028    84952590.84307
      1820.546  
  22437247.491   120150415.82306     -3251.984    22437252.459    93450360.18306
     -2529.324  
  19630889.253   104938406.95408     -1256.757    19630895.498    81618798.57306
      -977.477  
  21272327.262   113393473.64608     -2257.659           0.000           0.00000
         0.000  
  21599467.039   115583112.15707     -2061.159    21599472.286    89897993.33907
     -1603.128  
  20882192.590   111431386.17908      2777.711    20882197.672    86668878.16707
      2160.437  
  22413021.958   119642229.76807      1543.909    22413027.271    93055088.77906
      1200.815  
  23170892.699   123774749.22206      4573.522    23170899.551    96269285.17506
      3557.179  
  23585310.765   126121246.27006     -4261.319    23585316.487    98094328.68204
     -3314.531  
 20  9 26  9  6 55.0000000  0 17G11G20G15G21G32G12G24G10R11R 8R 1R10
                                R17R 2R18R12R24
  23999480.594   126118127.96547      1030.140    23999480.967    98273862.00444
       802.703  
  20650715.842   108520258.94949     -2019.093    20650714.966    84561247.41148
     -1573.323  
  24132643.226   126817903.78947     -3473.780    24132643.727    98819143.74643
     -2706.848  
  23010491.486   120920949.56648       521.612    23010490.797    94224110.77346
       406.452  
  22159783.545   116450449.81748      2606.266    22159785.654    90740622.07947
      2030.855  
  24241287.986   127388830.51647      3302.753    24241288.546    99264026.93144
      2573.569  
  20958335.248   110136849.43249     -1594.230    20958337.131    85820946.65848
     -1242.257  
  20451702.142   107474439.18249       608.468    20451703.815    83746331.73349
       474.129  
  20437723.674   109213023.98208      2337.219    20437728.496    84943494.81708
      1817.836  
  22440284.604   120166679.27305     -3252.965    22440289.522    93463009.50706
     -2530.085  
  19632065.756   104944696.00608     -1258.801    19632071.956    81623690.05006
      -979.069  
  21274446.690   113404771.04408     -2261.218           0.000           0.00000
         0.000  
  21601394.671   115593427.55707     -2064.688    21601399.948    89906016.41907
     -1605.871  
  20879590.234   111417499.47508      2777.027    20879595.272    86658077.39807
      2159.906  
  22411577.715   119634520.24006      1540.047    22411583.042    93049092.49306
      1197.813  
  23166612.170   123751883.43906      4573.262    23166619.016    96251500.69006
      3556.979  
  23589295.359   126142553.96407     -4261.293    23589301.139    98110901.32804
     -3314.348  
 20  9 26  9  7  0.0000000  0 17G11G20G15G21G32G12G24G10R11R 8R 1R10
                                R17R 2R18R12R24
  23998502.237   126112986.35347      1026.534    23998502.568    98269855.56144
       799.898  
  20652638.489   108530362.46549     -2022.324    20652637.633    84569120.28747
     -1575.836  
  24135948.286   126835271.96746     -3474.078    24135948.726    98832677.35143
     -2707.085  
  23009996.786   120918350.11748       518.230    23009996.127    94222085.24346
       403.819  
  22157304.499   116437422.49948      2604.413    22157306.686    90730470.93347
      2029.413  
  24238146.292   127372320.61147      3301.461    24238146.716    99251162.13044
      2572.569  
  20959853.899   110144830.06249     -1597.977    20959855.839    85827165.32548
     -1245.176  
  20451124.703   107471404.78149       605.226    20451126.388    83743967.26649
       471.602  
  20435538.748   109201348.55608      2332.800    20435543.602    84934413.94207
      1814.401  
  22443322.624   120182948.10705     -3254.563    22443327.544    93475663.04106
     -2531.331  
  19633244.507   104950997.26408     -1261.690    19633250.684    81628591.03106
      -981.319  
  21276569.718   113416087.98107     -2265.707           0.000           0.00000
         0.000  
  21603326.103   115603763.04007     -2068.926    21603331.347    89914055.14707
     -1609.164  
  20876989.074   111403619.31008      2774.972    20876994.115    86647281.72407
      2158.312  
  22410137.509   119626832.13406      1534.820    22410142.804    93043112.83506
      1193.742  
  23162332.182   123729021.00906      4571.531    23162339.120    96233718.79606
      3555.632  
  23593280.644   126163864.85907     -4262.602    23593286.476    98127476.44504
     -3315.363  
 20  9 26  9  7  5.0000000  0 17G11G20G15G21G32G12G24G10R11R 8R 1R10
                                R17R 2R18R12R24
  23997527.113   126107861.54447      1022.910    23997527.356    98265862.17244
       797.069  
  20654563.614   108540479.03849     -2024.710    20654562.744    84577003.32547
     -1577.698  
  24139253.771   126852642.06546     -3473.909    24139253.980    98846212.53542
     -2706.941  
  23009504.739   120915764.45748       515.831    23009504.084    94220070.44246
       401.940  
  22154826.652   116424401.38549      2603.547    22154828.939    90720324.62847
      2028.737  
  24235005.539   127355816.03047      3299.996    24235005.964    99238301.43244
      2571.426  
  20961375.434   110152825.97149     -1600.773    20961377.416    85833395.89948
     -1247.358  
  20450549.879   107468384.06049       602.702    20450551.564    83741613.46049
       469.641  
  20433357.460   109189692.56908      2329.136    20433362.336    84925348.17907
      1811.550  
  22446361.830   120199222.44605     -3255.265    22446366.645    93488320.85406
     -2531.878  
  19634425.564   104957310.75308     -1264.238    19634431.731    81633501.52206
      -983.301  
  21278696.405   113427424.48108     -2269.473           0.000           0.00000
         0.000  
  21605261.259   115614118.35507     -2073.285    21605266.422    89922109.26707
     -1612.554  
  20874389.154   111389745.54708      2774.117    20874394.187    86636491.02507
      2157.648  
  22408701.266   119619165.56006      1531.102    22408706.572    93037149.96806
      1190.854  
  23158052.950   123706161.93406      4571.351    23158059.881    96215939.53606
      3555.495  
  23597266.463   126185179.16506     -4263.453    23597272.312    98144054.22904
     -3316.022  
 20  9 26  9  7 10.0000000  0 17G11G20G15G21G32G12G24G10R11R 8R 1R10
                                R17R 2R18R12R24
  23996555.055   126102753.37547      1019.718    23996555.314    98261881.79144
       794.589  
  20656491.213   108550608.66749     -2027.495    20656490.356    84584896.54048
     -1579.870  
  24142559.515   126870013.96146     -3474.508    24142559.778    98859748.97544
     -2707.430  
  23009015.286   120913192.48648       512.902    23009014.666    94218066.29446
       399.659  
  22152349.970   116411386.46149      2602.172    22152352.344    90710183.13647
      2027.667  
  24231865.757   127339316.67747      3299.289    24231866.114    99225444.77445
      2570.871  
  20962899.823   110160836.84549     -1603.847    20962901.826    85839638.13448
     -1249.753  
  20449977.646   107465376.95549       599.793    20449979.339    83739270.26349
       467.371  
  20431179.807   109178055.88608      2325.265    20431184.684    84916297.43307
      1808.538  
  22449401.951   120215502.00005     -3256.237    22449406.775    93500982.73006
     -2532.633  
  19635608.908   104963636.40508     -1266.628    19635615.074    81638421.47306
      -985.155  
  21280826.764   113438780.46007     -2273.410           0.000           0.00000
         0.000  
  21607200.183   115624493.46207     -2077.031    21607205.194    89930178.81006
     -1615.469  
  20871790.374   111375878.14608      2772.418    20871795.435    86625705.27007
      2156.320  
  22407269.080   119611520.39106      1526.742    22407274.343    93031203.72106
      1187.461  
  23153774.333   123683306.26806      4570.640    23153781.170    96198162.90706
      3554.940  
  23601252.913   126206496.62906     -4263.980    23601258.852    98160634.44704
     -3316.441  
 20  9 26  9  7 15.0000000  0 17G11G20G15G21G32G12G24G10R11R 8R 1R10
                                R17R 2R18R12R24
  23995586.326   126097662.54247      1016.395    23995586.663    98257914.95043
       792.003  
  20658421.442   108560752.02649     -2029.999    20658420.602    84592800.45347
     -1581.819  
  24145865.716   126887388.34846     -3474.813    24145865.925    98873287.50143
     -2707.651  
  23008528.552   120910634.93448       510.237    23008527.914    94216073.41046
       397.589  
  22149874.617   116398378.39449      2601.168    22149877.005    90700046.97347
      2026.882  
  24228727.097   127322823.25447      3298.151    24228727.563    99212592.77545
      2569.987  
  20964427.271   110168863.73149     -1606.894    20964429.272    85845892.86548
     -1252.124  
  20449408.150   107462384.20149       597.180    20449409.852    83736938.24649
       465.335  
  20429005.944   109166439.41708      2321.195    20429010.859    84907262.40808
      1805.374  
  22452443.131   120231787.75805     -3257.465    22452448.055    93513649.42806
     -2533.585  
  19636794.679   104969974.96808     -1268.820    19636800.833    81643351.46506
      -986.863  
  21282960.888   113450156.57608     -2277.344           0.000           0.00000
         0.000  
  21609142.902   115634889.15807     -2081.101    21609147.855    89938264.34807
     -1618.636  
  20869192.998   111362018.26708      2771.352    20869198.085    86614925.37007
      2155.496  
  22405841.005   119603897.32506      1522.434    22405846.252    93025274.68706
      1184.113  
  23149496.518   123660454.69806      4570.266    23149503.249    96180389.46806
      3554.652  
  23605240.170   126227818.03607     -4264.679    23605246.252    98177217.70504
     -3316.979  
 20  9 26  9  7 20.0000000  0 17G11G20G15G21G32G12G24G10R11R 8R 1R10
                                R17R 2R18R12R24
  23994620.542   126092587.09847      1013.769    23994620.675    98253960.07941
       789.953  
  20660353.903   108570907.08749     -2032.332    20660353.044    84600713.48047
     -1583.640  
  24149172.006   126904763.14546     -3474.922    24149172.388    98886826.32044
     -2707.734  
  23008044.207   120908089.84148       507.559    23008043.554    94214090.22146
       395.499  
  22147400.183   116385375.18649      2600.187    22147402.574    90689914.62247
      2026.121  
  24225589.184   127306333.78547      3297.886    24225589.597    99199743.86144
      2569.785  
  20965957.345   110176904.35349     -1609.566    20965959.312    85852158.27948
     -1254.210  
  20448840.985   107459403.73149       594.726    20448842.687    83734615.80149
       463.422  
  20426835.484   109154841.07808      2317.601    20426840.450    84898241.48507
      1802.578  
  22455485.184   120248077.37605     -3258.281    22455489.991    93526319.11106
     -2534.222  
  19637982.493   104976324.35708     -1271.116    19637988.655    81648289.87706
      -988.702  
  21285098.429   113461550.65207     -2280.797           0.000           0.00000
         0.000  
  21611089.045   115645303.36007     -2084.956    21611093.917    89946364.25806
     -1621.636  
  20866596.488   111348163.13808      2770.323    20866601.651    86604149.17307
      2154.695  
  22404416.713   119596294.54606      1518.828    22404421.988    93019361.38306
      1181.305  
  23145219.003   123637605.13506      4569.492    23145225.755    96162617.58506
      3554.046  
  23609227.826   126249141.35607     -4264.917    23609233.913    98193802.52105
     -3317.265  
 20  9 26  9  7 25.0000000  0 16G11G20G15G21G32G12G24G10R11R 8R 1R10
                                R17R 2R18R12
  23993657.934   126087528.34046      1009.979    23993657.844    98250018.16344
       786.996  
  20662288.823   108581075.16049     -2034.729    20662287.973    84608636.65748
     -1585.508  
  24152478.641   126922139.72446     -3475.410    24152478.956    98900366.53743
     -2708.113  
  23007562.492   120905558.47048       505.070    23007561.805    94212117.72845
       393.559  
  22144926.921   116372378.13849      2598.797    22144929.265    90679787.05547
      2025.035  
  24222452.264   127289849.56546      3296.753    24222452.656    99186899.01845
      2568.898  
  20967490.289   110184960.06049     -1612.530    20967492.217    85858435.45748
     -1256.523  
  20448276.421   107456436.89449       592.210    20448278.095    83732303.98248
       461.460  
  20424668.654   109143262.16308      2313.847    20424673.662    84889235.67207
      1799.659  
  22458528.080   120264372.47306     -3259.776    22458532.953    93538993.09606
     -2535.383  
  19639172.543   104982685.94908     -1273.652    19639178.777    81653237.78906
      -990.616  
  21287239.577   113472964.17407     -2284.695           0.000           0.00000
         0.000  
  21613038.930   115655737.37106     -2088.527    21613043.692    89954479.59206
     -1624.414  
  20864001.276   111334314.61908      2769.062    20864006.491    86593378.10507
      2153.715  
  22402996.453   119588713.16106      1514.305    22403001.729    93013464.74106
      1177.784  
  23140942.097   123614758.95106      4568.691    23140948.927    96144848.34306
      3553.425  
 20  9 26  9  7 30.0000000  0 16G11G20G15G21G32G12G24G10R11R 8R 1R10
                                R17R 2R18R12
  23992698.637   126082486.91547      1006.633    23992698.453    98246089.77543
       784.387  
  20664226.374   108591257.02349     -2037.565    20664225.500    84616570.57047
     -1587.718  
  24155785.803   126939518.85146     -3476.054    24155786.087    98913908.71744
     -2708.612  
  23007083.546   120903041.62448       502.141    23007082.841    94210156.54346
       391.273  
  22142455.002   116359388.05249      2597.266    22142457.319    90669664.91447
      2023.844  
  24219316.520   127273371.43147      3295.136    24219316.870    99174058.93444
      2567.641  
  20969026.248   110193031.70549     -1615.617    20969028.154    85864725.04848
     -1258.922  
  20447714.598   107453484.46649       589.343    20447716.274    83730003.39049
       459.230  
  20422505.636   109131703.58808      2309.922    20422510.665    84880245.67908
      1796.605  
  22461572.183   120280673.60506     -3260.621    22461577.027    93551671.74506
     -2536.038  
  19640365.063   104989060.55908     -1275.972    19640371.300    81658195.81206
      -992.422  
  21289384.494   113484397.82107     -2288.390           0.000           0.00000
         0.000  
  21614992.662   115666191.93206     -2092.460    21614997.306    89962610.90506
     -1627.472  
  20861407.426   111320473.24708      2767.852    20861412.653    86582612.59307
      2152.773  
  22401580.320   119581154.05906      1510.160    22401585.689    93007585.45606
      1174.569  
  23136665.968   123591917.01206      4568.558    23136672.894    96127082.40506
      3553.324  
 20  9 26  9  7 35.0000000  0 16G11G20G15G21G32G12G24G10R11R 8R 1R10
                                R17R 2R18R12
  23991742.493   126077461.94247      1003.766    23991741.890    98242174.21843
       782.152  
  20666166.323   108601451.58849     -2040.230    20666165.468    84624514.38547
     -1589.793  
  24159093.075   126956899.37145     -3476.183    24159093.737    98927451.92944
     -2708.718  
  23006607.146   120900538.25148       498.964    23006606.389    94208205.86546
       388.800  
  22139984.211   116346403.86349      2596.015    22139986.487    90659547.39347
      2022.875  
  24216181.676   127256898.27747      3293.847    24216182.077    99161222.73344
      2566.633  
  20970565.046   110201118.26949     -1618.797    20970566.939    85871026.27148
     -1261.398  
  20447155.321   107450545.44149       586.336    20447156.996    83727713.24149
       456.882  
  20420346.151   109120164.17208      2305.870    20420351.220    84871270.57608
      1793.457  
  22464617.292   120296979.83406     -3262.511    22464622.052    93564354.35406
     -2537.511  
  19641559.751   104995446.94508     -1278.621    19641566.044    81663163.00506
      -994.483  
  21291533.051   113495850.55908     -2292.675           0.000           0.00000
         0.000  
  21616949.996   115676666.02407     -2096.859    21616954.591    89970757.43606
     -1630.891  
  20858814.699   111306638.05308      2766.531    20858819.967    86571851.88807
      2151.746  
  22400168.244   119573616.17907      1505.688    22400173.609    93001722.67906
      1171.089  
  23132390.553   123569078.26107      4567.000    23132397.416    96109318.92706
      3552.109  
 20  9 26  9  7 40.0000000  0 16G11G20G15G21G32G12G24G10R11R 8R 1R10
                                R17R 2R18R12
  23990789.492   126072453.85647      1000.008    23990788.815    98238271.81643
       779.227  
  20668108.797   108611659.32749     -2042.835    20668107.953    84632468.47147
     -1591.819  
  24162400.835   126974281.98945     -3477.038    24162401.719    98940996.84544
     -2709.387  
  23006133.434   120898048.78448       496.507    23006132.679    94206266.03846
       386.895  
  22137514.637   116333426.04049      2595.327    22137516.887    90649434.79347
      2022.327  
  24213047.924   127240430.64347      3293.047    24213048.384    99148390.78444
      2566.008  
  20972106.772   110209220.15749     -1621.796    20972108.621    85877339.42048
     -1263.741  
  20446598.674   107447620.24349       583.684    20446600.350    83725433.86849
       454.815  
  20418190.380   109108644.51008      2302.171    20418195.496    84862310.84608
      1790.577  
  22467663.391   120313291.62205     -3262.901    22467668.177    93577041.29306
     -2537.815  
  19642756.788   105001845.79508     -1280.839    19642763.073    81668139.88306
      -996.211  
  21293685.228   113507322.93307     -2296.230           0.000           0.00000
         0.000  
  21618911.109   115687159.98907     -2100.737    21618915.562    89978919.39906
     -1633.910  
  20856223.238   111292809.74008      2765.272    20856228.586    86561096.54007
      2150.769  
  22398760.211   119566099.81406      1501.246    22398765.628    92995876.60507
      1167.632  
  23128115.724   123546243.14506      4566.719    23128122.699    96091558.29806
      3551.891  
 20  9 26  9  7 45.0000000  0 16G11G20G15G21G32G12G24G10R11R 8R 1R10
                                R17R 2R18R12
  23989839.535   126067461.73547       996.305    23989838.847    98234381.85444
       776.339  
  20670053.590   108621879.31649     -2045.492    20670052.730    84640432.10147
     -1593.895  
  24165708.863   126991665.51346     -3476.905    24165709.950    98954542.37343
     -2709.288  
  23005662.214   120895572.35148       493.511    23005661.421    94204336.34846
       384.551  
  22135046.080   116320453.71649      2593.609    22135048.329    90639326.49447
      2020.995  
  24209915.091   127223967.62147      3291.691    24209915.738    99135562.49745
      2564.957  
  20973651.197   110217336.19749     -1624.933    20973653.005    85883663.60248
     -1266.187  
  20446044.484   107444707.98549       580.859    20446046.173    83723164.57349
       452.616  
  20416038.105   109097143.62608      2297.999    20416043.258    84853365.72508
      1787.332  
  22470710.395   120329607.93606     -3263.840    22470715.155    93589731.75606
     -2538.547  
  19643955.976   105008256.04608     -1283.359    19643962.265    81673125.63506
      -998.253  
  21295840.907   113518814.04007     -2300.425           0.000           0.00000
         0.000  
  21620875.704   115697673.00107     -2104.711    21620880.088    89987096.19006
     -1636.996  
  20853632.854   111278987.10808      2763.633    20853638.263    86550345.61107
      2149.492  
  22397356.049   119558604.42706      1496.886    22397361.562    92990046.88007
      1164.245  
  23123841.382   123523410.84306      4566.027    23123848.468    96073799.85006
      3551.358  
 20  9 26  9  7 50.0000000  0 16G11G20G15G21G32G12G24G10R11R 8R 1R10
                                R17R 2R18R12
  23988892.847   126062486.63947       992.800    23988892.220    98230505.17142
       773.608  
  20672000.928   108632112.61249     -2048.249    20672000.090    84648406.09247
     -1596.042  
  24169017.286   127009051.14246     -3478.156    24169018.537    98968089.60544
     -2710.257  
  23005193.670   120893109.98148       490.773    23005192.863    94202417.62046
       382.421  
  22132578.741   116307487.85849      2592.207    22132581.013    90629223.24747
      2019.902  
  24206783.323   127207510.19347      3290.847    24206784.001    99122738.52545
      2564.296  
  20975198.558   110225467.72849     -1628.051    20975200.355    85889999.86548
     -1268.612  
  20445492.959   107441809.70149       577.891    20445494.649    83720906.17649
       450.300  
  20413889.566   109085662.57708      2293.784    20413894.716    84844436.03108
      1784.055  
  22473758.367   120345930.06506     -3265.301    22473763.227    93602426.74406
     -2539.680  
  19645157.461   105014678.86208     -1286.077    19645163.802    81678121.16006
     -1000.281  
  21298000.268   113530324.77707     -2304.418           0.000           0.00000
         0.000  
  21622844.052   115708206.08907     -2108.668    21622848.439    89995288.59106
     -1640.074  
  20851043.752   111265171.10108      2762.055    20851049.206    86539599.81507
      2148.262  
  22395956.045   119551130.83206      1492.051    22395961.631    92984234.10307
      1160.483  
  23119567.843   123500582.33606      4564.956    23119574.968    96056044.37106
      3550.526  
 20  9 26  9  7 55.0000000  0 16G11G20G15G21G32G12G24G10R11R 8R 1R10
                                R17R 2R18R12
  23987949.522   126057529.24647       990.211    23987948.990    98226642.23741
       771.589  
  20673950.946   108642359.93749     -2050.655    20673950.099    84656391.02047
     -1597.917  
  24172326.162   127026439.55646     -3477.703    24172327.482    98981639.08845
     -2709.897  
  23004727.986   120890662.41648       488.479    23004727.138    94200510.42746
       380.629  
  22130112.804   116294529.24049      2591.313    22130115.021    90619125.63947
      2019.202  
  24203652.812   127191059.21547      3290.027    24203653.435    99109919.59845
      2563.656  
  20976749.019   110233615.39149     -1630.926    20976750.756    85896348.68848
     -1270.855  
  20444944.255   107438926.12149       575.593    20444945.944    83718659.22649
       448.512  
  20411744.832   109074202.08108      2290.335    20411750.026    84835522.31408
      1781.370  
  22476807.620   120362258.45706     -3266.008    22476812.475    93615126.59806
     -2540.229  
  19646361.477   105021114.89108     -1288.202    19646367.784    81683126.95206
     -1001.940  
  21300163.420   113541855.78208     -2307.762           0.000           0.00000
         0.000  
  21624816.327   115718759.94607     -2112.546    21624820.645    90003497.12506
     -1643.101  
  20848456.103   111251362.94408      2761.289    20848461.604    86528860.14707
      2147.664  
  22394560.325   119543679.91606      1488.667    22394565.964    92978438.96807
      1157.854  
  23115295.172   123477758.37106      4564.628    23115302.256    96038292.38606
      3550.261  
 20  9 26  9  8  0.0000000  0 16G11G20G15G21G32G12G24G10R11R 8R 1R10
                                R17R 2R18R12
  23987009.017   126052587.01347       986.448    23987008.339    98222791.17942
       768.659  
  20675903.112   108652618.63849     -2053.207    20675902.279    84664384.80847
     -1599.905  
  24175635.178   127043828.08446     -3478.081    24175636.638    98995188.56444
     -2710.194  
  23004264.600   120888227.02548       485.512    23004263.713    94198612.71846
       378.320  
  22127647.768   116281575.26549      2589.848    22127649.894    90609031.63947
      2018.063  
  24200522.984   127174612.04447      3288.828    24200523.621    99097103.62844
      2562.722  
  20978302.017   110241776.45049     -1634.007    20978303.757    85902707.96648
     -1273.254  
  20444397.824   107436054.63649       572.679    20444399.558    83716421.70949
       446.237  
  20409603.524   109062759.55008      2286.229    20409608.699    84826622.57408
      1778.180  
  22479857.624   120378590.62006     -3267.198    22479862.403    93627829.37706
     -2541.164  
  19647567.430   105027561.46508     -1290.754    19647573.712    81688140.95606
     -1003.922  
  21302329.944   113553404.45107     -2311.918           0.000           0.00000
         0.000  
  21626791.947   115729331.88307     -2116.589    21626796.234    90011719.74407
     -1646.238  
  20845869.390   111237559.55808      2759.780    20845874.902    86518124.18807
      2146.496  
  22393168.324   119536248.75807      1483.604    22393173.936    92972659.15707
      1153.914  
  23111022.863   123454936.36907      4563.741    23111029.941    96020541.95706
      3549.577  
 20  9 26  9  8  5.0000000  0 16G11G20G15G21G32G12G24G10R11R 8R 1R10
                                R17R 2R18R12
  23986071.916   126047662.63846       982.941    23986071.138    98218954.02843
       765.929  
  20677857.972   108662891.46149     -2055.878    20677857.125    84672389.60747
     -1601.987  
  24178944.740   127061219.51546     -3478.617    24178946.200    99008740.32244
     -2710.609  
  23003804.021   120885806.51148       482.562    23003803.085    94196726.61846
       376.023  
  22125184.105   116268628.59449      2588.715    22125186.158    90598943.33247
      2017.179  
  24197394.461   127158171.45147      3287.218    24197395.056    99084292.77046
      2561.468  
  20979858.108   110249953.70249     -1637.022    20979859.821    85909079.85048
     -1275.601  
  20443854.213   107433197.97449       569.770    20443855.960    83714195.73549
       443.973  
  20407466.055   109051337.81308      2282.116    20407471.280    84817739.01408
      1774.980  
  22482908.850   120394929.32705     -3268.323    22482913.588    93640537.26706
     -2542.030  
  19648775.910   105034021.35708     -1293.218    19648782.087    81693165.32206
     -1005.835  
  21304500.349   113564973.71208     -2315.905           0.000           0.00000
         0.000  
  21628771.484   115739924.69307     -2120.352    21628775.747    90019958.59706
     -1649.164  
  20843284.126   111223763.93708      2758.242    20843289.655    86507394.26407
      2145.300  
  22391780.485   119528840.43706      1479.729    22391786.158    92966897.15007
      1150.901  
  23106751.401   123432119.01506      4562.887    23106758.464    96002795.13606
      3548.910  
 20  9 26  9  8 10.0000000  0 16G11G20G15G21G32G12G24G10R11R 8R 1R10
                                R17R 2R18R12
  23985137.909   126042754.52247       979.921    23985136.824    98215129.44943
       763.559  
  20679815.217   108673176.76049     -2058.492    20679814.356    84680404.10948
     -1604.022  
  24182254.457   127078612.22346     -3479.284    24182255.516    99022293.07443
     -2711.137  
  23003346.001   120883399.32048       479.863    23003345.042    94194850.88346
       373.918  
  22122721.540   116255687.66449      2587.495    22122723.522    90588859.49947
      2016.229  
  24194266.906   127141735.78947      3286.359    24194267.355    99071485.76544
      2560.796  
  20981416.971   110258145.64549     -1640.059    20981418.674    85915463.18948
     -1277.972  
  20443313.143   107430354.53549       567.202    20443314.866    83711980.07749
       441.976  
  20405332.235   109039935.16908      2278.354    20405337.468    84808870.29408
      1772.055  
  22485960.999   120411272.72806     -3269.574    22485965.595    93653248.80106
     -2543.008  
  19649986.541   105040493.03208     -1295.750    19649992.637    81698198.85706
     -1007.804  
  21306674.257   113576561.74008     -2319.668           0.000           0.00000
         0.000  
  21630754.699   115750536.68607     -2124.367    21630758.802    90028212.38306
     -1652.284  
  20840699.986   111209974.22408      2757.233    20840705.499    86496668.93407
      2144.512  
  22390396.626   119521453.30506      1475.159    22390402.318    92961151.58707
      1147.344  
  23102480.524   123409304.85006      4562.348    23102487.551    95985050.78306
      3548.492  
 20  9 26  9  8 15.0000000  0 16G11G20G15G21G32G12G24G10R11R 8R 1R10
                                R17R 2R18R12
  23984206.922   126037862.09347       976.601    23984205.944    98211317.21443
       760.992  
  20681774.737   108683474.04449     -2060.840    20681773.859    84688427.97747
     -1605.847  
  24185564.322   127096005.68446     -3479.308    24185565.281    99035846.44543
     -2711.148  
  23002890.350   120881004.85848       477.409    23002889.417    94192985.08246
       372.007  
  22120259.992   116242751.98949      2586.422    22120261.896    90578779.74347
      2015.391  
  24191140.158   127125304.61847      3285.187    24191140.471    99058682.29044
      2559.890  
  20982978.507   110266351.66749     -1642.863    20982980.241    85921857.48248
     -1280.155  
  20442774.478   107427523.80049       564.750    20442776.194    83709774.30749
       440.063  
  20403201.861   109028551.06708      2274.835    20403207.128    84800015.99708
      1769.316  
  22489013.764   120427620.52406     -3270.163    22489018.394    93665963.72306
     -2543.468  
  19651199.318   105046975.86308     -1297.813    19651205.354    81703241.05406
     -1009.348  
  21308851.567   113588168.05707     -2323.315           0.000           0.00000
         0.000  
  21632741.301   115761167.27007     -2128.117    21632745.379    90036480.60606
     -1655.206  
  20838116.879   111196190.17708      2756.020    20838122.369    86485948.01607
      2143.570  
  22389016.616   119514086.68606      1471.109    22389022.366    92955421.98207
      1144.190  
  23098210.045   123386493.18706      4562.176    23098217.122    95967308.40706
      3548.358  
 20  9 26  9  8 20.0000000  0 16G11G20G15G21G32G12G24G10R11R 8R 1R10
                                R17R 2R18R12
  23983279.447   126032988.11747       972.788    23983278.366    98207519.28244
       758.011  
  20683737.046   108693786.04949     -2064.063    20683736.143    84696463.29647
     -1608.363  
  24188874.834   127113402.63247     -3480.073    24188875.513    99049402.44644
     -2711.762  
  23002437.640   120878625.90948       474.187    23002436.800    94191131.34546
       369.495  
  22117799.939   116229824.29449      2584.703    22117801.801    90568706.21847
      2014.054  
  24188014.823   127108880.62447      3283.753    24188015.095    99045884.36844
      2558.766  
  20984543.231   110274574.40849     -1646.402    20984545.012    85928264.83048
     -1282.910  
  20442238.763   107424708.53749       561.371    20442240.476    83707580.59849
       437.434  
  20401075.534   109017188.46608      2270.180    20401080.795    84791178.42207
      1765.695  
  22492067.943   120443975.41806     -3271.874    22492072.578    93678684.23306
     -2544.789  
  19652414.658   105053472.64508     -1300.784    19652420.649    81708294.09906
     -1011.723  
  21311032.779   113599795.39207     -2327.637           0.000           0.00000
         0.000  
  21634731.841   115771819.36107     -2132.284    21634735.963    90044765.54106
     -1658.453  
  20835535.354   111182414.60008      2754.371    20835540.855    86475233.68107
      2142.285  
  22387640.971   119506743.43506      1466.175    22387646.774    92949710.60007
      1140.362  
  23093940.661   123363686.99806      4560.082    23093947.743    95949570.27206
      3546.730  
 20  9 26  9  8 25.0000000  0 16G11G20G15G21G32G12G24G10R11R 8R 1R10
                                R17R 2R18R12
  23982354.786   126028129.21047       970.563    23982353.907    98203733.15343
       756.288  
  20685701.528   108704109.41249     -2065.901    20685700.581    84704507.46647
     -1609.797  
  24192185.421   127130799.66846     -3479.655    24192186.142    99062958.63841
     -2711.414  
  23001987.258   120876259.13748       472.156    23001986.471    94189287.10446
       367.910  
  22115340.766   116216901.21649      2584.054    22115342.598    90558636.29047
      2013.546  
  24184890.205   127092460.48647      3283.425    24184890.447    99033089.48645
      2558.512  
  20986110.480   110282810.44949     -1648.362    20986112.314    85934682.51548
     -1284.438  
  20441705.326   107421905.37249       559.395    20441707.035    83705396.31149
       435.887  
  20398952.536   109005843.83908      2267.171    20398957.797    84782354.83107
      1763.355  
  22495122.741   120460334.03806     -3272.179    22495127.456    93691407.56706
     -2545.031  
  19653631.965   105059979.97508     -1302.539    19653637.983    81713355.36706
     -1013.086  
  21313217.310   113611440.33007     -2330.602           0.000           0.00000
         0.000  
  21636725.751   115782489.49007     -2136.081    21636729.868    90053064.51407
     -1661.406  
  20832954.660   111168643.65008      2753.641    20832960.192    86464522.93808
      2141.714  
  22386268.959   119499420.16107      1462.534    22386274.911    92944014.69807
      1137.526  
  23089671.662   123340882.74006      4560.308    23089678.683    95931833.64506
      3546.906  
 20  9 26  9  8 30.0000000  0 16G11G20G15G21G32G12G24G10R11R 8R 1R10
                                R17R 2R18R12
  23981433.431   126023287.61247       966.366    23981432.806    98199960.42944
       753.007  
  20687668.552   108714446.18849     -2068.938    20687667.613    84712562.10247
     -1612.159  
  24195496.347   127148198.89145     -3480.940    24195497.249    99076516.47444
     -2712.426  
  23001539.567   120873906.63048       468.766    23001538.803    94187453.98046
       365.273  
  22112882.875   116203984.85349      2582.339    22112884.729    90548571.60147
      2012.211  
  24181766.681   127076046.35047      3281.859    24181766.912    99020299.22645
      2557.289  
  20987680.693   110291062.16549     -1652.210    20987682.612    85941112.43548
     -1287.438  
  20441174.614   107419116.42849       556.102    20441176.296    83703223.11649
       433.323  
  20396833.340   108994519.37308      2262.581    20396838.549    84773546.91907
      1759.784  
  22498178.673   120476698.38206     -3273.512    22498183.386    93704135.40506
     -2546.066  
  19654851.685   105066499.98208     -1305.628    19654857.712    81718426.47306
     -1015.492  
  21315405.574   113623105.01007     -2335.129           0.000           0.00000
         0.000  
  21638723.397   115793179.64207     -2140.441    21638727.582    90061379.06106
     -1664.793  
  20830375.362   111154880.02008      2751.875    20830380.879    86453817.89507
      2140.344  
  22384901.210   119492119.05706      1457.910    22384907.203    92938336.05107
      1133.926  
  23085403.419   123318082.67806      4559.327    23085410.418    95914100.26406
      3546.145  
 20  9 26  9  8 35.0000000  0 16G11G20G15G21G32G12G24G10R11R 8R 1R10
                                R17R 2R18R12
  23980515.231   126018462.90847       963.508    23980514.644    98196200.99143
       750.793  
  20689638.074   108724796.10149     -2071.116    20689637.151    84720626.97047
     -1613.858  
  24198807.649   127165599.93046     -3480.258    24198808.467    99090075.70344
     -2711.894  
  23001094.582   120871568.12748       466.644    23001093.786    94185631.77346
       363.613  
  22110426.194   116191074.90449      2581.613    22110428.080    90538511.90747
      2011.648  
  24178644.270   127059637.91047      3281.297    24178644.503    99007513.42145
      2556.851  
  20989253.801   110299328.93449     -1654.698    20989255.756    85947554.07248
     -1289.378  
  20440646.544   107416341.37349       553.823    20440648.190    83701060.73649
       431.550  
  20394717.894   108983214.75908      2259.058    20394723.031    84764754.44407
      1757.043  
  22501235.753   120493068.19006     -3274.136    22501240.265    93716867.48106
     -2546.550  
  19656073.701   105073032.36008     -1307.472    19656079.759    81723507.21006
     -1016.925  
  21317597.440   113634789.07707     -2338.359           0.000           0.00000
         0.000  
  21640724.781   115803889.60707     -2143.801    21640729.019    90069709.04106
     -1667.402  
  20827797.295   111141122.86608      2750.979    20827802.803    86443117.89207
      2139.652  
  22383537.452   119484839.63206      1454.297    22383543.525    92932674.26007
      1131.117  
  23081135.927   123295286.43806      4558.598    23081142.826    95896369.86106
      3545.574  
