     2              OBSERVATION DATA    G                   RINEX VERSION / TYPE
LEICA GEO OFFICE 7.0                    26-9-20 23:49       PGM / RUN BY / DATE
                                                            OBSERVER / AGENCY
jarg                                                        MARKER NAME
jarg                                                        MARKER NUMBER
457569              LEICA GX1220        2.14                REC # / TYPE / VERS
                    LEIAX1202                               ANT # / TYPE
 -1143546.7628  3815838.0505  4965301.3874                  APPROX POSITION XYZ
        1.6110        0.0000        0.0000                  ANTENNA: DELTA H/E/N
L1PhaOff:   0.0648  L2PhaOff:   0.0622                      COMMENT
     1     1                                                WAVELENGTH FACT L1/2
     6    C1    L1    D1    P2    L2    D2                  # / TYPES OF OBSERV
  2020     9    26     5    25   40.000000                  TIME OF FIRST OBS
  2020     9    26    10    31   20.000000                  TIME OF LAST OBS
    18                                                      LEAP SECONDS
    21                                                      # OF SATELLITES
          C1    L1    D1    P2    L2    D2                  COMMENT
   G 1   678   678   678   677   677   677                  PRN / # OF OBS
   G 2    27    27    27    27    27    27                  PRN / # OF OBS
   G 3     0     0     0     0     0     0                  PRN / # OF OBS
   G 4     0     0     0     0     0     0                  PRN / # OF OBS
   G 5   985   985   985   985   985   985                  PRN / # OF OBS
   G 6     0     0     0     0     0     0                  PRN / # OF OBS
   G 7     3     3     3     3     3     3                  PRN / # OF OBS
   G 8   755   755   755   754   754   754                  PRN / # OF OBS
   G 9     0     0     0     0     0     0                  PRN / # OF OBS
   G10  3033  3033  3033  3033  3033  3033                  PRN / # OF OBS
   G11  1154  1154  1154  1154  1154  1154                  PRN / # OF OBS
   G12  1116  1116  1116  1116  1116  1116                  PRN / # OF OBS
   G13  1925  1925  1925  1925  1925  1925                  PRN / # OF OBS
   G14     0     0     0     0     0     0                  PRN / # OF OBS
   G15  2859  2859  2859  2859  2859  2859                  PRN / # OF OBS
   G16     0     0     0     0     0     0                  PRN / # OF OBS
   G17     0     0     0     0     0     0                  PRN / # OF OBS
   G18  2625  2625  2625  2625  2625  2625                  PRN / # OF OBS
   G19     0     0     0     0     0     0                  PRN / # OF OBS
   G20  3669  3669  3669  3669  3669  3669                  PRN / # OF OBS
   G21  2226  2226  2226  2225  2225  2225                  PRN / # OF OBS
   G22    73    73    73    73    73    73                  PRN / # OF OBS
   G23     0     0     0     0     0     0                  PRN / # OF OBS
   G24  3156  3156  3156  3155  3155  3155                  PRN / # OF OBS
   G25   716   716   716   716   716   716                  PRN / # OF OBS
   G26     0     0     0     0     0     0                  PRN / # OF OBS
   G27  1639  1639  1639  1639  1639  1639                  PRN / # OF OBS
   G28     0     0     0     0     0     0                  PRN / # OF OBS
   G29   720   720   720   719   719   719                  PRN / # OF OBS
   G30   785   785   785   785   785   785                  PRN / # OF OBS
   G31   512   512   512   511   511   511                  PRN / # OF OBS
   G32  1891  1891  1891  1891  1891  1891                  PRN / # OF OBS
                                                            END OF HEADER
 20  9 26  5 25 40.0000000  0  9G13G 2G15G18G 5G29G 7G30G20
  20520819.295   107837633.42859       237.706    20520818.866    84029322.97157
       185.223  
  24617517.572   129365932.64456     -3324.922    24617518.638   100804622.23355
     -2590.851  
  20760243.475   109095815.39259      2220.965    20760244.147    85009729.40958
      1730.617  
  21226852.953   111547865.43658      2187.578    21226853.309    86920416.39757
      1704.601  
  21877516.992   114967128.47858     -2649.116    21877517.539    89584777.61557
     -2064.249  
  22361621.553   117511114.52358     -2880.230    22361622.302    91567104.81757
     -2244.339  
  25088172.211   131839226.81056     -1563.628    25088172.604   102731856.92255
     -1218.414  
  23828487.857   125219550.13257      -157.237    23828490.987    97573685.40155
      -122.526  
  23566623.605   123843443.19857      3199.394    23566624.297    96501387.08455
      2493.030  
 20  9 26  5 25 45.0000000  0  9G13G 2G15G18G 5G29G 7G30G20
  20520594.770   107836453.51149       234.496    20520594.427    84028403.55547
       182.722  
  24620681.645   129382559.39746     -3325.188    24620682.496   100817578.11144
     -2591.062  
  20758131.421   109084716.97449      2218.651    20758132.211    85001081.29248
      1728.815  
  21224772.478   111536932.55948      2185.754    21224772.860    86911897.27247
      1703.183  
  21880038.177   114980377.45348     -2650.218    21880038.740    89595101.48047
     -2065.108  
  22364362.933   117525520.75948     -2881.972    22364363.837    91578330.44747
     -2245.695  
  25089661.216   131847051.46146     -1565.671    25089661.663   102737954.05844
     -1220.007  
  23828638.740   125220343.05847      -159.883    23828641.989    97574303.26345
      -124.585  
  23563580.002   123827449.11247      3198.965    23563580.676    96488924.15344
      2492.694  
 20  9 26  5 25 50.0000000  0  9G13G 2G15G18G 5G29G 7G30G20
  20520373.275   107835289.01349       231.055    20520372.938    84027496.15647
       180.038  
  24623846.243   129399188.06546     -3326.065    24623847.090   100830535.53245
     -2591.742  
  20756021.821   109073630.76349      2215.897    20756022.492    84992442.69048
      1726.671  
  21222693.697   111526008.08348      2183.851    21222693.872    86903384.69547
      1701.698  
  21882560.147   114993630.74548     -2651.211    21882560.696    89605428.71847
     -2065.882  
  22367106.190   117539936.10548     -2884.198    22367107.022    91589563.17647
     -2247.429  
  25091152.085   131854886.78146     -1568.211    25091152.208   102744059.49744
     -1221.983  
  23828792.145   125221149.52247      -162.922    23828795.309    97574931.67346
      -126.957  
  23560536.463   123811455.77147      3198.304    23560537.133    96476461.82045
      2492.187  
 20  9 26  5 25 55.0000000  0  8G13G 2G15G18G 5G29G30G20
  20520153.502   107834134.72549       228.206    20520153.162    84026596.71048
       177.820  
  24627009.965   129415813.41146     -3326.434    24627010.932   100843490.31044
     -2592.035  
  20753913.571   109062551.58149      2213.633    20753914.233    84983809.56248
      1724.905  
  21220615.318   111515086.85148      2182.379    21220615.631    86894874.64847
      1700.551  
  21885082.094   115006883.22848     -2651.987    21885082.666    89615755.32647
     -2066.492  
  22369850.053   117554355.33248     -2885.616    22369850.718    91600798.93247
     -2248.534  
  23828947.207   125221964.37447      -165.401    23828950.266    97575566.63746
      -128.886  
  23557492.314   123795458.00547      3198.254    23557493.001    96463996.04745
      2492.145  
 20  9 26  5 26  0.0000000  0  8G13G 2G15G18G 5G29G30G20
  20519938.673   107833005.53849       223.680    20519938.262    84025716.82447
       174.292  
  24630175.779   129432450.37945     -3328.313    24630177.002   100856454.21045
     -2593.492  
  20751809.500   109051494.30149      2209.625    20751810.095    84975193.50348
      1721.780  
  21218540.543   111504183.74148      2179.065    21218540.839    86886378.71947
      1697.969  
  21887606.529   115020149.72748     -2654.574    21887607.066    89626092.85547
     -2068.503  
  22372597.523   117568793.32148     -2889.026    22372598.312    91612049.30847
     -2251.190  
  23829106.668   125222802.44347      -169.440    23829109.676    97576219.67545
      -132.035  
  23554449.911   123779470.84947      3196.144    23554450.589    96451538.53544
      2490.500  
 20  9 26  5 26  5.0000000  0  8G13G 2G15G18G 5G29G30G20
  20519727.660   107831896.84849       220.187    20519727.248    84024852.91347
       171.570  
  24633343.065   129449094.26646     -3329.246    24633344.033   100869423.42444
     -2594.226  
  20749708.666   109040454.31549      2206.636    20749709.165    84966590.92048
      1719.453  
  21216468.448   111493294.14948      2176.961    21216468.718    86877893.32647
      1696.327  
  21890132.856   115033425.60248     -2655.719    21890133.427    89636437.69347
     -2069.394  
  22375347.658   117583245.47248     -2891.590    22375348.386    91623310.71547
     -2253.191  
  23829269.797   125223659.16247      -172.948    23829272.850    97576887.25245
      -134.769  
  23551408.844   123763489.46447      3196.129    23551409.437    96439085.52445
      2490.491  
 20  9 26  5 26 10.0000000  0  8G13G 2G15G18G 5G29G30G20
  20519519.683   107830803.82849       216.952    20519519.413    84024001.20948
       169.051  
  24636510.594   129465740.36845     -3330.008    24636511.561   100882394.42345
     -2594.815  
  20747610.118   109029426.87049      2204.058    20747610.904    84957998.10848
      1717.445  
  21214397.865   111482413.31748      2175.070    21214398.058    86869414.75547
      1694.854  
  21892660.150   115046706.09048     -2656.729    21892660.741    89646786.12247
     -2070.183  
  22378099.526   117597706.94748     -2893.520    22378100.405    91634579.39647
     -2254.695  
  23829435.381   125224529.71647      -175.562    23829438.423    97577565.58846
      -136.805  
  23548367.949   123747509.26547      3195.815    23548368.522    96426633.42445
      2490.242  
 20  9 26  5 26 15.0000000  0  8G13G 2G15G18G 5G29G30G20
  20519314.931   107829727.50349       213.613    20519314.511    84023162.51248
       166.448  
  24639678.859   129482389.62047     -3330.188    24639679.890   100895367.82544
     -2594.957  
  20745514.430   109018413.05048      2201.437    20745514.853    84949415.91448
      1715.401  
  21212329.192   111471542.27748      2173.348    21212329.391    86860943.81647
      1693.516  
  21895188.409   115059992.24248     -2657.805    21895188.813    89657138.96747
     -2071.020  
  22380853.464   117612178.80148     -2895.390    22380854.365    91645856.15047
     -2256.152  
  23829604.042   125225415.16047      -178.719    23829606.899    97578255.56346
      -139.266  
  23545327.418   123731531.23447      3195.042    23545328.040    96414183.03245
      2489.640  
 20  9 26  5 26 20.0000000  0  8G13G 2G15G18G 5G29G30G20
  20519113.412   107828668.23349       210.194    20519113.045    84022337.10548
       163.785  
  24642847.832   129499042.46546     -3330.863    24642849.204   100908344.10345
     -2595.476  
  20743421.202   109007413.15749      2198.640    20743421.743    84940844.57048
      1713.223  
  21210262.426   111460681.37848      2171.227    21210262.632    86852480.78247
      1691.862  
  21897717.820   115073284.35548     -2659.051    21897718.340    89667496.45547
     -2071.991  
  22383609.485   117626661.32048     -2897.483    22383610.288    91657141.22947
     -2257.785  
  23829775.337   125226315.85247      -181.698    23829778.417    97578957.40046
      -141.586  
  23542287.272   123715555.68647      3194.707    23542287.901    96401734.54645
      2489.379  
 20  9 26  5 26 25.0000000  0  8G13G 2G15G18G 5G29G30G20
  20518914.758   107827624.42649       206.776    20518914.263    84021523.75048
       161.120  
  24646017.191   129515697.24647     -3331.573    24646018.072   100921321.80744
     -2596.038  
  20741330.259   108996425.61349      2195.871    20741330.814    84932282.84848
      1711.066  
  21208197.350   111449829.04948      2169.207    21208197.586    86844024.42147
      1690.289  
  21900247.976   115086580.88448     -2660.164    21900248.570    89677857.38747
     -2072.859  
  22386367.033   117641152.92748     -2899.554    22386367.925    91668433.38247
     -2259.394  
  23829949.477   125227230.15347      -184.698    23829952.227    97579669.84245
      -143.926  
  23539247.482   123699581.01647      3194.308    23539248.016    96389286.75645
      2489.069  
 20  9 26  5 26 30.0000000  0  8G13G 2G15G18G 5G29G30G20
  20518719.924   107826600.28549       202.809    20518719.397    84020725.71648
       158.031  
  24649187.703   129532358.05646     -3332.616    24649188.793   100934304.25445
     -2596.847  
  20739242.559   108985454.58349      2192.613    20739243.297    84923734.00148
      1708.527  
  21206134.579   111438989.45748      2166.695    21206134.742    86835577.98447
      1688.331  
  21902779.845   115099885.97648     -2661.922    21902780.299    89688224.98847
     -2074.226  
  22389127.252   117655657.78748     -2902.183    22389127.998    91679735.85947
     -2261.445  
  23830126.870   125228162.26747      -188.155    23830129.747    97580396.16345
      -146.617  
  23536208.510   123683611.45347      3193.398    23536209.020    96376842.94945
      2488.359  
 20  9 26  5 26 35.0000000  0  8G13G 2G15G18G 5G29G30G20
  20518528.492   107825594.39649       199.477    20518527.944    84019941.90248
       155.433  
  24652358.946   129549023.67546     -3333.555    24652360.064   100947290.42245
     -2597.582  
  20737157.720   108974498.70949      2189.858    20737158.236    84915196.96148
      1706.378  
  21204074.079   111428161.23748      2164.718    21204074.341    86827140.42247
      1686.789  
  21905313.238   115113198.23248     -2663.198    21905313.727    89698598.17347
     -2075.222  
  22391889.746   117670174.47848     -2904.375    22391890.477    91691047.56047
     -2263.152  
  23830307.247   125229110.80747      -191.050    23830310.218    97581135.28545
      -148.875  
  23533170.275   123667645.60647      3193.214    23533171.055    96364402.05345
      2488.214  
 20  9 26  5 26 40.0000000  0  8G13G 2G15G18G 5G29G30G20
  20518340.098   107824604.34449       196.229    20518339.666    84019170.43847
       152.901  
  24655530.767   129565691.39846     -3334.370    24655531.720   100960278.29545
     -2598.210  
  20735075.347   108963555.54749      2187.254    20735075.859    84906669.82048
      1704.352  
  21202015.114   111417341.93248      2162.914    21202015.425    86818709.78747
      1685.383  
  21907847.394   115126515.18948     -2664.007    21907847.884    89708975.02947
     -2075.851  
  22394653.944   117684700.56548     -2906.297    22394654.742    91702366.57747
     -2264.648  
  23830490.534   125230073.33547      -194.151    23830493.328    97581885.31045
      -151.289  
  23530132.420   123651681.07347      3192.296    23530133.131    96351962.17144
      2487.504  
 20  9 26  5 26 45.0000000  0  8G13G 2G15G18G 5G29G30G20
  20518155.133   107823632.10049       192.788    20518154.555    84018412.84448
       150.222  
  24658703.325   129582363.42547     -3334.844    24658704.422   100973269.44845
     -2598.585  
  20732995.829   108952627.10949      2184.265    20732996.386    84898154.16548
      1702.023  
  21199958.436   111406533.57748      2160.652    21199958.694    86810287.69147
      1683.621  
  21910382.687   115139838.90248     -2665.203    21910383.255    89719357.13647
     -2076.785  
  22397420.431   117699238.04948     -2908.444    22397421.141    91713694.48646
     -2266.324  
  23830676.607   125231051.84047      -197.210    23830679.415    97582647.77345
      -153.675  
  23527094.932   123635719.78047      3192.332    23527095.617    96339524.80945
      2487.526  
 20  9 26  5 26 50.0000000  0  8G13G 2G15G18G 5G29G30G20
  20517973.404   107822677.98049       189.207    20517973.114    84017669.37247
       147.429  
  24661876.806   129599040.02446     -3335.640    24661877.937   100986264.21245
     -2599.203  
  20730918.968   108941713.72449      2181.214    20730919.602    84889650.23648
      1699.645  
  21197903.834   111395736.50848      2158.440    21197904.149    86801874.39548
      1681.898  
  21912919.503   115153169.64548     -2666.719    21912919.835    89729744.72647
     -2077.964  
  22400189.031   117713787.20648     -2910.937    22400189.750    91725031.47947
     -2268.266  
  23830865.926   125232046.65947      -200.550    23830868.694    97583422.96545
      -156.277  
  23524058.416   123619762.15247      3190.781    23524059.092    96327090.30945
      2486.320  
 20  9 26  5 26 55.0000000  0  8G13G 2G15G18G 5G29G30G20
  20517795.101   107821740.86749       185.831    20517794.841    84016939.15847
       144.800  
  24665050.921   129615720.07946     -3336.640    24665051.974   100999261.64045
     -2599.984  
  20728844.971   108930814.26149      2178.273    20728845.512    84881157.15348
      1697.352  
  21195851.149   111384949.57348      2156.354    21195851.313    86793468.99747
      1680.273  
  21915457.484   115166506.26448     -2667.898    21915457.672    89740136.89747
     -2078.886  
  22402959.511   117728346.89648     -2913.090    22402960.314    91736376.69447
     -2269.941  
  23831058.118   125233056.63447      -203.558    23831060.881    97584209.96845
      -158.621  
  23521022.102   123603806.90247      3191.012    23521022.814    96314657.66345
      2486.500  
 20  9 26  5 27  0.0000000  0  8G13G 2G15G18G 5G29G30G20
  20517620.040   107820820.79249       182.473    20517619.748    84016222.21148
       142.184  
  24668225.612   129632403.47846     -3336.815    24668226.871   101012261.69045
     -2600.121  
  20726773.445   108919928.72749      2175.644    20726773.888    84872674.91848
      1695.304  
  21193800.344   111374172.83448      2154.336    21193800.682    86785071.53648
      1678.699  
  21917996.402   115179848.77648     -2669.137    21917996.714    89750533.66547
     -2079.851  
  22405732.306   117742917.15748     -2914.894    22405733.093    91747730.16547
     -2271.347  
  23831253.179   125234081.81047      -206.749    23831255.950    97585008.80645
      -161.105  
  23517986.480   123587854.22947      3190.397    23517987.266    96302227.00845
      2486.022  
 20  9 26  5 27  5.0000000  0  8G13G 2G15G18G 5G29G30G20
  20517448.210   107819917.59949       178.921    20517447.825    84015518.43247
       139.417  
  24671401.081   129649090.27345     -3337.832    24671402.348   101025264.33044
     -2600.917  
  20724704.771   108909057.02349      2173.089    20724705.178    84864203.45948
      1693.312  
  21191751.635   111363406.20248      2152.293    21191751.768    86776681.95347
      1677.108  
  21920536.649   115193197.11048     -2670.155    21920536.725    89760934.95947
     -2080.645  
  22408506.802   117757497.85348     -2917.210    22408507.546    91759091.71147
     -2273.159  
  23831451.264   125235122.06847      -209.468    23831454.008    97585819.38446
      -163.227  
  23514951.133   123571903.99447      3189.394    23514952.014    96289798.28245
      2485.238  
 20  9 26  5 27 10.0000000  0  8G13G 2G15G18G 5G29G30G20
  20517279.808   107819032.01649       175.520    20517279.346    84014828.35448
       136.766  
  24674577.264   129665781.09945     -3338.058    24674578.308   101038270.20045
     -2601.085  
  20722638.575   108898199.90148      2170.023    20722639.158    84855743.35948
      1690.925  
  21189704.820   111352650.36948      2150.266    21189705.048    86768300.78947
      1675.526  
  21923077.848   115206551.95448     -2671.594    21923078.234    89771341.32547
     -2081.766  
  22411283.606   117772089.65348     -2919.347    22411284.208    91770461.96047
     -2274.820  
  23831652.213   125236178.15447      -212.766    23831655.031    97586642.31946
      -165.792  
  23511916.478   123555956.86847      3188.905    23511917.112    96277371.96345
      2484.859  
 20  9 26  5 27 15.0000000  0  8G13G 2G15G18G 5G29G30G20
  20517114.437   107818163.73649       172.094    20517114.006    84014151.78047
       134.097  
  24677754.080   129682475.69645     -3339.331    24677755.117   101051278.92244
     -2602.085  
  20720575.411   108887357.02748      2167.179    20720575.822    84847294.37548
      1688.707  
  21187660.125   111341905.01748      2148.159    21187660.276    86759927.79047
      1673.887  
  21925620.396   115219912.91248     -2672.676    21925620.715    89781752.45447
     -2082.609  
  22414062.490   117786692.25748     -2921.379    22414063.091    91781840.58347
     -2276.402  
  23831856.010   125237249.70947      -215.812    23831858.923    97587477.28845
      -168.168  
  23508882.443   123540012.47147      3188.836    23508882.928    96264947.76545
      2484.808  
 20  9 26  5 27 20.0000000  0  7G13G15G18G 5G29G30G20
  20516952.523   107817312.09049       168.988    20516952.096    84013488.16447
       131.675  
  20718514.531   108876527.77749      2165.012    20718515.154    84838856.00348
      1687.019  
  21185617.131   111331169.54248      2146.727    21185617.450    86751562.47847
      1672.770  
  21928164.050   115233279.40848     -2673.421    21928164.191    89792167.90947
     -2083.187  
  22416843.262   117801305.02948     -2923.148    22416843.916    91793227.15947
     -2277.781  
  23832062.898   125238336.10147      -218.379    23832065.505    97588323.83345
      -170.167  
  23505848.772   123524070.26847      3188.762    23505849.325    96252525.29345
      2484.750  
 20  9 26  5 27 25.0000000  0  7G13G15G18G 5G29G30G20
  20516793.269   107816475.48648       165.207    20516792.877    84012836.25147
       128.730  
  20716456.127   108865710.57748      2161.769    20716456.683    84830427.00348
      1684.492  
  21183575.817   111320442.27048      2144.004    21183576.074    86743203.60247
      1670.651  
  21930708.302   115246649.79048     -2674.929    21930708.624    89802586.40346
     -2084.362  
  22419625.566   117815926.22648     -2925.695    22419626.219    91804620.31946
     -2279.761  
  23832271.993   125239435.61846      -221.426    23832274.709    97589180.61045
      -172.543  
  23502815.119   123508128.56347      3187.644    23502815.786    96240103.21044
      2483.879  
 20  9 26  5 27 30.0000000  0  7G13G15G18G 5G29G30G20
  20516637.602   107815657.88848       161.511    20516637.325    84012199.19847
       125.852  
  20714400.777   108854909.35448      2158.555    20714401.160    84822010.48048
      1681.988  
  21181536.809   111309727.30648      2141.628    21181537.125    86734854.25947
      1668.796  
  21933254.269   115260028.09148     -2676.546    21933254.517    89813011.03847
     -2085.625  
  22422410.138   117830559.94048     -2927.969    22422410.945    91816023.18146
     -2281.542  
  23832484.585   125240552.45647      -225.129    23832487.159    97590050.84145
      -175.433  
  23499782.409   123492191.44047      3186.788    23499782.859    96227684.66145
      2483.211  
 20  9 26  5 27 35.0000000  0  7G13G15G18G 5G29G30G20
  20516485.554   107814858.80548       158.151    20516485.196    84011576.53347
       123.230  
  20712348.276   108844123.63948      2155.698    20712348.808    84813606.03347
      1679.761  
  21179500.084   111299024.02448      2139.602    21179500.398    86726514.04547
      1667.219  
  21935801.352   115273413.69848     -2677.519    21935801.618    89823441.39546
     -2086.382  
  22425197.196   117845205.56348     -2930.147    22425197.900    91827435.32846
     -2283.237  
  23832700.227   125241685.88247      -228.195    23832703.059    97590934.03945
      -177.816  
  23496750.463   123476258.23647      3186.530    23496750.956    96215269.18245
      2483.007  
 20  9 26  5 27 40.0000000  0  7G13G15G18G 5G29G30G20
  20516336.935   107814077.31248       154.991    20516336.489    84010967.57447
       120.769  
  20710298.625   108833352.49448      2152.645    20710298.901    84805212.94648
      1677.382  
  21177465.281   111288331.62548      2137.300    21177465.646    86718182.32847
      1665.426  
  21938349.776   115286805.79048     -2678.858    21938349.961    89833876.80846
     -2087.425  
  22427986.360   117859862.21548     -2932.191    22427987.037    91838856.09646
     -2284.828  
  23832919.094   125242835.15947      -231.511    23832921.590    97591829.60445
      -180.402  
  23493719.090   123460328.20047      3185.965    23493719.642    96202856.24044
      2482.570  
 20  9 26  5 27 45.0000000  0  7G13G15G18G 5G29G30G20
  20516191.362   107813312.72648       151.163    20516190.925    84010371.79647
       117.784  
  20708251.634   108822595.20449      2150.035    20708251.903    84796830.64448
      1675.348  
  21175432.560   111277649.41548      2135.355    21175432.842    86709858.49347
      1663.905  
  21940899.348   115300203.66348     -2680.102    21940899.509    89844316.68846
     -2088.394  
  22430777.389   117874529.17148     -2934.375    22430777.856    91850284.90947
     -2286.526  
  23833140.610   125243999.51647      -234.284    23833143.072    97592736.88345
      -182.562  
  23490688.068   123444400.63647      3185.562    23490688.746    96190445.10145
      2482.249  
 20  9 26  5 27 50.0000000  0  7G13G15G18G 5G29G30G20
  20516049.214   107812565.54748       147.745    20516048.805    84009789.58647
       115.124  
  20706207.312   108811852.40748      2147.008    20706207.634    84788459.63948
      1672.987  
  21173401.724   111266977.86248      2133.140    21173402.238    86701543.00547
      1662.184  
  21943450.061   115313607.71948     -2681.550    21943450.292    89854761.40747
     -2089.522  
  22433570.342   117889206.96048     -2936.668    22433571.088    91861722.13347
     -2288.316  
  23833365.174   125245179.51547      -237.664    23833367.742    97593656.36646
      -185.194  
  23487657.830   123428476.00447      3184.062    23487658.347    96178036.31145
      2481.089  
 20  9 26  5 27 55.0000000  0  7G13G15G18G 5G29G30G20
  20515910.307   107811835.67548       144.319    20515909.840    84009220.86247
       112.453  
  20704165.651   108801123.93548      2144.390    20704166.023    84780099.80547
      1670.949  
  21171373.010   111256316.90048      2131.215    21171373.340    86693235.78847
      1660.684  
  21946001.892   115327017.92948     -2682.734    21946002.035    89865210.92747
     -2090.444  
  22436365.585   117903895.46448     -2938.706    22436366.053    91873167.73547
     -2289.906  
  23833592.581   125246374.98347      -240.613    23833595.109    97594587.92946
      -187.491  
  23484627.991   123412554.18647      3184.008    23484628.471    96165629.72745
      2481.043  
 20  9 26  5 28  0.0000000  0  7G13G15G18G 5G29G30G20
  20515774.826   107811123.65849       139.969    20515774.561    84008666.00948
       109.059  
  20702127.035   108790410.40848      2140.558    20702127.358    84771751.59348
      1667.964  
  21169346.564   111245667.10048      2128.222    21169346.881    86684937.24847
      1658.359  
  21948555.104   115340434.83948     -2684.691    21948555.257    89875665.66347
     -2091.968  
  22439162.916   117918595.19648     -2941.840    22439163.487    91884622.04047
     -2292.352  
  23833823.224   125247586.48947      -244.577    23833825.643    97595531.95845
      -190.582  
  23481598.731   123396635.78447      3182.742    23481599.162    96153225.80445
      2480.059  
 20  9 26  5 28  5.0000000  0  8G13G 2G15G18G 5G29G30G20
  20515643.319   107810432.20648       136.858    20515642.946    84008127.25647
       106.645  
  24709561.782   129849630.13755     -3347.270    24709561.033   101181508.61154
     -2608.273  
  20700091.666   108779714.47248      2138.313    20700092.103    84763417.09548
      1666.214  
  21167322.592   111235031.18548      2126.680    21167322.867    86676649.49848
      1657.147  
  21951110.209   115353861.12749     -2685.398    21951110.191    89886127.69148
     -2092.522  
  22441962.724   117933308.87948     -2943.305    22441963.389    91896087.26346
     -2293.487  
  23834057.284   125248816.76147      -247.163    23834059.847    97596490.63945
      -192.593  
  23478570.767   123380723.53847      3182.980    23478571.124    96140826.68444
      2480.245  
 20  9 26  5 28 10.0000000  0  7G13G15G18G 5G29G30G20
  20515514.103   107809753.85949       134.039    20515513.773    84007598.69047
       104.445  
  20698058.196   108769028.63948      2135.770    20698058.545    84755090.48247
      1664.234  
  21165299.745   111224401.64648      2124.851    21165300.063    86668366.73547
      1655.726  
  21953665.497   115367289.29148     -2686.179    21953665.613    89896591.18747
     -2093.128  
  22444764.033   117948029.01748     -2944.898    22444764.486    91907557.47747
     -2294.729  
  23834293.620   125250058.34047      -249.949    23834296.196    97597458.07546
      -194.772  
  23475542.430   123364809.95647      3182.406    23475542.872    96128426.43745
      2479.792  
 20  9 26  5 28 15.0000000  0  8G13G 2G15G18G 5G29G30G20
  20515388.708   107809094.59348       129.358    20515388.238    84007084.95747
       100.797  
  24715931.829   129883092.77854     -3349.590    24715932.922   101207616.74454
     -2610.074  
  20696027.954   108758359.01848      2131.750    20696028.164    84746776.50647
      1661.101  
  21163279.383   111213784.54148      2121.604    21163279.715    86660093.65547
      1653.194  
  21956222.303   115380725.48848     -2688.581    21956222.285    89907060.98946
     -2094.987  
  22447567.463   117962761.57848     -2948.499    22447568.034    91919037.38046
     -2297.534  
  23834533.216   125251317.17947      -254.043    23834535.558    97598438.94046
      -197.960  
  23472515.062   123348900.97147      3180.608    23472515.404    96116029.83545
      2478.395  
 20  9 26  5 28 20.0000000  0  8G13G 2G15G18G 5G29G30G20
  20515266.542   107808452.82548       126.762    20515266.139    84006584.88646
        98.773  
  24719117.795   129899836.48346     -3348.901    24719119.172   101220663.75044
     -2609.542  
  20694000.199   108747703.87748      2129.988    20694000.475    84738473.80147
      1659.726  
  21161261.130   111203178.20648      2120.577    21161261.307    86651828.98746
      1652.394  
  21958780.254   115394167.98847     -2688.699    21958780.362    89917535.66645
     -2095.093  
  22450372.971   117977504.96647     -2949.383    22450373.537    91930525.72846
     -2298.223  
  23834775.657   125252591.65247      -256.030    23834778.327    97599432.03945
      -199.507  
  23469488.237   123332994.96047      3181.397    23469488.633    96103635.55945
      2479.011  
 20  9 26  5 28 25.0000000  0  8G13G 2G15G18G 5G29G30G20
  20515147.612   107807827.47048       123.597    20515147.198    84006097.59346
        96.309  
  24722304.963   129916582.94745     -3349.434    24722305.453   101233712.94344
     -2609.952  
  20691975.289   108737062.24748      2127.022    20691975.454    84730181.61947
      1657.417  
  21159244.583   111192581.71048      2118.085    21159244.850    86643571.96447
      1650.452  
  21961339.378   115407615.71547     -2690.077    21961339.402    89928014.47545
     -2096.159  
  22453180.560   117992258.03747     -2951.421    22453180.960    91942021.62346
     -2299.812  
  23835020.959   125253880.72246      -259.218    23835023.479    97600436.58543
      -201.984  
  23466461.972   123317091.07847      3180.429    23466462.132    96091242.91544
      2478.253  
 20  9 26  5 28 30.0000000  0  8G13G 2G15G18G 5G29G30G20
  20515031.731   107807218.41548       119.937    20515031.430    84005623.01347
        93.453  
  24725492.078   129933332.06645     -3350.547    24725493.809   101246764.19643
     -2610.820  
  20689952.645   108726433.99548      2123.863    20689952.875    84721899.87147
      1654.956  
  21157229.947   111181994.82248      2115.961    21157230.352    86635322.43247
      1648.797  
  21963899.372   115421068.51146     -2691.351    21963899.399    89938497.14345
     -2097.160  
  22455989.658   118007020.73147     -2953.851    22455990.396    91953525.01346
     -2301.706  
  23835269.082   125255184.33446      -262.538    23835271.510    97601452.38544
      -204.578  
  23463435.947   123301189.02047      3180.011    23463436.173    96078851.68445
      2477.930  
 20  9 26  5 28 35.0000000  0  8G13G 2G15G18G 5G29G30G20
  20514919.481   107806628.66348       115.906    20514919.081    84005163.46346
        90.313  
  24728679.813   129950086.78744     -3351.707    24728681.189   101259819.85843
     -2611.714  
  20687933.464   108715822.09348      2120.902    20687933.476    84713630.86147
      1652.648  
  21155217.771   111171420.57848      2113.784    21155218.050    86627082.76647
      1647.101  
  21966460.878   115434529.37646     -2693.047    21966461.004    89948986.11145
     -2098.479  
  22458801.444   118021796.01547     -2956.484    22458801.965    91965038.23246
     -2303.758  
  23835520.473   125256505.43346      -265.801    23835522.668    97602481.77344
      -207.124  
  23460410.673   123285291.84947      3178.991    23460411.159    96066464.28845
      2477.133  
 20  9 26  5 28 40.0000000  0  8G13G 2G15G18G 5G29G30G20
  20514810.463   107806055.76848       113.249    20514810.200    84004717.04846
        88.241  
  24731868.944   129966844.63244     -3351.698    24731870.059   101272877.84344
     -2611.719  
  20685916.718   108705224.14748      2118.503    20685916.786    84705372.72947
      1650.777  
  21153207.505   111160856.58948      2112.155    21153207.942    86618851.08547
      1645.831  
  21969023.354   115447995.87546     -2693.637    21969023.462    89959479.50945
     -2098.941  
  22461614.933   118036581.40647     -2957.621    22461615.560    91976559.30746
     -2304.645  
  23835774.744   125257841.60546      -268.492    23835776.901    97603522.94144
      -209.219  
  23457386.144   123269397.15547      3178.867    23457386.367    96054078.83445
      2477.038  
 20  9 26  5 28 45.0000000  0  7G13G15G18G 5G29G30G20
  20514704.672   107805499.93048       109.183    20514704.230    84004283.93146
        85.074  
  20683902.620   108694640.36548      2115.102    20683902.741    84697125.61547
      1648.128  
  21151199.350   111150303.03748      2109.551    21151199.570    86610627.54346
      1643.801  
  21971587.185   115461468.17746     -2695.394    21971587.201    89969977.40845
     -2100.313  
  22464430.531   118051377.15847     -2960.523    22464431.049    91988088.45246
     -2306.905  
  23836032.001   125259193.00246      -271.828    23836034.013    97604575.99145
      -211.816  
  23454361.985   123253505.12247      3177.758    23454362.279    96041695.44645
      2476.172  
 20  9 26  5 28 50.0000000  0  7G13G15G18G 5G29G30G20
  20514601.508   107804957.17348       106.862    20514601.191    84003861.00546
        83.266  
  20681890.469   108684066.81448      2113.109    20681890.654    84688886.48447
      1646.573  
  21149192.317   111139756.00948      2108.167    21149192.643    86602409.07747
      1642.726  
  21974151.189   115474942.39046     -2695.117    21974151.087    89980476.83945
     -2100.090  
  22467247.287   118066179.21847     -2961.565    22467247.806    91999622.50646
     -2307.718  
  23836291.192   125260555.74946      -274.425    23836293.269    97605637.91344
      -213.836  
  23451337.480   123237611.77447      3178.152    23451337.987    96029311.00945
      2476.479  
 20  9 26  5 28 55.0000000  0  7G13G15G18G 5G29G30G20
  20514502.001   107804434.54148       102.445    20514501.518    84003453.76846
        79.823  
  20679881.732   108673510.48748      2109.323    20679881.764    84680660.79247
      1643.625  
  21147187.755   111129222.49448      2105.218    21147188.177    86594201.15247
      1640.426  
  21976716.908   115488425.48846     -2697.448    21976716.954    89990983.13745
     -2101.909  
  22470066.520   118080994.67047     -2964.461    22470067.257    92011167.03046
     -2309.972  
  23836554.025   125261936.81646      -278.371    23836556.405    97606714.03643
      -216.914  
  23448314.275   123221724.16347      3176.784    23448314.667    96016931.08245
      2475.414  
 20  9 26  5 29  0.0000000  0  7G13G15G18G 5G29G30G20
  20514406.103   107803930.65448        98.938    20514405.755    84003061.13546
        77.090  
  20677876.030   108662970.04848      2106.637    20677876.039    84672447.46647
      1641.530  
  21145185.701   111118701.12948      2103.175    21145185.915    86586002.69547
      1638.835  
  21979284.175   115501916.13246     -2698.813    21979284.082    90001495.31845
     -2102.972  
  22472888.219   118095822.07747     -2966.684    22472888.649    92022720.84946
     -2311.702  
  23836820.040   125263334.76746      -281.019    23836822.250    97607803.34541
      -218.980  
  23445291.663   123205840.91547      3176.323    23445292.084    96004554.54645
      2475.055  
 20  9 26  5 29  5.0000000  0  7G13G15G18G 5G29G30G20
  20514313.433   107803443.42148        95.793    20514312.946    84002681.47346
        74.640  
  20675872.835   108652443.37548      2104.007    20675872.773    84664244.86147
      1639.483  
  21143185.335   111108189.85648      2101.281    21143185.827    86577812.10447
      1637.359  
  21981852.400   115515412.18446     -2699.746    21981852.247    90012011.71145
     -2103.702  
  22475711.609   118110659.34347     -2968.444    22475712.235    92034282.33446
     -2313.078  
  23837088.884   125264747.61645      -283.843    23837091.043    97608904.28941
      -221.180  
  23442269.622   123189959.95247      3176.047    23442270.038    95992179.77345
      2474.839  
 20  9 26  5 29 10.0000000  0  7G13G15G18G 5G29G30G20
  20514224.188   107802974.31148        92.073    20514223.515    84002315.92347
        71.741  
  20673872.461   108641931.99348      2100.891    20673872.694    84656054.18547
      1637.054  
  21141187.450   111097690.17648      2098.948    21141187.705    86569630.53647
      1635.542  
  21984421.930   115528915.12446     -2701.152    21984421.814    90022533.47045
     -2104.796  
  22478537.108   118125507.94047     -2970.851    22478537.728    92045852.66246
     -2314.953  
  23837360.786   125266176.78545      -287.718    23837362.818    97610017.97344
      -224.191  
  23439248.326   123174082.78047      3175.062    23439248.693    95979807.96645
      2474.069  
 20  9 26  5 29 15.0000000  0  7G13G15G18G 5G29G30G20
  20514137.035   107802516.00648        88.913    20514136.336    84001958.81347
        69.281  
  20671873.812   108631428.58348      2098.277    20671873.815    84647869.70447
      1635.020  
  21139190.117   111087194.71948      2097.250    21139190.521    86561452.27546
      1634.218  
  21986991.257   115542417.59246     -2701.781    21986991.138    90033054.85946
     -2105.289  
  22481363.555   118140360.51947     -2972.371    22481364.261    92057426.09246
     -2316.137  
  23837634.405   125267614.97245      -290.073    23837636.479    97611138.63442
      -226.034  
  23436226.464   123158202.00647      3174.929    23436226.826    95967433.33145
      2473.969  
 20  9 26  5 29 20.0000000  0  7G13G15G18G 5G29G30G20
  20514054.633   107802083.79248        84.413    20514054.227    84001622.03147
        65.773  
  20669879.541   108620948.46548      2094.210    20669879.592    84639703.38147
      1631.847  
  21137196.612   111076718.86948      2093.769    21137197.032    86553289.27047
      1631.504  
  21989563.446   115555934.97546     -2704.265    21989563.348    90043587.91244
     -2107.222  
  22484193.626   118155232.42447     -2975.793    22484194.148    92069014.60046
     -2318.805  
  23837912.798   125269077.50045      -294.507    23837914.958    97612278.20643
      -229.491  
  23433206.665   123142333.01147      3173.215    23433206.901    95955067.89845
      2472.632  
 20  9 26  5 29 25.0000000  0  7G13G15G18G 5G29G30G20
  20513975.871   107801669.30349        81.582    20513975.372    84001299.03747
        63.565  
  20667888.101   108610483.25049      2092.163    20667888.064    84631548.68748
      1630.254  
  21135205.366   111066254.30148      2092.301    21135205.754    86545135.07048
      1630.359  
  21992136.980   115569458.85948     -2704.851    21992136.833    90054125.96347
     -2107.683  
  22487025.769   118170115.28148     -2976.940    22487026.317    92080611.60947
     -2319.699  
  23838194.253   125270556.11947      -296.625    23838196.339    97613430.38346
      -231.141  
  23430187.456   123126467.46147      3172.979    23430188.001    95942705.19645
      2472.461  
 20  9 26  5 29 30.0000000  0  7G13G15G18G 5G29G30G20
  20513900.122   107801271.21049        77.944    20513899.427    84000988.80748
        60.734  
  20665899.147   108600031.44449      2089.073    20665899.213    84623404.42648
      1627.847  
  21133215.837   111055799.38448      2089.991    21133216.171    86536988.40447
      1628.563  
  21994711.474   115582987.82448     -2706.352    21994711.548    90064668.02147
     -2108.848  
  22489859.607   118185007.54448     -2979.394    22489860.145    92092215.94047
     -2321.612  
  23838478.361   125272049.02147      -299.883    23838480.405    97614593.71046
      -233.680  
  23427168.650   123110603.74947      3172.562    23427169.068    95930343.88845
      2472.128  
 20  9 26  5 29 35.0000000  0  7G13G15G18G 5G29G30G20
  20513827.424   107800889.92749        74.395    20513826.911    84000691.70948
        57.965  
  20663912.836   108589593.74849      2086.195    20663913.050    84615271.17248
      1625.605  
  21131228.212   111045354.84248      2087.937    21131228.555    86528849.79647
      1626.960  
  21997287.109   115596522.37848     -2707.499    21997287.009    90075214.41647
     -2109.741  
  22492695.355   118199909.78248     -2981.523    22492696.158    92103828.06747
     -2323.270  
  23838765.321   125273557.07247      -303.206    23838767.395    97615768.79446
      -236.269  
  23424150.371   123094742.58147      3172.055    23424150.724    95917984.52345
      2471.726  
 20  9 26  5 29 40.0000000  0  7G13G15G18G 5G29G30G20
  20513758.144   107800525.82749        71.073    20513757.565    84000407.99748
        55.379  
  20661929.395   108579170.47749      2083.194    20661929.569    84607149.14748
      1623.265  
  21129242.874   111034921.07048      2085.680    21129243.105    86520719.58447
      1625.203  
  21999863.693   115610062.85548     -2708.542    21999863.690    90085765.43247
     -2110.554  
  22495533.226   118214822.39248     -2983.504    22495533.887    92115448.27947
     -2324.813  
  23839055.159   125275080.55647      -306.047    23839057.373    97616955.92346
      -238.479  
  23421132.685   123078884.31847      3171.402    23421132.927    95905627.43244
      2471.219  
 20  9 26  5 29 45.0000000  0  7G13G15G18G 5G29G30G20
  20513692.085   107800178.56149        67.741    20513691.614    84000137.40848
        52.780  
  20659948.614   108568761.27749      2080.395    20659948.778    84599038.07748
      1621.082  
  21127259.254   111024497.63948      2083.691    21127259.623    86512597.43247
      1623.651  
  22002441.428   115623608.91148     -2709.792    22002441.334    90096320.79747
     -2111.530  
  22498372.765   118229744.96048     -2985.477    22498373.571    92127076.24747
     -2326.348  
  23839348.055   125276619.07747      -308.921    23839350.252    97618154.77746
      -240.722  
  23418115.367   123063028.51447      3171.285    23418115.735    95893272.28545
      2471.128  
 20  9 26  5 29 50.0000000  0  7G13G15G18G 5G29G30G20
  20513629.095   107799847.73149        64.351    20513628.601    83999879.63347
        50.141  
  20657970.324   108558365.70049      2077.679    20657970.438    84590937.63648
      1618.969  
  21125277.742   111014084.19048      2081.496    21125278.102    86504483.05947
      1621.941  
  22005020.295   115637160.13748     -2710.805    22005020.216    90106880.20047
     -2112.320  
  22501214.392   118244677.09048     -2987.398    22501214.964    92138711.68347
     -2327.848  
  23839643.586   125278172.25747      -312.184    23839646.022    97619365.06046
      -243.262  
  23415098.449   123047174.88047      3170.167    23415098.770    95880918.81945
      2470.258  
 20  9 26  5 29 55.0000000  0  7G13G15G18G 5G29G30G20
  20513569.727   107799535.25148        60.625    20513569.259    83999636.13747
        47.238  
  20655995.092   108547985.69148      2074.406    20655995.265    84582849.32247
      1616.418  
  21123298.309   111003682.57948      2079.144    21123298.551    86496377.90847
      1620.108  
  22007600.294   115650718.43647     -2712.398    22007600.300    90117445.11845
     -2113.558  
  22504057.937   118259620.64348     -2989.718    22504058.571    92150356.00046
     -2329.651  
  23839942.130   125279741.99246      -315.445    23839944.784    97620588.22244
      -245.804  
  23412082.469   123031325.23547      3169.511    23412082.744    95868568.44545
      2469.745  
 20  9 26  5 30  0.0000000  0  7G13G15G18G 5G29G30G20
  20513513.430   107799239.91048        57.559    20513513.058    83999406.03247
        44.847  
  20654022.710   108537620.06448      2071.749    20654022.769    84574772.21747
      1614.347  
  21121320.976   110993291.68748      2077.281    21121321.422    86488281.14747
      1618.659  
  22010181.474   115664282.59547     -2713.293    22010181.306    90128014.62545
     -2114.253  
  22506903.602   118274574.37448     -2991.457    22506904.346    92162008.22346
     -2331.012  
  23840243.932   125281327.10046      -318.397    23840246.533    97621823.39745
      -248.105  
  23409066.888   123015478.40647      3169.417    23409067.275    95856220.29144
      2469.676  
 20  9 26  5 30  5.0000000  0  7G13G15G18G 5G29G30G20
  20513460.521   107798961.24548        54.104    20513459.786    83999188.89447
        42.155  
  20652052.796   108527268.34948      2068.854    20652052.684    84566705.95347
      1612.093  
  21119345.740   110982911.06048      2074.941    21119346.015    86480192.34047
      1616.835  
  22012763.762   115677852.14447     -2714.414    22012763.554    90138588.28045
     -2115.133  
  22509750.995   118289537.89948     -2993.679    22509751.867    92173668.12646
     -2332.741  
  23840548.456   125282927.09946      -321.559    23840551.021    97623070.13445
      -250.566  
  23406051.670   122999633.98847      3168.655    23406052.024    95843873.99645
      2469.078  
 20  9 26  5 30 10.0000000  0  7G13G15G18G 5G29G30G20
  20513410.889   107798700.61648        50.206    20513410.175    83998985.80946
        39.121  
  20650085.716   108516931.90048      2065.781    20650085.792    84558651.57947
      1609.694  
  21117372.601   110972542.02448      2072.695    21117372.770    86472112.57546
      1615.085  
  22015347.188   115691428.45247     -2716.066    22015347.006    90149167.21345
     -2116.418  
  22512600.648   118304512.48748     -2995.991    22512601.274    92185336.62746
     -2334.543  
  23840855.994   125284543.35046      -324.905    23840858.460    97624329.57444
      -253.175  
  23403037.402   122983793.30647      3167.883    23403037.752    95831530.62245
      2468.477  
 20  9 26  5 30 15.0000000  0  7G13G15G18G 5G29G30G20
  20513364.672   107798457.08748        46.784    20513363.995    83998796.05247
        36.453  
  20648121.515   108506609.82648      2062.730    20648121.585    84550608.41647
      1607.320  
  21115401.382   110962183.69748      2070.437    21115401.760    86464041.15246
      1613.324  
  22017931.740   115705010.55147     -2717.059    22017931.473    90159750.67245
     -2117.191  
  22515452.223   118319497.24148     -2998.093    22515452.875    92197013.04946
     -2336.179  
  23841166.316   125286174.94746      -328.026    23841168.925    97625600.96943
      -255.609  
  23400023.550   122967955.47147      3167.051    23400024.056    95819189.44644
      2467.827  
 20  9 26  5 30 20.0000000  0  7G13G15G18G 5G29G30G20
  20513321.483   107798230.65949        43.605    20513320.797    83998619.57047
        33.973  
  20646160.136   108496302.11648      2060.179    20646160.094    84542576.43848
      1605.332  
  21113432.405   110951836.11848      2068.550    21113432.676    86455978.08447
      1611.854  
  22020517.444   115718598.42648     -2718.039    22020517.205    90170338.56147
     -2117.961  
  22518305.665   118334492.14848     -2999.762    22518306.254    92208697.41047
     -2337.480  
  23841479.713   125287821.95347      -330.964    23841482.544    97626884.31346
      -257.898  
  23397010.212   122952120.33647      3166.617    23397010.699    95806850.40845
      2467.496  
 20  9 26  5 30 25.0000000  0  7G13G15G18G 5G29G30G20
  20513281.703   107798021.58149        39.984    20513281.010    83998456.64848
        31.151  
  20644201.419   108486009.02149      2057.034    20644201.302    84534555.85848
      1602.883  
  21111465.346   110941499.43548      2066.132    21111465.578    86447923.51847
      1609.968  
  22023104.289   115732192.41448     -2719.586    22023104.165    90180931.29347
     -2119.160  
  22521161.041   118349497.47248     -3002.085    22521161.569    92220389.85547
     -2339.288  
  23841796.169   125289484.41047      -334.008    23841798.775    97628179.72746
      -260.270  
  23393997.441   122936288.24147      3165.987    23393997.884    95794513.71645
      2467.000  
 20  9 26  5 30 30.0000000  0  7G13G15G18G 5G29G30G20
  20513245.173   107797829.96049        36.871    20513244.639    83998307.34148
        28.726  
  20642245.385   108475730.68149      2054.421    20642245.416    84526546.77148
      1600.843  
  21109500.351   110931173.85148      2064.308    21109500.693    86439877.61248
      1608.550  
  22025692.280   115745792.55748     -2720.386    22025692.109    90191528.80447
     -2119.784  
  22524018.465   118364513.24148     -3004.058    22524019.108    92232090.43647
     -2340.827  
  23842115.450   125291162.61747      -337.188    23842118.149    97629487.41645
      -262.746  
  23390985.263   122920459.35847      3165.738    23390985.815    95782179.51745
      2466.804  
 20  9 26  5 30 35.0000000  0  7G13G15G18G 5G29G30G20
  20513212.054   107797655.48249        33.089    20513211.437    83998171.38447
        25.780  
  20640292.202   108465466.85249      2051.055    20640292.219    84518548.97448
      1598.223  
  21107537.646   110920859.11048      2061.813    21107537.979    86431840.15747
      1606.604  
  22028281.394   115759398.56648     -2721.933    22028281.265    90202130.90047
     -2120.992  
  22526877.815   118379539.19548     -3006.250    22526878.346    92243798.97447
     -2342.534  
  23842437.796   125292856.27747      -340.766    23842440.535    97630807.15646
      -265.535  
  23387973.647   122904633.46147      3164.652    23387974.159    95769847.66145
      2465.960  
 20  9 26  5 30 40.0000000  0  7G13G15G18G 5G29G30G20
  20513182.161   107797498.67348        29.512    20513181.646    83998049.23847
        22.996  
  20638341.871   108455217.91748      2048.229    20638341.934    84510562.81947
      1596.023  
  21105576.866   110910555.57748      2059.589    21105577.223    86423811.43947
      1604.870  
  22030871.668   115773010.89647     -2723.312    22030871.636    90212737.94645
     -2122.059  
  22529739.056   118394575.77448     -3008.386    22529739.763    92255515.78046
     -2344.199  
  23842763.037   125294565.67847      -343.496    23842765.844    97632139.14844
      -267.663  
  23384962.643   122888810.83947      3164.202    23384963.211    95757518.36544
      2465.612  
 20  9 26  5 30 45.0000000  0  7G13G15G18G 5G29G30G20
  20513155.738   107797359.06748        26.195    20513155.010    83997940.45047
        20.410  
  20636394.398   108444983.57048      2045.395    20636394.610    84502588.00747
      1593.812  
  21103618.172   110900262.98048      2057.382    21103618.659    86415791.25947
      1603.151  
  22033463.293   115786629.16247     -2724.172    22033463.199    90223349.58646
     -2122.734  
  22532602.417   118409622.55948     -3010.343    22532603.126    92267240.55246
     -2345.727  
  23843091.276   125296290.58747      -346.293    23843094.037    97633483.20345
      -269.847  
  23381952.389   122872991.28547      3163.551    23381952.857    95745191.46944
      2465.104  
 20  9 26  5 30 50.0000000  0  7G13G15G18G 5G29G30G20
  20513132.342   107797236.65248        22.672    20513131.784    83997845.06047
        17.664  
  20634449.608   108434763.72048      2042.262    20634449.710    84494624.49947
      1591.371  
  21101661.755   110889981.21748      2055.069    21101662.028    86407779.49647
      1601.351  
  22036055.884   115800253.32247     -2725.598    22036055.716    90233965.82245
     -2123.843  
  22535467.677   118424679.47348     -3012.570    22535468.442    92278973.20146
     -2347.460  
  23843422.344   125298030.92047      -349.917    23843425.191    97634839.34545
      -272.664  
  23378942.507   122857174.65647      3162.875    23378942.904    95732866.84044
      2464.574  
 20  9 26  5 30 55.0000000  0  7G13G15G18G 5G29G30G20
  20513112.201   107797130.93848        19.468    20513111.498    83997762.68047
        15.167  
  20632507.471   108424557.84548      2039.750    20632507.473    84486671.86448
      1589.414  
  21099707.068   110879709.80248      2053.210    21099707.380    86399775.78947
      1599.902  
  22038649.413   115813882.75147     -2726.422    22038649.446    90244586.15245
     -2124.487  
  22538334.808   118439746.00948     -3014.233    22538335.463    92290713.35846
     -2348.757  
  23843756.514   125299786.15647      -352.609    23843759.334    97636207.07744
      -274.765  
  23375933.196   122841360.46347      3162.375    23375933.685    95720544.09045
      2464.184  
 20  9 26  5 31  0.0000000  0  7G13G15G18G 5G29G30G20
  20513095.457   107797042.97648        15.808    20513094.883    83997694.14447
        12.316  
  20630568.349   108414367.06648      2036.691    20630568.432    84478731.00247
      1587.027  
  21097754.674   110869449.83648      2050.879    21097755.157    86391781.01347
      1598.086  
  22041244.277   115827518.66847     -2727.805    22041244.150    90255211.53145
     -2125.565  
  22541203.827   118454823.21048     -3016.348    22541204.444    92302461.82846
     -2350.401  
  23844093.526   125301557.38347      -355.772    23844096.312    97637587.25545
      -277.230  
  23372924.489   122825549.81947      3161.742    23372924.935    95708224.10644
      2463.691  
 20  9 26  5 31  5.0000000  0  7G13G15G18G 5G29G30G20
  20513082.145   107796972.61548        12.363    20513081.458    83997639.32847
         9.628  
  20628631.919   108404191.24748      2033.757    20628631.851    84470801.80748
      1584.741  
  21095804.535   110859201.19748      2048.609    21095804.837    86383795.05947
      1596.315  
  22043840.291   115841160.84447     -2728.976    22043840.106    90265841.78645
     -2126.477  
  22544074.790   118469910.97248     -3018.621    22544075.622    92314218.50946
     -2352.176  
  23844433.609   125303344.53047      -359.043    23844436.225    97638979.79945
      -279.781  
  23369916.535   122809742.60147      3161.191    23369916.716    95695906.79744
      2463.261  
 20  9 26  5 31 10.0000000  0  7G13G15G18G 5G29G30G20
  20513072.071   107796919.20849         9.136    20513071.215    83997597.66747
         7.112  
  20626698.142   108394029.74249      2030.913    20626698.194    84462883.74448
      1582.526  
  21093856.299   110848963.26848      2046.660    21093856.541    86375817.42448
      1594.792  
  22046437.396   115854808.68948     -2729.992    22046437.331    90276476.39747
     -2127.277  
  22546947.828   118485008.67048     -3020.516    22546948.529    92325982.92447
     -2353.655  
  23844776.508   125305146.88147      -361.960    23844779.359    97640384.24846
      -282.051  
  23366909.098   122793938.19547      3160.805    23366909.212    95683591.66345
      2462.961  
 20  9 26  5 31 15.0000000  0  7G13G15G18G 5G29G30G20
  20513065.226   107796883.17349         5.363    20513064.390    83997569.59548
         4.176  
  20624767.225   108383882.95349      2027.875    20624767.457    84454977.16648
      1580.159  
  21091910.163   110838736.41148      2044.281    21091910.466    86367848.44948
      1592.941  
  22049035.650   115868462.57548     -2731.340    22049035.539    90287115.80947
     -2128.320  
  22549822.769   118500116.58848     -3022.257    22549823.604    92337755.31647
     -2355.007  
  23845122.446   125306964.79947      -365.167    23845125.177    97641800.81546
      -284.550  
  23363902.055   122778136.85747      3159.754    23363902.248    95671278.96146
      2462.148  
 20  9 26  5 31 20.0000000  0  7G13G15G18G 5G29G30G20
  20513061.581   107796864.86749         2.105    20513060.969    83997555.33448
         1.637  
  20622839.353   108373751.26549      2025.015    20622839.417    84447082.35348
      1577.930  
  21089966.302   110828521.01248      2042.065    21089966.550    86359888.40648
      1591.218  
  22051635.024   115882122.78748     -2732.378    22051635.189    90297760.13147
     -2129.128  
  22552699.798   118515235.19648     -3024.863    22552700.679    92349536.04947
     -2357.039  
  23845471.425   125308798.69747      -368.367    23845474.158    97643229.80746
      -287.042  
  23360895.974   122762339.10647      3159.402    23360896.221    95658969.03245
      2461.867  
 20  9 26  5 31 25.0000000  0  7G13G15G18G 5G29G30G20
  20513061.368   107796863.21449        -1.559    20513060.746    83997554.04748
        -1.219  
  20620913.947   108363633.62249      2021.991    20620914.046    84439198.47048
      1575.573  
  21088024.327   110818316.02148      2039.879    21088024.604    86351936.46348
      1589.511  
  22054235.549   115895788.35548     -2733.809    22054235.568    90308408.62147
     -2130.242  
  22555578.561   118530363.32348     -3026.729    22555579.432    92361324.18747
     -2358.495  
  23845823.260   125310647.51147      -371.218    23845826.147    97644670.45346
      -289.265  
  23357890.094   122746543.88247      3158.472    23357890.480    95646661.08945
      2461.148  
 20  9 26  5 31 30.0000000  0  7G13G15G18G 5G29G30G20
  20513064.391   107796879.19649        -4.934    20513063.688    83997566.50248
        -3.847  
  20618991.592   108353531.01949      2019.035    20618991.605    84431326.33148
      1573.270  
  21086084.455   110808122.42548      2037.569    21086084.866    86343993.40447
      1587.714  
  22056837.216   115909460.20748     -2734.847    22056837.408    90319062.00447
     -2131.054  
  22558459.223   118545501.96048     -3028.750    22558460.115    92373120.51047
     -2360.065  
  23846178.128   125312512.19847      -374.261    23846180.971    97646123.46045
      -291.636  
  23354885.150   122730752.04447      3158.104    23354885.219    95634355.73445
      2460.858  
 20  9 26  5 31 35.0000000  0  7G13G15G18G 5G29G30G20
  20513070.672   107796912.32349        -8.272    20513070.046    83997592.31848
        -6.449  
  20617071.713   108343442.95449      2016.265    20617071.867    84423465.51248
      1571.113  
  21084146.687   110797939.75848      2035.379    21084147.078    86336058.86048
      1586.007  
  22059439.849   115923137.88748     -2736.133    22059440.001    90329719.93647
     -2132.055  
  22561341.998   118560650.60748     -3030.855    22561342.794    92384924.65747
     -2361.707  
  23846535.862   125314392.28947      -377.511    23846538.732    97647588.46446
      -294.167  
  23351880.584   122714963.13347      3157.418    23351880.701    95622052.70645
      2460.324  
 20  9 26  5 31 40.0000000  0  7G13G15G18G 5G29G30G20
  20513080.166   107796962.80949       -11.664    20513079.585    83997631.65948
        -9.093  
  20615154.872   108333369.63649      2013.266    20615155.069    84415616.17148
      1568.773  
  21082211.203   110787768.19148      2033.374    21082211.469    86328132.95948
      1584.444  
  22062043.803   115936821.53948     -2737.253    22062043.996    90340382.51848
     -2132.930  
  22564226.649   118575809.45448     -3032.913    22564227.438    92396736.73246
     -2363.312  
  23846896.461   125316287.97047      -380.507    23846899.402    97649065.62846
      -296.503  
  23348876.592   122699177.36347      3156.887    23348876.920    95609752.13044
      2459.914  
 20  9 26  5 31 45.0000000  0  7G13G15G18G 5G29G30G20
  20513093.094   107797030.65249       -15.137    20513092.541    83997684.52448
       -11.796  
  20613240.890   108323311.06049      2010.530    20613240.940    84407778.32148
      1566.645  
  21080277.634   110777607.77848      2030.934    21080278.076    86320215.75748
      1582.542  
  22064648.907   115950511.17048     -2738.445    22064649.022    90351049.75547
     -2133.855  
  22567113.223   118590978.43948     -3034.672    22567113.951    92408556.70647
     -2364.683  
  23847260.326   125318199.21947      -383.508    23847263.030    97650554.90746
      -298.840  
  23345873.204   122683394.73047      3156.320    23345873.391    95597453.99445
      2459.468  
 20  9 26  5 31 50.0000000  0  7G13G15G18G 5G29G30G20
  20513109.288   107797115.69049       -18.727    20513108.662    83997750.78748
       -14.594  
  20611329.570   108313267.10249      2007.434    20611329.488    84399951.86848
      1564.230  
  21078346.343   110767458.33848      2028.905    21078346.871    86312307.10548
      1580.961  
  22067254.943   115964206.63748     -2739.612    22067255.243    90361721.54547
     -2134.765  
  22570001.687   118606157.45548     -3036.870    22570002.498    92420384.51347
     -2366.394  
  23847626.835   125320125.92047      -386.730    23847629.853    97652056.23546
      -301.352  
  23342870.513   122667615.14247      3155.582    23342870.832    95585158.20445
      2458.891  
 20  9 26  5 31 55.0000000  0  7G13G15G18G 5G29G30G20
  20513128.893   107797218.06249       -22.273    20513128.204    83997830.55848
       -17.358  
  20609420.911   108303237.90649      2004.332    20609420.997    84392136.91648
      1561.812  
  21076417.160   110757320.07348      2026.363    21076417.608    86304407.16047
      1578.979  
  22069862.326   115977908.09348     -2740.788    22069862.672    90372398.00147
     -2135.683  
  22572892.071   118621346.58648     -3038.695    22572892.985    92432220.19947
     -2367.815  
  23847996.555   125322068.21747      -389.895    23847999.368    97653569.71346
      -303.815  
  23339868.245   122651838.74347      3154.690    23339868.474    95572864.92445
      2458.199  
 20  9 26  5 32  0.0000000  0  7G13G15G18G 5G29G30G20
  20513151.737   107797338.13649       -25.785    20513151.168    83997924.12448
       -20.093  
  20607515.312   108293223.88149      2001.312    20607515.415    84384333.78248
      1559.460  
  21074490.069   110747193.35648      2024.413    21074490.558    86296516.21148
      1577.461  
  22072470.667   115991615.95348     -2742.066    22072471.121    90383079.44247
     -2136.680  
  22575784.507   118636546.28448     -3040.741    22575785.427    92444064.10746
     -2369.414  
  23848369.166   125324026.49247      -393.238    23848372.114    97655095.63945
      -306.422  
  23336866.740   122636065.88047      3154.319    23336867.122    95560574.38945
      2457.910  
 20  9 26  5 32  5.0000000  0  7G13G15G18G 5G29G30G20
  20513177.620   107797474.90649       -29.120    20513177.065    83998030.69948
       -22.694  
  20605612.536   108283224.01049      1998.483    20605612.519    84376541.68148
      1557.257  
  21072565.058   110737077.19848      2022.101    21072565.456    86288633.49348
      1575.659  
  22075080.330   116005329.13848     -2743.230    22075080.759    90393765.03747
     -2137.586  
  22578678.675   118651755.45648     -3042.973    22578679.573    92455915.40047
     -2371.152  
  23848744.626   125325999.73447      -396.141    23848747.722    97656633.22246
      -308.684  
  23333865.802   122620295.56547      3153.676    23333866.035    95548285.84845
      2457.406  
 20  9 26  5 32 10.0000000  0  7G13G15G18G 5G29G30G20
  20513207.119   107797629.23649       -32.605    20513206.380    83998150.95848
       -25.409  
  20603712.432   108273239.14849      1995.444    20603712.555    84368761.27148
      1554.891  
  21070642.137   110726972.43148      2019.844    21070642.529    86280759.64748
      1573.902  
  22077690.966   116019048.46648     -2744.456    22077691.398    90404455.41947
     -2138.542  
  22581574.763   118666974.94348     -3044.852    22581575.667    92467774.73447
     -2372.612  
  23849123.130   125327988.81647      -399.438    23849126.272    97658183.16646
      -311.254  
  23330865.440   122604528.65047      3153.233    23330865.639    95535999.94645
      2457.062  
 20  9 26  5 32 15.0000000  0  7G13G15G18G 5G29G30G20
  20513239.668   107797800.68749       -36.086    20513239.121    83998284.55848
       -28.121  
  20601815.020   108263268.86449      1992.616    20601815.282    84360992.22448
      1552.683  
  21068721.299   110716878.64348      2017.691    21068721.807    86272894.36048
      1572.222  
  22080302.747   116032773.49848     -2745.491    22080303.254    90415150.25147
     -2139.348  
  22584472.921   118682204.30148     -3046.871    22584473.746    92479641.75847
     -2374.188  
  23849504.650   125329993.21947      -402.477    23849507.720    97659745.03546
      -313.621  
  23327865.643   122588764.67547      3152.726    23327866.026    95523716.34245
      2456.668  
 20  9 26  5 32 20.0000000  0  7G13G15G18G 5G29G30G20
  20513275.623   107797989.44449       -39.526    20513275.027    83998431.64848
       -30.805  
  20599920.639   108253313.35849      1989.660    20599920.706    84353234.68948
      1550.383  
  21066802.759   110706796.02148      2015.441    21066803.057    86265037.77648
      1570.468  
  22082915.637   116046504.48248     -2746.737    22082916.064    90425849.71047
     -2140.320  
  22587372.808   118697443.68448     -3048.929    22587373.732    92491516.59447
     -2375.793  
  23849889.091   125332013.18847      -405.448    23849892.064    97661319.04846
      -315.938  
  23324866.394   122573003.95247      3151.930    23324866.908    95511435.26945
      2456.047  
 20  9 26  5 32 25.0000000  0  7G13G15G18G 5G29G30G20
  20513314.834   107798195.43549       -42.836    20513314.362    83998592.15848
       -33.383  
  20598028.934   108243372.60049      1986.851    20598029.045    84345488.65248
      1548.191  
  21064886.133   110696724.52348      2013.324    21064886.508    86257189.85748
      1568.820  
  22085529.695   116060241.32748     -2747.859    22085530.091    90436553.74447
     -2141.191  
  22590274.762   118712693.05548     -3050.769    22590275.695    92503399.21047
     -2377.227  
  23850276.335   125334048.64047      -408.526    23850279.377    97662905.09246
      -318.340  
  23321867.933   122557246.40147      3150.917    23321868.263    95499156.66545
      2455.258  
 20  9 26  5 32 30.0000000  0  7G13G15G18G 5G29G30G20
  20513357.262   107798418.83349       -46.448    20513356.851    83998766.23548
       -36.198  
  20596140.084   108233446.75349      1983.676    20596140.327    84337754.23048
      1545.719  
  21062971.805   110686664.34548      2011.031    21062972.150    86249350.75848
      1567.035  
  22088144.877   116073984.17148     -2749.035    22088145.321    90447262.45547
     -2142.109  
  22593178.486   118727952.60348     -3052.789    22593179.382    92515289.75747
     -2378.800  
  23850666.624   125336099.80947      -411.645    23850669.682    97664503.41946
      -320.766  
  23318870.025   122541492.12947      3150.820    23318870.352    95486880.62645
      2455.180  
 20  9 26  5 32 35.0000000  0  7G13G15G18G 5G29G30G20
  20513403.120   107798659.13549       -49.757    20513402.518    83998953.48548
       -38.777  
  20594254.069   108223535.30049      1980.995    20594254.287    84330031.02648
      1543.628  
  21061059.359   110676614.99748      2008.867    21061059.975    86241520.09748
      1565.348  
  22090761.018   116087732.55448     -2750.058    22090761.566    90457975.47547
     -2142.905  
  22596084.079   118743221.78648     -3054.851    22596084.978    92527187.81347
     -2380.406  
  23851059.958   125338166.13647      -414.465    23851062.846    97666113.54746
      -322.961  
  23315872.510   122525740.67647      3149.816    23315872.875    95474606.77045
      2454.397  
 20  9 26  5 32 40.0000000  0  7G13G15G18G 5G29G30G20
  20513452.216   107798917.44949       -53.520    20513451.620    83999154.76848
       -41.706  
  20592370.923   108213639.36349      1977.656    20592370.933    84322319.91148
      1541.027  
  21059149.391   110666577.58248      2006.199    21059149.767    86233698.73848
      1563.270  
  22093378.512   116101487.57648     -2751.684    22093379.013    90468693.67247
     -2144.171  
  22598991.753   118758501.68448     -3057.054    22598992.852    92539094.22647
     -2382.125  
  23851456.144   125340248.79747      -418.078    23851459.201    97667736.39945
      -325.776  
  23312875.972   122509993.07847      3149.315    23312876.141    95462335.92745
      2454.007  
 20  9 26  5 32 45.0000000  0  7G13G15G18G 5G29G30G20
  20513504.537   107799192.30049       -56.633    20513503.892    83999368.93948
       -44.132  
  20590490.424   108203757.55549      1974.757    20590490.496    84314619.80448
      1538.769  
  21057241.320   110656550.66148      2004.465    21057241.754    86225885.55548
      1561.917  
  22095996.947   116115247.76448     -2752.555    22095997.443    90479415.89447
     -2144.852  
  22601901.153   118773790.84248     -3058.906    22601902.112    92551007.85047
     -2383.565  
  23851855.396   125342346.25147      -421.140    23851858.211    97669370.77746
      -328.163  
  23309879.585   122494247.98547      3148.852    23309880.143    95450067.03345
      2453.647  
 20  9 26  5 32 50.0000000  0  7G13G15G18G 5G29G30G20
  20513560.102   107799484.98649       -60.387    20513559.841    83999597.00648
       -47.059  
  20588612.971   108193891.09849      1971.902    20588613.004    84306931.66248
      1536.542  
  21055335.532   110646535.52448      2001.909    21055335.937    86218081.55348
      1559.925  
  22098616.720   116129014.35748     -2753.867    22098617.312    90490143.10247
     -2145.875  
  22604812.648   118789090.50548     -3060.882    22604813.616    92562929.65647
     -2385.104  
  23852257.463   125344459.78847      -424.434    23852260.469    97671017.67846
      -330.730  
  23306884.144   122478506.62247      3147.878    23306884.638    95437801.03845
      2452.890  
 20  9 26  5 32 55.0000000  0  7G13G15G18G 5G29G30G20
  20513619.081   107799794.58049       -63.352    20513618.701    83999838.24948
       -49.366  
  20586738.196   108184039.09149      1969.085    20586738.208    84299254.78048
      1534.348  
  21053431.822   110636531.24148      1999.815    21053432.331    86210286.01048
      1558.296  
  22101237.417   116142786.46348     -2754.918    22101237.925    90500874.60347
     -2146.690  
  22607725.851   118804399.74248     -3062.797    22607726.780    92574858.92347
     -2386.598  
  23852662.579   125346588.50047      -426.949    23852665.576    97672676.42846
      -332.691  
  23303889.311   122462768.07247      3147.370    23303889.676    95425537.23145
      2452.492  
 20  9 26  5 33  0.0000000  0  7G13G15G18G 5G29G30G20
  20513681.303   107800121.55549       -67.026    20513680.961    84000093.03848
       -52.229  
  20584866.092   108174201.99449      1965.886    20584866.340    84291589.51448
      1531.855  
  21051530.223   110626538.27048      1997.539    21051530.678    86202499.28048
      1556.520  
  22103859.300   116156564.48948     -2756.233    22103859.781    90511610.73047
     -2147.719  
  22610641.176   118819719.00348     -3064.809    22610642.190    92586796.00647
     -2388.163  
  23853070.514   125348732.86547      -430.401    23853073.650    97674347.36146
      -335.382  
  23300894.848   122447032.78347      3146.727    23300895.125    95413275.98145
      2451.991  
 20  9 26  5 33  5.0000000  0  7G13G15G18G 5G29G30G20
  20513746.759   107800465.65549       -70.526    20513746.427    84000361.17048
       -54.960  
  20582997.031   108164379.57349      1963.063    20582997.144    84283935.68748
      1529.655  
  21049630.712   110616556.42948      1995.104    21049631.221    86194721.22548
      1554.625  
  22106482.313   116170348.23448     -2757.245    22106482.808    90522351.30447
     -2148.508  
  22613558.209   118835048.02248     -3067.155    22613559.058    92598740.68747
     -2389.995  
  23853481.519   125350892.61747      -433.351    23853484.676    97676030.28746
      -337.679  
  23297901.130   122431300.56247      3145.926    23297901.606    95401017.11745
      2451.367  
 20  9 26  5 33 10.0000000  0  7G13G15G18G 5G29G30G20
  20513815.632   107800827.21249       -73.886    20513815.053    84000642.90348
       -57.577  
  20581130.797   108154572.16349      1960.027    20581130.879    84276293.55248
      1527.288  
  21047733.480   110606586.03148      1993.148    21047733.940    86186952.08648
      1553.098  
  22109106.473   116184138.06748     -2758.487    22109106.850    90533096.62847
     -2149.472  
  22616477.120   118850387.12648     -3068.520    22616478.128    92610693.22947
     -2391.059  
  23853895.592   125353068.11747      -436.706    23853898.588    97677725.46746
      -340.293  
  23294907.988   122415571.74347      3145.366    23294908.317    95388760.90845
      2450.934  
 20  9 26  5 33 15.0000000  0  7G13G15G18G 5G29G30G20
  20513887.560   107801205.82049       -77.191    20513887.094    84000937.92748
       -60.151  
  20579267.235   108144779.36149      1957.238    20579267.304    84268662.80248
      1525.116  
  21045838.149   110596626.69148      1990.832    21045838.619    86179191.56048
      1551.292  
  22111731.566   116197933.49748     -2759.468    22111732.079    90543846.31847
     -2150.238  
  22619397.769   118865735.93148     -3070.547    22619398.892    92622653.33347
     -2392.637  
  23854312.350   125355258.91746      -439.495    23854315.457    97679432.60246
      -342.469  
  23291915.446   122399845.92647      3144.819    23291916.009    95376507.03445
      2450.507  
 20  9 26  5 33 20.0000000  0  7G13G15G18G 5G29G30G20
  20513962.910   107801601.38249       -80.895    20513962.565    84001246.15748
       -63.039  
  20577406.535   108135001.09849      1954.155    20577406.668    84261043.37448
      1522.715  
  21043945.110   110586678.29548      1988.582    21043945.510    86171439.56648
      1549.542  
  22114357.809   116211734.39948     -2760.851    22114358.308    90554600.25647
     -2151.315  
  22622320.504   118881094.28548     -3072.730    22622321.396    92634620.87347
     -2394.339  
  23854732.158   125357464.95747      -442.636    23854735.203    97681151.58146
      -344.914  
  23288923.448   122384122.96247      3144.375    23288923.899    95364255.37445
      2450.159  
 20  9 26  5 33 25.0000000  0  7G13G15G18G 5G29G30G20
  20514041.483   107802014.18949       -84.386    20514040.952    84001567.82748
       -65.757  
  20575548.509   108125237.66949      1951.257    20575548.728    84253435.51348
      1520.456  
  21042054.163   110576741.20748      1986.190    21042054.583    86163696.38048
      1547.680  
  22116985.204   116225541.14148     -2762.063    22116985.506    90565358.75447
     -2152.257  
  22625244.963   118896462.48548     -3074.504    22625246.063    92646596.08247
     -2395.718  
  23855154.992   125359686.53147      -445.886    23855157.977    97682882.67546
      -347.448  
  23285932.182   122368403.25647      3143.265    23285932.549    95352006.26745
      2449.292  
 20  9 26  5 33 30.0000000  0  7G13G15G18G 5G29G30G20
  20514123.301   107802444.58649       -87.819    20514122.991    84001903.20048
       -68.434  
  20573693.520   108115489.41649      1948.124    20573693.707    84245839.48048
      1518.015  
  21040165.309   110566815.71348      1983.918    21040165.863    86155962.23048
      1545.905  
  22119613.741   116239354.04448     -2763.090    22119614.189    90576122.05247
     -2153.058  
  22628171.318   118911840.86748     -3076.645    22628172.464    92658579.23546
     -2397.386  
  23855580.668   125361923.94247      -449.007    23855583.872    97684626.11346
      -349.878  
  23282941.521   122352687.06847      3142.874    23282941.653    95339759.88945
      2448.992  
 20  9 26  5 33 35.0000000  0  7G13G15G18G 5G29G30G20
  20514208.548   107802892.15349       -91.175    20514207.970    84002251.95648
       -71.050  
  20571841.198   108105755.99549      1945.089    20571841.362    84238254.99848
      1515.652  
  21038278.729   110556901.48048      1981.559    21038279.072    86148236.85648
      1544.069  
  22122243.244   116253172.73348     -2764.617    22122243.613    90586889.85547
     -2154.249  
  22631099.767   118927229.06248     -3078.746    22631100.784    92670570.02947
     -2399.027  
  23856009.395   125364176.82347      -452.167    23856012.485    97686381.61846
      -352.344  
  23279951.415   122336974.04747      3142.273    23279951.551    95327515.98545
      2448.522  
 20  9 26  5 33 40.0000000  0  7G13G15G18G 5G29G30G20
  20514297.023   107803357.28249       -94.694    20514296.635    84002614.39948
       -73.792  
  20569991.920   108096037.71949      1942.219    20569992.198    84230682.32748
      1513.413  
  21036394.254   110546998.81248      1979.538    21036394.735    86140520.49648
      1542.495  
  22124874.062   116266997.52648     -2765.508    22124874.483    90597662.42047
     -2154.944  
  22634029.907   118942627.30448     -3080.761    22634030.809    92682568.64947
     -2400.598  
  23856441.148   125366445.54447      -455.452    23856444.232    97688149.45745
      -354.901  
  23276961.886   122321264.55947      3141.429    23276962.123    95315274.83945
      2447.862  
 20  9 26  5 33 45.0000000  0  7G13G15G18G 5G29G30G20
  20514388.750   107803839.21749       -98.112    20514388.221    84002989.93148
       -76.456  
  20568145.310   108086333.87749      1939.207    20568145.466    84223120.89248
      1511.066  
  21034512.051   110537107.05048      1977.152    21034512.356    86132812.62748
      1540.637  
  22127505.856   116280827.69848     -2766.535    22127506.329    90608439.16947
     -2155.745  
  22636961.758   118958034.91048     -3082.480    22636962.793    92694574.57147
     -2401.938  
  23856875.722   125368729.34147      -458.530    23856878.915    97689929.03345
      -357.301  
  23273972.928   122305557.85547      3141.141    23273973.285    95303035.85945
      2447.640  
 20  9 26  5 33 50.0000000  0  7G13G15G18G 5G29G30G20
  20514483.718   107804338.49749      -101.632    20514483.225    84003378.98448
       -79.199  
  20566301.547   108076644.99149      1936.211    20566301.931    84215571.11348
      1508.733  
  21032631.747   110527226.70148      1974.914    21032632.165    86125113.65548
      1538.890  
  22130138.771   116294663.76048     -2767.781    22130139.167    90619220.51547
     -2156.714  
  22639895.718   118973452.43948     -3084.664    22639896.765    92706588.22446
     -2403.636  
  23857313.186   125371028.75946      -461.323    23857316.302    97691720.77946
      -359.477  
  23270984.697   122289854.50047      3140.511    23270985.115    95290799.49345
      2447.148  
 20  9 26  5 33 55.0000000  0  7G13G15G18G 5G29G30G20
  20514582.097   107804855.66549      -104.879    20514581.622    84003781.96948
       -81.727  
  20564460.828   108066971.63649      1933.504    20564461.077    84208033.43348
      1506.625  
  21030753.913   110517358.33548      1972.733    21030754.416    86117424.02248
      1537.190  
  22132773.042   116308506.25948     -2768.809    22132773.184    90630006.87247
     -2157.515  
  22642831.574   118988880.37348     -3086.168    22642832.659    92718610.00346
     -2404.808  
  23857753.891   125373344.33747      -464.398    23857757.110    97693525.12646
      -361.871  
  23267997.287   122274155.05647      3139.925    23267997.688    95278566.16345
      2446.690  
 20  9 26  5 34  0.0000000  0  7G13G15G18G 5G29G30G20
  20514683.725   107805389.25749      -108.461    20514683.208    84004197.75648
       -84.520  
  20562622.772   108057312.33949      1930.215    20562622.900    84200506.71948
      1504.058  
  21028878.007   110507500.50848      1970.405    21028878.404    86109742.59948
      1535.378  
  22135408.052   116322353.70748     -2770.184    22135408.426    90640797.09347
     -2158.586  
  22645769.134   119004317.29148     -3088.469    22645770.050    92730638.75247
     -2406.605  
  23858197.280   125375674.64147      -467.582    23858200.371    97695340.95746
      -364.351  
  23265010.204   122258458.04747      3138.762    23265010.510    95266334.73145
      2445.784  
 20  9 26  5 34  5.0000000  0  7G13G15G18G 5G29G30G20
  20514788.590   107805940.63849      -111.847    20514788.209    84004627.40748
       -87.156  
  20560787.575   108047668.49949      1927.352    20560787.891    84192992.03948
      1501.828  
  21027004.369   110497654.60148      1968.090    21027004.798    86102070.46548
      1533.574  
  22138044.423   116336207.49448     -2771.265    22138044.697    90651592.24347
     -2159.430  
  22648708.612   119019764.45048     -3090.500    22648709.602    92742675.47747
     -2408.183  
  23858643.922   125378021.04247      -470.797    23858646.976    97697169.32246
      -366.858  
  23262023.711   122242764.82647      3138.730    23262024.295    95254106.24445
      2445.761  
 20  9 26  5 34 10.0000000  0  7G13G15G18G 5G29G30G20
  20514896.688   107806508.47849      -115.323    20514896.142    84005069.87747
       -89.867  
  20558955.059   108038038.78349      1924.362    20558955.342    84185488.36948
      1499.499  
  21025132.837   110487819.29248      1965.960    21025133.178    86094406.58648
      1531.914  
  22140681.707   116350066.29548     -2772.472    22140681.930    90662391.30347
     -2160.370  
  22651649.812   119035220.59148     -3092.171    22651650.875    92754719.21746
     -2409.487  
  23859093.232   125380382.18247      -473.656    23859096.277    97699009.16746
      -369.085  
  23259038.003   122227074.14147      3138.059    23259038.270    95241879.75145
      2445.237  
 20  9 26  5 34 15.0000000  0  7G13G15G18G 5G29G30G20
  20515008.205   107807094.03849      -118.714    20515007.741    84005526.16648
       -92.507  
  20557125.577   108028424.44449      1921.444    20557125.703    84177996.68048
      1497.227  
  21023263.385   110477995.84948      1963.647    21023263.741    86086751.95948
      1530.112  
  22143320.145   116363931.37848     -2773.531    22143320.391    90673195.26647
     -2161.194  
  22654592.892   119050686.95648     -3094.288    22654593.813    92766770.93246
     -2411.137  
  23859545.563   125382759.35547      -477.016    23859548.568    97700861.50546
      -371.702  
  23256052.849   122211387.20347      3137.151    23256053.283    95229656.16645
      2444.530  
 20  9 26  5 34 20.0000000  0  7G13G15G18G 5G29G30G20
  20515122.770   107807696.39349      -122.395    20515122.274    84005995.53448
       -95.375  
  20555298.744   108018824.55949      1918.297    20555299.021    84170516.25548
      1494.773  
  21021396.222   110468183.33948      1961.250    21021396.491    86079105.85247
      1528.241  
  22145959.549   116377801.72748     -2774.812    22145959.829    90684003.32547
     -2162.194  
  22657537.913   119066162.55248     -3096.362    22657538.735    92778829.83046
     -2412.753  
  23860000.789   125385151.58547      -480.022    23860003.725    97702725.57745
      -374.047  
  23253068.278   122195703.08347      3136.081    23253068.520    95217434.78044
      2443.694  
 20  9 26  5 34 25.0000000  0  7G13G15G18G 5G29G30G20
  20515240.756   107808316.50849      -125.909    20515240.209    84006478.74148
       -98.113  
  20553474.964   108009240.12849      1915.136    20553474.997    84163047.86848
      1492.313  
  21019531.145   110458382.73348      1958.910    21019531.681    86071469.01848
      1526.422  
  22148600.270   116391678.37648     -2776.086    22148600.481    90694816.28947
     -2163.187  
  22660484.810   119081648.31848     -3098.102    22660485.585    92790896.65846
     -2414.109  
  23860459.065   125387559.84047      -483.437    23860462.117    97704602.14846
      -376.707  
  23250084.291   122180022.75147      3135.828    23250084.771    95205216.35845
      2443.500  
 20  9 26  5 34 30.0000000  0  7G13G15G18G 5G29G30G20
  20515361.968   107808953.44949      -128.887    20515361.583    84006975.05948
      -100.433  
  20551653.853   107999670.24849      1912.772    20551653.926    84155590.82548
      1490.469  
  21017668.351   110448593.15248      1957.121    21017668.602    86063840.76948
      1525.026  
  22151241.953   116405560.38748     -2776.719    22151242.118    90705633.44547
     -2163.680  
  22663433.409   119097143.40448     -3099.980    22663434.183    92802970.73847
     -2415.574  
  23860920.329   125389983.23647      -486.090    23860923.204    97706490.50246
      -378.773  
  23247101.044   122164345.30947      3135.680    23247101.488    95193000.18845
      2443.382  
 20  9 26  5 34 35.0000000  0  7G13G15G18G 5G29G30G20
  20515486.418   107809607.47149      -132.503    20515485.886    84007484.68448
      -103.253  
  20549835.589   107990115.17349      1909.604    20549835.770    84148145.31248
      1487.999  
  21015807.463   110438814.84048      1954.539    21015807.942    86056221.30248
      1523.016  
  22153884.747   116419448.04948     -2777.979    22153884.707    90716454.99947
     -2164.663  
  22666383.734   119112647.99948     -3102.015    22666384.751    92815052.22746
     -2417.160  
  23861384.450   125392422.02247      -489.179    23861387.177    97708390.83446
      -381.184  
  23244118.343   122148671.01447      3134.769    23244118.715    95180786.45145
      2442.675  
 20  9 26  5 34 40.0000000  0  7G13G15G18G 5G29G30G20
  20515614.108   107810278.95249      -136.046    20515613.590    84008007.92448
      -106.016  
  20548020.178   107980575.31249      1906.522    20548020.306    84140711.66448
      1485.598  
  21013949.058   110429048.22948      1952.042    21013949.265    86048610.95848
      1521.070  
  22156528.513   116433341.72548     -2779.367    22156528.745    90727281.23647
     -2165.742  
  22669336.158   119128162.49948     -3103.910    22669337.010    92827141.45046
     -2418.633  
  23861851.441   125394876.57247      -492.398    23861854.349    97710303.47946
      -383.691  
  23241136.244   122133000.29447      3133.897    23241136.651    95168575.52145
      2441.996  
 20  9 26  5 34 45.0000000  0  7G13G15G18G 5G29G30G20
  20515745.224   107810967.94249      -139.563    20515744.732    84008544.80248
      -108.754  
  20546207.629   107971050.70949      1903.464    20546207.768    84133289.90448
      1483.215  
  21012092.736   110419293.34448      1949.887    21012093.035    86041009.75448
      1519.391  
  22159173.607   116447241.44648     -2780.742    22159173.783    90738112.19347
     -2166.815  
  22672290.282   119143686.96048     -3105.961    22672291.230    92839238.42547
     -2420.234  
  23862321.486   125397346.95747      -495.499    23862324.457    97712228.46445
      -386.105  
  23238154.892   122117333.15047      3133.051    23238155.370    95156367.35945
      2441.335  
 20  9 26  5 34 50.0000000  0  7G13G15G18G 5G29G30G20
  20515879.565   107811673.62849      -142.894    20515879.042    84009094.68548
      -111.347  
  20544397.934   107961540.54149      1900.440    20544398.166    84125879.38648
      1480.859  
  21010238.510   110409549.38448      1947.672    21010238.989    86033417.05748
      1517.663  
  22161819.657   116461146.37748     -2781.480    22161819.824    90748947.19647
     -2167.391  
  22675246.324   119159220.50448     -3107.602    22675247.149    92851342.48346
     -2421.512  
  23862794.573   125399832.32746      -498.558    23862797.526    97714165.10146
      -388.491  
  23235173.906   122101668.77447      3132.660    23235174.542    95144161.36945
      2441.030  
 20  9 26  5 34 55.0000000  0  7G13G15G18G 5G29G30G20
  20516017.142   107812396.60049      -146.511    20516016.772    84009658.04148
      -114.167  
  20542591.095   107952045.38549      1897.425    20542591.253    84118480.56948
      1478.511  
  21008386.372   110399816.96048      1945.160    21008386.916    86025833.35048
      1515.706  
  22164466.813   116475057.14848     -2783.008    22164466.839    90759786.75147
     -2168.582  
  22678204.053   119174763.75548     -3109.551    22678205.022    92863454.10346
     -2423.031  
  23863270.519   125402333.28447      -501.828    23863273.217    97716113.91346
      -391.039  
  23232193.698   122086007.80047      3131.733    23232194.477    95131958.03345
      2440.309  
 20  9 26  5 35  0.0000000  0  7G13G15G18G 5G29G30G20
  20516158.133   107813137.01049      -149.754    20516157.430    84010234.98148
      -116.695  
  20540787.108   107942565.39949      1894.663    20540787.256    84111093.56648
      1476.359  
  21006536.718   110390096.21048      1943.117    21006536.997    86018258.73948
      1514.113  
  22167114.945   116488973.83448     -2783.738    22167115.059    90770630.92347
     -2169.148  
  22681163.684   119190316.81648     -3111.351    22681164.584    92875573.36047
     -2424.434  
  23863749.287   125404849.94747      -504.445    23863752.136    97718074.94446
      -393.077  
  23229214.236   122070350.34047      3131.422    23229214.842    95119757.42545
      2440.069  
 20  9 26  5 35  5.0000000  0  7G13G15G18G 5G29G30G20
  20516302.177   107813894.43649      -153.332    20516301.755    84010825.18647
      -119.483  
  20538985.972   107933100.20749      1891.438    20538986.206    84103718.09648
      1473.844  
  21004688.975   110380386.72848      1940.522    21004689.307    86010692.91548
      1512.094  
  22169764.436   116502896.00648     -2785.070    22169764.495    90781479.36047
     -2170.187  
  22684125.213   119205879.25347     -3113.785    22684125.914    92887699.91746
     -2426.331  
  23864231.121   125407381.93947      -507.995    23864234.009    97720047.91446
      -395.844  
  23226235.376   122054696.01747      3130.629    23226235.955    95107559.25445
      2439.448  
 20  9 26  5 35 10.0000000  0  7G13G15G18G 5G29G30G20
  20516449.652   107814669.04649      -156.582    20516449.014    84011428.78348
      -122.016  
  20537187.499   107923649.95149      1888.304    20537187.860    84096354.26548
      1471.402  
  21002843.508   110370688.67148      1938.335    21002843.812    86003135.98348
      1510.387  
  22172414.644   116516823.88048     -2786.296    22172414.905    90792332.25247
     -2171.145  
  22687088.467   119221451.19947     -3115.323    22687089.153    92899833.91846
     -2427.526  
  23864715.973   125409929.38747      -511.073    23864718.768    97722032.95346
      -398.241  
  23223257.076   122039045.00447      3129.370    23223257.590    95095363.65945
      2438.468  
 20  9 26  5 35 15.0000000  0  7G13G15G18G 5G29G30G20
  20516600.357   107815461.29249      -160.151    20516599.918    84012046.11448
      -124.796  
  20535392.267   107914215.06949      1885.421    20535392.418    84089002.41548
      1469.155  
  21001000.313   110361002.54948      1936.148    21001000.765    85995588.35848
      1508.684  
  22175066.197   116530757.88148     -2787.445    22175066.302    90803189.90447
     -2172.039  
  22690053.602   119237033.11748     -3117.457    22690054.359    92911975.65647
     -2429.190  
  23865203.724   125412492.78347      -514.438    23865206.725    97724030.40146
      -400.862  
  23220279.374   122023397.66947      3129.078    23220279.850    95083170.93845
      2438.237  
 20  9 26  5 35 20.0000000  0  7G13G15G18G 5G29G30G20
  20516754.311   107816270.35549      -163.457    20516753.765    84012676.56248
      -127.370  
  20533599.524   107904794.85649      1882.491    20533599.905    84081662.00148
      1466.875  
  20999159.227   110351327.58248      1933.719    20999159.651    85988049.42748
      1506.788  
  22177718.884   116544697.22248     -2788.483    22177718.933    90814051.73447
     -2172.848  
  22693020.477   119252624.21448     -3119.343    22693021.266    92924124.55146
     -2430.660  
  23865694.480   125415071.32047      -517.652    23865697.314    97726039.65346
      -403.366  
  23217302.434   122007753.33647      3128.684    23217302.887    95070980.55545
      2437.934  
 20  9 26  5 35 25.0000000  0  7G13G15G18G 5G29G30G20
  20516911.471   107817096.89049      -167.160    20516911.042    84013320.61448
      -130.257  
  20531809.797   107895389.90449      1879.487    20531810.086    84074333.46048
      1464.531  
  20997320.421   110341664.40148      1931.328    20997320.763    85980519.67648
      1504.929  
  22180372.523   116558642.56648     -2789.699    22180372.752    90824918.21247
     -2173.797  
  22695989.276   119268225.11048     -3120.973    22695990.136    92936281.07847
     -2431.929  
  23866188.091   125417665.66547      -520.331    23866191.137    97728061.21346
      -405.456  
  23214326.023   121992112.60147      3127.918    23214326.754    95058793.00345
      2437.339  
 20  9 26  5 35 30.0000000  0  7G13G15G18G 5G29G30G20
  20517072.077   107817940.10049      -170.284    20517071.492    84013977.66448
      -132.691  
  20530022.941   107885999.44549      1876.395    20530023.210    84067016.22248
      1462.121  
  20995483.692   110332012.23348      1929.179    20995484.055    85972998.50647
      1503.253  
  22183027.304   116572593.09448     -2790.809    22183027.325    90835788.74347
     -2174.659  
  22698959.785   119283835.05448     -3123.101    22698960.469    92948444.65746
     -2433.589  
  23866684.765   125420275.05147      -523.425    23866687.571    97730094.49645
      -407.866  
  23211350.188   121976474.73047      3127.184    23211350.776    95046607.65545
      2436.761  
 20  9 26  5 35 35.0000000  0  7G13G15G18G 5G29G30G20
  20517235.726   107818800.58449      -173.898    20517235.349    84014648.16248
      -135.508  
  20528238.937   107876624.06749      1873.539    20528239.009    84059710.74548
      1459.897  
  20993649.064   110322371.69648      1926.938    20993649.552    85965486.39848
      1501.507  
  22185683.043   116586549.37848     -2791.988    22185683.126    90846663.77447
     -2175.578  
  22701932.010   119299454.57348     -3125.022    22701932.769    92960615.72846
     -2435.085  
  23867184.121   125422899.96847      -526.366    23867186.970    97732139.89145
      -410.159  
  23208375.095   121960840.25947      3126.715    23208375.550    95034424.94445
      2436.398  
 20  9 26  5 35 40.0000000  0  7G13G15G18G 5G29G30G20
  20517402.786   107819678.48949      -177.272    20517402.381    84015332.25448
      -138.137  
  20526457.788   107867264.00049      1870.648    20526457.971    84052417.19348
      1457.644  
  20991816.726   110312742.94648      1924.543    20991817.255    85957983.48348
      1499.641  
  22188339.933   116600511.58648     -2793.105    22188340.114    90857543.41247
     -2176.448  
  22704906.111   119315083.83248     -3126.702    22704906.992    92972794.36346
     -2436.395  
  23867686.695   125425540.66846      -529.594    23867689.603    97734197.58645
      -412.671  
  23205400.595   121945209.43847      3125.835    23205401.307    95022245.10245
      2435.714  
 20  9 26  5 35 45.0000000  0  7G13G15G18G 5G29G30G20
  20517573.092   107820573.39149      -180.566    20517572.599    84016029.58248
      -140.703  
  20524679.305   107857918.76249      1867.512    20524679.631    84045135.18848
      1455.198  
  20989986.645   110303125.52248      1922.438    20989987.143    85950489.38648
      1498.000  
  22190997.986   116614479.27948     -2793.957    22190998.084    90868427.32647
     -2177.112  
  22707882.119   119330722.35948     -3128.569    22707882.956    92984980.21946
     -2437.852  
  23868192.096   125428196.65846      -532.448    23868195.126    97736267.18145
      -414.897  
  23202426.650   121929581.72047      3125.145    23202427.292    95010067.66545
      2435.176  
 20  9 26  5 35 50.0000000  0  7G13G15G18G 5G29G30G20
  20517746.623   107821485.55349      -184.120    20517746.235    84016740.34348
      -143.472  
  20522903.874   107848588.55749      1864.594    20522903.961    84037864.89748
      1452.925  
  20988158.689   110293519.70648      1920.062    20988159.210    85943004.33648
      1496.147  
  22193656.976   116628452.68148     -2795.190    22193657.043    90879315.69147
     -2178.073  
  22710859.828   119346370.38548     -3130.734    22710860.634    92997173.46946
     -2439.534  
  23868700.550   125430868.19547      -535.957    23868703.317    97738348.89045
      -417.632  
  23199453.514   121913957.38247      3124.602    23199454.020    94997892.86345
      2434.750  
 20  9 26  5 35 55.0000000  0  7G13G15G18G 5G29G30G20
  20517923.594   107822415.26049      -187.683    20517923.047    84017464.79348
      -146.250  
  20521131.294   107839273.77649      1861.438    20521131.489    84030606.63948
      1450.468  
  20986333.021   110283925.84948      1917.495    20986333.500    85935528.60947
      1494.148  
  22196317.288   116642432.18148     -2796.546    22196317.235    90890208.79847
     -2179.128  
  22713839.421   119362028.22448     -3132.598    22713840.252    93009374.38346
     -2440.987  
  23869211.863   125433555.60347      -539.215    23869214.672    97740442.99346
      -420.171  
  23196480.920   121898336.82547      3123.608    23196481.750    94985721.00845
      2433.976  
 20  9 26  5 36  0.0000000  0  7G13G15G18G 5G29G30G20
  20518103.803   107823362.20149      -190.883    20518103.258    84018202.66548
      -148.741  
  20519361.763   107829974.07548      1858.437    20519361.931    84023360.12648
      1448.128  
  20984509.630   110274343.58548      1915.386    20984509.958    85928061.91448
      1492.508  
  22198978.569   116656417.33948     -2797.602    22198978.649    90901106.34347
     -2179.953  
  22716820.784   119377695.51548     -3134.440    22716821.579    93021582.66646
     -2442.426  
  23869726.237   125436258.56147      -542.163    23869729.235    97742549.19545
      -422.468  
  23193509.094   121882719.64747      3123.448    23193509.717    94973551.78045
      2433.851  
 20  9 26  5 36  5.0000000  0  7G13G15G18G 5G29G30G20
  20518287.043   107824325.57249      -194.382    20518286.660    84018953.35548
      -151.468  
  20517594.676   107820688.68849      1855.608    20517594.821    84016124.76348
      1445.925  
  20982688.320   110264772.18948      1913.063    20982688.620    85920603.68448
      1490.695  
  22201640.797   116670407.40948     -2798.616    22201640.768    90912007.67947
     -2180.741  
  22719803.834   119393371.51948     -3136.085    22719804.607    93033797.73247
     -2443.706  
  23870243.412   125438976.27246      -545.183    23870246.213    97744666.88745
      -424.820  
  23190537.846   121867105.16847      3122.633    23190538.382    94961384.66245
      2433.218  
 20  9 26  5 36 10.0000000  0  7G13G15G18G 5G29G30G20
  20518473.715   107825306.10249      -197.879    20518473.227    84019717.40748
      -154.195  
  20515830.637   107811418.35349      1852.647    20515830.863    84008901.12148
      1443.616  
  20980869.096   110255212.38448      1910.788    20980869.487    85913154.48248
      1488.921  
  22204304.184   116684403.13448     -2799.827    22204304.110    90922913.43347
     -2181.687  
  22722788.592   119409056.90048     -3138.026    22722789.565    93046020.07346
     -2445.223  
  23870763.452   125441709.44547      -548.313    23870766.453    97746796.62046
      -427.257  
  23187567.156   121851494.02447      3121.809    23187567.830    94949220.15345
      2432.573  
 20  9 26  5 36 15.0000000  0  7G13G15G18G 5G29G30G20
  20518663.636   107826304.11049      -201.218    20518663.234    84020495.08148
      -156.796  
  20514069.455   107802163.40549      1849.566    20514069.602    84001689.48748
      1441.218  
  20979052.165   110245664.50748      1908.629    20979052.547    85905714.57547
      1487.238  
  22206968.511   116698404.86248     -2800.691    22206968.456    90933823.86047
     -2182.359  
  22725775.283   119424751.97748     -3139.801    22725776.271    93058250.01147
     -2446.602  
  23871286.534   125444458.47747      -551.398    23871289.589    97748938.74146
      -429.663  
  23184597.025   121835886.56547      3121.358    23184597.663    94937058.50245
      2432.226  
 20  9 26  5 36 20.0000000  0  7G13G15G18G 5G29G30G20
  20518856.783   107827319.17149      -204.901    20518856.402    84021286.03948
      -159.668  
  20512311.133   107792923.39049      1846.433    20512311.284    83994489.46848
      1438.777  
  20977237.518   110236128.12948      1905.906    20977237.822    85898283.63948
      1485.117  
  22209634.160   116712412.12848     -2802.305    22209634.013    90944738.62147
     -2183.616  
  22728763.849   119440456.30947     -3142.230    22728764.685    93070487.12746
     -2448.496  
  23871812.507   125447222.86247      -554.820    23871815.576    97751092.79045
      -432.331  
  23181627.655   121820282.38947      3120.413    23181628.254    94924899.42545
      2431.492  
 20  9 26  5 36 25.0000000  0  7G13G15G18G 5G29G30G20
  20519053.158   107828351.90949      -208.246    20519052.751    84022090.77348
      -162.272  
  20510555.859   107783699.01949      1843.469    20510555.901    83987301.65748
      1436.464  
  20975424.953   110226603.94048      1903.577    20975425.527    85890862.18847
      1483.305  
  22212300.763   116726425.62948     -2803.195    22212300.767    90955658.22047
     -2184.312  
  22731754.096   119456170.53948     -3143.828    22731754.820    93082731.98147
     -2449.737  
  23872341.733   125450003.33546      -557.690    23872344.797    97753259.39346
      -434.566  
  23178659.071   121804682.16047      3119.909    23178659.663    94912743.38646
      2431.094  
 20  9 26  5 36 30.0000000  0  7G13G15G18G 5G29G30G20
  20519252.964   107829401.36449      -211.566    20519252.538    84022908.52648
      -164.858  
  20508803.271   107774489.29449      1840.546    20508803.433    83980125.24948
      1434.187  
  20973614.663   110217090.92748      1901.327    20973615.178    85883449.45548
      1481.551  
  22214968.509   116740444.32148     -2804.336    22214968.282    90966581.87447
     -2185.198  
  22734746.101   119471893.69448     -3145.598    22734746.897    93094983.78647
     -2451.116  
  23872873.562   125452798.77647      -560.457    23872876.661    97755437.66245
      -436.722  
  23175690.871   121789084.85147      3119.362    23175691.511    94900589.64345
      2430.667  
 20  9 26  5 36 35.0000000  0  7G13G15G18G 5G29G30G20
  20519456.020   107830468.05649      -214.949    20519455.485    84023739.71648
      -167.495  
  20507053.514   107765294.72749      1837.430    20507053.635    83972960.65248
      1431.762  
  20971806.680   110207589.66248      1899.280    20971807.026    85876045.87647
      1479.957  
  22217637.204   116754468.69348     -2805.374    22217636.993    90977509.95647
     -2186.008  
  22737739.958   119487626.26948     -3147.175    22737740.712    93107242.92746
     -2452.348  
  23873408.499   125455609.85347      -563.780    23873411.684    97757628.11545
      -439.312  
  23172723.604   121773491.09647      3118.484    23172724.160    94888438.68145
      2429.983  
 20  9 26  5 36 40.0000000  0  7G13G15G18G 5G29G30G20
  20519662.101   107831551.58249      -218.492    20519661.841    84024584.02348
      -170.258  
  20505306.610   107756114.90649      1834.550    20505306.798    83965807.55248
      1429.516  
  20970000.795   110198099.70248      1896.702    20970001.337    85868651.10248
      1477.949  
  22220307.036   116768498.34848     -2806.613    22220306.940    90988442.16047
     -2186.972  
  22740735.387   119503367.81948     -3149.270    22740736.440    93119509.05746
     -2453.980  
  23873946.467   125458436.08447      -566.992    23873949.469    97759830.38046
      -441.816  
  23169756.757   121757900.39847      3117.828    23169757.496    94876290.09345
      2429.473  
 20  9 26  5 36 45.0000000  0  7G13G15G18G 5G29G30G20
  20519871.618   107832652.38249      -221.742    20519871.135    84025441.79448
      -172.788  
  20503562.764   107746950.30849      1831.644    20503562.891    83958666.29648
      1427.254  
  20968197.169   110188621.52048      1894.542    20968197.593    85861265.50848
      1476.265  
  22222977.818   116782533.74348     -2807.523    22222977.641    90999378.82647
     -2187.684  
  22743732.696   119519118.78648     -3151.116    22743733.628    93131782.54246
     -2455.417  
  23874487.113   125461277.88547      -569.789    23874490.175    97762044.76245
      -443.996  
  23166790.642   121742313.20447      3117.152    23166791.293    94864144.23845
      2428.945  
 20  9 26  5 36 50.0000000  0  7G13G15G18G 5G29G30G20
  20520084.375   107833770.02049      -225.347    20520083.835    84026312.67248
      -175.597  
  20501821.584   107737800.50049      1828.374    20501821.662    83951536.59548
      1424.703  
  20966395.650   110179154.72548      1891.969    20966396.045    85853888.78448
      1474.257  
  22225649.744   116796574.40448     -2808.684    22225649.558    91010319.60147
     -2188.585  
  22746731.703   119534878.76648     -3153.090    22746732.770    93144063.02647
     -2456.956  
  23875030.800   125464134.88547      -573.344    23875034.030    97764271.00746
      -446.766  
  23163825.092   121726729.16647      3116.440    23163825.514    94852000.83745
      2428.395  
 20  9 26  5 36 55.0000000  0  7G13G15G18G 5G29G30G20
  20520300.363   107834905.54649      -228.695    20520299.966    84027197.50448
      -178.207  
  20500083.433   107728666.51649      1825.546    20500083.599    83944419.20548
      1422.500  
  20964596.590   110169700.29148      1889.726    20964596.942    85846521.69447
      1472.511  
  22228322.811   116810621.33948     -2809.812    22228322.668    91021265.25647
     -2189.468  
  22749732.652   119550648.67248     -3154.694    22749733.662    93156351.27246
     -2458.207  
  23875577.729   125467008.04747      -575.800    23875580.526    97766509.81845
      -448.679  
  23160860.299   121711149.26047      3115.503    23160860.789    94839860.66045
      2427.663  
 20  9 26  5 37  0.0000000  0  7G13G15G18G 5G29G30G20
  20520519.588   107836057.39449      -232.141    20520519.277    84028095.04548
      -180.891  
  20498347.963   107719546.81149      1822.363    20498347.978    83937312.94248
      1420.019  
  20962799.448   110160256.71548      1887.542    20962800.036    85839163.07248
      1470.809  
  22230996.621   116824672.99748     -2811.125    22230996.557    91032214.60247
     -2190.488  
  22752735.295   119566427.04548     -3156.831    22752736.238    93168646.10147
     -2459.871  
  23876127.115   125469895.84347      -579.022    23876130.264    97768760.06146
      -451.190  
  23157895.897   121695571.94247      3114.723    23157896.600    94827722.49145
      2427.055  
 20  9 26  5 37  5.0000000  0  7G13G15G18G 5G29G30G20
  20520742.056   107837226.53249      -235.640    20520741.757    84029006.06448
      -183.621  
  20496615.526   107710442.39049      1819.343    20496615.549    83930218.58948
      1417.667  
  20961004.791   110150825.04248      1885.164    20961005.088    85831813.71548
      1468.957  
  22233671.772   116838730.44648     -2812.090    22233671.637    91043168.45247
     -2191.241  
  22755739.470   119582214.84248     -3158.730    22755740.484    93180948.26746
     -2461.352  
  23876679.710   125472799.37247      -582.425    23876682.643    97771022.55146
      -453.840  
  23154932.461   121679998.23147      3114.590    23154933.196    94815587.15645
      2426.949  
 20  9 26  5 37 10.0000000  0  7G13G15G18G 5G29G30G20
  20520967.944   107838413.20849      -239.266    20520967.407    84029930.75248
      -186.444  
  20494885.945   107701353.47349      1816.203    20494886.046    83923136.31348
      1415.218  
  20959212.242   110141405.47548      1882.816    20959212.580    85824473.79048
      1467.124  
  22236347.862   116852793.89648     -2813.483    22236347.708    91054126.98447
     -2192.327  
  22758745.743   119598012.28848     -3160.430    22758746.520    93193257.98046
     -2462.676  
  23877235.192   125475718.76147      -585.625    23877238.168    97773297.39845
      -456.335  
  23151969.649   121664428.39347      3113.348    23151970.185    94803454.81245
      2425.980  
 20  9 26  5 37 15.0000000  0  7G13G15G18G 5G29G30G20
  20521196.874   107839616.49549      -242.558    20521196.475    84030868.37048
      -189.012  
  20493159.223   107692279.17249      1813.121    20493159.220    83916065.43948
      1412.819  
  20957421.938   110131997.11448      1880.222    20957422.275    85817142.59948
      1465.105  
  22239025.087   116866862.40248     -2814.477    22239025.014    91065089.45047
     -2193.102  
  22761753.518   119613818.43948     -3162.292    22761754.475    93205574.43047
     -2464.128  
  23877793.745   125478653.07247      -588.656    23877796.472    97775583.87346
      -458.695  
  23149007.333   121648861.44047      3112.777    23149007.903    94791324.72945
      2425.539  
 20  9 26  5 37 20.0000000  0  7G13G15G18G 5G29G30G20
  20521429.240   107840837.39849      -245.765    20521428.722    84031819.73048
      -191.508  
  20491435.348   107683220.52549      1810.386    20491435.333    83909006.75148
      1410.688  
  20955633.745   110122600.96948      1878.238    20955634.165    85809820.93348
      1463.558  
  22241703.291   116880936.99048     -2815.195    22241703.289    91076056.66347
     -2193.660  
  22764763.234   119629634.26048     -3164.121    22764764.146    93217898.43546
     -2465.550  
  23878355.115   125481603.37447      -591.297    23878357.895    97777882.80446
      -460.754  
  23146045.802   121633298.42847      3112.258    23146046.300    94779197.71145
      2425.132  
 20  9 26  5 37 25.0000000  0  7G13G15G18G 5G29G30G20
  20521664.634   107842074.40349      -249.401    20521664.146    84032783.62747
      -194.343  
  20489714.154   107674175.99649      1807.315    20489714.369    83901959.06548
      1408.296  
  20953847.843   110113215.52348      1875.703    20953848.250    85802507.59747
      1461.581  
  22244382.626   116895016.08448     -2816.558    22244382.549    91087027.37847
     -2194.723  
  22767774.433   119645458.24948     -3166.070    22767775.266    93230228.81246
     -2467.069  
  23878919.344   125484568.10346      -594.452    23878922.003    97780192.98345
      -463.214  
  23143084.647   121617737.79547      3111.559    23143085.179    94767072.57245
      2424.590  
 20  9 26  5 37 30.0000000  0  7G13G15G18G 5G29G30G20
  20521903.445   107843329.83249      -252.738    20521902.985    84033761.88148
      -196.941  
  20487996.183   107665147.87449      1804.124    20487996.343    83894924.16448
      1405.808  
  20952064.419   110103843.09748      1873.413    20952064.798    85795204.40948
      1459.801  
  22247063.112   116909102.03948     -2817.761    22247063.062    91098003.44447
     -2195.660  
  22770787.544   119661292.69048     -3167.926    22770788.595    93242567.32646
     -2468.516  
  23879486.607   125487549.59347      -597.742    23879489.520    97782516.21345
      -465.776  
  23140124.434   121602181.89847      3110.890    23140125.090    94754951.09745
      2424.065  
 20  9 26  5 37 35.0000000  0  7G13G15G18G 5G29G30G20
  20522145.697   107844602.08949      -255.968    20522145.240    84034753.25248
      -199.461  
  20486281.080   107656134.63349      1801.391    20486281.014    83887900.86648
      1403.679  
  20950283.083   110094482.18048      1871.195    20950283.521    85787910.19048
      1458.069  
  22249744.523   116923193.26248     -2818.605    22249744.501    91108983.61347
     -2196.319  
  22773802.556   119677136.02748     -3169.440    22773803.426    93254912.77646
     -2469.699  
  23880056.922   125490546.27547      -600.703    23880059.717    97784851.29545
      -468.081  
  23137165.016   121586629.23747      3110.066    23137165.501    94742832.13745
      2423.425  
 20  9 26  5 37 40.0000000  0  7G13G15G18G 5G29G30G20
  20522390.801   107845890.87349      -259.516    20522390.404    84035757.50048
      -202.223  
  20484568.635   107647135.95549      1798.199    20484568.623    83880888.90848
      1401.190  
  20948503.871   110085132.42048      1868.882    20948504.206    85780624.66348
      1456.270  
  22252426.880   116937289.54848     -2819.914    22252426.934    91119967.72747
     -2197.340  
  22776818.913   119692987.90648     -3171.229    22776819.922    93267264.88447
     -2471.093  
  23880629.849   125493557.83947      -603.898    23880632.600    97787197.96446
      -470.573  
  23134205.943   121571079.42547      3109.343    23134206.483    94730715.42045
      2422.863  
 20  9 26  5 37 45.0000000  0  7G13G15G18G 5G29G30G20
  20522639.523   107847197.32349      -263.086    20522638.990    84036775.51347
      -205.004  
  20482859.232   107638152.97949      1795.230    20482859.389    83873889.19348
      1398.878  
  20946726.908   110075794.97848      1866.418    20946727.328    85773348.73748
      1454.348  
  22255110.382   116951391.91548     -2820.918    22255110.570    91130956.58047
     -2198.121  
  22779837.350   119708849.46348     -3173.304    22779838.395    93279624.52847
     -2472.706  
  23881206.039   125496585.39046      -606.815    23881208.996    97789557.08646
      -472.848  
  23131247.631   121555533.57947      3109.054    23131248.126    94718601.78645
      2422.636  
 20  9 26  5 37 50.0000000  0  7G13G15G18G 5G29G30G20
  20522891.284   107848520.68049      -266.391    20522890.772    84037806.70348
      -207.582  
  20481152.675   107629184.99649      1792.042    20481152.847    83866901.15848
      1396.394  
  20944952.428   110066469.11448      1863.961    20944952.652    85766081.83148
      1452.434  
  22257795.044   116965499.59748     -2822.164    22257795.178    91141949.57147
     -2199.093  
  22782857.311   119724719.93148     -3174.964    22782858.519    93291991.11746
     -2474.000  
  23881785.105   125499628.18446      -609.777    23881788.029    97791928.09946
      -475.156  
  23128290.104   121539991.04547      3108.292    23128290.481    94706490.72545
      2422.042  
 20  9 26  5 37 55.0000000  0  7G13G15G18G 5G29G30G20
  20523146.468   107849861.14549      -269.891    20523145.961    84038851.22348
      -210.308  
  20479449.175   107620232.19949      1788.883    20479448.996    83859924.95648
      1393.929  
  20943180.052   110057155.06248      1861.438    20943180.423    85758824.13148
      1450.468  
  22260480.646   116979612.81148     -2823.288    22260480.779    91152946.87747
     -2199.968  
  22785879.155   119740599.51748     -3176.784    22785880.136    93304364.81947
     -2475.422  
  23882367.019   125502686.47947      -613.261    23882369.981    97794311.18746
      -477.871  
  23125333.127   121524452.02247      3107.327    23125333.574    94694382.40545
      2421.292  
 20  9 26  5 38  0.0000000  0  7G13G15G18G 5G29G30G20
  20523404.700   107851218.91349      -273.269    20523404.335    84039909.22248
      -212.941  
  20477748.330   107611294.72849      1785.996    20477748.313    83852960.69548
      1391.683  
  20941409.766   110047852.98748      1859.164    20941410.137    85751575.76048
      1448.695  
  22263167.382   116993731.73448     -2824.354    22263167.581    91163948.63147
     -2200.800  
  22788902.737   119756488.39248     -3178.819    22788903.716    93316745.75146
     -2477.007  
  23882951.988   125505760.41447      -616.313    23882954.869    97796706.45645
      -480.245  
  23122376.720   121508916.65447      3106.617    23122377.172    94682276.93345
      2420.737  
 20  9 26  5 38  5.0000000  0  7G13G15G18G 5G29G30G20
  20523666.342   107852593.60449      -276.488    20523665.876    84040980.40847
      -215.448  
  20476050.522   107602372.28349      1783.090    20476050.567    83846008.14448
      1389.417  
  20939641.943   110038562.54548      1857.128    20939642.309    85744336.45647
      1447.109  
  22265855.077   117007855.98348     -2825.313    22265855.380    91174954.53247
     -2201.547  
  22791928.024   119772386.16347     -3180.352    22791929.004    93329133.61246
     -2478.198  
  23883539.835   125508849.63747      -619.312    23883542.629    97799113.64445
      -482.586  
  23119421.052   121493384.61247      3105.918    23119421.751    94670174.03945
      2420.191  
 20  9 26  5 38 10.0000000  0  7G13G15G18G 5G29G30G20
  20523931.216   107853985.27749      -280.109    20523930.589    84042064.82948
      -218.270  
  20474355.380   107593464.96549      1779.828    20474355.488    83839067.39148
      1386.874  
  20937876.209   110029283.86448      1854.500    20937876.659    85737106.32248
      1445.062  
  22268543.903   117021985.70148     -2826.675    22268544.168    91185964.70047
     -2202.609  
  22794954.832   119788292.92748     -3182.370    22794956.025    93341528.47546
     -2479.772  
  23884130.685   125511954.23147      -622.484    23884133.339    97801532.81546
      -485.054  
  23116465.993   121477855.98447      3105.425    23116466.553    94658073.80945
      2419.808  
 20  9 26  5 38 15.0000000  0  7G13G15G18G 5G29G30G20
  20524199.337   107855394.66849      -283.378    20524198.970    84043163.05748
      -220.815  
  20472663.481   107584573.47649      1776.879    20472663.362    83832138.95148
      1384.577  
  20936112.970   110020017.63848      1852.469    20936113.210    85729885.88648
      1443.479  
  22271233.873   117036121.52748     -2827.320    22271234.146    91196979.61647
     -2203.108  
  22797983.756   119804209.37548     -3183.882    22797984.723    93353930.89546
     -2480.948  
  23884724.446   125515074.90047      -625.249    23884727.166    97803964.49945
      -487.211  
  23113511.873   121462331.47947      3104.753    23113512.328    94645976.81645
      2419.289  
 20  9 26  5 38 20.0000000  0  7G13G15G18G 5G29G30G20
  20524470.483   107856819.70649      -286.781    20524470.025    84044273.48147
      -223.469  
  20470974.045   107575695.74349      1774.004    20470974.161    83825221.23648
      1382.336  
  20934351.600   110010761.79648      1849.922    20934351.951    85722673.54148
      1441.496  
  22273924.616   117050261.41248     -2828.516    22273924.868    91207997.70447
     -2204.043  
  22801013.978   119820133.42248     -3185.897    22801015.137    93366339.24546
     -2482.520  
  23885320.983   125518209.57047      -628.594    23885323.781    97806407.10046
      -489.816  
  23110558.132   121446809.11747      3104.391    23110558.622    94633881.47845
      2419.004  
 20  9 26  5 38 25.0000000  0  7G13G15G18G 5G29G30G20
  20524745.082   107858262.51249      -290.348    20524744.512    84045397.74248
      -226.249  
  20469287.657   107566833.93349      1770.776    20469287.640    83818315.93448
      1379.823  
  20932592.742   110001518.49448      1847.422    20932592.915    85715470.96248
      1439.547  
  22276616.495   117064407.49148     -2829.805    22276616.807    91219020.62247
     -2205.047  
  22804046.118   119836067.24148     -3187.683    22804047.215    93378755.18946
     -2483.913  
  23885920.645   125521360.37747      -631.866    23885923.298    97808862.27145
      -492.367  
  23107604.990   121431290.90947      3103.308    23107605.593    94621789.37945
      2418.160  
 20  9 26  5 38 30.0000000  0  7G13G15G18G 5G29G30G20
  20525022.898   107859722.32049      -293.535    20525022.403    84046535.25347
      -228.730  
  20467604.307   107557987.21449      1768.011    20467604.305    83811422.39748
      1377.667  
  20930835.972   109992286.95048      1845.394    20930836.328    85708277.56048
      1437.965  
  22279309.353   117078558.95948     -2830.655    22279309.739    91230047.72847
     -2205.711  
  22807079.984   119852010.03248     -3189.214    22807081.070    93391178.13046
     -2485.104  
  23886523.109   125524526.56546      -634.562    23886525.749    97811329.42545
      -494.468  
  23104652.768   121415776.06647      3103.172    23104653.086    94609699.88945
      2418.055  
 20  9 26  5 38 35.0000000  0  7G13G15G18G 5G29G30G20
  20525303.962   107861199.13749      -297.022    20525303.486    84047686.02347
      -231.448  
  20465923.628   107549155.65649      1764.788    20465923.648    83804540.66748
      1375.156  
  20929081.668   109983067.20848      1842.867    20929081.922    85701093.34448
      1435.995  
  22282003.312   117092715.83948     -2831.804    22282003.886    91241079.06047
     -2206.605  
  22810115.338   119867961.70547     -3191.308    22810116.627    93403608.01046
     -2486.737  
  23887128.609   125527708.08347      -637.675    23887131.172    97813808.53046
      -496.894  
  23101700.939   121400264.66547      3102.180    23101701.606    94597613.10145
      2417.280  
 20  9 26  5 38 40.0000000  0  7G13G15G18G 5G29G30G20
  20525588.240   107862693.30849      -300.578    20525587.741    84048850.30848
      -234.219  
  20464246.000   107540339.59949      1761.655    20464246.162    83797671.01748
      1372.715  
  20927329.462   109973859.61748      1840.270    20927329.715    85693918.59748
      1433.972  
  22284698.472   117106878.47048     -2833.034    22284698.746    91252114.87447
     -2207.563  
  22813152.593   119883922.61948     -3193.229    22813153.862    93416045.07446
     -2488.233  
  23887736.949   125530905.33947      -641.007    23887739.531    97816299.90945
      -499.488  
  23098750.066   121384757.06247      3101.422    23098750.529    94585529.24545
      2416.687  
 20  9 26  5 38 45.0000000  0  7G13G15G18G 5G29G30G20
  20525875.761   107864204.92749      -303.987    20525875.416    84050028.19847
      -236.878  
  20462571.423   107531539.19949      1758.680    20462571.362    83790813.55248
      1370.397  
  20925579.730   109964664.30848      1838.004    20925579.937    85686753.42548
      1432.206  
  22287394.714   117121047.03548     -2834.113    22287395.086    91263155.31047
     -2208.401  
  22816191.583   119899892.84148     -3194.659    22816192.845    93428489.39146
     -2489.348  
  23888348.358   125534118.44047      -644.093    23888351.039    97818803.62146
      -501.895  
  23095799.748   121369253.38147      3100.660    23095800.197    94573448.47445
      2416.094  
 20  9 26  5 38 50.0000000  0  7G13G15G18G 5G29G30G20
  20526166.716   107865733.22049      -307.508    20526166.271    84051219.07547
      -239.620  
  20460899.488   107522753.65349      1755.496    20460899.492    83783967.68048
      1367.914  
  20923832.092   109955480.50248      1835.602    20923832.363    85679597.21447
      1430.335  
  22290091.733   117135220.68348     -2835.343    22290092.139    91274199.69647
     -2209.362  
  22819232.284   119915871.61247     -3196.656    22819233.512    93440940.38146
     -2490.901  
  23888962.565   125537346.58446      -647.191    23888965.448    97821319.05645
      -504.309  
  23092849.968   121353752.84247      3099.828    23092850.626    94561370.12945
      2415.449  
 20  9 26  5 38 55.0000000  0  7G13G15G18G 5G29G30G20
  20526460.710   107867278.63649      -310.680    20526460.285    84052423.29648
      -242.089  
  20459230.610   107513983.39349      1752.637    20459230.562    83777133.72348
      1365.687  
  20922086.722   109946308.67648      1833.156    20922087.000    85672450.33648
      1428.430  
  22292789.908   117149399.84848     -2836.354    22292790.442    91285248.38947
     -2210.148  
  22822274.688   119931859.36748     -3198.413    22822275.905    93453398.38047
     -2492.272  
  23889579.893   125540590.22747      -650.030    23889582.552    97823846.55545
      -506.519  
  23089901.006   121338255.90747      3099.168    23089901.525    94549294.61845
      2414.937  
 20  9 26  5 39  0.0000000  0  7G13G15G18G 5G29G30G20
  20526757.926   107868840.52049      -314.188    20526757.472    84053640.35047
      -244.823  
  20457564.389   107505227.77949      1749.426    20457564.538    83770311.16648
      1363.187  
  20920343.641   109937148.16148      1830.769    20920343.827    85665312.27248
      1426.569  
  22295489.024   117163583.89348     -2837.448    22295489.484    91296300.89247
     -2211.003  
  22825318.640   119947855.43948     -3200.202    22825319.745    93465862.83446
     -2493.668  
  23890199.860   125543848.71147      -653.569    23890202.606    97826385.63546
      -509.276  
  23086952.575   121322761.92447      3098.363    23086953.096    94537221.38845
      2414.304  
 20  9 26  5 39  5.0000000  0  7G13G15G18G 5G29G30G20
  20527058.396   107870419.81449      -317.656    20527057.833    84054870.96448
      -247.526  
  20455901.220   107496487.73649      1746.430    20455901.227    83763500.74648
      1360.852  
  20918602.640   109927999.88748      1828.438    20918602.861    85658183.74748
      1424.753  
  22298189.303   117177773.70248     -2838.641    22298189.745    91307357.88347
     -2211.930  
  22828364.287   119963860.76648     -3202.065    22828365.585    93478334.50747
     -2495.120  
  23890822.886   125547122.95247      -656.531    23890825.607    97828936.99945
      -511.585  
  23084004.964   121307271.84147      3097.655    23084005.455    94525151.19746
      2413.754  
 20  9 26  5 39 10.0000000  0  7G13G15G18G 5G29G30G20
  20527362.270   107872016.39849      -321.034    20527361.851    84056115.05847
      -250.159  
  20454241.086   107487763.20249      1743.375    20454241.080    83756702.40948
      1358.473  
  20916864.110   109918863.78748      1826.026    20916864.335    85651064.71048
      1422.875  
  22300890.714   117191969.24548     -2839.737    22300891.186    91318419.33247
     -2212.785  
  22831411.848   119979875.18348     -3203.641    22831413.087    93490813.26846
     -2496.348  
  23891448.950   125550412.84747      -659.430    23891451.780    97831500.54346
      -513.844  
  23081058.073   121291785.54447      3096.918    23081058.300    94513083.96345
      2413.179  
 20  9 26  5 39 15.0000000  0  7G13G15G18G 5G29G30G20
  20527669.200   107873629.73549      -324.473    20527668.820    84057372.20047
      -252.839  
  20452583.638   107479053.62849      1740.445    20452583.611    83749915.72648
      1356.187  
  20915127.886   109909739.33948      1823.647    20915128.011    85643954.75348
      1421.023  
  22303593.083   117206170.00748     -2840.769    22303593.386    91329484.86047
     -2213.589  
  22834460.905   119995898.21248     -3205.429    22834462.058    93503298.73147
     -2497.742  
  23892077.858   125553717.90646      -662.491    23892080.638    97834075.92345
      -516.230  
  23078111.774   121276302.48447      3096.328    23078112.158    94501019.25745
      2412.719  
 20  9 26  5 39 20.0000000  0  7G13G15G18G 5G29G30G20
  20527979.385   107875259.83049      -327.858    20527978.957    84058642.40748
      -255.476  
  20450929.237   107470359.03549      1737.339    20450929.078    83743140.72348
      1353.769  
  20913393.735   109900626.53348      1821.359    20913393.863    85636853.86448
      1419.238  
  22306296.212   117220375.89348     -2841.745    22306296.781    91340554.37147
     -2214.352  
  22837511.514   120011929.83348     -3207.261    22837512.760    93515790.87847
     -2499.167  
  23892709.802   125557038.07446      -665.711    23892712.703    97836663.06345
      -518.737  
  23075166.032   121260822.68947      3095.382    23075166.507    94488957.08645
      2411.983  
 20  9 26  5 39 25.0000000  0  7G13G15G18G 5G29G30G20
  20528292.979   107876907.05649      -331.004    20528292.281    84059925.95047
      -257.929  
  20449277.489   107461679.72949      1734.608    20449277.484    83736377.62548
      1351.640  
  20911661.858   109891525.70848      1819.031    20911662.157    85629762.31648
      1417.421  
  22309000.686   117234587.15548     -2842.547    22309001.192    91351628.07447
     -2214.977  
  22840564.011   120027970.31348     -3208.679    22840565.150    93528289.96847
     -2500.272  
  23893344.418   125560373.66246      -668.308    23893347.404    97839262.21545
      -520.762  
  23072221.075   121245346.46147      3095.312    23072221.310    94476897.68845
      2411.930  
 20  9 26  5 39 30.0000000  0  7G13G15G18G 5G29G30G20
  20528609.620   107878571.89449      -334.602    20528609.245    84061223.24147
      -260.729  
  20447628.981   107453016.29549      1731.276    20447628.819    83729626.90048
      1349.043  
  20909932.472   109882437.44048      1816.531    20909932.663    85622680.54748
      1415.476  
  22311706.112   117248804.45048     -2843.863    22311706.568    91362706.48447
     -2216.000  
  22843618.231   120044020.22048     -3210.945    22843619.555    93540796.40146
     -2502.039  
  23893982.290   125563725.32547      -672.102    23893985.077    97841873.90745
      -523.719  
  23069276.821   121229874.43147      3094.078    23069277.084    94464841.57245
      2410.964  
 20  9 26  5 39 35.0000000  0  7G13G15G18G 5G29G30G20
  20528929.685   107880253.59549      -338.051    20528929.155    84062533.65647
      -263.418  
  20445983.348   107444368.02649      1728.047    20445983.086    83722887.99448
      1346.526  
  20908205.361   109873361.00948      1813.999    20908205.590    85615608.00548
      1413.503  
  22314412.691   117263027.02548     -2844.977    22314412.902    91373788.99947
     -2216.866  
  22846673.993   120060078.83048     -3212.722    22846675.370    93553309.57946
     -2503.422  
  23894623.002   125567092.19647      -674.922    23894625.870    97844497.44445
      -525.918  
  23066333.207   121214405.81847      3093.390    23066333.597    94452788.11045
      2410.430  
 20  9 26  5 39 40.0000000  0  7G13G15G18G 5G29G30G20
  20529252.975   107881952.24749      -341.461    20529252.482    84063857.28047
      -266.078  
  20444340.361   107435734.91449      1725.023    20444340.276    83716160.89948
      1344.171  
  20906480.322   109864296.45848      1811.663    20906480.496    85608544.72048
      1411.684  
  22317120.008   117277254.94748     -2846.050    22317120.483    91384875.68447
     -2217.707  
  22849731.655   120076146.13948     -3214.355    22849732.890    93565829.54946
     -2504.695  
  23895266.549   125570474.43646      -678.105    23895269.412    97847132.95345
      -528.398  
  23063390.318   121198940.70947      3092.680    23063390.566    94440737.38946
      2409.878  
 20  9 26  5 39 45.0000000  0  7G13G15G18G 5G29G30G20
  20529579.312   107883667.19149      -344.925    20529578.741    84065193.60247
      -268.777  
  20442700.424   107427116.36149      1721.953    20442700.389    83709445.14948
      1341.776  
  20904757.583   109855243.18448      1809.387    20904757.823    85601490.22248
      1409.909  
  22319828.474   117291487.53248     -2847.128    22319829.036    91395966.00747
     -2218.547  
  22852790.623   120092221.49648     -3215.886    22852791.852    93578355.79847
     -2505.891  
  23895912.973   125573871.32247      -680.930    23895915.786    97849779.87145
      -530.597  
  23060448.017   121183478.43647      3091.875    23060448.089    94428688.87646
      2409.250  
 20  9 26  5 39 50.0000000  0  7G13G15G18G 5G29G30G20
  20529908.886   107885399.92349      -348.190    20529908.423    84066543.78147
      -271.320  
  20441063.343   107418513.91349      1718.961    20441063.207    83702741.94448
      1339.445  
  20903037.121   109846202.69148      1806.800    20903037.344    85594445.67948
      1407.895  
  22322538.083   117305726.31248     -2848.085    22322538.531    91407061.15547
     -2219.289  
  22855851.501   120108306.42548     -3217.831    22855852.802    93590889.50146
     -2507.406  
  23896562.479   125577284.43347      -684.323    23896565.432    97852439.43746
      -533.242  
  23057506.462   121168020.52747      3091.234    23057506.584    94416643.74945
      2408.749  
 20  9 26  5 39 55.0000000  0  7G13G15G18G 5G29G30G20
  20530241.879   107887149.15949      -351.534    20530241.261    84067906.82047
      -273.926  
  20439429.313   107409926.25049      1716.000    20439429.183    83696050.26348
      1337.140  
  20901318.960   109837173.69248      1804.547    20901319.329    85587410.10148
      1406.136  
  22325248.429   117319969.99548     -2849.359    22325249.012    91418160.12147
     -2220.284  
  22858913.911   120124399.59648     -3219.551    22858915.181    93603429.62147
     -2508.741  
  23897214.796   125580712.41447      -687.160    23897217.745    97855110.61145
      -535.453  
  23054565.466   121152565.70747      3090.477    23054565.822    94404601.04045
      2408.159  
 20  9 26  5 40  0.0000000  0  7G13G15G18G 5G29G30G20
  20530577.932   107888915.62749      -354.988    20530577.547    84069283.29547
      -276.616  
  20437798.137   107401354.07649      1712.887    20437797.863    83689370.65648
      1334.714  
  20899603.086   109828156.90348      1802.245    20899603.506    85580384.03348
      1404.343  
  22327960.097   117334219.25048     -2850.457    22327960.472    91429263.44047
     -2221.136  
  22861978.035   120140501.70448     -3221.215    22861979.303    93615976.71946
     -2510.038  
  23897870.015   125584155.99147      -689.910    23897872.953    97857793.89446
      -537.594  
  23051625.227   121137114.67547      3089.780    23051625.492    94392561.28445
      2407.617  
 20  9 26  5 40  5.0000000  0  7G13G15G18G 5G29G30G20
  20530917.412   107890699.48549      -358.473    20530916.997    84070673.31547
      -279.332  
  20436169.814   107392797.62049      1709.687    20436169.700    83682703.28748
      1332.222  
  20897889.678   109819152.54148      1799.624    20897889.865    85573367.64648
      1402.301  
  22330672.755   117348474.24248     -2851.585    22330673.179    91440371.20847
     -2222.020  
  22865043.866   120156612.91148     -3223.090    22865045.102    93628530.90447
     -2511.499  
  23898528.440   125587615.38247      -693.526    23898531.323    97860489.52745
      -540.414  
  23048685.777   121121667.66647      3088.965    23048685.934    94380524.66445
      2406.979  
 20  9 26  5 40 10.0000000  0  7G13G15G18G 5G29G30G20
  20531259.929   107892499.92449      -361.559    20531259.600    84072076.24847
      -281.738  
  20434544.521   107384256.05549      1707.069    20434544.227    83676047.52748
      1330.180  
  20896178.362   109810159.79148      1797.531    20896178.686    85566360.31048
      1400.672  
  22333386.356   117362734.33948     -2852.304    22333386.616    91451482.96847
     -2222.578  
  22868111.424   120172732.41348     -3224.429    22868112.630    93641091.54146
     -2512.546  
  23899189.525   125591089.71547      -695.938    23899192.310    97863196.81345
      -542.293  
  23045746.873   121106223.84347      3088.703    23045747.066    94368490.51945
      2406.776  
 20  9 26  5 40 15.0000000  0  7G13G15G18G 5G29G30G20
  20531605.885   107894317.02949      -365.199    20531605.407    84073492.17647
      -284.574  
  20432921.895   107375729.47249      1703.633    20432921.688    83669403.43848
      1327.503  
  20894469.330   109801178.73648      1795.023    20894469.694    85559362.08748
      1398.714  
  22336100.903   117376999.47748     -2853.734    22336101.265    91462598.65547
     -2223.691  
  22871180.523   120188860.29448     -3226.410    22871181.607    93653658.70946
     -2514.090  
  23899853.685   125594579.12347      -699.534    23899856.366    97865915.82645
      -545.094  
  23042808.719   121090783.26847      3087.890    23042808.726    94356458.91445
      2406.144  
 20  9 26  5 40 20.0000000  0  7G13G15G18G 5G29G30G20
  20531954.878   107896151.65349      -368.547    20531954.371    84074921.75248
      -287.183  
  20431302.310   107367218.71749      1700.715    20431302.085    83662771.68448
      1325.230  
  20892762.773   109792210.25048      1792.565    20892762.911    85552373.65648
      1396.800  
  22338816.589   117391270.44048     -2854.659    22338816.876    91473718.88147
     -2224.413  
  22874251.289   120204997.36948     -3228.054    22874252.566    93666233.05347
     -2515.370  
  23900520.667   125598084.41547      -702.324    23900523.550    97868647.20545
      -547.269  
  23039871.168   121075346.80647      3086.871    23039871.342    94344430.50846
      2405.352  
 20  9 26  5 40 25.0000000  0  7G13G15G18G 5G29G30G20
  20532307.296   107898003.43849      -372.019    20532306.754    84076364.70047
      -289.886  
  20429685.778   107358723.49949      1697.565    20429685.652    83656152.03848
      1322.776  
  20891058.500   109783254.02048      1790.155    20891058.573    85545394.77348
      1394.922  
  22341533.219   117405546.92648     -2855.866    22341533.713    91484843.40647
     -2225.354  
  22877323.783   120221143.34248     -3229.890    22877324.963    93678814.31946
     -2516.801  
  23901190.689   125601605.31347      -705.749    23901193.442    97871390.77245
      -549.937  
  23036934.571   121059914.13447      3086.222    23036934.726    94332405.05445
      2404.844  
 20  9 26  5 40 30.0000000  0  7G13G15G18G 5G29G30G20
  20532662.759   107899871.62649      -375.500    20532662.327    84077820.43247
      -292.602  
  20428072.076   107350243.03049      1694.316    20428071.674    83649543.88248
      1320.241  
  20889356.311   109774309.26948      1787.602    20889356.430    85538424.84248
      1392.933  
  22344250.984   117419828.19148     -2857.085    22344251.277    91495971.65747
     -2226.304  
  22880397.784   120237297.38848     -3231.749    22880398.813    93691401.87746
     -2518.249  
  23901863.386   125605140.98647      -708.749    23901866.250    97874145.83645
      -552.276  
  23033998.322   121044484.50747      3085.464    23033998.322    94320381.97045
      2404.254  
 20  9 26  5 40 35.0000000  0  7G13G15G18G 5G29G30G20
  20533021.642   107901757.03849      -378.917    20533021.071    84079289.58347
      -295.265  
  20426461.247   107341778.13049      1691.272    20426460.859    83642947.86048
      1317.871  
  20887656.419   109765376.83848      1785.218    20887656.721    85531464.50748
      1391.077  
  22346969.683   117434115.01748     -2858.042    22346970.067    91507104.24047
     -2227.050  
  22883473.492   120253460.28248     -3233.684    22883474.630    93703996.33247
     -2519.757  
  23902539.355   125608692.28647      -711.832    23902542.285    97876913.08945
      -554.675  
  23031062.802   121029058.74547      3084.621    23031062.902    94308361.91646
      2403.597  
 20  9 26  5 40 40.0000000  0  7G13G15G18G 5G29G30G20
  20533383.587   107903659.66349      -382.167    20533383.250    84080772.14847
      -297.796  
  20424853.272   107333328.82349      1688.335    20424852.987    83636363.98848
      1315.581  
  20885958.988   109756456.74748      1782.730    20885959.193    85524513.78848
      1389.136  
  22349689.346   117448407.47648     -2858.878    22349689.862    91518241.22047
     -2227.699  
  22886550.946   120269632.03848     -3235.026    22886551.949    93716597.68947
     -2520.805  
  23903218.148   125612259.18247      -714.844    23903220.959    97879692.48846
      -557.022  
  23028128.067   121013636.86148      3084.141    23028128.209    94296344.87145
      2403.223  
 20  9 26  5 40 45.0000000  0  7G13G15G18G 5G29G30G20
  20533748.766   107905578.28749      -385.589    20533748.353    84082267.18347
      -300.461  
  20423248.130   107324893.93049      1685.105    20423248.040    83629791.34348
      1313.065  
  20884263.659   109747547.76348      1780.483    20884263.877    85517571.72348
      1387.386  
  22352409.980   117462704.28348     -2859.987    22352410.367    91529381.57847
     -2228.565  
  22889629.717   120285811.43248     -3236.961    22889630.976    93729205.01046
     -2522.308  
  23903899.603   125615840.53447      -717.925    23903902.548    97882483.13845
      -559.426  
  23025193.917   120998217.67147      3083.257    23025194.014    94284329.92545
      2402.535  
 20  9 26  5 40 50.0000000  0  7G13G15G18G 5G29G30G20
  20534117.376   107907515.18749      -389.136    20534116.871    84083776.45547
      -303.227  
  20421646.244   107316475.65349      1682.027    20421646.020    83623231.65248
      1310.667  
  20882570.995   109738652.19148      1777.921    20882571.229    85510640.11148
      1385.390  
  22355131.761   117477007.80748     -2861.188    22355132.373    91540527.17547
     -2229.500  
  22892710.392   120302000.70748     -3238.769    22892711.666    93741820.01447
     -2523.718  
  23904584.303   125619438.53047      -721.269    23904587.101    97885286.76745
      -562.030  
  23022260.709   120982803.40448      3082.520    23022260.739    94272318.81345
      2401.960  
 20  9 26  5 40 55.0000000  0  7G13G15G18G 5G29G30G20
  20534488.999   107909468.48649      -392.137    20534488.580    84085298.50647
      -305.562  
  20420047.197   107308072.22649      1679.359    20420046.932    83616683.52848
      1308.590  
  20880880.417   109729768.20648      1775.878    20880880.555    85503717.52248
      1383.796  
  22357854.675   117491316.12948     -2861.870    22357855.102    91551676.51347
     -2230.031  
  22895792.777   120318198.02848     -3240.007    22895793.844    93754441.29847
     -2524.684  
  23905271.859   125623051.37847      -724.035    23905274.552    97888101.98345
      -564.187  
  23019328.087   120967392.27947      3082.003    23019328.270    94260310.15545
      2401.558  
 20  9 26  5 41  0.0000000  0  7G13G15G18G 5G29G30G20
  20534863.887   107911438.10149      -395.628    20534863.446    84086833.27148
      -308.285  
  20418450.827   107299683.55749      1676.151    20418450.537    83610146.90348
      1306.090  
  20879191.957   109720895.75548      1773.250    20879192.085    85496803.92748
      1381.750  
  22360578.333   117505629.14648     -2863.219    22360578.769    91562829.50847
     -2231.082  
  22898876.511   120334403.35148     -3242.062    22898877.467    93767068.81247
     -2526.285  
  23905962.015   125626678.98447      -727.046    23905964.910    97890928.69745
      -566.534  
  23016396.044   120951984.19447      3081.265    23016396.051    94248303.86245
      2400.984  
 20  9 26  5 41  5.0000000  0  7G13G15G18G 5G29G30G20
  20535241.991   107913425.20749      -399.152    20535241.496    84088381.66648
      -311.031  
  20416857.488   107291310.82049      1672.949    20416857.306    83603622.70048
      1303.594  
  20877505.957   109712035.98648      1770.703    20877506.288    85489900.21048
      1379.765  
  22363302.992   117519947.98048     -2864.296    22363303.680    91573987.03147
     -2231.921  
  22901961.953   120350617.73648     -3243.758    22901963.083    93779703.39546
     -2527.605  
  23906655.434   125630322.52447      -730.323    23906658.213    97893767.81345
      -569.085  
  23013464.733   120936580.33347      3080.151    23013464.803    94236300.86345
      2400.116  
 20  9 26  5 41 10.0000000  0  7G13G15G18G 5G29G30G20
  20535623.348   107915429.28449      -402.547    20535622.966    84089943.28447
      -313.675  
  20415267.188   107282953.45549      1669.894    20415266.998    83597110.46648
      1301.215  
  20875822.427   109703188.35348      1768.210    20875822.449    85483005.95448
      1377.824  
  22366028.958   117534272.18648     -2865.383    22366029.325    91585148.74647
     -2232.770  
  22905049.105   120366840.70948     -3245.472    22905050.163    93792344.65946
     -2528.941  
  23907351.720   125633981.40547      -733.625    23907354.438    97896618.89545
      -571.660  
  23010534.253   120921180.08547      3079.491    23010534.225    94224300.66745
      2399.601  
 20  9 26  5 41 15.0000000  0  7G13G15G18G 5G29G30G20
  20536007.946   107917450.23249      -405.886    20536007.578    84091518.04948
      -316.277  
  20413679.769   107274611.41949      1666.976    20413679.630    83590610.17848
      1298.940  
  20874140.992   109694352.79148      1765.901    20874141.312    85476121.10548
      1376.022  
  22368755.670   117548601.62348     -2866.354    22368756.171    91596314.53747
     -2233.527  
  22908137.958   120383072.14448     -3247.012    22908138.946    93804992.52346
     -2530.140  
  23908050.840   125637655.58747      -736.418    23908053.563    97899481.88445
      -573.835  
  23007604.303   120905783.50347      3078.882    23007604.439    94212303.34145
      2399.124  
 20  9 26  5 41 20.0000000  0  7G13G15G18G 5G29G30G20
  20536395.765   107919488.42249      -409.457    20536395.386    84093106.24847
      -319.062  
  20412095.356   107266285.08349      1663.730    20412095.205    83584122.12848
      1296.409  
  20872462.050   109685529.70248      1763.410    20872462.113    85469245.96948
      1374.082  
  22371483.537   117562936.62848     -2867.573    22371484.007    91607484.66447
     -2234.477  
  22911228.318   120399312.40948     -3249.066    22911229.419    93817647.27347
     -2531.741  
  23908752.984   125641345.43847      -739.542    23908755.877    97902357.08645
      -576.270  
  23004675.095   120890390.94247      3078.120    23004675.378    94200309.13545
      2398.531  
 20  9 26  5 41 25.0000000  0  7G13G15G18G 5G29G30G20
  20536786.821   107921543.34149      -412.636    20536786.355    84094707.48247
      -321.539  
  20410513.640   107257973.89049      1660.780    20410513.439    83577645.87548
      1294.112  
  20870785.378   109676718.54148      1760.984    20870785.618    85462380.13048
      1372.190  
  22374212.341   117577276.71448     -2868.563    22374212.833    91618658.75347
     -2235.246  
  22914320.227   120415560.90548     -3250.246    22914321.355    93830308.42447
     -2532.664  
  23909458.043   125645050.39546      -742.526    23909460.955    97905244.04345
      -578.597  
  23001746.675   120875001.80147      3077.292    23001746.796    94188317.61345
      2397.887  
 20  9 26  5 41 30.0000000  0  7G13G15G18G 5G29G30G20
  20537181.107   107923615.36249      -415.855    20537180.755    84096322.04747
      -324.047  
  20408935.145   107249678.21749      1657.788    20408934.856    83571181.71648
      1291.781  
  20869110.973   109667919.67148      1758.847    20869111.067    85455523.87348
      1370.527  
  22376942.309   117591622.23248     -2869.445    22376942.868    91629837.06847
     -2235.934  
  22917414.035   120431818.04048     -3252.277    22917415.021    93842976.31046
     -2534.246  
  23910165.924   125648770.83247      -745.312    23910168.881    97908143.10145
      -580.766  
  22998819.021   120859616.41047      3076.870    22998819.232    94176329.00946
      2397.559  
 20  9 26  5 41 35.0000000  0  7G13G15G18G 5G29G30G20
  20537578.458   107925703.48449      -419.207    20537578.112    84097949.15547
      -326.655  
  20407359.298   107241397.14949      1654.608    20407358.968    83564728.93648
      1289.304  
  20867438.839   109659132.17748      1756.438    20867438.968    85448676.47148
      1368.647  
  22379673.015   117605972.18648     -2870.417    22379673.381    91641018.84647
     -2236.691  
  22920508.984   120448082.79648     -3253.843    22920510.184    93855650.14247
     -2535.464  
  23910876.680   125652505.78846      -748.602    23910879.561    97911053.46446
      -583.327  
  22995891.748   120844233.86347      3076.184    22995891.880    94164342.61645
      2397.023  
 20  9 26  5 41 40.0000000  0  7G13G15G18G 5G29G30G20
  20537979.222   107927809.01749      -422.773    20537978.628    84099589.82947
      -329.438  
  20405786.334   107233131.91649      1651.519    20405786.253    83558288.49548
      1286.895  
  20865768.996   109650357.34348      1753.785    20865769.044    85441838.94148
      1366.581  
  22382404.699   117620327.84848     -2871.726    22382405.369    91652205.06647
     -2237.710  
  22923605.832   120464356.49748     -3255.413    22923606.767    93868330.94546
     -2536.691  
  23911590.470   125656256.56246      -751.745    23911593.393    97913976.14346
      -585.780  
  22992965.414   120828855.49847      3075.246    22992965.483    94152359.48145
      2396.293  
 20  9 26  5 41 45.0000000  0  7G13G15G18G 5G29G30G20
  20538383.219   107929932.34449      -426.410    20538382.806    84101244.36847
      -332.270  
  20404216.602   107224882.92149      1648.229    20404216.469    83551860.70848
      1284.332  
  20864101.634   109641595.54548      1751.055    20864101.813    85435011.56448
      1364.452  
  22385137.719   117634689.68448     -2872.910    22385138.350    91663396.10247
     -2238.633  
  22926704.406   120480639.48548     -3257.515    22926705.344    93881018.97447
     -2538.328  
  23912307.289   125660023.53146      -754.952    23912310.168    97916911.43645
      -588.276  
  22990039.838   120813481.61447      3074.594    22990039.816    94140379.83245
      2395.784  
 20  9 26  5 41 50.0000000  0  7G13G15G18G 5G29G30G20
  20538790.461   107932072.16549      -429.546    20538789.910    84102911.76447
      -334.715  
  20402649.709   107216648.93649      1645.479    20402649.610    83545444.61948
      1282.188  
  20862436.543   109632845.55748      1749.046    20862436.778    85428193.39948
      1362.891  
  22387871.681   117649056.37348     -2873.729    22387872.033    91674590.92247
     -2239.273  
  22929804.499   120496930.49148     -3258.956    22929805.586    93893713.26247
     -2539.448  
  23913026.959   125663805.42647      -757.495    23913029.808    97919858.36845
      -590.261  
  22987115.033   120798111.03547      3073.972    22987114.880    94128402.76845
      2395.300  
 20  9 26  5 41 55.0000000  0  7G13G15G18G 5G29G30G20
  20539200.729   107934228.08049      -432.957    20539200.188    84104591.69247
      -337.370  
  20401085.691   107208429.56049      1642.323    20401085.438    83539039.91248
      1279.730  
  20860773.573   109624106.96548      1746.437    20860773.978    85421384.10848
      1360.855  
  22390606.409   117663427.47048     -2874.813    22390606.934    91685789.16647
     -2240.117  
  22932906.101   120513229.08248     -3260.526    22932907.117    93906413.45046
     -2540.676  
  23913749.247   125667601.85347      -760.823    23913752.135    97922816.61245
      -592.852  
  22984190.584   120782743.33147      3073.140    22984190.468    94116427.94846
      2394.652  
 20  9 26  5 42  0.0000000  0  7G13G15G18G 5G29G30G20
  20539614.260   107936401.38449      -436.414    20539613.861    84106285.17747
      -340.066  
  20399524.705   107200226.05549      1639.227    20399524.440    83532647.57248
      1277.316  
  20859113.269   109615381.07048      1743.933    20859113.343    85414584.70848
      1358.906  
  22393342.288   117677804.29648     -2875.851    22393342.576    91696991.88247
     -2240.925  
  22936009.225   120529536.54948     -3262.491    22936010.309    93919120.56246
     -2542.203  
  23914474.845   125671414.05347      -764.022    23914477.629    97925787.17345
      -595.348  
  22981266.905   120767379.82348      3072.406    22981267.012    94104456.38445
      2394.077  
 20  9 26  5 42  5.0000000  0  7G13G15G18G 5G29G30G20
  20540031.036   107938591.99549      -439.667    20540030.751    84107992.14848
      -342.602  
  20397966.581   107192038.39949      1636.234    20397966.366    83526267.58448
      1274.983  
  20857455.055   109606667.81948      1741.577    20857455.412    85407795.16348
      1357.070  
  22396079.068   117692186.73248     -2876.706    22396079.415    91708198.96647
     -2241.594  
  22939114.068   120545852.76648     -3263.879    22939115.194    93931834.48547
     -2543.284  
  23915203.318   125675242.01647      -767.074    23915205.820    97928769.99045
      -597.722  
  22978344.179   120752020.42048      3071.780    22978344.292    94092488.02045
      2393.593  
 20  9 26  5 42 10.0000000  0  7G13G15G18G 5G29G30G20
  20540451.216   107940799.05449      -443.124    20540450.550    84109711.93448
      -345.296  
  20396411.301   107183865.72549      1632.969    20396411.220    83519899.27148
      1272.441  
  20855799.290   109597966.37148      1739.120    20855799.421    85401014.81548
      1355.155  
  22398817.022   117706574.03048     -2878.019    22398817.264    91719409.84447
     -2242.617  
  22942220.442   120562176.96448     -3265.602    22942221.583    93944554.63047
     -2544.629  
  23915934.431   125679084.85547      -770.160    23915937.239    97931764.40445
      -600.128  
  22975422.037   120736664.30548      3070.882    22975422.076    94080522.22545
      2392.891  
 20  9 26  5 42 15.0000000  0  7G13G15G18G 5G29G30G20
  20540874.424   107943023.08949      -446.445    20540873.762    84111444.95047
      -347.882  
  20394859.079   107175708.55749      1629.941    20394859.017    83513543.03748
      1270.081  
  20854145.810   109589277.27348      1736.573    20854146.125    85394244.09148
      1353.172  
  22401555.759   117720966.72348     -2878.917    22401556.100    91730624.92147
     -2243.315  
  22945328.525   120578509.57948     -3267.409    22945329.657    93957281.33046
     -2546.034  
  23916668.819   125682943.09346      -772.914    23916671.290    97934770.81545
      -602.273  
  22972500.454   120721311.99848      3070.233    22972500.602    94068559.40145
      2392.387  
 20  9 26  5 42 20.0000000  0  7G13G15G18G 5G29G30G20
  20541300.698   107945263.73849      -449.684    20541300.151    84113190.90747
      -350.405  
  20393309.715   107167566.56449      1626.940    20393309.495    83507198.63048
      1267.741  
  20852494.618   109580600.16848      1734.254    20852494.766    85387482.71148
      1351.363  
  22404295.622   117735364.36248     -2879.979    22404295.901    91741843.85347
     -2244.145  
  22948438.127   120594850.30348     -3269.074    22948439.215    93970014.35646
     -2547.331  
  23917405.866   125686816.39247      -776.098    23917408.348    97937788.97745
      -604.754  
  22969579.827   120705963.12548      3069.547    22969579.808    94056599.23845
      2391.851  
 20  9 26  5 42 25.0000000  0  7G13G15G18G 5G29G30G20
  20541730.400   107947521.37049      -453.300    20541729.962    84114950.10148
      -353.223  
  20391763.377   107159440.15749      1623.703    20391763.136    83500866.36348
      1265.218  
  20850845.721   109571935.43848      1731.710    20850845.877    85380730.97548
      1349.382  
  22407036.412   117749767.34248     -2881.315    22407036.650    91753066.95147
     -2245.183  
  22951549.267   120611199.45748     -3270.633    22951550.241    93982753.95747
     -2548.546  
  23918145.914   125690705.12147      -779.229    23918148.554    97940819.14945
      -607.194  
  22966659.770   120690618.09248      3068.359    22966659.763    94044642.07746
      2390.925  
 20  9 26  5 42 30.0000000  0  7G13G15G18G 5G29G30G20
  20542163.138   107949795.42249      -456.547    20542162.715    84116722.08947
      -355.754  
  20390219.715   107151328.68849      1620.737    20390219.469    83494545.74248
      1262.909  
  20849199.084   109563282.52148      1729.405    20849199.413    85373988.44648
      1347.585  
  22409778.176   117764175.03048     -2881.934    22409778.394    91764293.71447
     -2245.664  
  22954661.915   120627556.40848     -3272.316    22954662.932    93995499.62646
     -2549.859  
  23918888.672   125694608.68647      -782.270    23918891.174    97943860.89945
      -609.563  
  22963740.282   120675276.29647      3068.035    22963740.211    94032687.44146
      2390.671  
 20  9 26  5 42 35.0000000  0  7G13G15G18G 5G29G30G20
  20542599.102   107952086.58549      -460.190    20542598.633    84118507.41247
      -358.594  
  20388679.288   107143233.03649      1617.370    20388678.986    83488237.43948
      1260.284  
  20847554.939   109554642.10548      1726.703    20847555.150    85367255.65348
      1345.480  
  22412520.871   117778588.24148     -2883.379    22412521.120    91775524.78347
     -2246.793  
  22957776.088   120643921.87048     -3274.121    22957777.140    94008251.91147
     -2551.265  
  23919634.414   125698527.77446      -785.522    23919637.001    97946914.72045
      -612.097  
  22960821.555   120659938.44148      3067.085    22960821.400    94020735.86445
      2389.933  
 20  9 26  5 42 40.0000000  0  7G13G15G18G 5G29G30G20
  20543038.496   107954395.33749      -463.254    20543037.974    84120306.43947
      -360.980  
  20387141.706   107135153.54849      1614.499    20387141.421    83481941.74148
      1258.047  
  20845913.089   109546014.71948      1724.382    20845913.566    85360533.01748
      1343.672  
  22415264.753   117793007.40648     -2884.191    22415265.064    91786760.49147
     -2247.425  
  22960892.172   120660296.31448     -3275.644    22960893.207    94021011.21447
     -2552.453  
  23920383.214   125702462.89946      -788.496    23920385.939    97949981.05845
      -614.413  
  22957903.755   120644605.05048      3066.433    22957903.623    94008787.77446
      2389.425  
 20  9 26  5 42 45.0000000  0  7G13G15G18G 5G29G30G20
  20543480.930   107956720.90249      -466.793    20543480.468    84122118.56748
      -363.738  
  20385607.172   107127089.45449      1611.219    20385607.051    83475658.03748
      1255.491  
  20844273.687   109537399.60648      1721.734    20844273.951    85353819.94048
      1341.608  
  22418009.555   117807431.72348     -2885.405    22418009.994    91798000.20947
     -2248.371  
  22964009.555   120676678.99548     -3277.469    22964010.580    94033776.93246
     -2553.875  
  23921135.038   125706413.26046      -791.589    23921137.659    97953059.25445
      -616.827  
  22954986.562   120629275.37547      3065.547    22954986.530    93996842.58046
      2388.734  
 20  9 26  5 42 50.0000000  0  7G13G15G18G 5G29G30G20
  20543926.797   107959063.07449      -470.078    20543926.161    84123943.63948
      -366.296  
  20384075.489   107119040.47249      1608.468    20384075.367    83469386.10848
      1253.347  
  20842636.592   109528796.48448      1719.616    20842637.015    85347116.21348
      1339.957  
  22420755.315   117821860.88348     -2886.272    22420755.655    91809243.70347
     -2249.047  
  22967128.644   120693069.60648     -3278.878    22967129.631    94046548.82946
     -2554.973  
  23921889.524   125710378.67446      -794.504    23921892.238    97956149.19245
      -619.098  
  22952070.121   120613949.15647      3064.987    22952070.188    93984900.08246
      2388.300  
 20  9 26  5 42 55.0000000  0  7G13G15G18G 5G29G30G20
  20544375.680   107961422.53249      -473.691    20544375.242    84125782.17547
      -369.113  
  20382546.853   107111007.36949      1605.124    20382546.605    83463126.55148
      1250.742  
  20841001.967   109520206.09948      1716.809    20841002.289    85340422.40948
      1337.770  
  22423502.223   117836295.60748     -2887.422    22423502.520    91820491.53047
     -2249.941  
  22970249.294   120709468.85648     -3280.515    22970250.417    94059327.45546
     -2556.249  
  23922647.082   125714359.76146      -797.781    23922649.852    97959251.34145
      -621.652  
  22949154.428   120598627.12047      3063.917    22949154.311    93972960.83546
      2387.464  
 20  9 26  5 43  0.0000000  0  7G13G15G18G 5G29G30G20
  20544827.821   107963798.27249      -476.925    20544827.289    84127633.38648
      -371.633  
  20381021.065   107102989.17549      1601.922    20381020.781    83456878.61948
      1248.245  
  20839369.450   109511627.51048      1714.319    20839369.759    85333737.78448
      1335.831  
  22426249.876   117850734.99748     -2888.582    22426250.150    91831742.98947
     -2250.848  
  22973371.455   120725875.79647     -3282.410    22973372.671    94072112.09846
     -2557.726  
  23923407.478   125718355.60646      -800.563    23923410.092    97962364.98846
      -623.815  
  22946239.314   120583308.31147      3063.234    22946239.392    93961024.10346
      2386.934  
 20  9 26  5 43  5.0000000  0  7G13G15G18G 5G29G30G20
  20545283.198   107966191.04549      -480.184    20545282.485    84129497.90348
      -374.172  
  20379498.153   107094986.62449      1598.956    20379497.876    83450642.86148
      1245.937  
  20837739.413   109503061.45148      1712.000    20837739.658    85327062.94648
      1334.022  
  22428998.667   117865179.76748     -2889.354    22428998.992    91842998.66347
     -2251.449  
  22976495.331   120742291.12648     -3283.934    22976496.368    94084903.23747
     -2558.914  
  23924170.782   125722366.95147      -803.737    23924173.499    97965490.70145
      -626.293  
  22943324.955   120567993.43447      3062.671    22943325.018    93949090.44946
      2386.495  
 20  9 26  5 43 10.0000000  0  7G13G15G18G 5G29G30G20
  20545741.818   107968601.19849      -483.969    20545741.121    84131375.94047
      -377.121  
  20377978.478   107087000.11949      1595.648    20377978.136    83444419.62048
      1243.358  
  20836111.806   109494508.28948      1709.155    20836112.228    85320398.14548
      1331.809  
  22431748.608   117879630.24648     -2890.772    22431748.809    91854258.76547
     -2252.555  
  22979620.733   120758715.22648     -3285.926    22979621.776    94097701.22846
     -2560.465  
  23924937.271   125726394.10047      -806.964    23924939.850    97968628.71745
      -628.808  
  22940411.344   120552682.87147      3061.515    22940411.567    93937160.13446
      2385.594  
 20  9 26  5 43 15.0000000  0  7G13G15G18G 5G29G30G20
  20546203.473   107971027.61949      -486.754    20546202.923    84133266.66048
      -379.293  
  20376461.446   107079028.53049      1592.922    20376461.094    83438207.99548
      1241.233  
  20834486.316   109485966.93448      1707.124    20834486.764    85313742.54648
      1330.223  
  22434499.305   117894085.31748     -2891.375    22434499.592    91865522.45147
     -2253.023  
  22982747.467   120775146.91548     -3286.969    22982748.673    94110505.13346
     -2561.277  
  23925706.250   125730435.98546      -809.875    23925709.117    97971778.26845
      -631.074  
  22937498.498   120537375.60747      3060.987    22937498.648    93925232.40846
      2385.184  
 20  9 26  5 43 20.0000000  0  7G13G15G18G 5G29G30G20
  20546668.361   107973470.31149      -490.375    20546667.882    84135170.05748
      -382.112  
  20374947.267   107071071.83849      1589.702    20374947.001    83432007.97548
      1238.726  
  20832863.315   109477437.32148      1704.484    20832863.753    85307096.09048
      1328.167  
  22437250.770   117908544.95548     -2892.492    22437251.076    91876789.69147
     -2253.895  
  22985875.883   120791586.16448     -3288.886    22985876.788    94123314.92647
     -2562.773  
  23926478.320   125734492.55446      -812.870    23926481.107    97974939.21945
      -633.409  
  22934586.212   120522071.53447      3060.191    22934586.428    93913307.16445
      2384.563  
 20  9 26  5 43 25.0000000  0  7G13G15G18G 5G29G30G20
  20547136.485   107975930.32149      -493.633    20547135.784    84137086.94547
      -384.651  
  20373436.309   107063131.14249      1586.750    20373436.067    83425820.42248
      1236.426  
  20831242.581   109468920.58748      1702.160    20831242.906    85300459.67848
      1326.354  
  22440003.570   117923010.36248     -2893.652    22440003.810    91888061.43047
     -2254.796  
  22989005.867   120808034.06348     -3290.300    22989006.848    94136131.46746
     -2563.874  
  23927253.188   125738564.91747      -816.097    23927255.995    97978112.47545
      -635.921  
  22931674.685   120506771.66647      3059.960    22931674.890    93901385.18646
      2384.383  
 20  9 26  5 43 30.0000000  0  7G13G15G18G 5G29G30G20
  20547607.838   107978407.23449      -497.112    20547607.340    84139017.01147
      -387.362  
  20371928.216   107055206.02849      1583.418    20371928.061    83419645.01348
      1233.827  
  20829624.327   109460416.32148      1699.604    20829624.529    85293832.97748
      1324.362  
  22442757.102   117937480.99048     -2894.733    22442757.531    91899337.23647
     -2255.640  
  22992137.343   120824490.17248     -3292.089    22992138.383    94148954.39547
     -2565.270  
  23928031.106   125742652.62146      -819.128    23928033.802    97981297.71646
      -638.284  
  22928763.950   120491475.65447      3058.851    22928764.090    93889466.22646
      2383.515  
 20  9 26  5 43 35.0000000  0  7G13G15G18G 5G29G30G20
  20548082.442   107980901.23049      -500.332    20548081.855    84140960.38348
      -389.870  
  20370422.988   107047296.71749      1580.429    20370422.763    83413481.91548
      1231.499  
  20828008.360   109451924.73248      1697.109    20828008.840    85287216.15748
      1322.417  
  22445511.999   117951957.01148     -2895.729    22445512.225    91910617.24646
     -2256.418  
  22995270.320   120840954.70248     -3293.461    22995271.348    94161783.89246
     -2566.336  
  23928811.885   125746755.83446      -822.086    23928814.804    97984495.00445
      -640.590  
  22925853.970   120476183.69747      3058.008    22925854.039    93877550.43145
      2382.858  
 20  9 26  5 43 40.0000000  0  7G13G15G18G 5G29G30G20
  20548560.260   107983412.02649      -503.394    20548559.529    84142916.84748
      -392.258  
  20368920.800   107039402.88749      1577.594    20368920.641    83407330.88348
      1229.289  
  20826394.857   109443445.49948      1694.961    20826395.112    85280608.96048
      1320.745  
  22448267.624   117966438.10548     -2896.402    22448267.876    91921901.20847
     -2256.941  
  22998405.035   120857427.33848     -3295.082    22998406.054    94174619.70846
     -2567.597  
  23929595.680   125750874.32947      -824.988    23929598.476    97987704.23245
      -642.852  
  22922944.752   120460895.49647      3057.737    22922944.746    93865637.54745
      2382.647  
 20  9 26  5 43 45.0000000  0  7G13G15G18G 5G29G30G20
  20549040.948   107985938.96549      -507.269    20549040.366    84144885.89147
      -395.276  
  20367421.460   107031523.92549      1574.034    20367421.439    83401191.43248
      1226.519  
  20824783.634   109434978.02648      1692.089    20824783.829    85274010.93248
      1318.507  
  22451024.002   117980923.68748     -2897.765    22451024.281    91933188.66647
     -2258.003  
  23001541.088   120873907.37348     -3296.910    23001542.266    94187461.28546
     -2569.023  
  23930382.145   125755007.44647      -828.340    23930384.874    97990924.83745
      -645.461  
  22920036.130   120445610.46047      3056.429    22920036.155    93853727.13646
      2381.628  
 20  9 26  5 43 50.0000000  0  7G13G15G18G 5G29G30G20
  20549525.042   107988482.86549      -510.304    20549524.630    84146868.15047
      -397.645  
  20365925.178   107023660.66149      1571.108    20365925.171    83395064.21248
      1224.238  
  20823174.701   109426523.12048      1689.836    20823174.969    85267422.69848
      1316.754  
  22453781.541   117995414.56048     -2898.683    22453781.900    91944480.24947
     -2258.718  
  23004678.668   120890395.62348     -3298.257    23004679.874    94200309.26446
     -2570.073  
  23931171.456   125759155.96046      -831.121    23931174.396    97994157.45445
      -647.628  
  22917128.242   120430329.37647      3055.968    22917128.065    93841819.80546
      2381.269  
 20  9 26  5 43 55.0000000  0  7G13G15G18G 5G29G30G20
  20550012.380   107991043.84549      -513.706    20550011.831    84148863.72148
      -400.292  
  20364431.951   107015813.19949      1567.961    20364431.833    83388949.30848
      1221.784  
  20821568.062   109418080.92548      1687.313    20821568.549    85260844.36448
      1314.784  
  22456540.026   118009910.80648     -2899.684    22456540.496    91955776.01747
     -2259.496  
  23007817.944   120906892.19248     -3300.183    23007818.942    94213163.72546
     -2571.574  
  23931963.860   125763319.98147      -834.113    23931966.818    97997402.13345
      -649.960  
  22914221.134   120415052.35447      3055.477    22914220.999    93829915.63845
      2380.886  
 20  9 26  5 44  0.0000000  0  7G13G15G18G 5G29G30G20
  20550502.956   107993621.67849      -517.289    20550502.460    84150872.42148
      -403.086  
  20362941.565   107007981.29649      1564.680    20362941.442    83382846.52948
      1219.227  
  20819964.079   109409651.22348      1684.597    20819964.346    85254275.76548
      1312.671  
  22459299.671   118024412.21548     -2900.952    22459299.852    91967075.80947
     -2260.484  
  23010958.565   120923396.86348     -3301.659    23010959.736    94226024.50047
     -2572.727  
  23932759.292   125767499.34547      -837.382    23932762.075    98000658.79845
      -652.508  
  22911314.785   120399779.26547      3054.227    22911314.644    93818014.53645
      2379.914  
 20  9 26  5 44  5.0000000  0  7G13G15G18G 5G29G30G20
  20550996.779   107996216.51849      -520.593    20550996.258    84152894.37748
      -405.659  
  20361454.234   107000165.19249      1561.754    20361454.202    83376756.06148
      1216.949  
  20818362.389   109401234.18848      1682.261    20818362.814    85247717.04048
      1310.852  
  22462060.072   118038918.97148     -2901.874    22462060.379    91978379.76847
     -2261.203  
  23014100.888   120939909.84848     -3303.362    23014101.997    94238891.75347
     -2574.051  
  23933557.560   125771694.17747      -840.409    23933560.420    98003927.47945
      -654.867  
  22908409.150   120384510.23547      3053.491    22908409.052    93806116.59345
      2379.339  
 20  9 26  5 44 10.0000000  0  7G13G15G18G 5G29G30G20
  20551493.826   107998828.24049      -523.887    20551493.243    84154929.48048
      -408.226  
  20359969.753   106992364.75549      1558.632    20359969.653    83370677.80148
      1214.515  
  20816762.975   109392829.71048      1679.726    20816763.487    85241168.09748
      1308.875  
  22464821.606   118053430.93048     -2902.785    22464821.889    91989687.78147
     -2261.913  
  23017244.720   120956430.92348     -3304.887    23017245.956    94251765.30346
     -2575.237  
  23934358.730   125775904.35847      -843.520    23934361.638    98007208.14745
      -657.292  
  22905504.315   120369245.13247      3052.508    22905504.196    93794221.72346
      2378.574  
 20  9 26  5 44 15.0000000  0  7G13G15G18G 5G29G30G20
  20551993.916   108001456.57449      -527.194    20551993.384    84156977.53547
      -410.805  
  20358488.309   106984579.68049      1555.559    20358488.279    83364611.50948
      1212.121  
  20815166.034   109384437.51148      1677.397    20815166.367    85234628.72048
      1307.058  
  22467584.079   118067947.82048     -2903.815    22467584.391    92000999.63946
     -2262.719  
  23020390.064   120972959.85048     -3306.530    23020391.176    94264644.98446
     -2576.520  
  23935162.699   125780129.61847      -846.426    23935165.525    98010500.55146
      -659.555  
  22902600.020   120353983.67647      3051.940    22902600.054    93782329.68546
      2378.133  
 20  9 26  5 44 20.0000000  0  7G13G15G18G 5G29G30G20
  20552497.235   108004101.53049      -530.397    20552496.694    84159038.53847
      -413.301  
  20357009.922   106976810.02049      1552.636    20357009.833    83358557.23748
      1209.844  
  20813571.384   109376057.63148      1675.069    20813571.691    85228098.94348
      1305.245  
  22470347.518   118082469.66748     -2904.637    22470347.904    92012315.35747
     -2263.354  
  23023536.941   120989496.58248     -3307.999    23023538.084    94277530.73446
     -2577.663  
  23935969.581   125784369.96846      -849.218    23935972.440    98013804.70446
      -661.729  
  22899696.527   120338725.87547      3051.430    22899696.614    93770440.49046
      2377.733  
 20  9 26  5 44 25.0000000  0  7G13G15G18G 5G29G30G20
  20553003.809   108006763.68749      -533.988    20553003.179    84161112.94648
      -416.097  
  20355534.380   106969056.33949      1549.410    20355534.319    83352515.41148
      1207.327  
  20811979.195   109367690.65448      1672.272    20811979.692    85221579.22548
      1303.066  
  22473112.080   118096997.04048     -2905.808    22473112.361    92023635.37947
     -2264.270  
  23026685.377   121006041.72448     -3309.605    23026686.724    94290423.04546
     -2578.917  
  23936779.471   125788625.96946      -852.437    23936782.462    98017121.07746
      -664.238  
  22896793.990   120323472.31347      3050.578    22896793.931    93758554.61546
      2377.069  
 20  9 26  5 44 30.0000000  0  7G13G15G18G 5G29G30G20
  20553513.429   108009441.54349      -537.198    20553512.849    84163199.58647
      -418.601  
  20354061.704   106961317.12349      1546.413    20354061.497    83346484.85948
      1204.995  
  20810389.287   109359335.09848      1669.862    20810389.631    85215068.40848
      1301.187  
  22475877.217   118111528.42948     -2906.734    22475877.546    92034958.53647
     -2264.991  
  23029835.115   121022593.77148     -3311.062    23029836.320    94303320.73647
     -2580.051  
  23937592.212   125792896.10546      -855.668    23937594.946    98020448.44046
      -666.758  
  22893891.805   120308221.57247      3049.965    22893891.759    93746670.92346
      2376.594  
 20  9 26  5 44 35.0000000  0  7G13G15G18G 5G29G30G20
  20554026.268   108012136.90349      -540.605    20554025.698    84165299.86647
      -421.253  
  20352592.069   106953594.20149      1543.112    20352592.081    83340467.00348
      1202.422  
  20808801.668   109350992.76248      1667.277    20808802.029    85208567.88348
      1299.176  
  22478643.504   118126065.64748     -2907.809    22478643.960    92046286.22846
     -2265.828  
  23032986.561   121039154.48347     -3312.879    23032987.885    94316225.18046
     -2581.468  
  23938407.829   125797182.23246      -858.526    23938410.618    98023788.29145
      -668.984  
  22890990.571   120292975.45747      3048.703    22890990.559    93734790.83645
      2375.608  
 20  9 26  5 44 40.0000000  0  7G13G15G18G 5G29G30G20
  20554542.534   108014849.05749      -544.000    20554541.950    84167413.23647
      -423.897  
  20351125.279   106945886.88649      1540.062    20351125.367    83334461.30448
      1200.046  
  20807216.513   109342662.99848      1664.769    20807217.111    85202077.15748
      1297.218  
  22481410.949   118140608.01248     -2909.019    22481411.126    92057617.93446
     -2266.772  
  23036139.527   121055723.18247     -3314.507    23036140.649    94329135.84746
     -2582.738  
  23939226.313   125801483.64746      -861.703    23939229.256    98027140.04046
      -671.460  
  22888090.079   120277733.20447      3048.272    22888090.126    93722913.76745
      2375.273  
 20  9 26  5 44 45.0000000  0  7G13G15G18G 5G29G30G20
  20555061.842   108017578.13149      -547.515    20555061.152    84169539.78447
      -426.640  
  20349661.750   106938195.29949      1536.644    20349661.578    83328467.86548
      1197.383  
  20805633.842   109334345.91348      1662.254    20805634.377    85195596.31548
      1295.257  
  22484179.141   118155155.55448     -2910.069    22484179.460    92068953.67646
     -2267.590  
  23039293.846   121072299.95947     -3316.304    23039295.163    94342052.80746
     -2584.136  
  23940047.813   125805800.47046      -864.796    23940050.535    98030503.79145
      -673.871  
  22885190.187   120262494.98147      3047.344    22885190.358    93711039.82946
      2374.550  
 20  9 26  5 44 50.0000000  0  7G13G15G18G 5G29G30G20
  20555584.212   108020323.58249      -550.699    20555583.770    84171679.09747
      -429.120  
  20348200.882   106930518.91949      1533.918    20348200.950    83322486.27248
      1195.257  
  20804053.451   109326040.99448      1659.684    20804053.859    85189124.95148
      1293.257  
  22486948.299   118169707.82848     -2910.870    22486948.817    92080293.10347
     -2268.214  
  23042449.860   121088884.23747     -3317.602    23042451.129    94354975.61446
     -2585.147  
  23940872.164   125810132.12246      -867.629    23940875.052    98033879.11245
      -676.077  
  22882291.231   120247260.27047      3046.629    22882291.283    93699168.63445
      2373.991  
 20  9 26  5 44 55.0000000  0  7G13G15G18G 5G29G30G20
  20556109.810   108023085.67649      -554.137    20556109.317    84173831.37547
      -431.796  
  20346743.236   106922858.02949      1530.573    20346743.024    83316516.74648
      1192.651  
  20802475.535   109317748.48948      1657.210    20802476.024    85182663.26048
      1291.328  
  22489718.608   118184265.05848     -2912.007    22489718.903    92091636.39347
     -2269.101  
  23045607.235   121105476.32148     -3319.246    23045608.547    94367904.49646
     -2586.430  
  23941699.172   125814478.89146      -870.840    23941702.142    98037266.18945
      -678.578  
  22879392.847   120232029.31547      3045.722    22879392.993    93687300.37045
      2373.288  
 20  9 26  5 45  0.0000000  0  7G13G15G18G 5G29G30G20
  20556638.843   108025865.20249      -557.625    20556638.252    84175997.24247
      -434.515  
  20345288.431   106915213.41949      1527.249    20345288.257    83310559.90948
      1190.063  
  20800900.101   109309469.21448      1654.546    20800900.362    85176211.87748
      1289.253  
  22492489.846   118198828.01348     -2913.270    22492490.216    92102984.14347
     -2270.081  
  23048766.072   121122076.93247     -3321.062    23048767.658    94380840.02946
     -2587.843  
  23942529.428   125818841.53846      -874.085    23942532.211    98040665.64945
      -681.108  
  22876495.222   120216802.94447      3044.727    22876495.496    93675435.66545
      2372.512  
 20  9 26  5 45  5.0000000  0  7G13G15G18G 5G29G30G20
  20557170.906   108028661.49449      -560.831    20557170.391    84178176.17048
      -437.015  
  20343836.680   106907584.44349      1524.276    20343836.657    83304615.25248
      1187.745  
  20799326.954   109301202.52048      1652.105    20799327.400    85169770.29848
      1287.351  
  22495262.027   118213396.11048     -2913.937    22495262.250    92114335.90947
     -2270.605  
  23051926.672   121138685.43747     -3322.453    23051928.043    94393781.71447
     -2588.926  
  23943362.538   125823219.46946      -877.023    23943365.474    98044077.03745
      -683.398  
  22873598.555   120201580.45247      3044.347    22873598.670    93663573.99246
      2372.214  
 20  9 26  5 45 10.0000000  0  7G13G15G18G 5G29G30G20
  20557705.988   108031473.46449      -564.089    20557705.452    84180367.31247
      -439.554  
  20342387.785   106899970.01649      1521.414    20342387.512    83298681.93348
      1185.515  
  20797756.089   109292947.35048      1649.847    20797756.394    85163337.69848
      1285.594  
  22498035.006   118227968.24448     -2914.863    22498035.271    92125690.80847
     -2271.323  
  23055088.404   121155300.73247     -3323.766    23055089.858    94406728.69146
     -2589.949  
  23944198.285   125827611.56946      -880.089    23944201.159    98047499.43245
      -685.789  
  22870702.288   120186360.84047      3043.629    22870702.530    93651714.56146
      2371.655  
 20  9 26  5 45 15.0000000  0  7G13G15G18G 5G29G30G20
  20558244.329   108034302.71549      -567.656    20558243.680    84182571.92347
      -442.332  
  20340941.742   106892371.72249      1518.027    20340941.781    83292761.18848
      1182.874  
  20796187.707   109284705.29448      1647.012    20796188.075    85156915.31748
      1283.383  
  22500808.937   118242545.97148     -2916.382    22500809.485    92137050.06647
     -2272.507  
  23058251.861   121171924.43448     -3325.594    23058253.333    94419682.22046
     -2591.375  
  23945037.087   125832019.40846      -883.312    23945040.058    98050934.11346
      -688.296  
  22867806.962   120171145.70347      3042.492    22867807.179    93639858.61545
      2370.769  
 20  9 26  5 45 20.0000000  0  7G13G15G18G 5G29G30G20
  20558785.914   108037148.98149      -570.867    20558785.337    84184789.79247
      -444.835  
  20339498.931   106884789.29749      1514.969    20339498.749    83286852.80748
      1180.491  
  20794621.781   109276476.07848      1644.636    20794621.955    85150502.94348
      1281.530  
  22503583.975   118257128.99048     -2916.968    22503584.434    92148413.45547
     -2272.965  
  23061416.831   121188556.21648     -3326.891    23061418.296    94432642.02646
     -2592.390  
  23945878.723   125836442.67446      -886.272    23945881.667    98054380.83046
      -690.604  
  22864912.401   120155934.68647      3041.847    22864912.523    93628005.88846
      2370.270  
 20  9 26  5 45 25.0000000  0  7G13G15G18G 5G29G30G20
  20559330.726   108040011.33349      -574.199    20559330.170    84187020.19748
      -447.429  
  20338058.795   106877221.85849      1511.953    20338058.873    83280956.10148
      1178.140  
  20793057.969   109268258.81448      1642.133    20793058.277    85144099.88248
      1279.581  
  22506359.975   118271716.40548     -2918.004    22506360.386    92159780.26547
     -2273.772  
  23064583.143   121205195.14048     -3328.581    23064584.476    94445607.40846
     -2593.703  
  23946723.293   125840880.54146      -889.331    23946726.191    98057838.88945
      -692.988  
  22862018.410   120140726.97347      3040.992    22862018.646    93616155.72946
      2369.602  
 20  9 26  5 45 30.0000000  0  7G13G15G18G 5G29G30G20
  20559878.581   108042890.70649      -577.402    20559877.920    84189263.86147
      -449.926  
  20336621.890   106869670.34249      1508.866    20336621.691    83275071.79948
      1175.737  
  20791496.791   109260054.48848      1639.765    20791497.038    85137706.89948
      1277.734  
  22509136.951   118286309.17148     -2919.003    22509137.341    92171151.24347
     -2274.550  
  23067750.976   121221842.18447     -3330.207    23067752.358    94458579.13747
     -2594.969  
  23947570.634   125845333.94446      -892.031    23947573.817    98061309.09145
      -695.093  
  22859125.367   120125523.48947      3040.433    22859125.513    93604308.86446
      2369.163  
 20  9 26  5 45 35.0000000  0  7G13G15G18G 5G29G30G20
  20560429.671   108045786.98449      -580.898    20560429.109    84191520.69847
      -452.652  
  20335187.834   106862134.64249      1505.597    20335187.681    83269199.82948
      1173.190  
  20789937.915   109251862.97548      1637.098    20789938.238    85131323.90648
      1275.656  
  22511914.880   118300907.25248     -2920.093    22511915.283    92182526.36047
     -2275.402  
  23070920.292   121238497.17947     -3331.679    23070921.731    94471557.03247
     -2596.117  
  23948421.066   125849802.71146      -895.147    23948424.195    98064791.24745
      -697.520  
  22856233.058   120110324.11947      3039.495    22856233.293    93592465.20545
      2368.434  
 20  9 26  5 45 40.0000000  0  7G13G15G18G 5G29G30G20
  20560984.186   108048700.16849      -584.343    20560983.460    84193790.70548
      -455.335  
  20333756.831   106854614.76149      1502.426    20333756.842    83263340.18948
      1170.719  
  20788381.691   109243684.27848      1634.430    20788381.891    85124950.89248
      1273.577  
  22514693.750   118315510.65848     -2921.073    22514694.173    92193905.63747
     -2276.163  
  23074091.165   121255160.13248     -3333.565    23074092.568    94484541.14346
     -2597.585  
  23949274.311   125854286.92046      -898.495    23949277.484    98068285.41645
      -700.128  
  22853341.366   120095128.95247      3038.609    22853341.681    93580624.82146
      2367.746  
 20  9 26  5 45 45.0000000  0  7G13G15G18G 5G29G30G20
  20561541.563   108051629.51249      -587.516    20561540.997    84196073.32147
      -457.809  
  20332328.677   106847109.95249      1499.434    20332328.685    83257492.28448
      1168.387  
  20786827.572   109235517.64148      1632.171    20786827.985    85118587.28148
      1271.820  
  22517473.574   118330118.48248     -2922.038    22517474.040    92205288.35347
     -2276.918  
  23077263.357   121271830.30247     -3334.940    23077264.594    94497530.90346
     -2598.659  
  23950130.428   125858785.71847      -901.249    23950133.456    98071790.97745
      -702.276  
  22850450.611   120079937.18247      3038.007    22850450.924    93568787.09145
      2367.276  
 20  9 26  5 45 50.0000000  0  7G13G15G18G 5G29G30G20
  20562102.174   108054575.32649      -590.934    20562101.444    84198368.76047
      -460.472  
  20330903.547   106839620.55849      1496.289    20330903.464    83251656.39748
      1165.938  
  20785275.923   109227363.41848      1629.582    20785276.258    85112233.34248
      1269.801  
  22520254.346   118344731.04048     -2923.093    22520254.616    92216674.75347
     -2277.737  
  23080436.922   121288507.97048     -3336.440    23080438.362    94510526.45246
     -2599.831  
  23950989.395   125863299.46846      -903.977    23950992.538    98075308.18145
      -704.402  
  22847560.412   120064749.08447      3037.108    22847560.727    93556952.21845
      2366.573  
 20  9 26  5 45 55.0000000  0  7G13G15G18G 5G29G30G20
  20562666.023   108057538.34149      -594.624    20562665.318    84200677.60347
      -463.347  
  20329481.490   106832147.34849      1492.753    20329481.429    83245833.12148
      1163.183  
  20783726.736   109219222.32548      1626.773    20783726.984    85105889.63748
      1267.613  
  22523036.079   118359349.05148     -2924.301    22523036.452    92228065.40447
     -2278.680  
  23083612.149   121305193.86747     -3338.132    23083613.583    94523528.45446
     -2601.145  
  23951851.226   125867828.95246      -907.871    23951854.339    98078837.64345
      -707.434  
  22844670.980   120049565.39447      3036.233    22844671.262    93545120.77946
      2365.895  
 20  9 26  5 46  0.0000000  0  7G13G15G18G 5G29G30G20
  20563233.093   108060518.34749      -597.680    20563232.379    84202999.68748
      -465.727  
  20328062.452   106824690.06949      1489.984    20328062.304    83240022.26148
      1161.023  
  20782180.018   109211094.20148      1624.328    20782180.391    85099556.03548
      1265.706  
  22525818.784   118373972.35548     -2925.362    22525819.255    92239460.17547
     -2279.507  
  23086788.915   121321887.79147     -3339.812    23086790.247    94536536.70446
     -2602.453  
  23952716.119   125872373.90246      -910.449    23952719.396    98082379.16044
      -709.444  
  22841782.306   120034385.93247      3035.476    22841782.756    93533292.64245
      2365.305  
 20  9 26  5 46  5.0000000  0  7G13G15G18G 5G29G30G20
  20563803.212   108063514.06049      -600.761    20563802.604    84205334.00547
      -468.129  
  20326646.107   106817247.46849      1486.843    20326645.880    83234222.83248
      1158.578  
  20780635.401   109202977.77948      1621.894    20780635.726    85093231.54848
      1263.813  
  22528602.245   118388599.63848     -2926.000    22528602.787    92250858.05347
     -2280.003  
  23089967.016   121338588.41847     -3340.875    23089968.434    94549550.16246
     -2603.280  
  23953583.866   125876933.03646      -913.133    23953586.842    98085931.73344
      -711.534  
  22838894.410   120019209.43847      3034.905    22838894.681    93521466.80046
      2364.859  
 20  9 26  5 46 10.0000000  0  7G13G15G18G 5G29G30G20
  20564376.361   108066526.82449      -604.226    20564375.754    84207681.61347
      -470.827  
  20325232.797   106809820.88249      1483.629    20325232.625    83228435.88248
      1156.070  
  20779093.459   109194874.37948      1619.289    20779093.761    85086917.20848
      1261.780  
  22531386.825   118403232.35848     -2927.227    22531387.285    92262260.16847
     -2280.957  
  23093146.633   121355297.07747     -3342.499    23093147.832    94562569.88846
     -2604.546  
  23954454.309   125881507.74146      -916.472    23954457.512    98089496.42146
      -714.136  
  22836007.282   120004037.26047      3034.077    22836007.603    93509644.32646
      2364.215  
 20  9 26  5 46 15.0000000  0  7G13G15G18G 5G29G30G20
  20564952.952   108069556.42049      -607.492    20564952.328    84210042.33747
      -473.375  
  20323822.718   106802410.08449      1480.640    20323822.542    83222661.23748
      1153.741  
  20777553.800   109186783.82648      1616.878    20777554.012    85080612.88348
      1259.902  
  22534172.348   118417870.22548     -2927.953    22534172.775    92273666.28447
     -2281.523  
  23096327.595   121372013.58047     -3344.063    23096328.920    94575595.72446
     -2605.765  
  23955327.764   125886097.75146      -919.667    23955331.043    98093073.07146
      -716.629  
  22833120.873   119988869.20547      3033.308    22833121.237    93497825.07645
      2363.613  
 20  9 26  5 46 20.0000000  0  7G13G15G18G 5G29G30G20
  20565532.581   108072602.45349      -610.824    20565531.832    84212415.87247
      -475.968  
  20322415.309   106795014.72449      1477.526    20322415.161    83216898.62148
      1151.316  
  20776016.613   109178705.75748      1614.335    20776016.944    85074318.28448
      1257.921  
  22536958.635   118432512.82648     -2928.957    22536959.198    92285076.09747
     -2282.309  
  23099510.056   121388737.52547     -3345.652    23099511.477    94588627.36046
     -2607.004  
  23956204.063   125890702.73046      -922.468    23956207.296    98096661.37045
      -718.809  
  22830235.044   119973704.88047      3032.621    22830235.320    93486008.72745
      2363.078  
 20  9 26  5 46 25.0000000  0  7G13G15G18G 5G29G30G20
  20566115.466   108075665.57149      -614.164    20566114.760    84214802.71147
      -478.573  
  20321011.131   106787635.47149      1474.277    20321010.936    83211148.55548
      1148.785  
  20774481.894   109170640.81848      1611.773    20774482.078    85068033.91848
      1255.925  
  22539746.061   118447160.93948     -2929.882    22539746.617    92296490.20447
     -2283.026  
  23102694.048   121405469.51747     -3346.804    23102695.529    94601665.27046
     -2607.902  
  23957083.411   125895323.33146      -925.854    23957086.395    98100261.82045
      -721.449  
  22827350.204   119958544.97747      3031.699    22827350.465    93474195.82146
      2362.359  
 20  9 26  5 46 30.0000000  0  7G13G15G18G 5G29G30G20
  20566701.372   108078744.74349      -617.425    20566700.861    84217202.07047
      -481.112  
  20319609.800   106780271.23849      1471.281    20319609.653    83205410.19248
      1146.449  
  20772949.464   109162587.96848      1609.386    20772949.640    85061758.96848
      1254.063  
  22542534.438   118461813.33548     -2931.015    22542534.750    92307907.64547
     -2283.910  
  23105879.363   121422208.52347     -3348.539    23105880.768    94614708.63546
     -2609.254  
  23957965.417   125899958.43046      -928.858    23957968.439    98103873.58145
      -723.789  
  22824466.079   119943388.42347      3030.839    22824466.354    93462385.52845
      2361.690  
 20  9 26  5 46 35.0000000  0  7G13G15G18G 5G29G30G20
  20567290.720   108081841.60349      -621.147    20567290.127    84219615.20547
      -484.016  
  20318211.521   106772923.73349      1467.925    20318211.295    83199684.86848
      1143.836  
  20771419.704   109154548.83948      1606.508    20771419.907    85055494.71648
      1251.820  
  22545323.776   118476471.68748     -2932.222    22545324.163    92319329.73247
     -2284.851  
  23109066.397   121438956.12347     -3350.167    23109067.737    94627758.70746
     -2610.522  
  23958850.458   125904609.72346      -931.835    23958853.434    98107497.95645
      -726.108  
  22821582.755   119928236.82647      3029.824    22821583.222    93450579.08345
      2360.897  
 20  9 26  5 46 40.0000000  0  7G13G15G18G 5G29G30G20
  20567883.098   108084954.72449      -624.449    20567882.588    84222041.01347
      -486.585  
  20316816.294   106765591.51449      1464.781    20316816.127    83193971.45248
      1141.386  
  20769892.419   109146522.06148      1604.011    20769892.607    85049240.08548
      1249.874  
  22548114.083   118491134.56848     -2933.097    22548114.537    92330755.34747
     -2285.534  
  23112254.610   121455710.92247     -3351.737    23112256.151    94640814.38546
     -2611.745  
  23959738.384   125909275.80746      -935.198    23959741.445    98111133.86745
      -728.730  
  22818700.169   119913088.83147      3029.206    22818700.483    93438775.46946
      2360.417  
 20  9 26  5 46 45.0000000  0  7G13G15G18G 5G29G30G20
  20568478.520   108088083.94049      -627.652    20568477.966    84224479.36347
      -489.082  
  20315423.914   106758274.38449      1461.706    20315423.625    83188269.79248
      1138.987  
  20768367.218   109138507.44648      1601.594    20768367.255    85042994.92948
      1247.991  
  22550905.126   118505801.84848     -2934.050    22550905.618    92342184.38647
     -2286.276  
  23115444.316   121472472.71947     -3353.340    23115445.759    94653875.51546
     -2612.996  
  23960629.171   125913956.42246      -937.722    23960632.220    98114781.09845
      -730.694  
  22815818.348   119897944.25747      3028.483    22815818.538    93426974.50746
      2359.854  
 20  9 26  5 46 50.0000000  0  7G13G15G18G 5G29G30G20
  20569077.179   108091229.82149      -631.065    20569076.531    84226930.69948
      -491.741  
  20314034.392   106750972.99049      1458.550    20314034.314    83182580.39348
      1136.531  
  20766844.487   109130505.63048      1598.952    20766844.606    85036759.74848
      1245.934  
  22553697.328   118520474.12548     -2935.101    22553697.672    92353617.32047
     -2287.094  
  23118635.563   121489242.15047     -3354.772    23118636.859    94666942.60246
     -2614.113  
  23961522.802   125918652.26946      -940.546    23961525.869    98118440.19545
      -732.897  
  22812937.096   119882803.70647      3027.604    22812937.302    93415176.67445
      2359.168  
 20  9 26  5 46 55.0000000  0  7G13G15G18G 5G29G30G20
  20569679.274   108094393.06649      -634.116    20569678.492    84229395.56547
      -494.121  
  20312648.293   106743688.05249      1455.551    20312647.946    83176903.82248
      1134.191  
  20765324.413   109122517.30548      1596.613    20765324.639    85030535.08148
      1244.109  
  22556490.477   118535152.09848     -2935.979    22556490.736    92365054.69847
     -2287.780  
  23121828.147   121506019.88647     -3355.894    23121829.691    94680016.15246
     -2614.984  
  23962419.474   125923364.00046      -943.659    23962422.453    98122111.64945
      -735.324  
  22810056.813   119867667.96747      3026.823    22810057.062    93403382.60446
      2358.562  
 20  9 26  5 47  0.0000000  0  7G13G15G18G 5G29G30G20
  20570284.027   108097571.94049      -637.445    20570283.396    84231872.60947
      -496.715  
  20311264.675   106736417.81049      1452.547    20311264.489    83171238.70148
      1131.851  
  20763806.434   109114540.77548      1593.905    20763806.626    85024319.60248
      1241.999  
  22559284.385   118549834.02648     -2937.140    22559284.726    92376495.15347
     -2288.684  
  23125022.236   121522804.18747     -3357.659    23125023.446    94693094.82546
     -2616.362  
  23963318.624   125928089.87846      -946.663    23963321.884    98125794.16945
      -737.663  
  22807177.250   119852535.26147      3026.313    22807177.329    93391590.88946
      2358.164  
 20  9 26  5 47  5.0000000  0  7G13G15G18G 5G29G30G20
  20570892.204   108100767.65449      -640.788    20570891.467    84234362.77747
      -499.319  
  20309884.292   106729163.47149      1449.417    20309883.981    83165585.97048
      1129.414  
  20762291.130   109106577.20548      1591.526    20762291.301    85018114.22448
      1240.147  
  22562079.243   118564521.07248     -2937.815    22562079.492    92387939.59447
     -2289.211  
  23128217.691   121539596.19647     -3359.203    23128218.909    94706179.49346
     -2617.562  
  23964220.979   125932831.09846      -949.246    23964223.970    98129488.62045
      -739.676  
  22804298.265   119837406.78347      3025.410    22804298.616    93379802.48146
      2357.461  
 20  9 26  5 47 10.0000000  0  7G13G15G18G 5G29G30G20
  20571503.627   108103980.36049      -644.175    20571502.955    84236866.18547
      -501.956  
  20308506.957   106721925.18549      1446.187    20308506.627    83159945.75148
      1126.895  
  20760778.108   109098626.78148      1588.870    20760778.408    85011919.08848
      1238.077  
  22564875.065   118579213.43548     -2939.077    22564875.460    92399388.18147
     -2290.194  
  23131414.631   121556396.07747     -3360.734    23131415.902    94719270.30146
     -2618.758  
  23965126.000   125937587.82646      -952.683    23965129.318    98133195.18245
      -742.354  
  22801420.268   119822282.68047      3024.516    22801420.647    93368017.46145
      2356.762  
 20  9 26  5 47 15.0000000  0  7G13G15G18G 5G29G30G20
  20572118.097   108107209.70049      -647.457    20572117.378    84239382.55147
      -504.516  
  20307132.477   106714702.62149      1443.086    20307132.204    83154317.78048
      1124.480  
  20759267.736   109090689.16248      1586.292    20759267.732    85005733.93348
      1236.069  
  22567671.832   118593910.76648     -2940.085    22567672.185    92410840.64547
     -2290.980  
  23134612.888   121573203.46447     -3362.202    23134614.088    94732366.96246
     -2619.901  
  23966034.080   125942359.66346      -955.723    23966037.321    98136913.49145
      -744.723  
  22798543.049   119807162.63647      3023.636    22798543.333    93356235.61946
      2356.078  
 20  9 26  5 47 20.0000000  0  7G13G15G18G 5G29G30G20
  20572735.789   108110455.38349      -650.862    20572734.957    84241911.65347
      -507.168  
  20305761.042   106707495.46149      1440.069    20305760.728    83148701.81448
      1122.128  
  20757759.660   109082764.04048      1583.757    20757759.730    84999558.51248
      1234.093  
  22570469.577   118608612.66948     -2940.937    22570469.875    92422296.65647
     -2291.645  
  23137812.695   121590018.03247     -3363.444    23137813.972    94745469.20346
     -2620.871  
  23966945.016   125947146.38046      -958.812    23966948.139    98140643.38845
      -747.129  
  22795666.584   119792046.30147      3023.214    22795666.768    93344456.66245
      2355.750  
 20  9 26  5 47 25.0000000  0  7G13G15G18G 5G29G30G20
  20573356.532   108113717.72049      -653.987    20573355.721    84244453.73547
      -509.604  
  20304392.639   106700304.08149      1436.754    20304392.407    83143098.14248
      1119.547  
  20756253.855   109074851.76348      1581.202    20756254.188    84993393.10048
      1232.101  
  22573268.235   118623319.52848     -2941.878    22573268.518    92433756.53747
     -2292.375  
  23141013.847   121606840.13747     -3365.168    23141015.141    94758577.33147
     -2622.210  
  23967858.801   125951948.23246      -961.973    23967861.991    98144385.08645
      -749.594  
  22792790.858   119776934.10647      3021.766    22792790.932    93332680.93746
      2354.621  
 20  9 26  5 47 30.0000000  0  7G13G15G18G 5G29G30G20
  20573980.525   108116996.82649      -657.327    20573979.676    84247008.88147
      -512.207  
  20303027.099   106693128.58749      1433.479    20303026.774    83137506.85448
      1116.996  
  20754750.704   109066952.46848      1578.676    20754750.819    84987237.80648
      1230.133  
  22576067.827   118638031.45248     -2942.914    22576068.157    92445220.37247
     -2293.184  
  23144216.321   121623669.81847     -3366.765    23144217.743    94771691.35646
     -2623.456  
  23968775.414   125956765.37546      -964.944    23968778.554    98148138.69345
      -751.910  
  22789915.877   119761826.07247      3020.895    22789916.123    93320908.44846
      2353.940  
 20  9 26  5 47 35.0000000  0  7G13G15G18G 5G29G30G20
  20574607.740   108120292.58049      -660.691    20574607.051    84249577.00247
      -514.828  
  20301664.588   106685968.88649      1430.570    20301664.313    83131927.86848
      1114.726  
  20753250.026   109059066.07048      1576.250    20753250.148    84981092.55848
      1228.241  
  22578868.397   118652748.35848     -2943.816    22578868.788    92456688.08247
     -2293.886  
  23147420.504   121640507.03447     -3368.104    23147421.793    94784811.24846
     -2624.504  
  23969694.950   125961597.69447      -967.671    23969698.224    98151904.14945
      -754.034  
  22787041.663   119746722.13047      3020.711    22787041.998    93309139.13945
      2353.796  
 20  9 26  5 47 40.0000000  0  7G13G15G18G 5G29G30G20
  20575237.983   108123604.12749      -664.102    20575237.095    84252157.42647
      -517.483  
  20300305.149   106678824.14549      1427.367    20300304.807    83126360.54248
      1112.230  
  20751751.465   109051191.70048      1573.589    20751751.683    84974956.69048
      1226.171  
  22581669.729   118667469.36748     -2944.797    22581669.903    92468158.99147
     -2294.648  
  23150625.644   121657350.84947     -3369.445    23150626.992    94797936.31546
     -2625.547  
  23970617.298   125966444.32446      -970.891    23970620.354    98155680.74445
      -756.543  
  22784168.024   119731621.46147      3019.612    22784168.385    93297372.39246
      2352.940  
 20  9 26  5 47 45.0000000  0  7G13G15G18G 5G29G30G20
  20575871.278   108126932.89349      -667.414    20575870.561    84254751.27147
      -520.066  
  20298948.549   106671695.78549      1424.059    20298948.196    83120805.97748
      1109.651  
  20750255.566   109043330.82748      1570.840    20750255.892    84968831.33348
      1224.027  
  22584472.014   118682195.91148     -2945.851    22584472.460    92479634.21447
     -2295.473  
  23153832.494   121674202.74147     -3371.109    23153833.756    94811067.63746
     -2626.839  
  23971542.575   125971306.71646      -973.840    23971545.655    98159469.60545
      -758.839  
  22781295.321   119716525.46547      3018.862    22781295.695    93285609.30046
      2352.359  
 20  9 26  5 47 50.0000000  0  7G13G15G18G 5G29G30G20
  20576508.007   108130278.01949      -670.840    20576506.942    84257357.86247
      -522.734  
  20297594.986   106664582.95549      1420.808    20297594.784    83115263.51648
      1107.120  
  20748762.120   109035482.58748      1568.273    20748762.315    84962715.82048
      1222.026  
  22587275.424   118696927.14748     -2946.901    22587275.766    92491113.09447
     -2296.288  
  23157040.653   121691061.82447     -3372.480    23157042.003    94824204.55645
     -2627.913  
  23972470.837   125976184.01746      -977.343    23972473.826    98163270.09045
      -761.569  
  22778423.387   119701433.35047      3017.948    22778423.776    93273849.20946
      2351.644  
 20  9 26  5 47 55.0000000  0  7G13G15G18G 5G29G30G20
  20577147.767   108133640.26649      -674.065    20577146.779    84259977.79547
      -525.249  
  20296244.667   106657486.41449      1417.855    20296244.283    83109733.75248
      1104.820  
  20747271.158   109027647.74848      1565.695    20747271.395    84956610.75248
      1220.019  
  22590079.591   118711663.95548     -2947.710    22590080.070    92502596.31147
     -2296.921  
  23160250.330   121707928.81846     -3373.874    23160251.691    94837347.69245
     -2628.996  
  23973401.758   125981076.91647      -979.628    23973404.750    98167082.75745
      -763.351  
  22775552.228   119686345.80447      3017.043    22775552.621    93262092.68545
      2350.937  
 20  9 26  5 48  0.0000000  0  7G13G15G18G 5G29G30G20
  20577790.585   108137018.54449      -677.112    20577789.759    84262610.22447
      -527.624  
  20294897.184   106650405.06649      1414.871    20294896.725    83104215.81948
      1102.491  
  20745782.670   109019825.25548      1563.362    20745782.946    84950515.30448
      1218.203  
  22592884.906   118726405.14148     -2948.441    22592885.056    92514082.94947
     -2297.488  
  23163461.328   121724802.60546     -3375.265    23163462.746    94850496.08145
     -2630.082  
  23974335.761   125985984.41446      -982.690    23974338.691    98170906.77545
      -765.738  
  22772681.826   119671261.80447      3016.520    22772682.202    93250338.92445
      2350.531  
 20  9 26  5 48  5.0000000  0  7G13G15G18G 5G29G30G20
  20578436.439   108140412.90549      -680.483    20578435.684    84265255.17847
      -530.249  
  20293552.565   106643339.01049      1411.617    20293552.085    83098709.80848
      1099.956  
  20744296.477   109012015.16648      1560.758    20744296.697    84944429.51848
      1216.171  
  22595690.800   118741150.68648     -2949.555    22595691.054    92525572.97847
     -2298.359  
  23166673.699   121741683.35346     -3376.984    23166674.839    94863649.91046
     -2631.417  
  23975272.414   125990906.53046      -985.824    23975275.453    98174742.19045
      -768.179  
  22769812.190   119656181.45247      3015.675    22769812.753    93238588.01146
      2349.874  
 20  9 26  5 48 10.0000000  0  7G13G15G18G 5G29G30G20
  20579085.711   108143824.54349      -684.070    20579084.797    84267913.59247
      -533.047  
  20292210.986   106636289.40549      1408.300    20292210.652    83093216.61448
      1097.374  
  20742812.761   109004218.68248      1557.870    20742813.137    84938354.33848
      1213.921  
  22598497.820   118755901.89248     -2951.101    22598498.251    92537067.42047
     -2299.563  
  23169887.570   121758572.10947     -3378.727    23169888.624    94876809.94946
     -2632.781  
  23976212.090   125995844.46746      -989.227    23976214.907    98178589.91145
      -770.827  
  22766943.298   119641105.88347      3014.797    22766943.737    93226840.80746
      2349.187  
 20  9 26  5 48 15.0000000  0  7G13G15G18G 5G29G30G20
  20579738.038   108147252.54249      -687.172    20579737.078    84270584.76047
      -535.461  
  20290872.435   106629255.33649      1405.250    20290872.135    83087735.51648
      1094.996  
  20741331.505   108996434.88348      1555.625    20741332.005    84932289.03748
      1212.171  
  22601305.798   118770657.66548     -2951.586    22601306.188    92548565.42147
     -2299.941  
  23173102.577   121775467.98947     -3380.063    23173104.033    94889975.57546
     -2633.816  
  23977154.682   126000797.25647      -991.848    23977157.522    98182449.22945
      -772.870  
  22764075.375   119626034.16047      3014.038    22764075.734    93215096.62646
      2348.597  
 20  9 26  5 48 20.0000000  0  7G13G15G18G 5G29G30G20
  20580393.398   108150696.82649      -690.680    20580392.526    84273268.61847
      -538.194  
  20289536.742   106622236.78549      1402.180    20289536.549    83082266.51448
      1092.604  
  20739852.738   108988663.75348      1552.952    20739853.093    84926233.61048
      1210.089  
  22604114.723   118785418.01048     -2952.562    22604114.842    92560066.98247
     -2300.703  
  23176319.115   121792370.95148     -3381.328    23176320.544    94903146.67946
     -2634.808  
  23978099.848   126005764.85946      -994.550    23978102.857    98186320.09245
      -774.976  
  22761208.031   119610966.23047      3013.011    22761208.518    93203355.38945
      2347.796  
 20  9 26  5 48 25.0000000  0  7G13G15G18G 5G29G30G20
  20581052.005   108154157.79949      -693.934    20581051.165    84275965.47747
      -540.730  
  20288204.292   106615234.15049      1398.886    20288203.894    83076809.92048
      1090.038  
  20738376.425   108980905.67548      1550.190    20738376.865    84920188.35748
      1207.937  
  22606924.395   118800183.37748     -2953.784    22606924.697    92571572.46347
     -2301.652  
  23179537.143   121809281.36248     -3382.847    23179538.499    94916323.60446
     -2635.988  
  23979048.064   126010747.76546      -998.007    23979050.855    98190202.89345
      -777.672  
  22758341.447   119595902.57147      3012.136    22758341.979    93191617.48546
      2347.117  
 20  9 26  5 48 30.0000000  0  7G13G15G18G 5G29G30G20
  20581713.849   108157635.75149      -697.214    20581712.989    84278675.57047
      -543.289  
  20286874.702   106608247.73349      1395.718    20286874.409    83071365.96448
      1087.569  
  20736902.605   108973160.94848      1547.563    20736903.070    84914153.50648
      1205.891  
  22609735.247   118814954.00148     -2954.784    22609735.603    92583082.02847
     -2302.433  
  23182756.526   121826199.55446     -3384.352    23182757.934    94929506.62245
     -2637.159  
  23979999.330   126015746.14146     -1001.343    23980002.038    98194097.70545
      -780.270  
  22755475.807   119580843.50247      3011.065    22755476.403    93179883.14645
      2346.280  
 20  9 26  5 48 35.0000000  0  7G13G15G18G 5G29G30G20
  20582378.937   108161130.27849      -700.491    20582377.991    84281398.57947
      -545.840  
  20285548.349   106601277.16649      1392.538    20285548.100    83065934.35548
      1085.093  
  20735431.435   108965429.18048      1545.031    20735431.703    84908128.75448
      1203.917  
  22612546.844   118829729.44848     -2955.378    22612547.192    92594595.36047
     -2302.895  
  23185977.229   121843124.89946     -3385.746    23185978.897    94942695.20845
     -2638.245  
  23980953.276   126020759.59747     -1004.249    23980956.117    98198004.28045
      -782.539  
  22752610.923   119565788.52747      3010.308    22752611.539    93168152.00846
      2345.690  
 20  9 26  5 48 40.0000000  0  7G13G15G18G 5G29G30G20
  20583046.867   108164640.49249      -703.647    20583045.910    84284133.81348
      -548.300  
  20284224.640   106594321.55949      1389.617    20284224.475    83060514.39448
      1082.815  
  20733962.386   108957709.52648      1542.687    20733962.793    84902113.44148
      1202.090  
  22615359.224   118844508.95048     -2956.352    22615359.546    92606111.85247
     -2303.652  
  23189199.235   121860056.71946     -3386.750    23189200.831    94955888.80145
     -2639.031  
  23981910.059   126025787.27447     -1006.964    23981912.636    98201921.97145
      -784.652  
  22749746.579   119550736.89247      3009.770    22749747.159    93156423.44645
      2345.273  
 20  9 26  5 48 45.0000000  0  7G13G15G18G 5G29G30G20
  20583718.040   108168167.84649      -707.266    20583717.249    84286882.39547
      -551.121  
  20282904.180   106587382.33849      1386.035    20282904.025    83055107.21948
      1080.022  
  20732495.978   108950003.43548      1539.769    20732496.326    84896108.69048
      1199.815  
  22618172.747   118859293.89648     -2957.488    22618173.118    92617632.58647
     -2304.539  
  23192422.786   121876996.34247     -3388.901    23192424.432    94969088.50246
     -2640.707  
  23982869.692   126030830.65346     -1010.136    23982872.460    98205851.85145
      -787.120  
  22746883.428   119535690.02747      3008.652    22746883.798    93144698.64645
      2344.401  
 20  9 26  5 48 50.0000000  0  7G13G15G18G 5G29G30G20
  20584392.467   108171711.82349      -710.461    20584391.532    84289643.94148
      -553.609  
  20281586.571   106580458.94449      1383.101    20281586.501    83049712.36648
      1077.738  
  20731032.039   108942310.38348      1537.386    20731032.548    84890114.10748
      1197.960  
  22620987.218   118874083.75848     -2958.542    22620987.627    92629157.15547
     -2305.363  
  23195647.668   121893943.27747     -3390.151    23195649.179    94982293.89546
     -2641.680  
  23983832.420   126035889.19546     -1012.965    23983835.095    98209793.58545
      -789.328  
  22744020.809   119520647.33247      3007.891    22744021.368    93132977.06845
      2343.809  
 20  9 26  5 48 55.0000000  0  7G13G15G18G 5G29G30G20
  20585070.086   108175272.26949      -713.547    20585069.228    84292418.30747
      -556.016  
  20280272.199   106573551.34549      1380.163    20280271.914    83044329.82248
      1075.448  
  20729570.589   108934630.28648      1534.840    20729570.951    84884129.61348
      1195.977  
  22623802.625   118888878.41448     -2959.340    22623802.863    92640685.45047
     -2305.979  
  23198873.904   121910897.41647     -3391.233    23198875.411    94995504.90246
     -2642.523  
  23984797.787   126040962.76646     -1016.343    23984800.654    98213747.01645
      -791.961  
  22741158.966   119505608.77347      3007.249    22741159.451    93121258.71545
      2343.308  
 20  9 26  5 49  0.0000000  0  7G13G15G18G 5G29G30G20
  20585750.774   108178849.30949      -717.039    20585749.856    84295205.61347
      -558.733  
  20278960.681   106566659.61549      1376.741    20278960.515    83038959.64248
      1072.780  
  20728111.621   108926963.23448      1532.207    20728112.052    84878155.29048
      1193.926  
  22626618.770   118903677.92248     -2960.391    22626619.084    92652217.52847
     -2306.800  
  23202101.439   121927858.85247     -3392.953    23202103.078    95008721.59646
     -2643.862  
  23985766.166   126046051.44546     -1019.070    23985768.928    98217712.21845
      -794.082  
  22738298.099   119490574.38147      3006.355    22738298.480    93109543.61345
      2342.612  
 20  9 26  5 49  5.0000000  0  7G13G15G18G 5G29G30G20
  20586434.500   108182442.93749      -720.562    20586433.655    84298005.84347
      -561.479  
  20277652.228   106559783.74049      1373.495    20277652.042    83033601.81948
      1070.254  
  20726655.089   108919309.23248      1529.394    20726655.582    84872191.13248
      1191.733  
  22629436.057   118918482.33148     -2961.352    22629436.284    92663753.43047
     -2307.550  
  23205330.528   121944827.51747     -3394.761    23205332.026    95021943.90946
     -2645.276  
  23986737.406   126051155.24846     -1022.089    23986740.218    98221689.20645
      -796.437  
  22735437.996   119475544.25247      3005.081    22735438.238    93097831.83546
      2341.620  
 20  9 26  5 49 10.0000000  0  7G13G15G18G 5G29G30G20
  20587121.467   108186052.35049      -723.562    20587120.632    84300818.36847
      -563.816  
  20276346.616   106552922.95149      1370.679    20276346.500    83028255.75148
      1068.058  
  20725200.844   108911667.49948      1526.921    20725201.301    84866236.53348
      1189.805  
  22632253.928   118933290.84348     -2962.316    22632254.225    92675292.52247
     -2308.301  
  23208560.718   121961802.62347     -3395.831    23208562.472    95035171.26746
     -2646.105  
  23987711.315   126056273.39746     -1025.035    23987714.111    98225677.35245
      -798.729  
  22732578.438   119460517.51647      3005.285    22732578.751    93086122.68645
      2341.776  
 20  9 26  5 49 15.0000000  0  7G13G15G18G 5G29G30G20
  20587811.476   108189678.58749      -726.788    20587810.790    84303644.01247
      -566.331  
  20275044.229   106546078.29849      1367.410    20275044.128    83022922.25548
      1065.511  
  20723749.289   108904039.08648      1524.449    20723749.725    84860292.32148
      1187.879  
  22635072.956   118948104.49648     -2963.125    22635073.161    92686835.62347
     -2308.934  
  23211792.461   121978785.20547     -3397.245    23211794.113    95048404.42246
     -2647.206  
  23988688.096   126061406.88446     -1028.215    23988690.989    98229677.47644
      -801.211  
  22729719.864   119445495.29647      3003.839    22729720.243    93074417.07145
      2340.651  
 20  9 26  5 49 20.0000000  0  7G13G15G18G 5G29G30G20
  20588504.521   108193320.97249      -730.262    20588503.866    84306482.23147
      -569.038  
  20273744.711   106539249.13149      1364.202    20273744.444    83017600.82948
      1063.012  
  20722299.997   108896423.38248      1521.753    20722300.565    84854358.00448
      1185.777  
  22637892.753   118962922.63248     -2964.238    22637893.049    92698382.22047
     -2309.801  
  23215025.343   121995774.61247     -3398.809    23215026.960    95061642.91946
     -2648.426  
  23989667.903   126066555.08546     -1030.991    23989670.804    98233689.05845
      -803.375  
  22726861.846   119430476.90247      3002.894    22726862.249    93062714.43745
      2339.913  
 20  9 26  5 49 25.0000000  0  7G13G15G18G 5G29G30G20
  20589201.002   108196980.35049      -733.512    20589200.123    84309333.69448
      -571.570  
  20272448.238   106532436.30449      1361.042    20272448.190    83012292.13348
      1060.551  
  20720853.400   108888821.18348      1519.258    20720853.862    84848434.21448
      1183.836  
  22640713.692   118977746.14048     -2965.120    22640713.937    92709933.00247
     -2310.487  
  23218259.765   122012771.67947     -3399.945    23218261.558    95074887.36846
     -2649.313  
  23990650.409   126071718.84346     -1034.132    23990653.312    98237712.76345
      -805.820  
  22724004.983   119415463.20747      3002.269    22724005.225    93051015.46745
      2339.425  
 20  9 26  5 49 30.0000000  0  7G13G15G18G 5G29G30G20
  20589900.330   108200655.71549      -736.796    20589899.544    84312197.61247
      -574.129  
  20271154.625   106525638.82249      1357.992    20271154.596    83006995.39748
      1058.172  
  20719409.054   108881231.58948      1516.508    20719409.595    84842520.24648
      1181.691  
  22643535.367   118992574.05148     -2966.323    22643535.571    92721487.21747
     -2311.425  
  23221495.509   122029775.40647     -3401.348    23221497.368    95088137.00147
     -2650.406  
  23991635.925   126076897.17347     -1037.293    23991638.714    98241747.82345
      -808.285  
  22721148.708   119400453.25247      3001.386    22721148.942    93039319.40245
      2338.738  
 20  9 26  5 49 35.0000000  0  7G13G15G18G 5G29G30G20
  20590602.894   108204347.27549      -739.863    20590602.147    84315074.15447
      -576.520  
  20269864.039   106518856.90749      1354.957    20269863.957    83001710.78748
      1055.808  
  20717967.191   108873654.73948      1514.246    20717967.784    84836616.20748
      1179.929  
  22646357.809   119007406.39448     -2966.730    22646357.925    92733044.87747
     -2311.741  
  23224732.424   122046785.94947     -3402.719    23224734.132    95101391.97745
     -2651.473  
  23992624.143   126082090.26346     -1040.210    23992626.996    98245794.39245
      -810.558  
  22718293.151   119385447.16747      3001.047    22718293.373    93027626.35445
      2338.476  
 20  9 26  5 49 40.0000000  0  7G13G15G18G 5G29G30G20
  20591308.515   108208055.59249      -743.144    20591307.679    84317963.75047
      -579.078  
  20268576.706   106512091.11549      1351.691    20268576.478    82996438.74648
      1053.261  
  20716528.004   108866091.19748      1511.554    20716528.414    84830722.54048
      1177.831  
  22649181.218   119022243.79048     -2967.698    22649181.478    92744606.48047
     -2312.496  
  23227970.847   122063803.82147     -3403.816    23227972.658    95114652.64046
     -2652.328  
  23993615.216   126087298.63447     -1043.043    23993617.995    98249852.86345
      -812.766  
  22715438.386   119370445.55947      2999.977    22715438.525    93015936.79445
      2337.641  
 20  9 26  5 49 45.0000000  0  7G13G15G18G 5G29G30G20
  20592017.347   108211780.21749      -746.671    20592016.619    84320866.05647
      -581.824  
  20267292.035   106505340.99849      1348.305    20267291.935    82991178.91448
      1050.625  
  20715091.081   108858540.58348      1508.647    20715091.465    84824838.94248
      1175.566  
  22652005.559   119037085.83348     -2969.070    22652005.785    92756171.70047
     -2313.565  
  23231210.571   122080828.68347     -3405.844    23231212.304    95127918.76145
     -2653.906  
  23994609.105   126092521.90347     -1046.496    23994611.969    98253922.92945
      -815.453  
  22712584.315   119355447.97347      2998.934    22712584.710    93004250.36546
      2336.828  
 20  9 26  5 49 50.0000000  0  7G13G15G18G 5G29G30G20
  20592729.238   108215521.88249      -749.933    20592728.520    84323781.63947
      -584.366  
  20266010.785   106498607.32549      1345.159    20266010.553    82985931.89948
      1048.171  
  20713656.824   108851003.63948      1506.152    20713657.461    84818966.00048
      1173.621  
  22654831.056   119051933.23548     -2969.819    22654831.332    92767741.09647
     -2314.147  
  23234451.836   122097861.11547     -3407.246    23234453.445    95141190.78545
     -2654.999  
  23995606.106   126097760.73747     -1049.409    23995609.147    98258005.14244
      -817.726  
  22709731.438   119340455.16047      2998.363    22709731.628    92992567.66246
      2336.382  
 20  9 26  5 49 55.0000000  0  7G13G15G18G 5G29G30G20
  20593444.364   108219279.52449      -753.323    20593443.583    84326709.67148
      -587.007  
  20264732.186   106491888.99249      1341.964    20264732.128    82980696.83748
      1045.683  
  20712225.044   108843479.24148      1503.515    20712225.395    84813102.83448
      1171.566  
  22657657.098   119066784.90248     -2970.879    22657657.335    92779313.82247
     -2314.972  
  23237694.260   122114900.13847     -3408.707    23237695.843    95154467.92346
     -2656.136  
  23996605.921   126103014.11547     -1052.183    23996608.596    98262098.68745
      -819.887  
  22706879.160   119325466.05647      2997.203    22706879.271    92980887.85845
      2335.483  
 20  9 26  5 50  0.0000000  0  7G13G15G18G 5G29G30G20
  20594162.535   108223053.72149      -756.238    20594161.812    84329650.60547
      -589.280  
  20263456.847   106485186.60449      1339.003    20263456.853    82975474.20448
      1043.374  
  20710795.746   108835968.04048      1501.277    20710796.037    84807249.94748
      1169.823  
  22660484.282   119081641.44748     -2971.433    22660484.569    92790890.34247
     -2315.406  
  23240938.007   122131946.26847     -3409.612    23240939.704    95167750.61647
     -2656.843  
  23997608.428   126108282.60546     -1054.949    23997611.039    98266203.99444
      -822.042  
  22704027.597   119310481.27147      2996.601    22704027.814    92969211.40246
      2335.011  
 20  9 26  5 50  5.0000000  0  7G13G15G18G 5G29G30G20
  20594883.928   108226844.01149      -759.613    20594883.201    84332604.07247
      -591.910  
  20262184.346   106478499.72049      1335.949    20262184.274    82970263.64448
      1040.995  
  20709368.729   108828469.60948      1498.535    20709369.348    84801407.01748
      1167.688  
  22663312.227   119096502.46248     -2972.577    22663312.562    92802470.34447
     -2316.296  
  23244183.099   122148999.09147     -3411.007    23244184.767    95181038.51446
     -2657.929  
  23998613.732   126113565.76546     -1058.093    23998616.354    98270320.74745
      -824.491  
  22701176.816   119295500.34747      2995.901    22701176.881    92957537.96446
      2334.465  
 20  9 26  5 50 10.0000000  0  7G13G15G18G 5G29G30G20
  20595608.184   108230650.72149      -763.176    20595607.541    84335570.34247
      -594.687  
  20260914.899   106471828.70349      1332.340    20260914.867    82965065.45048
      1038.183  
  20707944.370   108820984.23948      1495.590    20707944.860    84795574.26048
      1165.390  
  22666141.107   119111368.29648     -2973.961    22666141.473    92814054.10447
     -2317.374  
  23247429.350   122166058.88347     -3413.098    23247431.091    95194331.85646
     -2659.559  
  23999621.884   126118863.85847     -1061.452    23999624.674    98274449.11945
      -827.108  
  22698326.801   119280523.60247      2994.867    22698326.902    92945867.77545
      2333.659  
 20  9 26  5 50 15.0000000  0  7G13G15G18G 5G29G30G20
  20596335.865   108234474.37149      -766.469    20596335.065    84338549.80848
      -597.250  
  20259648.658   106465174.02949      1329.370    20259648.388    82959879.99048
      1035.871  
  20706522.499   108813512.47648      1493.008    20706523.070    84789752.10948
      1163.378  
  22668970.962   119126239.40848     -2974.804    22668971.143    92825641.97646
     -2318.031  
  23250677.332   122183126.14047     -3414.129    23250678.892    95207630.99746
     -2660.362  
  24000633.084   126124177.46646     -1064.289    24000635.647    98278589.60145
      -829.319  
  22695477.733   119265551.62247      2993.953    22695477.961    92934201.30845
      2332.949  
 20  9 26  5 50 20.0000000  0  7G13G15G18G 5G29G30G20
  20597066.402   108238313.80349      -769.527    20597065.753    84341541.57247
      -599.636  
  20258385.102   106458534.62249      1326.358    20258385.089    82954706.43148
      1033.522  
  20705103.100   108806053.23548      1490.589    20705103.447    84783939.71248
      1161.495  
  22671801.567   119141114.65548     -2975.711    22671802.019    92837233.06647
     -2318.738  
  23253926.248   122200199.75047     -3415.438    23253928.144    95220935.10746
     -2661.383  
  24001646.975   126129505.47046     -1067.238    24001649.613    98282741.28145
      -831.617  
  22692629.460   119250583.21947      2993.331    22692629.501    92922537.62046
      2332.465  
 20  9 26  5 50 25.0000000  0  7G13G15G18G 5G29G30G20
  20597800.171   108242169.59649      -772.898    20597799.601    84344546.08648
      -602.261  
  20257124.585   106451910.99549      1323.004    20257124.724    82949545.16648
      1030.909  
  20703686.188   108798607.02848      1487.852    20703686.543    84778137.47448
      1159.363  
  22674633.120   119155994.56348     -2976.741    22674633.395    92848827.79547
     -2319.542  
  23257176.676   122217280.20647     -3416.890    23257178.336    95234244.53946
     -2662.515  
  24002663.745   126134848.38347     -1070.132    24002666.259    98286904.58745
      -833.870  
  22689781.732   119235618.99548      2992.332    22689782.027    92910877.19245
      2331.684  
 20  9 26  5 50 30.0000000  0  7G13G15G18G 5G29G30G20
  20598537.181   108246042.58049      -776.332    20598536.415    84347563.99748
      -604.938  
  20255867.310   106445303.97449      1319.809    20255867.282    82944396.83648
      1028.418  
  20702271.744   108791174.73348      1485.159    20702272.316    84772346.07948
      1157.266  
  22677465.654   119170879.88248     -2977.616    22677465.997    92860426.73247
     -2320.223  
  23260428.432   122234368.36447     -3418.359    23260430.034    95247559.97846
     -2663.660  
  24003683.509   126140207.05747     -1073.090    24003686.128    98291080.18545
      -836.176  
  22686935.137   119220659.81648      2991.249    22686935.246    92899220.69445
      2330.840  
 20  9 26  5 50 35.0000000  0  7G13G15G18G 5G29G30G20
  20599277.233   108249931.20549      -779.348    20599276.624    84350594.09147
      -607.284  
  20254613.104   106438712.07849      1316.828    20254613.024    82939260.29948
      1026.097  
  20700859.760   108783754.83248      1482.726    20700860.311    84766564.33948
      1155.366  
  22680299.127   119185769.19648     -2978.323    22680299.338    92872028.78946
     -2320.773  
  23263681.332   122251462.74647     -3419.563    23263683.147    95260880.24646
     -2664.601  
  24004705.791   126145579.96747     -1076.316    24004708.372    98295266.85645
      -838.690  
  22684089.307   119205704.06847      2990.676    22684089.203    92887566.87246
      2330.394  
 20  9 26  5 50 40.0000000  0  7G13G15G18G 5G29G30G20
  20600020.520   108253837.14149      -782.687    20600019.768    84353637.67448
      -609.890  
  20253361.737   106432136.97449      1313.473    20253361.686    82934136.84348
      1023.479  
  20699450.453   108776348.99548      1480.003    20699450.965    84760793.55448
      1153.245  
  22683133.549   119200664.11748     -2979.175    22683133.906    92883635.21647
     -2321.438  
  23266935.747   122268564.90847     -3420.988    23266937.527    95274206.60946
     -2665.706  
  24005731.315   126150968.72947     -1079.253    24005733.876    98299465.90245
      -840.980  
  22681244.219   119190753.52747      2989.726    22681244.401    92875917.10046
      2329.651  
 20  9 26  5 50 45.0000000  0  7G13G15G18G 5G29G30G20
  20600766.666   108257758.22849      -785.839    20600766.064    84356693.06948
      -612.347  
  20252113.405   106425576.47649      1310.405    20252113.273    82929024.76848
      1021.094  
  20698043.607   108768955.03348      1477.558    20698044.078    84755032.02648
      1151.339  
  22685968.555   119215562.46048     -2980.117    22685968.925    92895244.30247
     -2322.171  
  23270191.319   122285672.70947     -3422.194    23270193.105    95287537.34346
     -2666.647  
  24006759.473   126156371.17446     -1082.051    24006762.080    98303675.60044
      -843.160  
  22678399.733   119175805.90448      2989.207    22678399.813    92864269.61645
      2329.250  
 20  9 26  5 50 50.0000000  0  7G13G15G18G 5G29G30G20
  20601516.038   108261696.23749      -789.214    20601515.305    84359761.64747
      -614.977  
  20250868.123   106419032.37949      1307.273    20250868.034    82923925.47348
      1018.651  
  20696639.056   108761574.78748      1474.589    20696639.641    84749281.18548
      1149.027  
  22688804.679   119230466.04548     -2981.292    22688804.935    92906857.47647
     -2323.089  
  23273448.243   122302787.96047     -3423.777    23273449.890    95300873.89646
     -2667.882  
  24007790.461   126161789.14647     -1084.793    24007793.160    98307897.39045
      -845.296  
  22675556.385   119160863.07448      2988.081    22675556.173    92852625.85345
      2328.370  
 20  9 26  5 50 55.0000000  0  7G13G15G18G 5G29G30G20
  20602268.464   108265650.79249      -792.604    20602267.968    84362843.11647
      -617.617  
  20249625.896   106412504.36949      1304.065    20249625.727    82918838.71548
      1016.152  
  20695237.170   108754207.85748      1472.104    20695237.639    84743540.72248
      1147.094  
  22691641.565   119245374.48348     -2982.328    22691641.915    92918474.43446
     -2323.895  
  23276706.660   122319910.21647     -3425.104    23276708.198    95314215.90347
     -2668.918  
  24008824.345   126167222.24146     -1088.253    24008826.976    98312130.97345
      -847.991  
  22672713.572   119145924.67548      2987.176    22672713.553    92840985.54945
      2327.668  
 20  9 26  5 51  0.0000000  0  7G13G15G18G 5G29G30G20
  20603024.122   108269621.48849      -795.784    20603023.567    84365937.16547
      -620.094  
  20248386.527   106405991.97249      1300.917    20248386.597    82913764.12048
      1013.699  
  20693837.747   108746853.87548      1469.414    20693838.314    84737810.34548
      1144.996  
  22694479.409   119260287.42048     -2983.133    22694479.628    92930094.89647
     -2324.522  
  23279966.240   122337039.11047     -3426.370    23279967.959    95327563.07946
     -2669.901  
  24009861.130   126172670.02247     -1090.922    24009863.617    98316375.97345
      -850.073  
  22669871.719   119130990.29748      2986.269    22669871.645    92829348.38245
      2326.961  
 20  9 26  5 51  5.0000000  0  7G13G15G18G 5G29G30G20
  20603782.820   108273608.75849      -799.101    20603782.326    84369044.12748
      -622.680  
  20247150.374   106399495.66649      1297.574    20247150.384    82908702.06648
      1011.093  
  20692441.009   108739513.27648      1466.813    20692441.431    84732090.40248
      1142.968  
  22697318.183   119275205.25048     -2983.995    22697318.570    92941719.16947
     -2325.194  
  23283226.965   122354174.99247     -3428.016    23283228.692    95340915.70346
     -2671.184  
  24010900.540   126178132.93746     -1094.188    24010903.255    98320632.80345
      -852.616  
  22667030.639   119116060.34948      2985.691    22667030.474    92817714.66646
      2326.508  
 20  9 26  5 51 10.0000000  0  7G13G15G18G 5G29G30G20
  20604544.751   108277612.13549      -802.141    20604544.021    84372163.64247
      -625.047  
  20245917.289   106393015.01049      1294.711    20245917.126    82903652.20748
      1008.862  
  20691046.538   108732185.62648      1464.422    20691047.002    84726380.54448
      1141.105  
  22700157.748   119290127.54348     -2984.722    22700158.049    92953346.92147
     -2325.762  
  23286489.214   122371317.44547     -3428.938    23286490.875    95354273.45546
     -2671.902  
  24011942.984   126183610.58147     -1097.027    24011945.780    98324901.08145
      -854.827  
  22664190.307   119101134.46148      2984.973    22664190.302    92806084.10645
      2325.949  
 20  9 26  5 51 15.0000000  0  7G13G15G18G 5G29G30G20
  20605309.551   108281631.81149      -805.698    20605308.887    84375295.85747
      -627.819  
  20244687.042   106386550.20849      1291.348    20244686.786    82898614.70048
      1006.241  
  20689654.730   108724871.15648      1461.444    20689654.998    84720680.95848
      1138.785  
  22702998.263   119305054.45748     -2986.023    22702998.711    92964978.27347
     -2326.773  
  23289752.619   122388466.66047     -3430.433    23289754.304    95367636.46346
     -2673.065  
  24012988.284   126189103.11046     -1099.937    24012990.777    98329180.98345
      -857.097  
  22661350.766   119086212.82048      2983.843    22661350.643    92794456.86446
      2325.069  
 20  9 26  5 51 20.0000000  0  7G13G15G18G 5G29G30G20
  20606077.583   108285667.97349      -808.820    20606076.926    84378440.91248
      -630.254  
  20243459.838   106380101.39549      1288.308    20243459.617    82893589.65048
      1003.874  
  20688265.415   108717570.00748      1459.027    20688265.697    84714991.75248
      1136.901  
  22705839.717   119319986.17948     -2986.968    22705840.113    92976613.36946
     -2327.512  
  23293017.292   122405622.82247     -3431.926    23293018.941    95381004.88846
     -2674.230  
  24014036.263   126194610.71047     -1102.895    24014038.908    98333472.62045
      -859.402  
  22658512.161   119071295.57148      2983.108    22658512.185    92782833.03945
      2324.496  
 20  9 26  5 51 25.0000000  0  7G13G15G18G 5G29G30G20
  20606848.847   108289720.86549      -812.390    20606848.381    84381599.01548
      -633.034  
  20242235.683   106373668.91349      1284.843    20242235.618    82888577.32948
      1001.172  
  20686878.555   108710282.51048      1456.112    20686879.078    84709313.18448
      1134.629  
  22708682.133   119334923.05148     -2988.074    22708682.486    92988252.47546
     -2328.370  
  23296283.504   122422786.16447     -3433.335    23296285.052    95394378.90846
     -2675.328  
  24015087.275   126200133.62847     -1106.440    24015090.086    98337776.20644
      -862.164  
  22655674.463   119056383.05548      2982.176    22655674.215    92771212.90445
      2323.770  
 20  9 26  5 51 30.0000000  0  7G13G15G18G 5G29G30G20
  20607623.169   108293789.77249      -815.270    20607622.531    84384769.59148
      -635.277  
  20241014.566   106367251.99749      1282.058    20241014.566    82883577.13748
       999.004  
  20685494.172   108703007.93648      1453.843    20685494.665    84703644.68348
      1132.862  
  22711525.316   119349864.26748     -2988.499    22711525.606    92999894.98146
     -2328.703  
  23299550.695   122439955.95947     -3434.261    23299552.381    95407757.94946
     -2676.050  
  24016141.101   126205671.18147     -1108.718    24016143.870    98342091.18145
      -863.941  
  22652837.395   119041474.47648      2981.480    22652837.200    92759595.83245
      2323.226  
 20  9 26  5 51 35.0000000  0  7G13G15G18G 5G29G30G20
  20608400.524   108297874.48849      -818.644    20608399.861    84387952.47347
      -637.905  
  20239796.490   106360850.43449      1278.749    20239796.189    82878588.89648
       996.426  
  20684112.455   108695746.05848      1451.063    20684112.930    84697986.08348
      1130.695  
  22714369.243   119364809.61348     -2989.652    22714369.670    93011540.69946
     -2329.601  
  23302819.242   122457131.97647     -3435.897    23302820.872    95421141.84546
     -2677.327  
  24017197.600   126211223.11746     -1112.016    24017200.318    98346417.35044
      -866.508  
  22650001.078   119026569.61948      2980.586    22650000.931    92747981.66045
      2322.530  
 20  9 26  5 51 40.0000000  0  7G13G15G18G 5G29G30G20
  20609180.933   108301975.59149      -821.690    20609180.353    84391148.14547
      -640.280  
  20238581.284   106354464.88549      1275.578    20238581.249    82873613.13948
       993.953  
  20682733.031   108688497.50948      1448.441    20682733.401    84692337.86248
      1128.651  
  22717214.104   119379759.67648     -2990.301    22717214.736    93023190.08246
     -2330.108  
  23306089.056   122474314.78147     -3437.386    23306090.827    95434531.04646
     -2678.488  
  24018256.961   126216790.00746     -1114.742    24018259.674    98350755.20245
      -868.632  
  22647165.716   119011669.19648      2979.546    22647165.447    92736370.95245
      2321.723  
 20  9 26  5 51 45.0000000  0  7G13G15G18G 5G29G30G20
  20609964.575   108306093.69349      -825.359    20609964.018    84394357.06048
      -643.140  
  20237369.289   106348095.87149      1272.085    20237369.228    82868650.27448
       991.234  
  20681356.252   108681262.85948      1445.483    20681356.808    84686700.47448
      1126.348  
  22720060.136   119394715.05048     -2991.690    22720060.503    93034843.61246
     -2331.191  
  23309360.230   122491504.94647     -3438.776    23309361.806    95447925.97046
     -2679.569  
  24019319.131   126222372.49746     -1118.375    24019321.974    98355105.17445
      -871.465  
  22644331.075   118996773.74348      2978.729    22644331.137    92724764.11246
      2321.085  
 20  9 26  5 51 50.0000000  0  7G13G15G18G 5G29G30G20
  20610751.439   108310228.03249      -828.593    20610750.626    84397578.61848
      -645.659  
  20236160.354   106341742.65849      1269.147    20236160.142    82863699.73648
       988.944  
  20679982.152   108674041.38448      1442.995    20679982.636    84681073.34548
      1124.409  
  22722906.724   119409674.96948     -2992.379    22722907.280    93046500.68847
     -2331.727  
  23312632.724   122508701.76947     -3439.933    23312634.509    95461326.08046
     -2680.473  
  24020384.236   126227969.81746     -1121.358    24020387.014    98359466.71145
      -873.789  
  22641497.441   118981882.42548      2977.871    22641497.306    92713160.48845
      2320.414  
 20  9 26  5 51 55.0000000  0  7G13G15G18G 5G29G30G20
  20611541.171   108314378.82149      -831.769    20611540.419    84400813.00047
      -648.136  
  20234954.478   106335405.58049      1265.910    20234954.228    82858761.75248
       986.422  
  20678610.517   108666833.36548      1440.253    20678610.920    84675456.71148
      1122.273  
  22725754.471   119424639.82448     -2993.344    22725754.979    93058161.60446
     -2332.479  
  23315906.569   122525905.47247     -3441.395    23315908.184    95474731.54446
     -2681.609  
  24021452.318   126233582.15747     -1123.964    24021454.941    98363839.97644
      -875.819  
  22638664.554   118966995.66248      2976.854    22638664.458    92701560.41545
      2319.625  
 20  9 26  5 52  0.0000000  0  7G13G15G18G 5G29G30G20
  20612334.123   108318545.06549      -834.895    20612333.373    84404059.42247
      -650.570  
  20233751.431   106329083.58949      1262.702    20233751.240    82853835.53048
       983.921  
  20677241.168   108659637.79248      1437.684    20677241.648    84669849.76948
      1120.270  
  22728602.963   119439608.44248     -2994.269    22728603.471    93069825.45347
     -2333.198  
  23319181.574   122543115.01747     -3442.796    23319183.047    95488141.55846
     -2682.702  
  24022522.914   126239208.58346     -1126.949    24022525.733    98368224.18745
      -878.144  
  22635832.421   118952112.32948      2976.059    22635832.327    92689963.03145
      2319.004  
 20  9 26  5 52  5.0000000  0  7G13G15G18G 5G29G30G20
  20613129.924   108322727.80649      -838.250    20613129.277    84407318.70347
      -653.183  
  20232551.446   106322777.72049      1259.516    20232551.182    82848921.86848
       981.438  
  20675874.492   108652455.70648      1435.145    20675875.065    84664253.34248
      1118.293  
  22731452.236   119454581.87748     -2995.401    22731452.888    93081493.05846
     -2334.081  
  23322457.691   122560331.41047     -3443.933    23322459.159    95501556.93846
     -2683.585  
  24023596.573   126244850.13946     -1130.167    24023599.292    98372620.20344
      -880.652  
  22633001.052   118937233.53848      2975.218    22633000.932    92678369.16245
      2318.348  
 20  9 26  5 52 10.0000000  0  7G13G15G18G 5G29G30G20
  20613928.976   108326926.51249      -841.429    20613928.333    84410590.42147
      -655.663  
  20231354.502   106316487.45349      1256.336    20231354.291    82844020.36148
       978.961  
  20674510.278   108645286.58548      1432.354    20674510.918    84658667.01348
      1116.117  
  22734302.450   119469559.57448     -2996.323    22734302.819    93093163.98546
     -2334.800  
  23325735.127   122577554.11147     -3445.354    23325736.714    95514977.19746
     -2684.694  
  24024672.934   126250506.23547     -1133.273    24024675.459    98377027.55145
      -883.074  
  22630170.441   118922358.82748      2974.250    22630170.272    92666778.48746
      2317.593  
 20  9 26  5 52 15.0000000  0  7G13G15G18G 5G29G30G20
  20614731.062   108331141.87249      -844.694    20614730.550    84413875.11847
      -658.206  
  20230160.595   106310213.49149      1253.280    20230160.350    82839131.56048
       976.578  
  20673148.728   108638131.15548      1429.765    20673149.217    84653091.35548
      1114.102  
  22737153.617   119484542.27448     -2997.022    22737153.960    93104838.80546
     -2335.347  
  23329013.736   122594783.84847     -3446.676    23329015.209    95528402.96346
     -2685.723  
  24025752.066   126256177.54947     -1135.836    24025754.628    98381446.75645
      -885.069  
  22627340.773   118907488.85548      2973.554    22627340.597    92655191.50445
      2317.051  
 20  9 26  5 52 20.0000000  0  7G13G15G18G 5G29G30G20
  20615536.384   108335373.27449      -848.047    20615535.712    84417172.31048
      -660.820  
  20228969.751   106303955.22149      1249.848    20228969.335    82834254.99348
       973.901  
  20671789.458   108630988.80148      1426.913    20671789.949    84647525.88248
      1111.879  
  22740005.597   119499529.37548     -2998.063    22740006.062    93116517.06246
     -2336.156  
  23332293.653   122612019.96047     -3447.965    23332295.173    95541833.68046
     -2686.729  
  24026834.020   126261863.53746     -1139.098    24026836.691    98385877.40445
      -887.613  
  22624512.080   118892623.03148      2972.391    22624511.663    92643607.74445
      2316.145  
 20  9 26  5 52 25.0000000  0  7G13G15G18G 5G29G30G20
  20616344.738   108339621.45649      -851.194    20616344.062    84420482.58447
      -663.273  
  20227781.949   106297713.40749      1246.969    20227781.742    82829391.24748
       971.660  
  20670433.044   108623860.26448      1424.516    20670433.602    84641971.17848
      1110.008  
  22742858.481   119514521.60148     -2998.788    22742858.925    93128199.31146
     -2336.723  
  23335575.113   122629263.18147     -3449.108    23335576.379    95555269.95046
     -2687.621  
  24027918.848   126267564.87846     -1141.516    24027921.426    98390319.99444
      -889.495  
  22621684.120   118877762.06448      2971.816    22621683.718    92632027.77946
      2315.698  
 20  9 26  5 52 30.0000000  0  7G13G15G18G 5G29G30G20
  20617156.151   108343885.21049      -854.374    20617155.328    84423804.99048
      -665.749  
  20226596.996   106291486.87249      1243.601    20226596.842    82824539.40348
       969.035  
  20669078.918   108616744.37748      1421.714    20669079.479    84636426.33548
      1107.827  
  22745712.139   119529517.73748     -2999.819    22745712.525    93139884.60646
     -2337.526  
  23338857.524   122646512.30347     -3450.613    23338858.806    95568710.81546
     -2688.792  
  24029006.578   126273280.43447     -1144.604    24029009.164    98394773.66345
      -891.901  
  22618856.736   118862904.78348      2970.926    22618856.488    92620450.68545
      2315.003  
 20  9 26  5 52 35.0000000  0  7G13G15G18G 5G29G30G20
  20617970.623   108348165.85249      -857.574    20617970.013    84427140.55348
      -668.242  
  20225415.265   106285276.89549      1240.551    20225415.108    82819700.46248
       966.660  
  20667727.440   108609642.44248      1419.250    20667728.026    84630892.35848
      1105.906  
  22748566.924   119544519.10948     -3000.719    22748567.074    93151573.97646
     -2338.226  
  23342141.277   122663768.63347     -3451.707    23342142.709    95582157.28646
     -2689.645  
  24030097.155   126279011.48846     -1147.617    24030099.791    98399239.40844
      -894.249  
  22616030.498   118848052.48748      2969.988    22616030.214    92608877.46945
      2314.272  
 20  9 26  5 52 40.0000000  0  7G13G15G18G 5G29G30G20
  20618788.110   108352461.90149      -860.855    20618787.624    84430488.12447
      -670.801  
  20224236.589   106279082.04049      1237.324    20224236.297    82814873.30448
       964.145  
  20666378.440   108602553.05548      1416.586    20666378.991    84625368.16248
      1103.827  
  22751422.282   119559524.23748     -3001.637    22751422.600    93163266.28246
     -2338.940  
  23345426.136   122681030.72047     -3453.019    23345427.603    95595608.25546
     -2690.668  
  24031190.404   126284756.55046     -1150.512    24031193.046    98403716.10545
      -896.500  
  22613204.830   118833203.75248      2969.276    22613204.671    92597307.03245
      2313.719  
 20  9 26  5 52 45.0000000  0  7G13G15G18G 5G29G30G20
  20619608.839   108356774.45449      -864.237    20619608.175    84433848.55148
      -673.437  
  20223060.784   106272903.38949      1234.120    20223060.417    82810058.77248
       961.648  
  20665031.924   108595477.25348      1413.749    20665032.419    84619854.54848
      1101.621  
  22754278.581   119574534.22548     -3002.668    22754278.926    93174962.36746
     -2339.745  
  23348712.354   122698299.56347     -3454.558    23348713.698    95609064.48346
     -2691.867  
  24032286.509   126290516.71546     -1153.589    24032289.039    98408204.51245
      -898.906  
  22610380.115   118818359.65148      2968.324    22610379.917    92585740.19845
      2312.976  
 20  9 26  5 52 50.0000000  0  7G13G15G18G 5G29G30G20
  20620432.610   108361103.58749      -867.323    20620431.913    84437221.90148
      -675.840  
  20221888.199   106266741.00649      1231.043    20221887.725    82805256.91948
       959.250  
  20663688.059   108588415.16248      1411.280    20663688.517    84614351.62148
      1099.694  
  22757135.856   119589549.14848     -3003.082    22757136.193    93186662.30446
     -2340.066  
  23351999.877   122715575.27247     -3455.624    23352001.260    95622526.06246
     -2692.699  
  24033385.662   126296292.08546     -1156.574    24033388.064    98412704.80645
      -901.230  
  22607556.340   118803520.26948      2967.608    22607556.110    92574177.05745
      2312.417  
 20  9 26  5 52 55.0000000  0  7G13G15G18G 5G29G30G20
  20621259.442   108365448.77649      -870.840    20621258.821    84440607.76547
      -678.578  
  20220718.475   106260594.41449      1227.668    20220718.198    82800467.37048
       956.620  
  20662346.685   108581366.25448      1408.469    20662347.078    84608858.96648
      1097.504  
  22759993.883   119604568.55848     -3004.300    22759994.184    93198365.73546
     -2341.016  
  23355288.540   122732857.31147     -3457.051    23355289.828    95635992.57446
     -2693.809  
  24034487.429   126302082.09647     -1159.788    24034489.918    98417216.49545
      -903.734  
  22604733.334   118788685.08348      2966.409    22604733.047    92562617.17746
      2311.484  
 20  9 26  5 53  0.0000000  0  7G13G15G18G 5G29G30G20
  20622089.501   108369810.51249      -873.944    20622088.870    84444006.51947
      -681.000  
  20219551.980   106254464.09549      1224.461    20219551.607    82795690.50248
       954.121  
  20661007.968   108574331.03048      1405.745    20661008.313    84603376.97548
      1095.382  
  22762852.875   119619592.81748     -3005.512    22762853.144    93210072.95146
     -2341.961  
  23358578.549   122750146.14447     -3458.175    23358579.821    95649464.38746
     -2694.687  
  24035592.092   126307887.26247     -1162.543    24035594.766    98421740.00645
      -905.879  
  22601911.111   118773854.57848      2965.534    22601910.698    92551060.94545
      2310.804  
 20  9 26  5 53  5.0000000  0  7G13G15G18G 5G29G30G20
  20622922.416   108374187.73249      -877.042    20622921.895    84447417.33947
      -683.414  
  20218388.152   106248348.98349      1221.379    20218387.948    82790925.48248
       951.718  
  20659671.532   108567308.44948      1403.207    20659671.983    84597904.83548
      1093.405  
  22765712.595   119634620.84348     -3006.270    22765713.033    93221783.09446
     -2342.551  
  23361869.487   122767440.73347     -3459.604    23361870.796    95662940.66346
     -2695.804  
  24036699.397   126313706.50446     -1165.133    24036702.077    98426274.47944
      -907.898  
  22599089.637   118759027.75448      2965.011    22599089.371    92539507.58046
      2310.394  
 20  9 26  5 53 10.0000000  0  7G13G15G18G 5G29G30G20
  20623758.540   108378581.74849      -880.483    20623758.071    84450841.24347
      -686.094  
  20217227.739   106242250.43749      1218.137    20217227.450    82786173.37148
       949.195  
  20658337.746   108560299.86048      1400.296    20658338.368    84592443.59448
      1091.137  
  22768573.464   119649654.03048     -3007.030    22768573.721    93233497.25546
     -2343.145  
  23365161.958   122784742.38347     -3461.104    23365163.257    95676422.45946
     -2696.969  
  24037809.701   126319541.16046     -1168.668    24037812.217    98430820.94245
      -910.652  
  22596269.104   118744205.94148      2963.785    22596268.928    92527958.12245
      2309.441  
 20  9 26  5 53 15.0000000  0  7G13G15G18G 5G29G30G20
  20624597.912   108382992.33349      -883.926    20624597.423    84454278.06247
      -688.777  
  20216070.375   106236168.19849      1214.699    20216069.886    82781433.96648
       946.516  
  20657006.847   108553305.02948      1397.461    20657007.419    84586993.07748
      1088.925  
  22771435.127   119664692.10848     -3008.109    22771435.387    93245215.23846
     -2343.984  
  23368455.547   122802050.83747     -3462.207    23368456.937    95689909.55846
     -2697.827  
  24038922.884   126325391.03847     -1171.660    24038925.553    98435379.30445
      -912.984  
  22593449.520   118729388.86948      2962.812    22593449.196    92516412.35046
      2308.684  
 20  9 26  5 53 20.0000000  0  7G13G15G18G 5G29G30G20
  20625440.141   108387418.68549      -886.976    20625439.699    84457727.16747
      -691.152  
  20214915.866   106230101.46649      1211.655    20214915.487    82776706.64748
       944.144  
  20655678.216   108546323.18548      1394.836    20655678.658    84581552.68048
      1086.883  
  22774297.534   119679734.28248     -3008.901    22774297.817    93256936.41146
     -2344.601  
  23371750.463   122819365.33547     -3463.723    23371751.804    95703401.36146
     -2699.007  
  24040038.764   126331255.27646     -1174.804    24040041.379    98439948.83044
      -915.433  
  22590630.693   118714575.76648      2962.059    22590630.265    92504869.67645
      2308.094  
 20  9 26  5 53 25.0000000  0  7G13G15G18G 5G29G30G20
  20626285.606   108391861.38149      -890.082    20626285.161    84461189.00747
      -693.574  
  20213764.403   106224050.89349      1208.633    20213764.033    82771991.91648
       941.788  
  20654352.077   108539354.90048      1392.379    20654352.599    84576122.84648
      1084.968  
  22777160.879   119694781.22848     -3009.761    22777161.215    93268661.29646
     -2345.273  
  23375046.550   122836686.38747     -3464.785    23375047.940    95716898.26947
     -2699.836  
  24041157.504   126337134.48346     -1177.363    24041160.471    98444530.01245
      -917.430  
  22587812.814   118699767.24748      2961.156    22587812.333    92493330.58945
      2307.390  
 20  9 26  5 53 30.0000000  0  7G13G15G18G 5G29G30G20
  20627133.914   108396319.58249      -893.241    20627133.308    84464662.93247
      -696.035  
  20212615.982   106218015.67749      1205.417    20212615.747    82767289.15848
       939.284  
  20653028.563   108532399.41348      1389.706    20653028.961    84570702.98948
      1082.886  
  22780024.973   119709832.17548     -3010.569    22780025.292    93280389.30746
     -2345.901  
  23378343.775   122854013.20247     -3466.112    23378345.051    95730399.66946
     -2700.871  
  24042278.890   126343027.84446     -1180.133    24042281.978    98449122.24144
      -919.586  
  22584995.512   118684962.50248      2960.520    22584995.127    92481794.41445
      2306.894  
 20  9 26  5 53 35.0000000  0  7G13G15G18G 5G29G30G20
  20627985.465   108400794.69949      -896.550    20627985.107    84468150.03247
      -698.613  
  20211470.796   106211997.18949      1202.164    20211470.406    82762599.42748
       936.746  
  20651707.733   108525458.09448      1386.949    20651708.262    84565294.16848
      1080.738  
  22782890.042   119724888.40648     -3011.645    22782890.381    93292121.42946
     -2346.738  
  23381642.327   122871347.14947     -3467.468    23381643.581    95743906.63046
     -2701.926  
  24043403.352   126348936.74546     -1182.977    24043406.321    98453726.58045
      -921.805  
  22582179.133   118670162.92848      2959.554    22582178.881    92470262.29746
      2306.144  
 20  9 26  5 53 40.0000000  0  7G13G15G18G 5G29G30G20
  20628839.879   108405284.71149      -899.702    20628839.345    84471648.74347
      -701.069  
  20210328.285   106205993.40849      1199.129    20210327.987    82757921.16148
       934.382  
  20650389.007   108518528.92248      1384.409    20650389.525    84559894.81648
      1078.757  
  22785755.667   119739947.95948     -3012.430    22785756.186    93303856.14246
     -2347.352  
  23384941.862   122888686.19547     -3468.554    23384943.073    95757417.55946
     -2702.772  
  24044530.469   126354859.16046     -1186.132    24044533.268    98458341.45745
      -924.262  
  22579363.555   118655366.49748      2958.964    22579363.107    92458732.60945
      2305.683  
 20  9 26  5 53 45.0000000  0  7G13G15G18G 5G29G30G20
  20629697.523   108409791.44149      -903.121    20629697.007    84475160.47647
      -703.733  
  20209189.002   106200006.15349      1195.742    20209188.490    82753255.77048
       931.741  
  20649073.138   108511613.76448      1381.629    20649073.714    84554506.38148
      1076.590  
  22788622.442   119755012.55848     -3013.511    22788622.730    93315594.78646
     -2348.195  
  23388242.711   122906032.18247     -3469.956    23388243.840    95770933.89946
     -2703.867  
  24045660.201   126360796.90746     -1188.793    24045663.224    98462968.25145
      -926.336  
  22576548.930   118640575.04048      2957.843    22576548.327    92447206.80745
      2304.808  
 20  9 26  5 53 50.0000000  0  7G13G15G18G 5G29G30G20
  20630558.224   108414314.92449      -906.277    20630557.852    84478685.27347
      -706.190  
  20208052.752   106194035.46349      1192.535    20208052.420    82748603.28548
       929.245  
  20647759.910   108504712.64548      1378.819    20647760.336    84549128.88348
      1074.402  
  22791490.181   119770082.21848     -3014.241    22791490.513    93327337.37846
     -2348.762  
  23391544.851   122923385.10447     -3471.097    23391546.095    95784455.64247
     -2704.753  
  24046793.217   126366750.04346     -1192.046    24046796.120    98467607.05345
      -928.871  
  22573735.053   118625788.64348      2956.684    22573734.547    92435684.93945
      2303.906  
 20  9 26  5 53 55.0000000  0  7G13G15G18G 5G29G30G20
  20631422.146   108418854.33449      -909.534    20631421.626    84482222.47147
      -708.730  
  20206919.550   106188080.51149      1189.374    20206919.261    82743963.06248
       926.781  
  20646449.167   108497824.73748      1376.183    20646449.649    84543761.68248
      1072.347  
  22794358.678   119785156.17848     -3015.261    22794359.028    93339083.30946
     -2349.558  
  23394848.154   122940744.14347     -3472.534    23394849.574    95797982.15146
     -2705.874  
  24047928.679   126372717.71546     -1195.055    24047931.716    98472257.19144
      -931.214  
  22570922.109   118611006.42848      2955.858    22570921.711    92424166.34645
      2303.266  
 20  9 26  5 54  0.0000000  0  7G13G15G18G 5G29G30G20
  20632289.114   108423410.28049      -912.823    20632288.571    84485772.55847
      -711.292  
  20205789.394   106182141.90749      1186.093    20205789.046    82739335.58248
       924.227  
  20645141.105   108490950.69948      1373.480    20645141.647    84538405.29048
      1070.242  
  22797228.145   119800235.02148     -3016.503    22797228.497    93350833.05446
     -2350.526  
  23398152.591   122958109.85947     -3473.870    23398153.983    95811513.87246
     -2706.914  
  24049067.156   126378700.54646     -1198.077    24049070.168    98476919.14944
      -933.570  
  22568110.132   118596229.07548      2954.848    22568109.612    92412651.52345
      2302.476  
 20  9 26  5 54  5.0000000  0  7G13G15G18G 5G29G30G20
  20633159.124   108427982.02849      -916.229    20633158.438    84489334.95847
      -713.948  
  20204662.283   106176218.95849      1182.867    20204662.022    82734720.29748
       921.711  
  20643835.488   108484089.82048      1370.816    20643836.081    84533059.15348
      1068.163  
  22800098.359   119815318.03248     -3017.070    22800098.705    93362586.04546
     -2350.968  
  23401458.379   122975481.54647     -3475.042    23401459.868    95825050.23046
     -2707.828  
  24050208.317   126384697.82646     -1201.035    24050211.417    98481592.34144
      -935.874  
  22565298.699   118581455.83648      2954.168    22565298.217    92401139.92545
      2301.945  
 20  9 26  5 54 10.0000000  0  7G13G15G18G 5G29G30G20
  20634031.977   108432569.77449      -919.059    20634031.495    84492909.82247
      -716.152  
  20203538.228   106170311.88749      1179.887    20203537.914    82730117.38548
       919.391  
  20642532.561   108477242.29848      1368.203    20642532.973    84527723.42248
      1066.128  
  22802969.325   119830405.40448     -3017.762    22802969.666    93374342.43546
     -2351.504  
  23404765.324   122992859.41047     -3476.312    23404766.749    95838591.42046
     -2708.815  
  24051352.380   126390709.72846     -1203.777    24051355.276    98486276.94144
      -938.011  
  22562488.260   118566686.94048      2953.297    22562487.835    92389631.69245
      2301.265  
 20  9 26  5 54 15.0000000  0  7G13G15G18G 5G29G30G20
  20634908.098   108437173.44749      -922.258    20634907.712    84496497.10047
      -718.645  
  20202417.218   106164420.59349      1176.570    20202416.731    82725526.76848
       916.804  
  20641232.112   108470408.04948      1365.401    20641232.534    84522398.03048
      1063.945  
  22805841.263   119845497.04148     -3018.929    22805841.554    93386102.14846
     -2352.413  
  23408073.408   123010243.29347     -3477.484    23408074.818    95852137.28346
     -2709.729  
  24052499.255   126396736.19546     -1206.640    24052502.118    98490972.88245
      -940.241  
  22559678.744   118551922.27048      2952.468    22559678.213    92378126.76146
      2300.620  
 20  9 26  5 54 20.0000000  0  7G13G15G18G 5G29G30G20
  20635787.443   108441794.02949      -925.605    20635786.866    84500097.55347
      -721.254  
  20201299.435   106158546.10349      1173.473    20201298.974    82720949.23948
       914.390  
  20639934.314   108463588.11048      1362.671    20639934.545    84517083.79448
      1061.820  
  22808713.955   119860593.98548     -3019.801    22808714.216    93397865.99746
     -2353.094  
  23411382.804   123027634.28347     -3478.641    23411384.141    95865688.69046
     -2710.633  
  24053649.035   126402778.20046     -1209.874    24053651.901    98495680.92444
      -942.761  
  22556869.971   118537162.88048      2951.520    22556869.567    92366625.94945
      2299.882  
 20  9 26  5 54 25.0000000  0  7G13G15G18G 5G29G30G20
  20636669.456   108446429.28849      -928.922    20636668.942    84503709.44647
      -723.840  
  20200184.292   106152686.14449      1170.187    20200183.900    82716383.03948
       911.832  
  20638638.803   108456780.18448      1359.980    20638638.994    84511778.91648
      1059.723  
  22811587.390   119875693.92248     -3020.605    22811587.858    93409632.17546
     -2353.722  
  23414693.165   123045030.03547     -3480.195    23414694.412    95879243.82146
     -2711.844  
  24054801.261   126408833.47246     -1212.784    24054804.332    98500399.31345
      -945.031  
  22554061.991   118522406.47348      2950.602    22554061.661    92355127.45146
      2299.167  
 20  9 26  5 54 30.0000000  0  7G13G15G18G 5G29G30G20
  20637554.716   108451081.79749      -932.233    20637554.191    84507334.77047
      -726.417  
  20199072.409   106146843.34649      1166.894    20199072.006    82711830.21048
       909.266  
  20637345.945   108449986.91848      1357.300    20637346.370    84506485.46448
      1057.632  
  22814461.958   119890799.47348     -3021.753    22814462.241    93421402.73146
     -2354.616  
  23418004.839   123062433.12647     -3481.457    23418006.136    95892804.65346
     -2712.827  
  24055956.557   126414904.59246     -1215.742    24055959.753    98505130.06745
      -947.335  
  22551254.977   118507655.66948      2949.578    22551254.686    92343633.32646
      2298.371  
 20  9 26  5 54 35.0000000  0  7G13G15G18G 5G29G30G20
  20638443.013   108455749.80149      -935.233    20638442.605    84510972.17747
      -728.758  
  20197963.378   106141015.97649      1163.828    20197963.058    82707289.40648
       906.875  
  20636055.751   108443206.62248      1354.612    20636056.207    84501202.11748
      1055.538  
  22817337.126   119905908.92548     -3022.371    22817337.593    93433176.31746
     -2355.098  
  23421317.500   123079841.86847     -3482.272    23421318.868    95906369.89347
     -2713.464  
  24057114.534   126420989.89946     -1218.590    24057117.550    98509871.86445
      -949.554  
  22548448.696   118492908.81648      2948.851    22548448.438    92332142.27245
      2297.805  
 20  9 26  5 54 40.0000000  0  7G13G15G18G 5G29G30G20
  20639334.337   108460433.61449      -938.551    20639333.714    84514621.90047
      -731.340  
  20196857.577   106135204.35949      1160.581    20196857.028    82702760.86848
       904.348  
  20634768.032   108436439.57948      1351.976    20634768.481    84495929.09548
      1053.483  
  22820213.241   119921022.57848     -3023.198    22820213.649    93444953.19246
     -2355.742  
  23424631.495   123097256.56247     -3483.608    23424632.817    95919939.77146
     -2714.504  
  24058275.342   126427089.67246     -1221.257    24058278.248    98514624.91745
      -951.633  
  22545643.384   118478166.17748      2948.015    22545642.917    92320654.50745
      2297.151  
 20  9 26  5 54 45.0000000  0  7G13G15G18G 5G29G30G20
  20640228.914   108465134.21149      -941.801    20640228.261    84518284.70047
      -733.875  
  20195754.813   106129409.42249      1157.313    20195754.418    82698245.33348
       901.797  
  20633482.990   108429686.76348      1349.055    20633483.440    84490667.16248
      1051.206  
  22823090.295   119936141.37648     -3024.245    22823090.719    93456734.06246
     -2356.558  
  23427946.803   123114678.12547     -3484.980    23427947.981    95933514.99946
     -2715.573  
  24059438.996   126433204.84346     -1224.854    24059442.235    98519390.00045
      -954.438  
  22542838.821   118463428.69048      2947.159    22542838.424    92309170.76246
      2296.484  
 20  9 26  5 54 50.0000000  0  7G13G15G18G 5G29G30G20
  20641126.349   108469850.73049      -944.887    20641125.732    84521959.91347
      -736.276  
  20194655.108   106123630.33549      1154.128    20194654.726    82693742.15248
       899.316  
  20632200.590   108422947.33248      1346.714    20632200.832    84485415.65848
      1049.387  
  22825968.120   119951264.45048     -3025.007    22825968.528    93468518.27246
     -2357.152  
  23431263.051   123132105.74847     -3486.066    23431264.406    95947094.95846
     -2716.418  
  24060605.515   126439334.59446     -1227.390    24060608.609    98524166.41945
      -956.409  
  22540035.217   118448695.56148      2946.305    22540034.871    92297690.40246
      2295.820  
 20  9 26  5 54 55.0000000  0  7G13G15G18G 5G29G30G20
  20642027.017   108474583.30349      -948.398    20642026.379    84525647.63047
      -739.015  
  20193558.428   106117867.24649      1150.862    20193557.978    82689251.43748
       896.773  
  20630920.668   108416221.45348      1343.645    20630920.925    84480174.71448
      1046.992  
  22828846.715   119966391.97748     -3026.081    22828847.063    93480305.95447
     -2357.988  
  23434580.621   123149539.47847     -3487.499    23434582.009    95960679.67346
     -2717.535  
  24061774.898   126445479.02346     -1230.512    24061777.836    98528954.27145
      -958.844  
  22537232.368   118433966.92648      2945.016    22537232.030    92286213.54845
      2294.812  
 20  9 26  5 55  0.0000000  0  7G13G15G18G 5G29G30G20
  20642930.724   108479332.12949      -951.426    20642930.180    84529348.01347
      -741.374  
  20192464.812   106112120.34849      1147.699    20192464.419    82684773.33948
       894.308  
  20629643.432   108409509.31548      1341.058    20629643.716    84474944.47748
      1044.977  
  22831726.436   119981524.16648     -3026.690    22831726.797    93492097.26346
     -2358.464  
  23437899.324   123166979.53647     -3488.648    23437900.852    95974269.31246
     -2718.429  
  24062946.948   126451638.34547     -1233.527    24062949.721    98533753.75645
      -961.190  
  22534430.467   118419242.96448      2944.351    22534430.193    92274740.33846
      2294.296  
 20  9 26  5 55  5.0000000  0  7G13G15G18G 5G29G30G20
  20643837.288   108484096.59349      -954.476    20643836.675    84533060.58247
      -743.750  
  20191374.240   106106389.07349      1144.632    20191373.787    82680307.41348
       891.917  
  20628368.659   108402810.33948      1338.546    20628368.936    84469724.49548
      1043.019  
  22834606.712   119996660.40348     -3027.484    22834607.012    93503891.73346
     -2359.082  
  23441219.177   123184425.29347     -3489.582    23441220.674    95987863.39846
     -2719.155  
  24064121.616   126457811.98647     -1236.121    24064124.658    98538564.39344
      -963.214  
  22531629.535   118404523.11948      2943.641    22531629.123    92263270.33145
      2293.742  
 20  9 26  5 55 10.0000000  0  7G13G15G18G 5G29G30G20
  20644747.083   108488877.00649      -957.741    20644746.357    84536785.58047
      -746.297  
  20190286.513   106100673.71749      1141.522    20190286.055    82675853.89548
       889.495  
  20627096.361   108396124.86348      1335.761    20627096.839    84464515.03648
      1040.852  
  22837487.935   120011801.01648     -3028.659    22837488.227    93515689.60646
     -2360.000  
  23444540.195   123201877.11447     -3490.945    23444541.680    96001462.20746
     -2720.218  
  24065299.352   126464000.21746     -1239.344    24065302.338    98543386.39045
      -965.726  
  22528829.172   118389807.70748      2942.809    22528828.789    92251803.77646
      2293.093  
 20  9 26  5 55 15.0000000  0  7G13G15G18G 5G29G30G20
  20645659.738   108493673.85349      -960.934    20645659.212    84540523.37947
      -748.781  
  20189202.031   106094974.75549      1138.218    20189201.763    82671413.14948
       886.922  
  20625826.940   108389453.35548      1333.022    20625827.186    84459316.45548
      1038.715  
  22840369.928   120026946.43148     -3029.582    22840370.408    93527491.22046
     -2360.715  
  23447862.376   123219335.38747     -3492.344    23447863.920    96015066.03746
     -2721.308  
  24066479.727   126470203.50446     -1242.043    24066482.739    98548220.09145
      -967.828  
  22526029.928   118375097.20548      2941.797    22526029.651    92240341.05446
      2292.304  
 20  9 26  5 55 20.0000000  0  7G13G15G18G 5G29G30G20
  20646575.632   108498486.90549      -964.234    20646574.991    84544273.81147
      -751.354  
  20188120.597   106089291.96749      1134.948    20188120.396    82666985.00848
       884.371  
  20624559.958   108382795.60248      1330.230    20624560.228    84454128.59848
      1036.538  
  22843252.877   120042096.42848     -3030.187    22843253.347    93539296.40646
     -2361.187  
  23451185.664   123236799.94347     -3493.738    23451187.113    96028674.76846
     -2722.401  
  24067662.943   126476421.69047     -1245.188    24067665.952    98553065.43145
      -970.276  
  22523231.475   118360391.42748      2940.797    22523231.283    92228882.01946
      2291.526  
 20  9 26  5 55 25.0000000  0  7G13G15G18G 5G29G30G20
  20647494.570   108503315.61649      -967.352    20647493.940    84548036.44147
      -753.784  
  20187042.199   106083624.85249      1131.976    20187041.950    82662569.07748
       882.055  
  20623295.639   108376151.12348      1327.641    20623295.940    84448951.08348
      1034.523  
  22846136.575   120057250.52248     -3031.054    22846137.014    93551104.78846
     -2361.863  
  23454510.280   123254270.20147     -3494.523    23454511.560    96042287.94846
     -2723.008  
  24068849.043   126482654.19246     -1247.914    24068851.926    98557921.92344
      -972.401  
  22520433.771   118345689.82948      2940.035    22520433.640    92217426.23246
      2290.933  
 20  9 26  5 55 30.0000000  0  7G13G15G18G 5G29G30G20
  20648416.550   108508160.83949      -970.563    20648415.832    84551811.93747
      -756.285  
  20185967.023   106077974.26849      1128.522    20185966.679    82658166.02348
       879.366  
  20622033.791   108369520.72448      1324.671    20622034.103    84443784.54048
      1032.207  
  22849021.253   120072409.51148     -3032.316    22849021.612    93562916.98547
     -2362.848  
  23457835.821   123271746.97647     -3495.800    23457837.432    96055906.21146
     -2724.003  
  24070037.843   126488901.84646     -1251.159    24070040.966    98562790.21845
      -974.934  
  22517637.195   118330993.19248      2939.147    22517636.886    92205974.30546
      2290.242  
 20  9 26  5 55 35.0000000  0  7G13G15G18G 5G29G30G20
  20649341.382   108513020.95949      -973.754    20649340.888    84555599.04247
      -758.772  
  20184894.522   106072338.61149      1125.453    20184894.097    82653774.60548
       876.973  
  20620774.428   108362902.82148      1322.147    20620774.727    84438627.73048
      1030.241  
  22851906.500   120087571.77448     -3033.116    22851906.954    93574731.72747
     -2363.472  
  23461162.559   123289228.66447     -3497.191    23461164.065    96069528.28246
     -2725.086  
  24071229.500   126495163.04547     -1253.773    24071232.440    98567669.07445
      -976.969  
  22514841.198   118316300.00248      2938.276    22514840.944    92194525.07745
      2289.562  
 20  9 26  5 55 40.0000000  0  7G13G15G18G 5G29G30G20
  20650269.456   108517897.58349      -976.906    20650268.887    84559399.00947
      -761.229  
  20183825.250   106066719.48849      1122.280    20183824.960    82649396.07148
       874.499  
  20619517.914   108356299.01348      1319.344    20619518.018    84433481.90548
      1028.058  
  22854792.688   120102738.92048     -3033.977    22854793.264    93586550.27946
     -2364.141  
  23464490.415   123306716.85147     -3498.258    23464491.955    96083155.43346
     -2725.918  
  24072423.799   126501439.34947     -1256.503    24072426.690    98572559.70545
      -979.098  
  22512045.963   118301611.81748      2937.417    22512045.770    92183079.74346
      2288.895  
 20  9 26  5 55 45.0000000  0  7G13G15G18G 5G29G30G20
  20651200.558   108522790.46149      -980.133    20651199.811    84563211.64447
      -763.741  
  20182759.032   106061116.66049      1118.957    20182758.731    82645030.23248
       871.910  
  20618263.861   108349709.11148      1316.601    20618264.002    84428346.91948
      1025.922  
  22857679.827   120117910.75448     -3034.828    22857680.358    93598372.47546
     -2364.805  
  23467819.593   123324211.33347     -3499.504    23467821.040    96096787.48146
     -2726.891  
  24073620.935   126507730.62046     -1259.921    24073624.088    98577462.00445
      -981.762  
  22509251.893   118286928.50848      2935.999    22509251.736    92171638.20446
      2287.789  
 20  9 26  5 55 50.0000000  0  7G13G15G18G 5G29G30G20
  20652134.709   108527699.05349      -983.308    20652133.908    84567036.52047
      -766.218  
  20181695.847   106055529.58449      1115.734    20181695.447    82640676.66548
       869.398  
  20617012.302   108343132.56148      1313.960    20617012.656    84423222.33548
      1023.863  
  22860567.710   120133086.77448     -3035.609    22860568.151    93610197.94346
     -2365.413  
  23471149.754   123341711.50947     -3500.608    23471151.095    96110423.96746
     -2727.749  
  24074820.912   126514036.25946     -1262.784    24074823.795    98582375.48045
      -983.992  
  22506458.564   118272249.46548      2935.445    22506458.164    92160199.99446
      2287.355  
 20  9 26  5 55 55.0000000  0  7G13G15G18G 5G29G30G20
  20653071.717   108532623.93849      -986.719    20653071.195    84570874.08947
      -768.874  
  20180635.717   106049958.84449      1112.429    20180635.318    82636335.83348
       866.824  
  20615763.405   108336569.96748      1311.043    20615763.767    84418108.62548
      1021.590  
  22863456.574   120148267.47948     -3036.883    22863457.147    93622027.05446
     -2366.405  
  23474481.248   123359218.00047     -3501.874    23474482.673    96124065.37946
     -2728.737  
  24076023.559   126520356.80946     -1265.651    24076026.498    98587300.56745
      -986.227  
  22503666.186   118257575.22848      2934.262    22503665.889    92148765.53145
      2286.433  
 20  9 26  5 56  0.0000000  0  7G13G15G18G 5G29G30G20
  20654011.967   108537564.89249      -989.637    20654011.412    84574724.18247
      -771.148  
  20179578.825   106044404.24549      1109.358    20179578.381    82632007.57448
       864.434  
  20614517.359   108330021.14048      1308.515    20614517.574    84413005.64348
      1019.621  
  22866346.180   120163452.65248     -3037.394    22866346.665    93633859.64846
     -2366.804  
  23477813.666   123376730.53947     -3502.839    23477815.195    96137711.50146
     -2729.487  
  24077229.262   126526692.13246     -1268.473    24077232.124    98592237.18245
      -988.422  
  22500874.567   118242905.64048      2933.511    22500874.330    92137334.69046
      2285.851  
 20  9 26  5 56  5.0000000  0  7G13G15G18G 5G29G30G20
  20654955.248   108542521.49349      -992.668    20654954.554    84578586.47147
      -773.511  
  20178524.781   106038865.36649      1106.395    20178524.361    82627691.56748
       862.120  
  20613273.598   108323485.69248      1305.827    20613274.050    84407913.08648
      1017.522  
  22869236.593   120178641.90448     -3038.202    22869237.167    93645695.42946
     -2367.434  
  23481147.236   123394248.75447     -3504.229    23481148.933    96151362.03746
     -2730.573  
  24078437.446   126533041.80446     -1271.340    24078440.241    98597184.97245
      -990.656  
  22498083.902   118228240.35148      2932.788    22498083.720    92125907.20245
      2285.284  
 20  9 26  5 56 10.0000000  0  7G13G15G18G 5G29G30G20
  20655901.394   108547493.61649      -996.234    20655900.626    84582460.85347
      -776.288  
  20177473.784   106033342.08749      1102.776    20177473.286    82623387.71648
       859.305  
  20612032.478   108316963.43848      1302.867    20612032.708    84402830.81248
      1015.219  
  22872127.928   120193835.06448     -3039.362    22872128.403    93657534.24447
     -2368.340  
  23484481.943   123411772.41747     -3505.641    23484483.390    96165016.83146
     -2731.672  
  24079648.482   126539405.62747     -1274.526    24079651.267    98602143.79344
      -993.140  
  22495294.012   118213579.22048      2931.535    22495293.586    92114482.94446
      2284.309  
 20  9 26  5 56 15.0000000  0  7G13G15G18G 5G29G30G20
  20656850.787   108552482.55349      -999.187    20656850.142    84586348.33547
      -778.589  
  20176425.832   106027835.75349      1099.645    20176425.611    82619097.06848
       856.862  
  20610794.039   108310455.74248      1300.339    20610794.312    84397759.88148
      1013.250  
  22875020.019   120209033.44848     -3039.929    22875020.574    93669377.13747
     -2368.781  
  23487817.824   123429302.87047     -3506.687    23487819.342    96178676.90246
     -2732.488  
  24080862.384   126545784.94346     -1277.065    24080865.339    98607114.68545
      -995.121  
  22492505.063   118198923.57048      2930.804    22492504.739    92103062.95846
      2283.742  
 20  9 26  5 56 20.0000000  0  7G13G15G18G 5G29G30G20
  20657803.016   108557486.71049     -1002.555    20657802.340    84590247.67847
      -781.214  
  20175380.915   106022344.70949      1096.511    20175380.631    82614818.33348
       854.422  
  20609558.075   108303960.98948      1297.590    20609558.615    84392699.03448
      1011.105  
  22877912.866   120224235.46348     -3040.819    22877913.245    93681222.86147
     -2369.472  
  23491154.847   123446838.48347     -3507.683    23491156.456    96192341.01346
     -2733.261  
  24082079.084   126552178.15146     -1280.233    24082082.031    98612096.39844
      -997.589  
  22489716.866   118184271.78048      2929.789    22489716.561    92091645.98846
      2282.949  
 20  9 26  5 56 25.0000000  0  7G13G15G18G 5G29G30G20
  20658758.292   108562506.74649     -1005.745    20658757.689    84594159.39347
      -783.702  
  20174339.052   106016869.68049      1093.464    20174338.829    82610552.07848
       852.047  
  20608324.782   108297479.86348      1294.800    20608325.107    84387648.80548
      1008.934  
  22880806.498   120239441.75848     -3041.612    22880806.919    93693071.91146
     -2370.090  
  23494492.805   123464379.94647     -3508.972    23494494.344    96206009.67146
     -2734.270  
  24083298.283   126558585.89446     -1282.905    24083301.283    98617089.43844
      -999.671  
  22486929.609   118169624.52048      2928.983    22486929.378    92080232.53646
      2282.323  
 20  9 26  5 56 30.0000000  0  7G13G15G18G 5G29G30G20
  20659716.799   108567543.14549     -1009.007    20659715.976    84598083.85547
      -786.242  
  20173300.437   106011411.12549      1090.104    20173299.956    82606298.66048
       849.430  
  20607094.150   108291012.85248      1291.996    20607094.536    84382609.57548
      1006.746  
  22883701.054   120254652.84948     -3042.636    22883701.569    93704924.70646
     -2370.891  
  23497832.098   123481927.73347     -3510.288    23497833.725    96219683.25246
     -2735.292  
  24084520.559   126565008.65546     -1286.062    24084523.538    98622094.17944
     -1002.129  
  22484143.320   118154982.25048      2928.159    22484142.951    92068822.98746
      2281.679  
 20  9 26  5 56 35.0000000  0  7G13G15G18G 5G29G30G20
  20660678.173   108572595.75949     -1012.035    20660677.426    84602020.95747
      -788.601  
  20172264.667   106005968.93049      1086.930    20172264.265    82602057.99148
       846.953  
  20605866.188   108284559.86748      1289.234    20605866.620    84377581.27648
      1004.593  
  22886596.559   120269868.61048     -3043.523    22886597.207    93716781.13846
     -2371.577  
  23501172.533   123499481.68147     -3511.348    23501174.104    96233361.63946
     -2736.116  
  24085745.678   126571446.35546     -1288.906    24085748.516    98627110.57144
     -1004.348  
  22481357.817   118140344.92748      2926.979    22481357.722    92057417.28546
      2280.761  
 20  9 26  5 56 40.0000000  0  7G13G15G18G 5G29G30G20
  20661642.584   108577663.80449     -1015.151    20661642.042    84605970.08547
      -791.031  
  20171232.123   106000542.31649      1083.753    20171231.745    82597829.46048
       844.480  
  20604640.892   108278120.10948      1286.554    20604641.168    84372563.28348
      1002.508  
  22889492.831   120285088.21648     -3044.519    22889493.314    93728640.55946
     -2372.355  
  23504513.921   123517040.98447     -3512.398    23504515.620    96247044.21246
     -2736.937  
  24086973.453   126577898.14146     -1291.898    24086976.164    98632137.93045
     -1006.675  
  22478573.232   118125711.74248      2926.113    22478572.982    92046014.80246
      2280.085  
 20  9 26  5 56 45.0000000  0  7G13G15G18G 5G29G30G20
  20662610.049   108582747.58949     -1018.276    20662609.361    84609931.47047
      -793.464  
  20170202.442   105995131.55349      1080.402    20170202.149    82593613.28348
       841.866  
  20603417.878   108271693.87648      1283.766    20603418.159    84367555.82948
      1000.332  
  22892389.684   120300311.93948     -3044.965    22892390.391    93740503.19746
     -2372.703  
  23507856.439   123534605.93747     -3513.645    23507858.166    96260731.16346
     -2737.906  
  24088203.889   126584364.31146     -1294.996    24088206.627    98637176.50245
     -1009.090  
  22475789.412   118111082.97948      2925.401    22475789.170    92034615.77846
      2279.531  
 20  9 26  5 56 50.0000000  0  7G13G15G18G 5G29G30G20
  20663580.536   108587847.78249     -1021.694    20663579.858    84613905.64947
      -796.128  
  20169175.988   105989737.40849      1077.121    20169175.754    82589410.05348
       839.313  
  20602197.696   108265281.93648      1280.851    20602198.069    84362559.51548
       998.063  
  22895287.659   120315540.58548     -3046.327    22895288.213    93752369.67046
     -2373.766  
  23511200.277   123552177.20647     -3514.840    23511201.872    96274423.04846
     -2738.839  
  24089437.160   126590845.63146     -1297.788    24089439.783    98642226.88044
     -1011.266  
  22473006.720   118096459.40048      2924.102    22473006.383    92023220.79146
      2278.515  
 20  9 26  5 56 55.0000000  0  7G13G15G18G 5G29G30G20
  20664554.284   108592964.01849     -1025.042    20664553.528    84617892.32347
      -798.737  
  20168152.602   105984359.44849      1074.030    20168152.278    82585219.43648
       836.901  
  20600980.191   108258883.87048      1278.180    20600980.687    84357574.00748
       995.980  
  22898186.413   120330773.67148     -3047.077    22898187.018    93764239.60246
     -2374.351  
  23514545.080   123569754.42247     -3515.921    23514546.587    96288119.56746
     -2739.684  
  24090673.318   126597341.65646     -1300.733    24090675.942    98647288.71544
     -1013.562  
  22470224.818   118081840.56048      2923.347    22470224.549    92011829.49046
      2277.930  
 20  9 26  5 57  0.0000000  0  7G13G15G18G 5G29G30G20
  20665530.696   108598095.38049     -1028.030    20665529.888    84621890.78947
      -801.066  
  20167132.041   105978996.79949      1070.847    20167131.724    82581040.74848
       834.421  
  20599765.158   108252498.80248      1275.585    20599765.481    84352598.63048
       993.960  
  22901085.925   120346010.33548     -3047.886    22901086.518    93776112.32046
     -2374.980  
  23517890.840   123587336.69947     -3517.104    23517892.541    96301820.03346
     -2740.605  
  24091912.087   126603851.49046     -1303.461    24091914.943    98652361.31045
     -1015.687  
  22467443.656   118067225.61048      2922.555    22467443.470    92000441.21746
      2277.312  
 20  9 26  5 57  5.0000000  0  7G13G15G18G 5G29G30G20
  20666510.339   108603243.37549     -1031.246    20666509.671    84625902.21047
      -803.570  
  20166114.719   105973650.92349      1067.581    20166114.590    82576875.13148
       831.878  
  20598552.997   108246128.19548      1272.645    20598553.218    84347634.52148
       991.667  
  22903986.392   120361252.02048     -3048.766    22903986.751    93787988.94646
     -2375.664  
  23521237.929   123604925.45847     -3518.320    23521239.461    96315525.54546
     -2741.551  
  24093153.750   126610376.63146     -1306.565    24093156.574    98657445.83244
     -1018.105  
  22464663.626   118052616.01948      2921.500    22464663.382    91989057.12846
      2276.491  
 20  9 26  5 57 10.0000000  0  7G13G15G18G 5G29G30G20
  20667492.808   108608406.43949     -1034.129    20667492.154    84629925.37747
      -805.815  
  20165100.461   105968320.33749      1064.559    20165100.146    82572721.43148
       829.522  
  20597343.095   108239770.55248      1270.391    20597343.398    84342680.51248
       989.909  
  22906887.410   120376497.25048     -3049.237    22906887.952    93799868.34746
     -2376.030  
  23524586.005   123622519.15547     -3519.155    23524587.387    96329234.90046
     -2742.207  
  24094398.086   126616915.53846     -1309.164    24094401.039    98662541.08445
     -1020.132  
  22461884.189   118038010.26148      2920.729    22461884.038    91977676.02546
      2275.890  
 20  9 26  5 57 15.0000000  0  7G13G15G18G 5G29G30G20
  20668478.342   108613585.89249     -1037.546    20668477.801    84633961.31347
      -808.480  
  20164089.250   105963006.32449      1061.078    20164088.892    82568580.64048
       826.813  
  20596136.067   108233427.17048      1267.145    20596136.271    84337737.62048
       987.382  
  22909789.397   120391747.23548     -3050.394    22909789.886    93811751.43946
     -2376.933  
  23527935.196   123640119.08147     -3520.358    23527936.753    96342949.11846
     -2743.140  
  24095645.262   126623469.46046     -1312.190    24095648.358    98667648.02144
     -1022.488  
  22459105.717   118023409.63448      2919.597    22459105.425    91966298.91346
      2275.007  
 20  9 26  5 57 20.0000000  0  7G13G15G18G 5G29G30G20
  20669467.126   108618781.36349     -1040.577    20669466.375    84638009.73247
      -810.844  
  20163081.073   105957708.60249      1058.120    20163080.800    82564452.54748
       824.507  
  20594931.509   108227097.73948      1264.745    20594931.820    84332805.59548
       985.512  
  22912692.146   120407001.74948     -3051.269    22912692.829    93823638.07046
     -2377.617  
  23531285.337   123657724.97147     -3521.594    23531286.865    96356667.98646
     -2744.102  
  24096895.263   126630038.13146     -1315.324    24096898.229    98672766.47244
     -1024.929  
  22456328.179   118008813.82648      2918.847    22456328.059    91954925.56146
      2274.422  
 20  9 26  5 57 25.0000000  0  7G13G15G18G 5G29G30G20
  20670458.744   108623992.10449     -1043.688    20670458.112    84642070.04547
      -813.266  
  20162075.927   105952426.39649      1054.836    20162075.622    82560336.54548
       821.945  
  20593729.601   108220781.54548      1261.715    20593729.811    84327883.88548
       983.151  
  22915595.634   120422259.96647     -3051.987    22915596.239    93835527.58046
     -2378.176  
  23534636.807   123675336.00247     -3522.770    23534638.173    96370390.84446
     -2745.022  
  24098147.776   126636620.76046     -1317.973    24098150.831    98677895.79444
     -1026.995  
  22453551.597   117994222.10048      2917.855    22453551.363    91943555.39446
      2273.652  
 20  9 26  5 57 30.0000000  0  7G13G15G18G 5G29G30G20
  20671453.403   108629219.19549     -1047.184    20671452.780    84646143.10547
      -815.991  
  20161073.849   105947160.72149      1051.522    20161073.643    82556233.42148
       819.367  
  20592530.362   108214479.59748      1259.008    20592530.744    84322973.27748
       981.043  
  22918500.076   120437522.94147     -3052.809    22918500.657    93847420.81047
     -2378.816  
  23537989.225   123692953.20547     -3524.054    23537990.758    96384118.52846
     -2746.020  
  24099403.343   126643218.36947     -1320.800    24099406.262    98683036.79044
     -1029.198  
  22450775.783   117979635.53548      2916.663    22450775.700    91932189.23646
      2272.723  
 20  9 26  5 57 35.0000000  0  7G13G15G18G 5G29G30G20
  20672450.922   108634461.72549     -1050.121    20672450.369    84650228.19147
      -818.281  
  20160074.802   105941910.72749      1048.464    20160074.573    82552142.51948
       816.979  
  20591333.777   108208191.06148      1256.327    20591334.113    84318073.11848
       978.953  
  22921405.298   120452789.82948     -3053.746    22921406.023    93859317.07746
     -2379.547  
  23541342.569   123710575.67747     -3525.266    23541344.299    96397850.31246
     -2746.964  
  24100661.566   126649830.15846     -1323.781    24100664.470    98688188.81844
     -1031.520  
  22448000.917   117965053.23848      2915.910    22448000.745    91920826.41646
      2272.133  
 20  9 26  5 57 40.0000000  0  7G13G15G18G 5G29G30G20
  20673451.680   108639720.27549     -1053.258    20673450.915    84654325.76047
      -820.722  
  20159078.796   105936676.99149      1045.104    20159078.697    82548064.29448
       814.362  
  20590139.690   108201916.49948      1253.554    20590139.936    84313183.85248
       976.792  
  22924311.448   120468061.18948     -3055.059    22924311.886    93871216.81947
     -2380.566  
  23544697.272   123728204.04246     -3526.187    23544698.819    96411586.69545
     -2747.683  
  24101922.462   126656456.61546     -1326.874    24101925.544    98693352.29644
     -1033.934  
  22445226.827   117950475.79548      2915.086    22445226.776    91909467.38246
      2271.492  
 20  9 26  5 57 45.0000000  0  7G13G15G18G 5G29G30G20
  20674455.285   108644994.75149     -1056.512    20674454.622    84658435.74147
      -823.258  
  20158086.032   105931459.41949      1041.757    20158085.748    82543998.64548
       811.757  
  20588948.268   108195655.84648      1250.663    20588948.680    84308305.42048
       974.538  
  22927218.201   120483336.90647     -3055.679    22927218.769    93883119.99046
     -2381.051  
  23548052.918   123745838.07947     -3527.542    23548054.475    96425327.48646
     -2748.737  
  24103186.207   126663097.70546     -1329.729    24103189.287    98698527.17845
     -1036.155  
  22442453.863   117935903.14448      2913.969    22442453.767    91898112.06346
      2270.620  
 20  9 26  5 57 50.0000000  0  7G13G15G18G 5G29G30G20
  20675462.130   108650285.25949     -1059.218    20675461.502    84662558.21547
      -825.366  
  20157096.299   105926258.12049      1038.984    20157095.966    82539945.68748
       809.593  
  20587759.688   108189409.22248      1248.167    20587759.858    84303437.92448
       972.594  
  22930126.092   120498617.10147     -3056.054    22930126.589    93895026.62146
     -2381.343  
  23551409.553   123763477.97247     -3528.281    23551411.114    96439072.83046
     -2749.315  
  24104452.776   126669753.50746     -1332.374    24104455.788    98703713.50645
     -1038.219  
  22439681.684   117921335.36948      2913.336    22439681.478    91886760.56246
      2270.129  
 20  9 26  5 57 55.0000000  0  7G13G15G18G 5G29G30G20
  20676471.619   108655590.44049     -1062.823    20676471.060    84666692.12147
      -828.180  
  20156109.239   105921071.86449      1035.387    20156109.124    82535904.45048
       806.793  
  20586573.398   108183175.28748      1245.156    20586573.724    84298580.31048
       970.250  
  22933034.378   120513900.43547     -3057.210    22933034.909    93906935.70446
     -2382.245  
  23554767.300   123781122.33447     -3529.792    23554768.840    96452821.68746
     -2750.492  
  24105721.815   126676422.66646     -1335.484    24105725.063    98708910.25645
     -1040.641  
  22436910.246   117906771.14748      2911.972    22436909.946    91875411.82346
      2269.066  
 20  9 26  5 58  0.0000000  0  7G13G15G18G 5G29G30G20
  20677484.361   108660912.43749     -1065.897    20677483.802    84670839.13247
      -830.573  
  20155125.625   105915902.72249      1032.195    20155125.454    82531876.55148
       804.304  
  20585389.957   108176956.23448      1242.391    20585390.278    84293734.29448
       968.093  
  22935943.809   120529189.06548     -3058.210    22935944.215    93918848.92146
     -2383.023  
  23558126.168   123798773.36847     -3530.840    23558127.723    96466575.71946
     -2751.308  
  24106993.945   126683107.37647     -1338.366    24106997.080    98714119.10745
     -1042.887  
  22434139.750   117892212.65648      2911.198    22434139.618    91864067.54346
      2268.465  
 20  9 26  5 58  5.0000000  0  7G13G15G18G 5G29G30G20
  20678500.142   108666250.52949     -1069.120    20678499.454    84674998.68147
      -833.085  
  20154145.032   105910749.91849      1029.164    20154144.962    82527861.38048
       801.941  
  20584209.189   108170751.31848      1239.766    20584209.529    84288899.29648
       966.047  
  22938853.988   120544482.25548     -3059.055    22938854.463    93930765.68146
     -2383.683  
  23561486.226   123816430.24847     -3531.539    23561487.826    96480334.31046
     -2751.852  
  24108268.764   126689806.84847     -1341.039    24108271.707    98719339.49244
     -1044.969  
  22431370.389   117877659.15848      2910.277    22431370.281    91852727.16446
      2267.746  
 20  9 26  5 58 10.0000000  0  7G13G15G18G 5G29G30G20
  20679518.792   108671603.75949     -1072.179    20679518.285    84679170.03247
      -835.468  
  20153167.491   105905612.59549      1025.948    20153167.385    82523858.27248
       799.438  
  20583030.898   108164559.60748      1237.003    20583031.218    84284074.58948
       963.894  
  22941764.923   120559779.03848     -3059.359    22941765.444    93942685.25346
     -2383.918  
  23564847.213   123834092.03947     -3532.785    23564848.658    96494096.73346
     -2752.823  
  24109546.375   126696520.17446     -1343.937    24109549.140    98724570.64745
     -1047.227  
  22428601.607   117863109.73548      2909.359    22428601.436    91841389.95846
      2267.031  
 20  9 26  5 58 15.0000000  0  7G13G15G18G 5G29G30G20
  20680540.468   108676972.67049     -1075.362    20680539.826    84683353.60047
      -837.948  
  20152192.999   105900491.26149      1022.804    20152192.752    82519867.62648
       796.987  
  20581855.243   108158381.62348      1234.202    20581855.586    84279260.57448
       961.714  
  22944676.410   120575079.94648     -3060.534    22944677.183    93954608.02846
     -2384.836  
  23568209.147   123851759.30847     -3534.094    23568210.694    96507863.42645
     -2753.844  
  24110826.478   126703247.88346     -1346.921    24110829.565    98729813.02644
     -1049.551  
  22425833.794   117848564.90848      2908.418    22425833.809    91830056.33246
      2266.296  
 20  9 26  5 58 20.0000000  0  7G13G15G18G 5G29G30G20
  20681565.197   108682357.96849     -1078.605    20681564.530    84687549.93547
      -840.476  
  20151221.541   105895386.62249      1019.335    20151221.280    82515889.98648
       794.285  
  20580682.463   108152218.12448      1231.363    20580682.642    84274457.84648
       959.500  
  22947589.045   120590385.69448     -3061.480    22947589.646    93966534.57446
     -2385.574  
  23571572.234   123869432.70247     -3535.132    23571573.747    96521634.87946
     -2754.656  
  24112109.631   126709990.64746     -1349.901    24112112.653    98735067.11745
     -1051.875  
  22423067.099   117834025.39048      2907.566    22423066.903    91818726.84346
      2265.632  
 20  9 26  5 58 25.0000000  0  7G13G15G18G 5G29G30G20
  20682592.970   108687758.26549     -1081.640    20682592.163    84691757.95447
      -842.839  
  20150253.145   105890297.32349      1016.315    20150252.995    82511924.30048
       791.933  
  20579511.970   108146067.73748      1228.684    20579512.385    84269665.33848
       957.413  
  22950502.284   120605694.93148     -3062.296    22950502.850    93978463.84647
     -2386.207  
  23574936.241   123887110.89647     -3536.089    23574938.063    96535410.09446
     -2755.397  
  24113395.438   126716747.17146     -1352.902    24113398.123    98740331.93345
     -1054.210  
  22420300.977   117819489.84848      2906.777    22420301.009    91807400.43946
      2265.020  
 20  9 26  5 58 30.0000000  0  7G13G15G18G 5G29G30G20
  20683623.603   108693174.68549     -1084.944    20683622.981    84695978.54247
      -845.414  
  20149287.778   105885224.47349      1012.929    20149287.633    82507971.43148
       789.292  
  20578344.329   108139931.58348      1225.769    20578344.584    84264883.91948
       955.141  
  22953416.441   120621008.74048     -3063.222    22953417.023    93990396.67747
     -2386.929  
  23578301.417   123904794.98447     -3537.391    23578303.066    96549189.87846
     -2756.409  
  24114683.899   126723518.45346     -1355.688    24114686.863    98745608.26745
     -1056.382  
  22417536.017   117804959.38748      2905.430    22417536.056    91796078.01346
      2263.968  
 20  9 26  5 58 35.0000000  0  7G13G15G18G 5G29G30G20
  20684657.272   108698606.87049     -1088.374    20684656.714    84700211.41547
      -848.086  
  20148325.469   105880167.72349      1009.523    20148325.450    82504031.10748
       786.637  
  20577179.352   108133809.33748      1222.796    20577179.705    84260113.33948
       952.824  
  22956331.381   120636326.79047     -3064.145    22956331.941    94002332.81346
     -2387.648  
  23581667.744   123922484.68447     -3538.766    23581669.523    96562974.05146
     -2757.483  
  24115975.254   126730304.22647     -1358.729    24115978.067    98750895.87544
     -1058.753  
  22414771.801   117790433.67748      2904.644    22414771.847    91784759.28846
      2263.354  
