     2.11           OBSERVATION DATA    M                   RINEX VERSION / TYPE
LEICA GEO OFFICE 8.4                    6-10-20 09:54       PGM / RUN BY / DATE
                                                            OBSERVER / AGENCY
KAM1                                                        MARKER NAME
KAM1                                                        MARKER NUMBER
468117              LEICA GX1220GG      5.60                REC # / TYPE / VERS
                    LEIAX1202GG                             ANT # / TYPE
 -1174572.0693  3824834.4734  4951588.9789                  APPROX POSITION XYZ
        1.4440        0.0000        0.0000                  ANTENNA: DELTA H/E/N
L1PhaOff:   0.0644  L2PhaOff:   0.0640                      COMMENT
     1     1                                                WAVELENGTH FACT L1/2
     6    C1    L1    D1    P2    L2    D2                  # / TYPES OF OBSERV
  2020     9    26     7    13   45.0000000     GPS         TIME OF FIRST OBS
  2020     9    26     8    52   25.0000000     GPS         TIME OF LAST OBS
    18                                                      LEAP SECONDS
    21                                                      # OF SATELLITES
          C1    L1    D1    P2    L2    D2                  COMMENT
   G 1     0     0     0     0     0     0                  PRN / # OF OBS
   G 2     0     0     0     0     0     0                  PRN / # OF OBS
   G 3     0     0     0     0     0     0                  PRN / # OF OBS
   G 4     0     0     0     0     0     0                  PRN / # OF OBS
   G 5     0     0     0     0     0     0                  PRN / # OF OBS
   G 6     0     0     0     0     0     0                  PRN / # OF OBS
   G 7     0     0     0     0     0     0                  PRN / # OF OBS
   G 8   401   401   401   220   220   220                  PRN / # OF OBS
   G 9     0     0     0     0     0     0                  PRN / # OF OBS
   G10  1185  1185  1185  1185  1185  1185                  PRN / # OF OBS
   G11    44    44    44    14    14    14                  PRN / # OF OBS
   G12     0     0     0     0     0     0                  PRN / # OF OBS
   G13   318   318   318   165   165   165                  PRN / # OF OBS
   G14     0     0     0     0     0     0                  PRN / # OF OBS
   G15  1171  1171  1171  1153  1153  1153                  PRN / # OF OBS
   G16     0     0     0     0     0     0                  PRN / # OF OBS
   G17     0     0     0     0     0     0                  PRN / # OF OBS
   G18  1185  1185  1185  1185  1185  1185                  PRN / # OF OBS
   G19     0     0     0     0     0     0                  PRN / # OF OBS
   G20  1185  1185  1185  1185  1185  1185                  PRN / # OF OBS
   G21   782   782   782   762   762   762                  PRN / # OF OBS
   G22     0     0     0     0     0     0                  PRN / # OF OBS
   G23     0     0     0     0     0     0                  PRN / # OF OBS
   G24  1182  1182  1182  1182  1182  1182                  PRN / # OF OBS
   G25     0     0     0     0     0     0                  PRN / # OF OBS
   G26     0     0     0     0     0     0                  PRN / # OF OBS
   G27   665   665   665   663   663   663                  PRN / # OF OBS
   G28     0     0     0     0     0     0                  PRN / # OF OBS
   G29     0     0     0     0     0     0                  PRN / # OF OBS
   G30     0     0     0     0     0     0                  PRN / # OF OBS
   G31     0     0     0     0     0     0                  PRN / # OF OBS
   G32   688   688   688   684   684   684                  PRN / # OF OBS
   R 1  1185  1185  1185  1185  1185  1185                  PRN / # OF OBS
   R 2   688   688   688   687   687   687                  PRN / # OF OBS
   R 3     0     0     0     0     0     0                  PRN / # OF OBS
   R 4     0     0     0     0     0     0                  PRN / # OF OBS
   R 5     0     0     0     0     0     0                  PRN / # OF OBS
   R 6     0     0     0     0     0     0                  PRN / # OF OBS
   R 7    86    86    86    50    50    50                  PRN / # OF OBS
   R 8  1152  1152  1152  1154  1154  1154                  PRN / # OF OBS
   R 9     0     0     0     0     0     0                  PRN / # OF OBS
   R10  1160  1160  1160     0     0     0                  PRN / # OF OBS
   R11   664   664   664   663   663   663                  PRN / # OF OBS
   R12     0     0     0     0     0     0                  PRN / # OF OBS
   R13     0     0     0     0     0     0                  PRN / # OF OBS
   R14     0     0     0     0     0     0                  PRN / # OF OBS
   R15     0     0     0     0     0     0                  PRN / # OF OBS
   R16     0     0     0     0     0     0                  PRN / # OF OBS
   R17  1143  1143  1143  1146  1146  1146                  PRN / # OF OBS
   R18    81    81    81    45    45    45                  PRN / # OF OBS
   R19     0     0     0     0     0     0                  PRN / # OF OBS
   R20     0     0     0     0     0     0                  PRN / # OF OBS
   R21     0     0     0     0     0     0                  PRN / # OF OBS
   R22     0     0     0     0     0     0                  PRN / # OF OBS
   R23   642   642   642   404   404   404                  PRN / # OF OBS
   R24  1126  1126  1126  1125  1125  1125                  PRN / # OF OBS
                                                            END OF HEADER
 20 09 26 07 13 45.0000000  0 12G15G20G18G24G27G10G13R10R 8R 1R24R23
  20485708.481   107653123.60748     -1689.191    20485706.612    83885544.69247
     -1316.258  
  20442285.233   107424933.92749      1568.354    20442283.211    83707727.37246
      1222.089  
  20711146.269   108837808.52248     -1572.121    20711144.772    84808675.48847
     -1225.035  
  21836096.201   114749464.53346      2817.499    21836099.485    89415183.01544
      2195.449  
  23844840.540   125305477.65646      -380.741    23844839.040    97640640.04042
      -296.694  
  23060187.280   121182104.06749      2949.730    23060188.487    94427620.72646
      2298.491  
  22611163.749   118822485.70745     -3134.676    22611151.543    92588885.50251
     -2442.605  
  22159123.937   118120608.03406      3341.538           0.000           0.0000 
         0.000  
  19567210.111   104781520.47308     -1013.128    19567212.445    81496744.57206
      -787.991  
  20112781.529   107514344.15808      1917.355    20112787.592    83622294.36406
      1491.277  
  20293838.933   108520281.35109        72.843    20293843.720    84404679.96107
        56.655  
  20641881.223   110420145.64305     -3093.292    20641888.115    85882362.06605
     -2405.894  
 20 09 26 07 13 50.0000000  0 12G15G20G18G24G27G10G13R10R 8R 1R24R23
  20487317.273   107661577.80248     -1692.469    20487315.362    83892132.37747
     -1318.812  
  20440794.533   107417100.18449      1565.438    20440792.516    83701623.16347
      1219.816  
  20712644.062   108845679.44148     -1576.008    20712642.489    84814808.67347
     -1228.062  
  21833416.924   114735384.83446      2814.391    21833419.759    89404211.89244
      2193.039  
  23845204.625   125307391.43546      -384.840    23845203.474    97642131.24541
      -299.890  
  23057381.369   121167359.06049      2948.309    23057382.540    94416131.12146
      2297.383  
  22614147.064   118838163.59944     -3136.601    22614138.368    92601116.08454
     -2444.104  
  22155991.512   118103909.66406      3337.781           0.000           0.0000 
         0.000  
  19568157.609   104786594.28308     -1016.102    19568159.839    81500690.87206
      -790.300  
  20110989.623   107504765.20608      1914.516    20110995.660    83614844.07406
      1489.065  
  20293773.436   108519931.01209        67.382    20293778.144    84404407.47207
        52.406  
  20644774.465   110435622.31906     -3097.409    20644781.198    85894399.46005
     -2409.104  
 20 09 26 07 13 55.0000000  0 12G15G20G18G24G27G10G13R10R 8R 1R24R23
  20488926.872   107670036.11048     -1692.566    20488924.907    83898723.26047
     -1318.886  
  20439304.256   107409268.75549      1565.550    20439302.275    83695520.75146
      1219.906  
  20714143.214   108853557.53948     -1576.944    20714141.587    84820947.44447
     -1228.793  
  21830738.280   114721308.96546      2814.254    21830740.924    89393243.66445
      2192.925  
  23845570.415   125309313.64346      -385.695    23845568.775    97643629.09041
      -300.550  
  23054574.642   121152609.67749      2949.711    23054575.714    94404638.10946
      2298.477  
  22617129.721   118853839.75404     -3135.676           0.000           0.0000 
         0.000  
  22152859.851   118087216.11706      3337.977           0.000           0.0000 
         0.000  
  19569105.729   104791671.14208     -1016.227    19569107.861    81504639.53807
      -790.401  
  20109198.079   107495188.37808      1914.645    20109204.129    83607395.42306
      1489.163  
  20293710.841   108519596.10309        64.895    20293715.497    84404146.97807
        50.469  
  20647669.703   110451108.01506     -3098.563    20647675.976    85906443.90205
     -2409.991  
 20 09 26 07 14  0.0000000  0 12G15G20G18G24G27G10G13R10R 8R 1R24R23
  20490539.632   107678511.19348     -1696.952    20490537.616    83905327.21847
     -1322.305  
  20437816.827   107401452.32849      1561.464    20437814.851    83689430.03146
      1216.727  
  20715646.109   108861455.49648     -1581.797    20715644.493    84827101.69047
     -1232.573  
  21828062.757   114707249.62546      2810.050    21828065.228    89382288.35544
      2189.647  
  23845940.355   125311257.00546      -390.726    23845938.175    97645143.37541
      -304.472  
  23051769.497   121137868.56949      2947.215    23051770.437    94393151.52946
      2296.530  
  22620114.817   118869526.97845     -3138.762    22620115.876    92625593.00954
     -2445.789  
  22149731.455   118070540.41306      3333.132           0.000           0.0000 
         0.000  
  19570056.827   104796764.00808     -1020.496    19570058.938    81508600.64706
      -793.722  
  20107409.287   107485626.38208      1910.598    20107415.384    83599958.32206
      1486.019  
  20293653.539   108519289.52409        58.226    20293658.164    84403908.52507
        45.284  
  20650568.804   110466615.59406     -3103.925    20650574.848    85918505.34705
     -2414.167  
 20 09 26 07 14  5.0000000  0 12G15G20G18G24G27G10G13R10R 8R 1R24R23
  20492155.405   107687002.04348     -1699.285    20492153.371    83911943.46547
     -1324.120  
  20436332.086   107393649.92949      1559.433    20436330.121    83683350.24546
      1215.144  
  20717152.619   108869372.35448     -1584.839    20717151.005    84833270.66747
     -1234.945  
  21825390.294   114693205.95246      2807.749    21825392.891    89371345.20844
      2187.854  
  23846314.035   125313220.54847      -394.382    23846311.464    97646673.33943
      -307.331  
  23048965.760   121123134.80349      2946.438    23048966.574    94381670.68046
      2295.926  
  22623101.858   118885224.14045     -3139.464    22623105.166    92637833.62351
     -2446.336  
  22146606.220   118053881.34106      3330.535           0.000           0.0000 
         0.000  
  19571010.698   104801871.85208     -1022.765    19571012.833    81512573.42806
      -795.483  
  20105623.141   107476078.47408      1908.519    20105629.330    83592532.18706
      1484.401  
  20293601.355   108519010.19309        53.613    20293605.914    84403691.27107
        41.695  
  20653471.655   110482144.01206     -3107.214    20653477.577    85930582.99505
     -2416.727  
 20 09 26 07 14 10.0000000  0 12G15G20G18G24G27G10G13R10R 8R 1R24R23
  20493773.683   107695505.96748     -1701.890    20493771.575    83918569.89947
     -1326.152  
  20434849.527   107385858.84349      1557.473    20434847.496    83677279.27146
      1213.613  
  20718662.173   108877305.36348     -1587.809    20718660.576    84839452.23147
     -1237.258  
  21822720.186   114679175.06846      2805.351    21822722.671    89360412.07444
      2185.987  
  23846691.056   125315201.49347      -397.664    23846688.696    97648217.04141
      -309.851  
  23046162.919   121108405.65049      2945.598    23046163.619    94370193.42446
      2295.269  
  22626090.119   118900928.68305     -3141.051           0.000           0.0000 
         0.000  
  22143483.670   118037236.48306      3328.063           0.000           0.0000 
         0.000  
  19571966.764   104806991.63408     -1024.711    19571968.968    81516555.48007
      -796.995  
  20103839.161   107466541.82408      1906.621    20103845.437    83585114.79306
      1482.925  
  20293553.785   108518755.41009        48.839    20293558.288    84403493.09607
        37.984  
  20656377.865   110497690.56006     -3111.011    20656383.704    85942674.75305
     -2419.675  
 20 09 26 07 14 15.0000000  0 12G15G20G18G24G27G10G13R10R 8R 1R24R23
  20495393.758   107704019.29848     -1704.050    20495391.584    83925203.65847
     -1327.835  
  20433368.431   107378075.47449      1555.597    20433366.325    83671214.31046
      1212.148  
  20720174.121   108885250.89148     -1590.839    20720172.520    84845643.54547
     -1239.620  
  21820051.927   114665153.58247      2803.090    21820054.175    89349486.27844
      2184.229  
  23847070.768   125317196.27047      -400.683    23847068.768    97649771.30943
      -312.230  
  23043360.245   121093677.46449      2945.202    23043360.848    94358716.92146
      2294.965  
  22629079.221   118916636.86305     -3142.250           0.000           0.0000 
         0.000  
  22140363.123   118020602.11806      3324.898           0.000           0.0000 
         0.000  
  19572924.455   104812120.12308     -1026.789    19572926.775    81520544.30307
      -798.613  
  20102056.505   107457012.66308      1904.762    20102062.947    83577703.22506
      1481.479  
  20293510.120   108518521.47409        44.289    20293514.528    84403311.15307
        34.444  
  20659286.976   110513251.43506     -3113.816    20659292.362    85954777.63105
     -2421.858  
 20 09 26 07 14 20.0000000  0 13G15G20G18G24G27G10G13R10R 8R 1R24R23
                                R17
  20497016.353   107712545.87548     -1706.418    20497014.122    83931847.74247
     -1329.680  
  20431889.532   107370303.65149      1553.496    20431887.332    83665158.33146
      1210.511  
  20721689.159   108893212.71948     -1593.641    20721687.620    84851847.56247
     -1241.801  
  21817386.158   114651145.40346      2800.956    21817388.343    89338570.82944
      2182.565  
  23847453.819   125319208.68347      -404.206    23847451.837    97651339.41542
      -314.969  
  23040558.469   121078954.09449      2944.426    23040559.040    94347244.17146
      2294.358  
  22632069.817   118932352.45905     -3143.534           0.000           0.0000 
         0.000  
  22137245.374   118003981.92106      3322.816           0.000           0.0000 
         0.000  
  19573884.399   104817260.60908     -1029.145    19573886.837    81524542.45907
      -800.445  
  20100276.105   107447495.06008      1902.656    20100282.583    83570300.65806
      1479.844  
  20293471.060   108518312.23109        39.648    20293475.361    84403148.41107
        30.835  
  20662199.494   110528830.60106     -3117.590    20662204.508    85966894.77505
     -2424.792  
  22771392.947   121854322.57515      3551.562           0.000           0.0000 
         0.000  
 20 09 26 07 14 25.0000000  0 13G15G20G18G24G27G10G13R10R 8R 1R24R23
                                R17
  20498641.048   107721083.63848     -1709.042    20498638.806    83938500.55147
     -1331.723  
  20430412.466   107362541.33349      1551.145    20430410.155    83659109.78946
      1208.684  
  20723206.916   108901188.86448     -1597.183    20723205.435    84858062.73347
     -1244.563  
  21814722.577   114637148.31646      2797.765    21814724.706    89327663.99445
      2180.073  
  23847839.813   125321236.66147      -407.387    23847837.995    97652919.51041
      -317.473  
  23037757.208   121064233.52449      2943.511    23037757.727    94335773.60546
      2293.644  
  22635061.260   118948073.53404     -3145.273           0.000           0.0000 
         0.000  
  22134129.916   117987374.14806      3320.051           0.000           0.0000 
         0.000  
  19574846.304   104822411.69208     -1031.742    19574848.868    81528548.84707
      -802.469  
  20098497.410   107437986.76208      1900.409    20098503.897    83562905.31506
      1478.093  
  20293436.255   108518125.73909        34.624    20293440.438    84403003.34808
        26.926  
  20665114.859   110544425.83306     -3120.929    20665119.763    85979024.38205
     -2427.397  
  22768075.282   121836571.54905      3547.992    22768084.072    94761807.90914
      2759.547  
 20 09 26 07 14 30.0000000  0 13G15G20G18G24G27G10G13R10R 8R 1R24R23
                                R17
  20500268.325   107729634.81848     -1711.284    20500266.108    83945163.80047
     -1333.473  
  20428937.624   107354790.76649      1549.082    20428935.193    83653070.37746
      1207.073  
  20724727.772   108909181.51648     -1600.077    20724726.416    84864290.76947
     -1246.815  
  21812061.523   114623164.44446      2795.499    21812063.665    89316767.50745
      2178.315  
  23848229.198   125323282.45347      -410.921    23848227.676    97654513.78141
      -320.190  
  23034956.902   121049517.97749      2942.828    23034957.418    94324306.96546
      2293.113  
  22638054.225   118963802.29845     -3146.336    22638057.751    92699039.36651
     -2451.691  
  22131017.019   117970780.81106      3317.616           0.000           0.0000 
         0.000  
  19575810.516   104827575.09908     -1033.831    19575813.223    81532564.85207
      -804.090  
  20096720.882   107428490.13708      1898.313    20096727.377    83555519.04306
      1476.464  
  20293406.093   108517964.10209        30.078    20293410.182    84402877.63507
        23.390  
  20668033.772   110560039.55007     -3124.367    20668038.566    85991168.34705
     -2430.070  
  22764762.122   121818834.87905      3546.047    22764768.614    94748012.63204
      2758.022  
 20 09 26 07 14 35.0000000  0 13G15G20G18G24G27G10G13R10R 8R 1R24R23
                                R17
  20501897.619   107738196.78448     -1713.925    20501895.433    83951835.45747
     -1335.530  
  20427464.542   107347049.29449      1547.065    20427461.931    83647038.05247
      1205.503  
  20726251.276   108917188.02548     -1603.030    20726250.005    84870529.61347
     -1249.117  
  21809402.478   114609191.35146      2793.206    21809404.434    89305879.39845
      2176.527  
  23848621.491   125325343.37346      -414.233    23848619.126    97656119.76542
      -322.776  
  23032157.071   121034804.79249      2942.003    23032157.560    94312842.14046
      2292.469  
  22641048.234   118979535.88905     -3147.563           0.000           0.0000 
         0.000  
  22127906.313   117954199.44005      3314.831           0.000           0.0000 
         0.000  
  19576776.574   104832748.38608     -1036.078    19576779.372    81536588.51507
      -805.844  
  20094946.029   107419002.40708      1896.276    20094952.491    83548139.72006
      1474.883  
  20293380.098   108517824.72309        25.449    20293384.110    84402769.22907
        19.788  
  20670955.531   110575668.80306     -3127.598    20670960.263    86003324.47505
     -2432.570  
  22761449.266   121801109.86604      3543.550    22761456.881    94734226.51704
      2756.090  
 20 09 26 07 14 40.0000000  0 13G15G20G18G24G27G10G13R10R 8R 1R24R23
                                R17
  20503529.174   107746770.69948     -1716.386    20503527.023    83958516.42247
     -1337.449  
  20425993.417   107339318.16849      1544.905    20425990.629    83641013.78847
      1203.820  
  20727777.651   108925209.61648     -1606.151    20727776.501    84876780.20247
     -1251.547  
  21806745.791   114595230.17747      2790.929    21806747.474    89295000.56244
      2174.750  
  23849016.889   125327420.73746      -417.605    23849014.188    97657738.41743
      -325.398  
  23029357.943   121020095.21749      2941.308    23029358.366    94301380.15846
      2291.930  
  22644043.307   118995275.75904     -3148.570           0.000           0.0000 
         0.000  
  22124798.115   117937631.18005      3312.183           0.000           0.0000 
         0.000  
  19577744.697   104837932.57808     -1038.386    19577747.588    81540620.66507
      -807.636  
  20093173.100   107409524.89808      1894.254    20093179.519    83540768.31906
      1473.305  
  20293358.506   108517708.81909        20.586    20293362.450    84402679.08007
        16.011  
  20673880.543   110591315.14607     -3131.276    20673885.166    86015493.85305
     -2435.437  
  22758139.495   121783397.92304      3540.117    22758146.856    94720450.60204
      2753.433  
 20 09 26 07 14 45.0000000  0 13G15G20G18G24G27G10G13R10R 8R 1R24R23
                                R17
  20505163.432   107755358.90748     -1718.819    20505161.342    83965208.52847
     -1339.343  
  20424524.689   107331599.70249      1542.441    20424521.764    83634999.40346
      1201.901  
  20729307.347   108933248.63048     -1609.445    20729306.313    84883044.37047
     -1254.113  
  21804091.847   114581283.35746      2787.773    21804093.341    89284132.92344
      2172.289  
  23849415.778   125329516.75546      -421.418    23849412.821    97659371.69142
      -328.382  
  23026559.957   121005391.60649      2940.254    23026560.345    94289922.79446
      2291.101  
  22647040.076   119011024.16805     -3151.108           0.000           0.0000 
         0.000  
  22121692.929   117921078.50905      3308.862           0.000           0.0000 
         0.000  
  19578715.273   104843130.25008     -1040.577    19578718.248    81544663.30607
      -809.340  
  20091402.546   107400059.96008      1891.733    20091408.890    83533406.69806
      1471.343  
  20293341.736   108517618.79909        15.417    20293345.647    84402609.06807
        11.992  
  20676809.107   110606980.77206     -3134.926    20676813.731    86027678.21205
     -2438.281  
  22754832.752   121765701.40904      3537.641    22754839.864    94706686.65404
      2751.500  
 20 09 26 07 14 50.0000000  0 13G15G20G18G24G27G10G13R10R 8R 1R24R23
                                R17
  20506799.937   107763958.73448     -1721.066    20506797.857    83971909.68747
     -1341.093  
  20423057.839   107323891.22749      1540.813    20423054.739    83628992.80846
      1200.632  
  20730839.855   108941302.35848     -1612.023    20730838.902    84889320.00247
     -1256.124  
  21801440.083   114567348.18546      2785.875    21801441.415    89273274.35645
      2170.812  
  23849817.729   125331628.77346      -423.953    23849814.900    97661017.44941
      -330.343  
  23023762.580   120990691.25748      2939.730    23023762.985    94278467.97846
      2290.695  
  22650037.952   119026778.30204     -3150.937           0.000           0.0000 
         0.000  
  22118589.991   117904538.66605      3306.844           0.000           0.0000 
         0.000  
  19579687.845   104848338.55008     -1042.620    19579690.840    81548714.20907
      -810.926  
  20089633.837   107390604.91308      1890.097    20089640.120    83526052.77006
      1470.070  
  20293329.305   108517551.95209        11.171    20293333.184    84402557.07808
         8.687  
  20679740.821   110622662.90007     -3137.832    20679745.366    86039875.40905
     -2440.539  
  22751528.052   121748017.66305      3535.801    22751535.469    94692932.67405
      2750.070  
 20 09 26 07 14 55.0000000  0 12G15G20G18G24G27G10G13R10R 8R 1R24R23
  20508438.463   107772569.24448     -1723.199    20508436.362    83978619.18847
     -1342.753  
  20421592.719   107316191.84749      1538.952    20421589.459    83622993.29246
      1199.183  
  20732374.997   108949369.95848     -1614.948    20732374.137    84895606.44147
     -1258.401  
  21798790.389   114553423.76246      2783.698    21798791.634    89262424.16545
      2169.112  
  23850222.559   125333755.97946      -426.973    23850219.796    97662674.99241
      -332.727  
  23020965.634   120975993.33549      2939.355    23020966.056    94267015.05146
      2290.402  
  22653036.789   119042537.29405     -3151.949           0.000           0.0000 
         0.000  
  22115489.375   117888010.61005      3304.391           0.000           0.0000 
         0.000  
  19580662.247   104853556.61408     -1044.515    19580665.251    81552772.69107
      -812.405  
  20087866.824   107381158.87608      1888.237    20087873.068    83518705.85806
      1468.629  
  20293321.034   108517507.31809         6.726    20293324.873    84402522.35808
         5.226  
  20682675.462   110638360.65607     -3141.046    20682679.954    86052084.76705
     -2443.039  
 20 09 26 07 15  0.0000000  0 12G15G20G18G24G27G10G13R10R 8R 1R24R23
  20510079.374   107781192.16748     -1725.604    20510077.218    83985338.34447
     -1344.633  
  20420129.626   107308503.26949      1536.793    20420126.239    83617002.18546
      1197.495  
  20733913.130   108957453.02648     -1618.038    20733912.300    84901904.92947
     -1260.813  
  21796143.129   114539511.84447      2780.991    21796144.251    89251583.73044
      2167.012  
  23850630.591   125335899.95546      -430.016    23850627.366    97664345.64443
      -335.077  
  23018169.475   120961299.45149      2938.563    23018169.923    94255565.29346
      2289.789  
  22656037.018   119058303.04545     -3153.703    22656047.900    92772730.20451
     -2457.430  
  22112391.269   117871496.27105      3301.702           0.000           0.0000 
         0.000  
  19581638.782   104858786.19408     -1046.991    19581641.832    81556840.14807
      -814.328  
  20086101.761   107371723.38408      1886.183    20086107.972    83511367.14506
      1467.031  
  20293317.228   108517486.62109         1.926    20293321.033    84402506.25808
         1.492  
  20685613.137   110654075.61207     -3144.319    20685617.799    86064307.51905
     -2445.582  
 20 09 26 07 15  5.0000000  0 12G15G20G18G24G27G10G13R10R 8R 1R24R23
  20511722.362   107789825.97048     -1727.519    20511720.143    83992066.00047
     -1346.116  
  20418668.309   107300824.03149      1535.168    20418664.821    83611018.35946
      1196.229  
  20735453.936   108965550.11248     -1620.449    20735453.164    84908214.35547
     -1262.687  
  21793497.916   114525610.72047      2779.245    21793498.913    89240751.69945
      2165.648  
  23851041.505   125338059.26046      -433.206    23851038.148    97666028.19544
      -337.559  
  23015373.802   120946608.18449      2938.301    23015374.367    94244117.55147
      2289.585  
  22659038.075   119074073.76845     -3154.199    22659042.869    92785019.10141
     -2457.816  
  22109295.431   117854994.24805      3299.504           0.000           0.0000 
         0.000  
  19582617.158   104864025.79508     -1048.613    19582620.280    81560915.38007
      -815.594  
  20084338.416   107362297.07508      1884.698    20084344.610    83504035.57806
      1465.879  
  20293317.598   108517488.34909        -2.336    20293321.401    84402507.60508
        -1.819  
  20688553.716   110669806.44906     -3147.238    20688558.650    86076542.59205
     -2447.854  
 20 09 26 07 15 10.0000000  0 13G15G20G18G24G27G10G13R10R 8R 1R24R23
                                R17
  20513367.531   107798471.35948     -1730.746    20513365.273    83998802.65947
     -1348.636  
  20417208.878   107293154.79049      1532.550    20417205.346    83605042.33246
      1194.195  
  20736997.589   108973661.90448     -1624.203    20736996.810    84914535.23147
     -1265.612  
  21790854.920   114511721.33647      2776.148    21790855.869    89229928.84645
      2163.238  
  23851455.421   125340234.52647      -437.315    23851451.697    97667723.23643
      -340.765  
  23012578.741   120931920.19549      2936.702    23012579.468    94232672.37747
      2288.339  
  22662040.375   119089850.36904     -3155.773           0.000           0.0000 
         0.000  
  22106202.034   117838504.98005      3296.152           0.000           0.0000 
         0.000  
  19583597.608   104869276.09208     -1051.496    19583600.680    81564998.95907
      -817.831  
  20082576.947   107352880.66908      1881.965    20082583.122    83496711.70706
      1463.749  
  20293322.319   108517513.09409        -7.668    20293326.046    84402526.85808
        -5.964  
  20691497.447   110685553.67407     -3151.570    20691502.497    86088790.44105
     -2451.226  
  22738331.842   121677405.82614      3524.895    22738340.340    94638018.18914
      2741.586  
 20 09 26 07 15 15.0000000  0 13G15G20G18G24G27G10G13R10R 8R 1R24R23
                                R17
  20515015.430   107807131.10048     -1733.391    20515013.182    84005550.50847
     -1350.694  
  20415751.888   107285498.38249      1529.827    20415748.321    83599076.31046
      1192.073  
  20738544.578   108981791.19848     -1627.858    20738543.769    84920869.74147
     -1268.464  
  21788214.720   114497846.37047      2773.479    21788215.528    89219117.18644
      2161.151  
  23851872.925   125342428.64846      -440.655    23851869.490    97669432.83844
      -343.386  
  23009784.845   120917238.29649      2935.565    23009785.745    94221231.95247
      2287.453  
  22665044.066   119105635.49304     -3157.461           0.000           0.0000 
         0.000  
  22103111.425   117822031.54305      3293.124           0.000           0.0000 
         0.000  
  19584580.546   104874539.83408     -1054.422    19584583.601    81569092.98007
      -820.108  
  20080817.805   107343476.92008      1879.328    20080824.004    83489397.69306
      1461.698  
  20293331.873   108517563.93209       -13.086    20293335.539    84402566.40208
       -10.184  
  20694444.783   110701320.21406     -3155.245    20694450.007    86101053.28205
     -2454.090  
  22735039.717   121659787.65804      3521.507    22735048.028    94624315.15404
      2738.948  
 20 09 26 07 15 20.0000000  0 13G15G20G18G24G27G10G13R10R 8R 1R24R23
                                R17
  20516665.500   107815802.24348     -1735.140    20516663.263    84012307.25147
     -1352.059  
  20414296.781   107277851.87149      1528.440    20414293.244    83593117.98146
      1190.987  
  20740094.333   108989935.03048     -1630.008    20740093.488    84927215.57847
     -1270.140  
  21785576.752   114483983.03647      2771.586    21785577.485    89208314.58745
      2159.672  
  23852293.485   125344638.61546      -443.574    23852289.590    97671154.98441
      -345.629  
  23006991.556   120902559.56049      2935.604    23006992.604    94209793.97747
      2287.484  
  22668048.971   119121426.31405     -3158.883           0.000           0.0000 
         0.000  
  22100023.323   117805570.94305      3290.651           0.000           0.0000 
         0.000  
  19585565.466   104879814.03308     -1055.727    19585568.481    81573195.12907
      -821.124  
  20079060.478   107334082.90908      1877.961    20079066.696    83482091.23206
      1460.633  
  20293345.725   108517637.69509       -16.913    20293349.339    84402623.76907
       -13.159  
  20697395.148   110717103.08207     -3157.964    20697400.568    86113328.84605
     -2456.195  
  22731750.061   121642182.23305      3520.136    22731757.881    94610622.03905
      2737.879  
 20 09 26 07 15 25.0000000  0 13G15G20G18G24G27G10G13R10R 8R 1R24R23
                                R17
  20518318.526   107824488.98448     -1739.352    20518316.317    84019076.13947
     -1355.344  
  20412844.348   107270219.44049      1524.559    20412840.872    83587170.63746
      1187.965  
  20741647.673   108998097.60248     -1634.979    20741646.789    84933576.02747
     -1274.015  
  21782941.789   114470135.43047      2767.397    21782942.509    89197524.23945
      2156.414  
  23852717.916   125346868.67246      -448.417    23852714.007    97672892.65143
      -349.425  
  23004199.707   120887888.23149      2932.883    23004200.844    94198361.78147
      2285.363  
  22671055.784   119137226.91205     -3161.715           0.000           0.0000 
         0.000  
  22096938.574   117789127.46305      3285.934           0.000           0.0000 
         0.000  
  19586553.194   104885103.11808     -1059.906    19586556.155    81577308.84907
      -824.374  
  20077305.744   107324702.88108      1874.211    20077312.001    83474795.66906
      1457.719  
  20293364.675   108517738.77709       -23.495    20293368.249    84402702.38908
       -18.276  
  20700349.395   110732906.43906     -3163.487    20700354.935    86125620.36905
     -2460.491  
  22728463.501   121624593.71604      3515.715    22728470.863    94596942.13005
      2734.449  
 20 09 26 07 15 30.0000000  0 13G15G20G18G24G27G10G13R10R 8R 1R24R23
                                R17
  20519973.813   107833187.54848     -1740.074    20519971.671    84025854.25447
     -1355.902  
  20411393.903   107262597.36049      1524.214    20411390.462    83581231.35646
      1187.698  
  20743203.834   109006275.16148     -1636.226    20743202.928    84939948.15347
     -1274.979  
  21780309.123   114456299.83347      2766.805    21780309.819    89186743.25445
      2155.949  
  23853145.354   125349114.93346      -449.695    23853141.267    97674642.95841
      -350.421  
  23001408.546   120873220.48749      2933.996    23001409.767    94186932.38047
      2286.229  
  22674063.606   119153033.53105     -3161.354           0.000           0.0000 
         0.000  
  22093856.274   117772697.19305      3285.418           0.000           0.0000 
         0.000  
  19587542.981   104890403.29108     -1060.246    19587545.910    81581431.20507
      -824.641  
  20075552.911   107315333.08008      1873.711    20075559.224    83467508.04506
      1457.308  
  20293388.009   108517863.37009       -26.280    20293391.548    84402799.29108
       -20.445  
  20703306.738   110748726.35606     -3165.168    20703312.355    86137924.72105
     -2461.801  
  22725179.423   121607018.36004      3514.901    22725186.288    94583272.42305
      2733.812  
 20 09 26 07 15 35.0000000  0 13G15G20G18G24G27G10G13R10R 8R 1R24R23
                                R17
  20521628.558   107841883.41648     -1739.323    20521626.490    84032630.24447
     -1355.319  
  20409942.686   107254971.10049      1525.277    20409939.271    83575288.81546
      1188.523  
  20744760.095   109014453.11948     -1635.973    20744759.149    84946320.58747
     -1274.788  
  21777676.041   114442461.79747      2767.500    21777676.569    89175960.37645
      2156.491  
  23853573.127   125351362.99246      -450.304    23853569.167    97676394.73244
      -350.882  
  22998615.336   120858541.81649      2936.433    22998616.617    94175494.46147
      2288.125  
  22677069.906   119168831.48904     -3158.816           0.000           0.0000 
         0.000  
  22090773.675   117756265.39505      3285.984           0.000           0.0000 
         0.000  
  19588532.006   104895699.28508     -1059.241    19588534.898    81585550.30307
      -823.859  
  20073799.243   107305958.62408      1875.026    20073805.567    83460216.80006
      1458.351  
  20293412.949   108517996.48209       -27.835    20293416.434    84402902.82508
       -21.651  
  20706264.320   110764548.26706     -3165.331    20706270.196    86150230.63905
     -2461.929  
  22721894.953   121589441.31006      3515.292    22721901.473    94569601.36905
      2734.113  
 20 09 26 07 15 40.0000000  0 13G15G20G18G24G27G10G13R10R 8R 1R24R23
                                R17
  20523285.866   107850592.81648     -1744.448    20523283.880    84039416.78947
     -1359.316  
  20408493.767   107247356.91849      1520.464    20408490.380    83569355.69147
      1184.772  
  20746319.548   109022647.78648     -1641.703    20746318.564    84952706.03747
     -1279.253  
  21775045.514   114428637.57047      2762.444    21775046.047    89165188.29845
      2152.559  
  23854004.118   125353628.99146      -455.878    23854000.230    97678160.48943
      -355.233  
  22995823.143   120843868.52849      2932.940    22995824.467    94164060.72947
      2285.409  
  22680077.526   119184637.26503     -3163.293           0.000           0.0000 
         0.000  
  22087694.073   117739848.79205      3280.813           0.000           0.0000 
         0.000  
  19589523.444   104901008.23308     -1064.124    19589526.320    81589679.48007
      -827.656  
  20072047.839   107296596.08308      1870.164    20072054.170    83452934.82006
      1454.565  
  20293442.606   108518154.88409       -35.375    20293446.034    84403026.02808
       -27.515  
  20709225.480   110780388.63106     -3170.683    20709231.498    86162550.92405
     -2466.085  
  22718613.223   121571879.23205      3509.477    22718619.445    94555942.01205
      2729.598  
 20 09 26 07 15 45.0000000  0 12G15G20G18G24G27G10R10R 8R 1R24R23R17
  20524947.357   107859324.38248     -1747.578    20524945.540    84046220.60547
     -1361.749  
  20407048.797   107239763.48849      1517.488    20407045.459    83563438.73246
      1182.457  
  20747883.805   109030867.79148     -1645.612    20747882.804    84959111.24547
     -1282.297  
  21772419.269   114414835.80747      2759.086    21772419.738    89154433.65644
      2149.934  
  23854440.281   125355921.69946      -460.285    23854436.934    97679946.93543
      -358.676  
  22993033.620   120829209.23449      2931.340    22993034.961    94152637.91647
      2284.160  
  22084618.764   117723456.03905      3277.187           0.000           0.0000 
         0.000  
  19590518.913   104906338.67308     -1067.316    19590521.742    81593825.37807
      -830.136  
  20070300.293   107287254.32408      1867.144    20070306.625    83445669.01506
      1452.222  
  20293478.592   108518347.25709       -41.020    20293481.987    84403175.65508
       -31.901  
  20712191.586   110796256.04906     -3175.163    20712197.893    86174892.27105
     -2469.569  
  22715336.004   121554340.92405      3506.038    22715341.746    94542301.11105
      2726.918  
 20 09 26 07 15 50.0000000  0 12G15G20G18G24G27G10R10R 8R 1R24R23R17
  20526611.553   107868070.32348     -1750.413    20526609.898    84053035.62447
     -1363.965  
  20405606.278   107232183.00149      1515.023    20405602.987    83557531.86146
      1180.534  
  20749451.385   109039105.29548     -1648.891    20749450.387    84965530.08047
     -1284.855  
  21769795.846   114401048.75147      2756.004    21769796.218    89143690.50345
      2147.534  
  23854880.026   125358233.22745      -463.371    23854876.940    97681748.12442
      -361.069  
  22990245.295   120814556.14249      2930.348    22990246.630    94141219.92047
      2283.386  
  22081546.529   117707079.29605      3274.281           0.000           0.0000 
         0.000  
  19591516.913   104911682.57808     -1069.879    19591519.678    81597981.74607
      -832.133  
  20068555.166   107277925.30808      1864.714    20068561.440    83438413.11606
      1450.332  
  20293519.456   108518565.68109       -46.069    20293522.832    84403345.53608
       -35.836  
  20715161.398   110812142.75806     -3178.688    20715167.871    86187248.59105
     -2472.315  
  22712061.745   121536818.42206      3502.710    22712067.020    94528672.51805
      2724.336  
 20 09 26 07 15 55.0000000  0 12G15G20G18G24G27G10R10R 8R 1R24R23R17
  20528277.669   107876826.38448     -1752.234    20528276.180    84059858.51847
     -1365.383  
  20404165.414   107224611.23649      1513.426    20404162.165    83551631.78246
      1179.289  
  20751021.462   109047356.07348     -1651.608    20751020.444    84971959.26247
     -1286.969  
  21767174.327   114387271.98547      2754.305    21767174.714    89132955.37945
      2146.214  
  23855322.593   125360559.37146      -466.965    23855319.133    97683560.67641
      -363.875  
  22987457.336   120799905.04049      2929.914    22987458.668    94129803.49247
      2283.050  
  22078476.518   117690714.18805      3271.909           0.000           0.0000 
         0.000  
  19592516.552   104917035.75208     -1071.382    19592519.329    81602145.32007
      -833.301  
  20066811.571   107268604.79308      1863.117    20066817.815    83431163.82606
      1449.090  
  20293564.409   108518805.84409       -50.289    20293567.765    84403532.32508
       -39.116  
  20718133.968   110828044.35006     -3181.882    20718140.600    86199616.51205
     -2474.797  
  22708789.727   121519307.50506      3500.550    22708794.380    94515052.95105
      2722.656  
 20 09 26 07 16  0.0000000  0 12G15G20G18G24G27G10R10R 8R 1R24R23R17
  20529945.788   107885593.03548     -1754.585    20529944.425    84066689.67047
     -1367.214  
  20402726.284   107217048.56149      1511.426    20402723.022    83545738.79447
      1177.734  
  20752594.132   109055620.51148     -1654.598    20752593.083    84978399.08147
     -1289.300  
  21764554.852   114373505.98447      2751.866    21764555.180    89122228.60944
      2144.308  
  23855767.933   125362900.46146      -469.812    23855765.214    97685384.86543
      -366.089  
  22984669.812   120785256.28149      2929.324    22984671.141    94118388.87847
      2282.590  
  22075408.620   117674361.32005      3268.995           0.000           0.0000 
         0.000  
  19593517.994   104922398.40008     -1073.862    19593520.760    81606316.27407
      -835.226  
  20065069.631   107259293.19008      1861.129    20065075.871    83423921.46606
      1447.538  
  20293613.471   108519068.10909       -54.921    20293616.842    84403736.31608
       -42.718  
  20721109.410   110843961.27006     -3184.992    20721116.175    86211996.33805
     -2477.218  
  22705519.845   121501808.45406      3498.574    22705524.068    94501442.57605
      2721.113  
 20 09 26 07 16  5.0000000  0 12G15G20G18G24G27G10R10R 8R 1R24R23R17
  20531616.353   107894372.22448     -1756.726    20531615.033    84073530.59547
     -1368.879  
  20401289.248   107209497.00849      1509.534    20401286.056    83539854.46947
      1176.258  
  20754169.763   109063900.60048     -1657.038    20754168.655    84984851.09947
     -1291.198  
  21761937.819   114359752.91747      2749.844    21761938.110    89111511.92645
      2142.730  
  23856216.544   125365258.58645      -472.843    23856213.797    97687222.42343
      -368.453  
  22981883.119   120770611.92349      2928.715    22981884.428    94106977.69547
      2282.117  
  22072343.362   117658022.48605      3266.862           0.000           0.0000 
         0.000  
  19594521.684   104927772.98708     -1075.573    19594524.443    81610496.51607
      -836.559  
  20063329.741   107249992.57508      1859.551    20063335.924    83416687.65606
      1446.312  
  20293667.072   108519354.64509       -59.289    20293670.463    84403959.17808
       -46.112  
  20724088.027   110859895.58106     -3188.015    20724095.020    86224389.67605
     -2479.569  
  22702252.628   121484323.51206      3495.629    22702256.365    94487843.21505
      2718.827  
 20 09 26 07 16 10.0000000  0 12G15G20G18G24G27G10R10R 8R 1R24R23R17
  20533288.724   107903161.21848     -1759.065    20533287.440    84080379.16647
     -1370.703  
  20399853.809   107201953.94249      1507.530    20399850.682    83533976.76146
      1174.698  
  20755747.902   109072193.74849     -1660.226    20755746.706    84991313.29847
     -1293.688  
  21759322.681   114346010.11747      2747.340    21759322.933    89100803.27345
      2140.784  
  23856667.867   125367631.05245      -476.394    23856664.180    97689071.04141
      -371.227  
  22979096.739   120755969.33549      2928.164    22979098.038    94095567.89247
      2281.687  
  22069280.255   117641695.12205      3264.370           0.000           0.0000 
         0.000  
  19595526.943   104933156.38508     -1077.957    19595529.723    81614683.59907
      -838.414  
  20061591.428   107240700.23308      1857.128    20061597.510    83409460.28306
      1444.433  
  20293724.667   108519662.59709       -64.073    20293728.082    84404198.69908
       -49.836  
  20727069.410   110875844.40706     -3191.272    20727076.542    86236794.33605
     -2482.101  
  22698987.489   121466849.90206      3493.230    22698990.800    94474252.62805
      2716.957  
 20 09 26 07 16 15.0000000  0 13G15G20G18G24G27G10G13R10R 8R 1R24R23
                                R17
  20534965.685   107911974.23948     -1764.757    20534964.433    84087246.45447
     -1375.136  
  20398422.674   107194433.56349      1502.069    20398419.616    83528116.72346
      1170.440  
  20757331.237   109080514.10049     -1666.449    20757329.977    84997796.68347
     -1298.534  
  21756712.176   114332291.72547      2741.637    21756712.379    89090113.61844
      2136.339  
  23857124.722   125370032.02805      -482.526           0.000           0.0000 
         0.000  
  22976313.378   120741342.70949      2924.026    22976314.685    94084170.52747
      2278.461  
  22701179.476   119295502.32314     -3175.577           0.000           0.0000 
         0.000  
  22066222.157   117625393.83405      3257.753           0.000           0.0000 
         0.000  
  19596536.620   104938563.28708     -1083.227    19596539.385    81618888.96307
      -842.512  
  20059857.350   107231430.49408      1851.875    20059863.264    83402250.48905
      1440.344  
  20293789.016   108520006.54609       -72.062    20293792.440    84404466.21608
       -56.051  
  20730056.313   110891822.38506     -3198.375    20730063.494    86249221.62405
     -2487.633  
  22695727.279   121449402.17406      3487.128    22695730.171    94460682.17705
      2712.210  
 20 09 26 07 16 20.0000000  0 13G15G20G18G24G27G10G13R10R 8R 1R24R23
                                R17
  20536646.500   107920807.35748     -1767.452    20536645.221    84094129.40347
     -1377.233  
  20396995.101   107186931.99149      1499.636    20396992.147    83522271.35047
      1168.547  
  20758918.987   109088857.75549     -1669.789    20758917.684    85004298.23647
     -1301.137  
  21754105.557   114318593.88347      2738.660    21754105.732    89079439.99145
      2134.019  
  23857586.187   125372457.63605      -485.902           0.000           0.0000 
         0.000  
  22973532.325   120726728.14249      2922.933    22973533.604    94072782.56047
      2277.608  
  22704201.866   119311385.30904     -3177.456           0.000           0.0000 
         0.000  
  22063168.284   117609114.62605      3254.878           0.000           0.0000 
         0.000  
  19597549.924   104943989.45108     -1085.922    19597552.616    81623109.31306
      -844.605  
  20058126.788   107222179.49408      1849.598    20058132.524    83395055.27206
      1438.573  
  20293859.331   108520382.42609       -77.097    20293862.770    84404758.56708
       -59.968  
  20733047.764   110907825.22807     -3201.660    20733055.066    86261668.28605
     -2490.179  
  22692470.983   121431976.20106      3484.125    22692473.510    94447128.64805
      2709.875  
 20 09 26 07 16 25.0000000  0 13G15G20G18G24G27G10G13R10R 8R 1R24R23
                                R17
  20538322.540   107929615.35148     -1758.269    20538321.227    84100992.77647
     -1370.086  
  20395562.528   107179403.98949      1508.995    20395559.678    83516405.37747
      1175.836  
  20760502.538   109097179.46349     -1661.453    20760501.176    85010782.68147
     -1294.644  
  21751494.213   114304871.33547      2747.484    21751494.402    89068747.09445
      2140.898  
  23858043.764   125374862.68845      -478.305    23858038.782    97694692.12351
      -372.711  
  22970744.963   120712080.39349      2933.491    22970746.207    94061368.72947
      2285.840  
  22707218.479   119327237.37744     -3167.034    22707226.621    92982306.26251
     -2467.820  
  22060109.807   117592811.47505      3264.191           0.000           0.0000 
         0.000  
  19598558.307   104949389.20408     -1076.726    19598560.892    81627309.12407
      -837.452  
  20056391.093   107212901.21108      1859.133    20056396.693    83387838.82406
      1445.987  
  20293927.023   108520744.31209       -70.316    20293930.466    84405040.03108
       -54.694  
  20736035.391   110923807.11306     -3193.554    20736042.694    86274098.63505
     -2483.878  
  22689210.120   121414526.10106      3493.171    22689212.474    94433556.37905
      2716.913  
 20 09 26 07 16 30.0000000  0 12G15G20G18G24G27G10R10R 8R 1R24R23R17
  20539999.718   107938429.10648     -1767.573    20539998.303    84107860.62147
     -1377.335  
  20394130.816   107171880.41349      1500.124    20394128.050    83510542.85146
      1168.930  
  20762087.800   109105510.07249     -1671.176    20762086.384    85017274.06447
     -1302.218  
  21748884.037   114291155.04847      2738.558    21748884.441    89058059.08145
      2133.941  
  23858503.197   125377277.96345      -488.340    23858502.740    97696574.10641
      -380.523  
  22967957.161   120697430.33449      2926.160    22967958.372    94049953.10347
      2280.125  
  22057052.762   117576515.76305      3254.305           0.000           0.0000 
         0.000  
  19599567.548   104954793.48508     -1085.563    19599570.042    81631512.44806
      -844.331  
  20054656.222   107203627.11108      1850.144    20054661.630    83380625.63605
      1438.999  
  20293997.938   108521123.46409       -81.819    20294001.370    84405334.93008
       -63.641  
  20739024.884   110939799.38306     -3203.625    20739032.286    86286537.06005
     -2491.711  
  22685950.580   121397083.33306      3483.714    22685952.813    94419989.76905
      2709.555  
 20 09 26 07 16 35.0000000  0 12G15G20G18G24G27G10R10R 8R 1R24R23R17
  20541689.616   107947309.64048     -1778.030    20541688.082    84114780.51446
     -1385.483  
  20392711.538   107164422.37149      1489.801    20392708.878    83504731.39246
      1160.878  
  20763686.393   109113910.64349     -1682.479    20763684.936    85023819.96047
     -1311.026  
  21746286.597   114277506.06647      2727.801    21746287.135    89047423.51745
      2125.554  
  23858976.181   125379764.48346      -499.844    23858976.480    97698511.74343
      -389.488  
  22965180.506   120682839.03649      2917.206    22965181.715    94038583.25347
      2273.145  
  22054008.676   117560289.51105      3243.574           0.000           0.0000 
         0.000  
  19600589.298   104960264.91008     -1096.167    19600591.733    81635768.00107
      -852.574  
  20052933.729   107194419.24208      1839.612    20052938.979    83373463.95305
      1430.805  
  20294083.677   108521582.16609       -94.902    20294087.147    84405691.68708
       -73.815  
  20742027.891   110955864.09906     -3215.379    20742035.431    86299031.84105
     -2500.852  
  22682703.932   121379709.96005      3472.430    22682706.118    94406477.12305
      2700.772  
 20 09 26 07 16 40.0000000  0 12G15G20G18G24G27G10R10R 8R 1R24R23R17
  20543379.224   107956188.65348     -1774.347    20543377.596    84121699.23146
     -1382.609  
  20391291.756   107156961.51949      1493.921    20391289.172    83498917.74646
      1164.093  
  20765285.271   109122312.86549     -1679.242    20765283.820    85030367.15447
     -1308.500  
  21743689.049   114263855.95347      2731.683    21743689.602    89036787.05245
      2128.582  
  23859449.758   125382254.02046      -496.629    23859451.623    97700451.53043
      -387.000  
  22962402.052   120668238.19549      2922.621    22962403.263    94027205.98747
      2277.366  
  22050964.535   117544063.27705      3246.875           0.000           0.0000 
         0.000  
  19601610.597   104965733.73508     -1092.159    19601612.909    81640021.53906
      -849.457  
  20051210.600   107185208.06708      1843.941    20051215.720    83366299.71605
      1434.176  
  20294171.298   108522050.75009       -93.230    20294174.724    84406056.15008
       -72.511  
  20745031.450   110971931.71206     -3212.476    20745039.072    86311528.87305
     -2498.597  
  22679457.289   121362336.48606      3476.031    22679459.421    94392964.47105
      2703.586  
 20 09 26 07 16 45.0000000  0 13G15G20G18G24G27G10G13R10R 8R 1R24R23
                                R17
  20545067.574   107965060.96348     -1775.316    20545065.798    84128612.72747
     -1383.363  
  20389870.481   107149492.70449      1493.184    20389868.003    83493097.89146
      1163.519  
  20766883.482   109130711.55249     -1680.738    20766882.045    85036911.58447
     -1309.671  
  21741090.345   114250199.73147      2730.503    21741090.848    89026145.84045
      2127.659  
  23859923.065   125384741.39246      -498.617    23859925.724    97702389.77143
      -388.523  
  22959620.784   120653622.66049      2923.102    22959622.019    94015817.25647
      2277.742  
  22719318.135   119390821.99515     -3178.964           0.000           0.0000 
         0.000  
  22047919.552   117527831.98905      3244.976           0.000           0.0000 
         0.000  
  19602630.389   104971194.64008     -1092.836    19602632.633    81644268.90607
      -849.988  
  20049485.843   107175988.31908      1843.386    20049490.915    83359128.79805
      1433.741  
  20294259.791   108522524.14509       -96.602    20294263.184    84406424.35007
       -75.133  
  20748034.731   110987997.11406     -3214.516    20748042.282    86324024.17605
     -2500.183  
  22676209.673   121344957.73905      3474.808    22676211.785    94379447.69305
      2702.633  
 20 09 26 07 16 50.0000000  0 13G15G20G18G24G27G10G13R10R 8R 1R24R23
                                R17
  20546758.041   107973944.30348     -1777.992    20546756.172    84135534.80747
     -1385.452  
  20388451.066   107142033.68749      1490.569    20388448.723    83487285.67646
      1161.484  
  20768484.408   109139124.47649     -1684.223    20768482.993    85043467.10747
     -1312.386  
  21738493.823   114236555.00847      2727.711    21738494.339    89015513.60045
      2125.487  
  23860399.360   125387244.33946      -502.582    23860400.787    97704340.13843
      -391.620  
  22956840.099   120639010.15249      2921.984    22956841.352    94004430.88847
      2276.870  
  22722344.075   119406720.26205     -3180.156           0.000           0.0000 
         0.000  
  22044877.024   117511613.63605      3242.577           0.000           0.0000 
         0.000  
  19603652.122   104976665.78708     -1095.386    19603654.337    81648524.23407
      -851.972  
  20047762.904   107166778.19008      1840.851    20047767.917    83351965.36205
      1431.769  
  20294352.597   108523020.36209      -101.734    20294355.934    84406810.29507
       -79.124  
  20751040.829   111004078.20906     -3218.430    20751048.443    86336531.69705
     -2503.226  
  22672964.432   121327591.70505      3471.690    22672966.495    94365940.77205
      2700.202  
 20 09 26 07 16 55.0000000  0 13G15G20G18G24G27G10G13R10R 8R 1R24R23
                                R17
  20548451.105   107982841.32148     -1780.316    20548449.165    84142467.55347
     -1387.258  
  20387034.014   107134587.09349      1488.405    20387031.781    83481483.12946
      1159.797  
  20770088.543   109147554.25849     -1687.253    20770087.142    85050035.76847
     -1314.746  
  21735900.009   114222924.51948      2724.862    21735900.489    89004892.43745
      2123.265  
  23860879.109   125389765.43546      -505.499    23860880.831    97706304.61743
      -393.898  
  22954060.525   120624403.36449      2921.172    22954061.736    93993048.98547
      2276.237  
  22725371.924   119422626.40306     -3181.808           0.000           0.0000 
         0.000  
  22041837.472   117495411.01806      3239.312           0.000           0.0000 
         0.000  
  19604676.280   104982149.91808     -1097.754    19604678.504    81652789.66407
      -853.812  
  20046042.211   107157580.22508      1838.780    20046047.210    83344811.39006
      1430.159  
  20294450.133   108523541.96309      -106.371    20294453.408    84407215.98408
       -82.737  
  20754050.473   111020177.71206     -3221.312    20754058.020    86349053.52005
     -2505.469  
  22669722.040   121310241.20305      3468.910    22669724.122    94352445.96105
      2698.046  
 20 09 26 07 17  0.0000000  0 13G15G20G18G24G27G10G13R10R 8R 1R24R23
                                R17
  20550145.517   107991745.41848     -1780.976    20550143.543    84149405.80947
     -1387.772  
  20385618.057   107127146.37849      1488.148    20385615.924    83475685.17946
      1159.597  
  20771694.638   109155994.31749     -1688.395    20771693.255    85056612.43847
     -1315.637  
  21733307.669   114209301.74448      2724.480    21733308.159    88994277.28145
      2122.968  
  23861361.120   125392298.16846      -506.800    23861363.370    97708278.19244
      -394.917  
  22951280.745   120609795.70649      2922.137    22951281.991    93981666.39347
      2276.987  
  22728399.347   119438533.74206     -3181.031           0.000           0.0000 
         0.000  
  22038799.494   117479217.44805      3238.499           0.000           0.0000 
         0.000  
  19605701.598   104987640.20408     -1097.843    19605703.858    81657059.88707
      -853.883  
  20044322.581   107148387.97008      1838.543    20044327.623    83337661.85906
      1429.972  
  20294551.225   108524082.35709      -109.366    20294554.419    84407636.29008
       -85.065  
  20757062.313   111036288.90207     -3222.867    20757069.785    86361584.44805
     -2506.679  
  22666481.303   121292899.48605      3468.675    22666483.454    94338957.99305
      2697.862  
 20 09 26 07 17  5.0000000  0 13G15G20G18G24G27G10G13R10R 8R 1R24R23
                                R17
  20551842.223   108000661.54548     -1785.534    20551840.217    84156353.43547
     -1391.328  
  20384204.205   107119716.47349      1483.534    20384202.068    83469895.64747
      1156.000  
  20773303.606   109164449.59049     -1693.766    20773302.249    85063200.96547
     -1319.816  
  21730717.739   114195691.57148      2719.586    21730718.219    88983671.97045
      2119.155  
  23861846.247   125394847.46946      -512.327    23861847.643    97710264.64644
      -399.218  
  22948501.771   120595192.10349      2919.145    22948503.027    93970286.96747
      2274.655  
  22731428.030   119454447.23606     -3184.362           0.000           0.0000 
         0.000  
  22035764.322   117463037.90306      3233.074           0.000           0.0000 
         0.000  
  19606728.997   104993141.72008     -1102.800    19606731.286    81661338.83507
      -857.738  
  20042604.939   107139206.25408      1834.073    20042610.046    83330520.52606
      1426.503  
  20294656.740   108524646.53309      -116.410    20294659.900    84408075.09207
       -90.547  
  20760077.268   111052416.75306     -3228.476    20760084.643    86374128.33905
     -2511.038  
  22663243.149   121275571.68905      3463.112    22663245.412    94325480.80406
      2693.527  
 20 09 26 07 17 10.0000000  0 13G15G20G18G24G27G10G13R10R 8R 1R24R23
                                R17
  20553542.120   108009594.43748     -1787.413    20553540.164    84163314.12347
     -1392.793  
  20382793.276   107112302.14749      1482.164    20382791.193    83464118.25447
      1154.933  
  20774916.361   109172924.83549     -1696.124    20774915.102    85069805.04847
     -1321.660  
  21728131.144   114182098.73548      2717.777    21728131.517    88973080.17045
      2117.753  
  23862335.524   125397418.13746      -515.440    23862337.496    97712267.79443
      -401.640  
  22945724.476   120580597.38049      2918.976    22945725.766    93958914.45347
      2274.522  
  22734458.279   119470371.70705     -3185.094           0.000           0.0000 
         0.000  
  22032732.701   117446877.28106      3231.480           0.000           0.0000 
         0.000  
  19607759.341   104998659.32508     -1104.132    19607761.705    81665630.30807
      -858.773  
  20040890.177   107130039.96208      1832.539    20040895.385    83323391.18906
      1425.308  
  20294767.632   108525239.36609      -120.456    20294770.747    84408536.18208
       -93.691  
  20763096.257   111068566.30606     -3231.070    20763103.617    86386689.10305
     -2513.055  
  22660008.648   121258262.59806      3461.101    22660010.871    94312018.21105
      2691.968  
 20 09 26 07 17 15.0000000  0 13G15G20G18G24G27G10G13R10R 8R 1R24R23
                                R17
  20555244.023   108018537.90448     -1790.180    20555242.110    84170283.05747
     -1394.944  
  20381384.139   107104897.20549      1479.741    20381382.078    83458348.16347
      1153.042  
  20776531.761   109181413.84849     -1699.608    20776530.536    85076419.85647
     -1324.375  
  21725546.669   114168517.16548      2714.882    21725546.943    88962497.11745
      2115.492  
  23862827.584   125400003.77146      -518.922    23862829.106    97714282.54243
      -404.358  
  22942947.682   120566005.29249      2917.647    22942949.048    93947544.00747
      2273.492  
  22737489.517   119486300.94105     -3186.949           0.000           0.0000 
         0.000  
  22029703.420   117430729.10306      3228.039           0.000           0.0000 
         0.000  
  19608791.499   105004186.51208     -1106.844    19608793.896    81669929.22307
      -860.882  
  20039177.105   107120882.73308      1830.266    20039182.425    83316268.89406
      1423.534  
  20294882.681   108525854.55409      -125.593    20294885.793    84409014.67108
       -97.684  
  20766118.014   111084730.82507     -3235.155    20766125.386    86399261.50005
     -2516.234  
  22656776.487   121240965.99306      3457.727    22656778.489    94298565.23405
      2689.335  
 20 09 26 07 17 20.0000000  0 13G15G20G18G24G27G10G13R10R 8R 1R24R23
                                R17
  20556948.240   108027493.53348     -1792.336    20556946.350    84177261.47747
     -1396.625  
  20379977.111   107097503.31649      1477.605    20379975.046    83452586.69546
      1151.379  
  20778150.083   109189918.21749     -1702.461    20778148.879    85083046.63647
     -1326.594  
  21722964.613   114154948.42948      2712.402    21722964.879    88951924.09245
      2113.558  
  23863322.728   125402606.23846      -522.035    23863324.535    97716310.45742
      -406.788  
  22940171.731   120551417.47649      2917.167    22940173.147    93936176.87547
      2273.113  
  22740521.965   119502236.46905     -3187.776           0.000           0.0000 
         0.000  
  22026676.876   117414595.17106      3225.636           0.000           0.0000 
         0.000  
  19609825.789   105009725.15108     -1108.808    19609828.167    81674237.05107
      -862.410  
  20037466.026   107111736.31608      1828.234    20037471.482    83309155.01806
      1421.960  
  20295002.236   108526493.74109      -130.301    20295005.279    84409511.81407
      -101.347  
  20769143.047   111100912.30606     -3237.956    20769150.300    86411847.10205
     -2518.410  
  22653546.771   121223683.41105      3455.038    22653548.790    94285123.26405
      2687.253  
 20 09 26 07 17 25.0000000  0 13G15G20G18G24G27G10G13R10R 8R 1R24R23
                                R17
  20558654.907   108036462.06748     -1794.672    20558653.056    84184249.93546
     -1398.449  
  20378572.318   107090121.20549      1475.503    20378570.260    83446834.39646
      1149.741  
  20779771.487   109198438.72249     -1705.469    20779770.322    85089685.98847
     -1328.937  
  21720385.135   114141393.27748      2709.749    21720385.315    88941361.64644
      2111.491  
  23863821.347   125405226.18946      -525.684    23863823.136    97718351.95844
      -409.628  
  22937396.769   120536834.70049      2916.296    22937398.200    93924813.68447
      2272.438  
  22743555.826   119518179.08005     -3189.167           0.000           0.0000 
         0.000  
  22023653.122   117398476.51306      3222.129           0.000           0.0000 
         0.000  
  19610862.345   105015275.92408     -1111.180    19610864.728    81678554.32207
      -864.253  
  20035757.133   107102601.43208      1826.148    20035762.690    83302050.11606
      1420.335  
  20295126.386   108527157.62709      -135.015    20295129.367    84410028.16507
      -105.015  
  20772171.310   111117111.34807     -3241.637    20772178.503    86424446.33005
     -2521.277  
  22650320.005   121206415.74205      3452.070    22650321.937    94271692.86005
      2684.945  
 20 09 26 07 17 30.0000000  0 13G15G20G18G24G27G10G13R10R 8R 1R24R23
                                R17
  20560363.869   108045442.53648     -1797.227    20560362.001    84191247.71647
     -1400.437  
  20377169.566   107082749.78749      1473.313    20377167.503    83441090.43546
      1148.031  
  20781395.730   109206974.24149     -1708.397    20781394.594    85096337.04647
     -1331.219  
  21717808.094   114127850.77248      2707.285    21717808.190    88930809.06045
      2109.573  
  23864323.137   125407862.48646      -528.847    23864324.743    97720406.23543
      -412.094  
  22934622.545   120522255.86849      2915.520    22934624.012    93913453.56547
      2271.831  
  22746590.903   119534127.64206     -3190.128           0.000           0.0000 
         0.000  
  22020631.976   117382371.73006      3219.507           0.000           0.0000 
         0.000  
  19611900.955   105020837.72808     -1113.410    19611903.342    81682880.17207
      -865.984  
  20034050.193   107093477.04508      1823.784    20034055.873    83294953.36306
      1418.496  
  20295254.943   108527845.17309      -139.762    20295257.882    84410562.92307
      -108.706  
  20775202.701   111133326.77907     -3244.762    20775209.813    86437058.32605
     -2523.707  
  22647095.836   121189161.84206      3449.585    22647097.713    94258273.17906
      2683.012  
 20 09 26 07 17 35.0000000  0 13G15G20G18G24G27G10G13R10R 8R 1R24R23
                                R17
  20562075.131   108054434.90148     -1799.331    20562073.258    84198254.74647
     -1402.081  
  20375768.874   107075389.19349      1471.429    20375766.816    83435354.91646
      1146.570  
  20783022.851   109215524.91149     -1711.203    20783021.761    85102999.90047
     -1333.410  
  21715233.500   114114320.90648      2705.148    21715233.586    88920266.30145
      2107.905  
  23864827.818   125410515.26045      -531.930    23864828.500    97722473.34841
      -414.492  
  22931849.093   120507681.12549      2915.007    22931850.576    93902096.62147
      2271.429  
  22749626.880   119550082.30805     -3191.563           0.000           0.0000 
         0.000  
  22017613.551   117366281.04506      3217.179           0.000           0.0000 
         0.000  
  19612941.680   105026410.76008     -1115.410    19612944.042    81687214.74607
      -867.547  
  20032345.203   107084363.27208      1821.953    20032351.060    83287864.87906
      1417.073  
  20295387.977   108528556.47009      -144.222    20295390.852    84411116.15107
      -112.175  
  20778237.251   111149558.73107     -3248.055    20778244.223    86449683.18805
     -2526.265  
  22643874.150   121171921.91906      3447.285    22643876.154    94244864.37406
      2681.222  
 20 09 26 07 17 40.0000000  0 13G15G20G18G24G27G10G13R10R 8R 1R24R23
                                R17
  20563788.238   108063437.05748     -1801.534    20563786.326    84205269.41047
     -1403.796  
  20374369.860   107068037.32849      1469.391    20374367.793    83429626.18446
      1144.976  
  20784652.452   109224088.58749     -1714.038    20784651.372    85109672.88647
     -1335.616  
  21712660.901   114100801.62048      2702.601    21712660.945    88909731.79845
      2105.918  
  23865335.068   125413182.37545      -534.847    23865335.905    97724551.58846
      -416.765  
  22929076.011   120493108.35649      2914.128    22929077.527    93890741.22947
      2270.750  
  22752663.650   119566040.95245     -3191.820    22752653.228    93168311.28053
     -2487.133  
  22014597.312   117350202.48206      3214.699           0.000           0.0000 
         0.000  
  19613984.064   105031992.71308     -1117.309    19613986.418    81691556.26807
      -869.020  
  20030641.830   107075257.86308      1820.121    20030647.786    83280782.88706
      1415.645  
  20295525.052   108529289.44109      -148.848    20295527.889    84411686.23107
      -115.773  
  20781274.442   111165805.06107     -3250.559    20781281.332    86462319.21905
     -2528.211  
  22640654.799   121154693.83506      3444.206    22640656.773    94231464.75306
      2678.824  
 20 09 26 07 17 45.0000000  0 13G15G20G18G24G27G10G13R10R 8R 1R24R23
                                R17
  20565503.692   108072451.61048     -1804.457    20565501.776    84212293.73747
     -1406.074  
  20372973.005   107060696.83749      1466.684    20372970.954    83423906.33246
      1142.871  
  20786285.057   109232667.92349     -1717.656    20786283.949    85116358.07847
     -1338.437  
  21710090.783   114087295.43648      2699.660    21710090.805    88899207.50544
      2103.633  
  23865845.766   125415866.54945      -538.632    23865846.949    97726643.19843
      -419.714  
  22926303.819   120478540.20049      2912.828    22926305.336    93879389.41547
      2269.730  
  22755701.878   119582006.29605     -3194.094           0.000           0.0000 
         0.000  
  22011583.834   117334138.54206      3211.315           0.000           0.0000 
         0.000  
  19615028.644   105037586.29608     -1120.116    19615030.920    81695906.83207
      -871.203  
  20028940.525   107066163.56608      1817.440    20028946.564    83273709.55106
      1413.565  
  20295666.663   108530046.63609      -154.128    20295669.482    84412275.16308
      -119.879  
  20784314.812   111182068.61407     -3254.820    20784321.636    86474968.63505
     -2531.531  
  22637438.031   121137480.26105      3440.991    22637440.139    94218076.41106
      2676.328  
 20 09 26 07 17 50.0000000  0 13G15G20G18G24G27G10G13R10R 8R 1R24R23
                                R17
  20567221.789   108081480.11548     -1807.401    20567219.898    84219328.93847
     -1408.367  
  20371578.628   107053369.27349      1464.077    20371576.556    83418196.53646
      1140.839  
  20787920.927   109241264.44549     -1721.007    20787919.761    85123056.67147
     -1341.050  
  21707523.512   114073804.11448      2696.605    21707523.495    88888694.76845
      2101.245  
  23866360.156   125418569.31546      -542.668    23866361.547    97728749.23344
      -422.859  
  22923532.796   120463978.18949      2911.699    22923534.301    93868042.39447
      2268.851  
  22758741.481   119597979.67305     -3195.421           0.000           0.0000 
         0.000  
  22008573.214   117318090.80506      3208.050           0.000           0.0000 
         0.000  
  19616075.698   105043193.22508     -1122.800    19616077.937    81700267.77707
      -873.293  
  20027241.597   107057082.00808      1814.852    20027247.736    83266646.10806
      1411.547  
  20295813.114   108530829.77809      -159.276    20295815.962    84412884.26808
      -123.887  
  20787358.603   111198350.65707     -3258.484    20787365.413    86487632.44004
     -2534.378  
  22634224.308   121120282.82005      3437.116    22634226.502    94204700.61006
      2673.308  
 20 09 26 07 17 55.0000000  0 13G15G20G18G24G27G10G13R10R 8R 1R24R23
                                R17
  20568941.826   108090518.87748     -1809.039    20568939.932    84226372.13147
     -1409.640  
  20370185.988   107046050.89949      1462.609    20370183.879    83412493.91346
      1139.694  
  20789559.396   109249874.44149     -1723.473    20789558.149    85129765.75347
     -1342.968  
  21704958.323   114060323.74048      2694.733    21704958.189    88878190.58145
      2099.788  
  23866877.371   125421286.82746      -545.406    23866878.783    97730866.75943
      -424.995  
  22920762.256   120449418.65649      2911.468    22920763.692    93856697.31047
      2268.676  
  22761781.983   119613957.49005     -3196.586           0.000           0.0000 
         0.000  
  22005565.085   117302055.60006      3205.836           0.000           0.0000 
         0.000  
  19617124.448   105048809.60608     -1124.363    19617126.677    81704636.08607
      -874.504  
  20025544.299   107048009.26208      1813.430    20025550.567    83259589.53106
      1410.440  
  20295963.672   108531634.97409      -163.477    20295966.574    84413510.52608
      -127.151  
  20790405.230   111214647.45907     -3260.688    20790411.941    86500307.72305
     -2536.093  
  22631012.642   121103097.58105      3434.910    22631015.205    94191334.32306
      2671.597  
 20 09 26 07 18  0.0000000  0 13G15G20G18G24G27G10G13R10R 8R 1R24R23
                                R17
  20570664.155   108099569.71348     -1811.516    20570662.303    84233424.73147
     -1411.574  
  20368795.424   107038743.52949      1460.343    20368793.279    83406799.85746
      1137.929  
  20791200.764   109258499.72949     -1726.687    20791199.417    85136486.75447
     -1345.477  
  21702395.636   114046856.35148      2691.987    21702395.281    88867696.52644
      2097.652  
  23867397.775   125424021.03546      -548.487    23867399.363    97732997.35444
      -427.394  
  22917992.535   120434863.39049      2910.569    22917993.873    93845355.55147
      2267.976  
  22764823.661   119629941.49304     -3197.926           0.000           0.0000 
         0.000  
  22002559.640   117286034.82206      3202.715           0.000           0.0000 
         0.000  
  19618175.288   105054437.30908     -1126.710    19618177.588    81709013.18607
      -876.335  
  20023849.026   107038947.30308      1811.230    20023855.395    83252541.34806
      1408.733  
  20296118.733   108532464.15009      -168.281    20296121.701    84414155.43808
      -130.890  
  20793454.944   111230960.84507     -3264.526    20793461.563    86512995.90604
     -2539.082  
  22627803.659   121085926.63004      3432.984    22627806.627    94177979.13706
      2670.093  
 20 09 26 07 18  5.0000000  0 13G15G20G18G24G27G10G13R10R 8R 1R24R23
                                R17
  20572388.970   108108634.14948     -1814.394    20572387.269    84240487.92947
     -1413.815  
  20367407.273   107031448.77949      1457.351    20367405.035    83401115.63646
      1135.598  
  20792845.302   109267141.83849     -1730.211    20792843.924    85143220.86047
     -1348.218  
  21699835.677   114033403.48748      2688.895    21699835.222    88857213.76145
      2095.238  
  23867921.571   125426773.38446      -552.245    23867923.351    97735142.06144
      -430.320  
  22915223.933   120420313.97549      2909.031    22915225.166    93834018.34847
      2266.777  
  22767866.817   119645933.22904     -3199.359           0.000           0.0000 
         0.000  
  21999557.251   117270030.02306      3198.960           0.000           0.0000 
         0.000  
  19619228.580   105060077.88708     -1129.617    19619230.971    81713400.30107
      -878.594  
  20022156.075   107029897.79308      1808.507    20022162.519    83245502.84006
      1406.616  
  20296278.529   108533318.83809      -173.734    20296281.630    84414820.19608
      -135.129  
  20796508.078   111247292.52307     -3268.233    20796514.580    86525698.31204
     -2541.964  
  22624597.450   121068771.46904      3429.551    22624600.991    94164636.22706
      2667.425  
 20 09 26 07 18 10.0000000  0 13G15G20G18G24G27G10G13R10R 8R 1R24R23
                                R17
  20574115.742   108117708.98748     -1815.976    20574114.203    84247559.21847
     -1415.051  
  20366020.867   107024163.35149      1456.383    20366018.577    83395438.69546
      1134.844  
  20794492.437   109275797.52849     -1732.292    20794491.024    85149965.55347
     -1349.843  
  21697277.810   114019961.71548      2687.375    21697277.236    88846739.67444
      2094.059  
  23868448.191   125429540.73246      -555.066    23868450.209    97737298.45444
      -432.522  
  22912455.808   120405767.16449      2909.304    22912456.950    93822683.18247
      2266.991  
  22770910.743   119661929.42004     -3199.632           0.000           0.0000 
         0.000  
  21996557.265   117254037.97206      3197.343           0.000           0.0000 
         0.000  
  19620283.698   105065727.99908     -1130.878    19620286.188    81717794.83607
      -879.577  
  20020464.800   107020857.11508      1807.313    20020471.295    83238471.20006
      1405.683  
  20296442.461   108534195.70809      -177.391    20296445.708    84415502.21208
      -137.968  
  20799563.992   111263639.03807     -3270.668    20799570.316    86538412.24504
     -2543.854  
  22621393.762   121051628.79204      3427.948    22621397.715    94151303.04406
      2666.184  
 20 09 26 07 18 15.0000000  0 13G15G20G18G24G27G10G13R10R 8R 1R24R23
                                R17
  20575844.978   108126796.87648     -1818.862    20575843.616    84254640.68547
     -1417.300  
  20364636.785   107016890.04548      1453.796    20364634.421    83389771.18446
      1132.824  
  20796142.677   109284469.53249     -1735.867    20796141.259    85156722.95547
     -1352.629  
  21694722.630   114006533.96248      2684.426    21694721.960    88836276.49744
      2091.757  
  23868978.126   125432325.71546      -558.116    23868979.986    97739468.52143
      -434.910  
  22909688.707   120391225.69949      2908.027    22909689.807    93811352.16547
      2265.991  
  22773956.014   119677932.83105     -3201.269           0.000           0.0000 
         0.000  
  21993560.192   117238061.38706      3193.855           0.000           0.0000 
         0.000  
  19621341.130   105071390.56308     -1133.406    19621343.752    81722199.05307
      -881.542  
  20018775.741   107011828.34308      1804.746    20018782.293    83231448.82706
      1403.691  
  20296611.066   108535097.53409      -182.660    20296614.415    84416203.63508
      -142.073  
  20802623.170   111280003.20207     -3274.206    20802629.278    86551139.91704
     -2546.609  
  22618192.907   121034501.58804      3424.563    22618197.295    94137981.90406
      2663.546  
 20 09 26 07 18 20.0000000  0 13G15G20G18G24G27G10G13R10R 8R 1R24R23
                                R17
  20577576.247   108135895.25348     -1820.815    20577575.060    84261730.31747
     -1418.820  
  20363254.519   107009626.37948      1451.688    20363252.094    83384111.19146
      1131.183  
  20797795.508   109293155.24949     -1738.495    20797794.080    85163491.04647
     -1354.675  
  21692169.623   113993117.63548      2682.156    21692168.921    88825822.22844
      2089.991  
  23869510.890   125435125.84346      -561.344    23869512.919    97741650.48343
      -437.410  
  22906922.139   120376687.00149      2907.440    22906923.149    93800023.31747
      2265.538  
  22777002.243   119693940.93605     -3202.339           0.000           0.0000 
         0.000  
  21990565.548   117222097.81306      3191.297           0.000           0.0000 
         0.000  
  19622400.324   105077062.74508     -1135.684    19622403.080    81726610.74407
      -883.313  
  20017088.429   107002808.82308      1802.969    20017094.999    83224433.64906
      1402.309  
  20296783.885   108536021.86309      -187.078    20296787.291    84416922.55608
      -145.508  
  20805685.160   111296382.34807     -3277.183    20805691.022    86563879.25804
     -2548.921  
  22614994.361   121017387.02205      3421.438    22614999.177    94124670.56506
      2661.112  
 20 09 26 07 18 25.0000000  0 13G15G20G18G24G27G10G13R10R 8R 1R24R23
                                R17
  20579309.863   108145005.71648     -1823.015    20579308.774    84268829.36847
     -1420.534  
  20361874.377   107002373.77548      1449.604    20361871.878    83378459.81446
      1129.563  
  20799451.269   109301856.27049     -1741.534    20799449.837    85170271.06147
     -1357.042  
  21689619.073   113979714.25048      2679.737    21689618.398    88815378.04644
      2088.108  
  23870046.835   125437942.59846      -564.406    23870048.626    97743845.39144
      -439.788  
  22904156.393   120362152.66049      2906.609    22904157.366    93788697.86747
      2264.891  
  22780049.685   119709955.25604     -3203.089           0.000           0.0000 
         0.000  
  21987573.561   117206148.58905      3188.761           0.000           0.0000 
         0.000  
  19623461.719   105082746.40808     -1137.625    19623464.562    81731031.37307
      -884.824  
  20015403.124   106993800.02608      1800.934    20015409.726    83217426.81006
      1400.726  
  20296961.178   108536970.11309      -191.840    20296964.596    84417660.08408
      -149.211  
  20808750.225   111312778.06507     -3280.671    20808755.904    86576631.46204
     -2551.636  
  22611798.678   121000286.84004      3418.637    22611803.742    94111370.42306
      2658.941  
 20 09 26 07 18 30.0000000  0 13G15G20G18G24G27G10G13R10R 8R 1R24R23
                                R17
  20581045.585   108154126.93548     -1825.800    20581044.535    84275936.80047
     -1422.706  
  20360496.123   106995131.00448      1447.434    20360493.555    83372816.09046
      1127.866  
  20801109.671   109310571.29249     -1744.652    20801108.274    85177061.98947
     -1359.469  
  21687070.782   113966322.66948      2677.043    21687070.082    88804943.05345
      2086.007  
  23870585.787   125440774.74647      -568.140    23870587.264    97746052.21343
      -442.714  
  22901391.211   120347621.40549      2905.645    22901392.145    93777374.81347
      2264.136  
  22783098.002   119725974.55544     -3205.367    22783089.380    93292970.36253
     -2497.688  
  21984584.064   117190212.67106      3185.633           0.000           0.0000 
         0.000  
  19624524.938   105088439.92608     -1140.034    19624527.832    81735459.66507
      -886.695  
  20013719.627   106984800.86108      1798.637    20013726.218    83210427.47206
      1398.941  
  20297142.708   108537941.02509      -196.722    20297146.117    84418415.23808
      -153.011  
  20811818.069   111329189.02707     -3284.233    20811823.609    86589395.50804
     -2554.414  
  22608605.353   120983199.68004      3415.813    22608610.714    94098080.42506
      2656.741  
 20 09 26 07 18 35.0000000  0 12G15G20G18G24G27G10G13R10R 8R 1R24R23
  20582783.702   108163260.48848     -1827.897    20582782.616    84283053.85547
     -1424.340  
  20359120.022   106987899.60749      1445.305    20359117.394    83367181.25446
      1126.211  
  20802771.051   109319301.87449     -1747.656    20802769.672    85183865.04347
     -1361.808  
  21684525.014   113952944.41048      2674.445    21684524.388    88794518.48944
      2083.992  
  23871127.984   125443623.85746      -571.664    23871129.535    97748272.28443
      -445.456  
  22898626.921   120333094.77549      2904.905    22898627.746    93766055.37447
      2263.563  
  22786147.706   119742000.23304     -3205.637           0.000           0.0000 
         0.000  
  21981597.318   117174291.75905      3182.828           0.000           0.0000 
         0.000  
  19625590.344   105094145.09408     -1142.098    19625593.212    81739897.03107
      -888.296  
  20012038.184   106975812.74308      1796.508    20012044.781    83203436.70906
      1397.280  
  20297328.783   108538936.17909      -201.292    20297332.170    84419189.24608
      -156.565  
  20814889.110   111345616.83807     -3287.348    20814894.495    86602172.72904
     -2556.824  
 20 09 26 07 18 40.0000000  0 13G15G20G18G24G27G10G13R10R 8R 1R24R23
                                R17
  20584523.827   108172404.56248     -1829.612    20584522.729    84290179.10847
     -1425.675  
  20357745.750   106980677.82249      1443.726    20357743.079    83361553.88546
      1124.977  
  20804435.032   109328046.21449     -1749.999    20804433.700    85190678.80447
     -1363.640  
  21681981.452   113939577.71748      2672.367    21681980.832    88784102.86544
      2082.358  
  23871673.064   125446488.08146      -574.022    23871674.630    97750504.17144
      -447.289  
  22895863.167   120318571.02749      2904.703    22895863.931    93754738.16747
      2263.402  
  22789198.079   119758030.51705     -3206.418           0.000           0.0000 
         0.000  
  21978612.992   117158383.93205      3180.301           0.000           0.0000 
         0.000  
  19626657.548   105099859.86108     -1143.809    19626660.373    81744341.84407
      -889.632  
  20010358.483   106966833.96508      1795.031    20010365.139    83196453.21806
      1396.137  
  20297519.072   108539953.77009      -205.507    20297522.428    84419980.71008
      -159.840  
  20817963.000   111362059.60407     -3289.980    20817968.227    86614961.50804
     -2558.878  
  22602226.812   120949080.63115      3410.878    22602232.443    94071530.27116
      2652.902  
 20 09 26 07 18 45.0000000  0 13G15G20G18G24G27G10G13R10R 8R 1R24R23
                                R17
  20586266.135   108181560.17448     -1832.383    20586265.031    84297313.35747
     -1427.831  
  20356373.541   106973466.68849      1440.949    20356370.819    83355934.83346
      1122.816  
  20806101.838   109336805.37249     -1753.629    20806100.575    85197504.12847
     -1366.465  
  21679440.248   113926223.65848      2669.395    21679439.676    88773697.13144
      2080.050  
  23872221.149   125449368.44646      -577.703    23872222.631    97752748.57943
      -450.164  
  22893100.155   120304051.17749      2903.487    22893100.836    93743424.00647
      2262.457  
  22792249.602   119774066.59605     -3208.116           0.000           0.0000 
         0.000  
  21975631.225   117142490.15605      3177.253           0.000           0.0000 
         0.000  
  19627726.850   105105585.80008     -1146.581    19627729.562    81748795.35407
      -891.788  
  20008680.753   106957865.50808      1792.539    20008687.390    83189477.76006
      1394.194  
  20297713.734   108540994.84109      -210.875    20297717.113    84420790.42808
      -164.020  
  20821039.892   111378518.43707     -3293.522    20821044.960    86627762.83404
     -2561.628  
  22599041.416   120932034.93804      3407.663    22599047.050    94058272.48406
      2650.401  
 20 09 26 07 18 50.0000000  0 13G15G20G18G24G27G10G13R10R 8R 1R24R23
                                R17
  20588010.971   108190729.06848     -1835.347    20588009.821    84304457.95047
     -1430.140  
  20355003.679   106966267.95349      1438.500    20355000.859    83350325.41846
      1120.906  
  20807771.767   109345581.00349     -1756.855    20807770.581    85204342.27547
     -1368.979  
  21676901.781   113912883.86348      2666.379    21676901.239    88763302.49644
      2077.698  
  23872772.693   125452266.70646      -581.648    23872774.090    97755006.99644
      -453.230  
  22890338.206   120289536.93949      2902.320    22890338.800    93732114.21347
      2261.547  
  22795302.510   119790110.02105     -3209.640           0.000           0.0000 
         0.000  
  21972652.564   117126612.12205      3173.949           0.000           0.0000 
         0.000  
  19628798.415   105111323.98408     -1149.066    19628801.023    81753258.38807
      -893.719  
  20007005.316   106948909.14808      1790.059    20007011.926    83182511.70406
      1392.269  
  20297913.095   108542061.09909      -215.887    20297916.523    84421619.73808
      -167.913  
  20824119.971   111394994.99606     -3297.234    20824125.019    86640577.87504
     -2564.526  
  22595858.924   120915004.99904      3403.332    22595864.591    94045027.00906
      2647.034  
 20 09 26 07 18 55.0000000  0 13G15G20G18G24G27G10G13R10R 8R 1R24R23
                                R17
  20589757.973   108199909.37648     -1836.410    20589756.836    84311611.43347
     -1430.972  
  20353635.820   106959079.74049      1437.313    20353632.935    83344724.22046
      1119.980  
  20809444.485   109354371.28949     -1758.754    20809443.399    85211191.84247
     -1370.461  
  21674365.671   113899556.42348      2665.062    21674365.109    88752917.46944
      2076.671  
  23873327.285   125455180.98046      -583.746    23873328.710    97757277.88443
      -454.867  
  22887576.962   120275026.47449      2902.559    22887577.484    93720807.36547
      2261.733  
  22798356.382   119806158.94145     -3209.547    22798353.146    93355444.55455
     -2500.945  
  21969676.403   117110748.35205      3172.593           0.000           0.0000 
         0.000  
  19629872.030   105117072.98708     -1150.016    19629874.557    81757729.83807
      -894.457  
  20005331.791   106939962.98108      1789.155    20005338.378    83175553.58506
      1391.566  
  20298116.843   108543150.84909      -219.406    20298120.357    84422467.32308
      -170.651  
  20827202.991   111411487.35606     -3299.030    20827208.072    86653405.27504
     -2565.917  
  22592679.008   120897988.84104      3402.938    22592684.689    94031792.20106
      2646.726  
 20 09 26 07 19  0.0000000  0 13G15G20G18G24G27G10G13R10R 8R 1R24R23
                                R17
  20591506.744   108209098.94648     -1839.305    20591505.576    84318772.13947
     -1433.222  
  20352269.571   106951899.93149      1434.676    20352266.595    83339129.56646
      1117.930  
  20811119.595   109363174.08449     -1762.273    20811118.576    85218051.16147
     -1373.202  
  21671831.525   113886239.39548      2661.812    21671830.935    88742540.57544
      2074.136  
  23873884.530   125458109.16347      -587.265    23873885.690    97759559.56144
      -457.609  
  22884816.032   120260517.68949      2901.078    22884816.500    93709501.81847
      2260.581  
  22801410.961   119822211.27404     -3211.488           0.000           0.0000 
         0.000  
  21966702.681   117094896.45905      3168.441           0.000           0.0000 
         0.000  
  19630947.239   105122830.49508     -1152.844    19630949.633    81762207.89706
      -896.660  
  20003659.733   106931024.77808      1786.406    20003666.319    83168601.65506
      1389.426  
  20298324.554   108544261.73109      -224.750    20298328.142    84423331.33908
      -174.808  
  20830288.471   111427993.50006     -3303.152    20830293.748    86666243.37404
     -2569.121  
  22589501.255   120880984.48004      3398.363    22589506.886    94018566.60405
      2643.171  
 20 09 26 07 19  5.0000000  0 13G15G20G18G24G27G10G13R10R 8R 1R24R23
                                R17
  20593258.244   108218302.89348     -1841.949    20593257.051    84325944.04047
     -1435.288  
  20350905.895   106944733.64049      1432.081    20350902.812    83333545.44446
      1115.901  
  20812798.058   109371994.49549     -1765.656    20812797.113    85224924.20647
     -1375.839  
  21669300.322   113872937.80248      2658.879    21669299.709    88732175.69244
      2071.852  
  23874445.379   125461056.35046      -591.085    23874446.546    97761856.10944
      -460.581  
  22882056.378   120246015.67049      2899.815    22882056.797    93698201.54747
      2259.593  
  22804467.027   119838272.06904     -3212.773           0.000           0.0000 
         0.000  
  21963732.014   117079061.50704      3165.066           0.000           0.0000 
         0.000  
  19632024.991   105128601.80608     -1155.452    19632027.266    81766696.69906
      -898.687  
  20001990.156   106922099.86708      1783.839    20001996.747    83161660.06606
      1387.430  
  20298537.210   108545398.99009      -229.862    20298540.829    84424215.86907
      -178.784  
  20833377.258   111444518.42805     -3306.464    20833382.961    86679096.09504
     -2571.698  
  22586326.547   120863996.94704      3396.801    22586332.209    94005354.07505
      2641.956  
 20 09 26 07 19 10.0000000  0 13G15G20G18G24G27G10G13R10R 8R 1R24R23
                                R17
  20595012.111   108227519.18248     -1844.332    20595010.974    84333125.56447
     -1437.144  
  20349544.399   106937578.87048      1429.862    20349541.251    83327970.30046
      1114.179  
  20814479.503   109380830.51749     -1768.690    20814478.628    85231809.41847
     -1378.203  
  21666771.687   113859649.76648      2656.188    21666771.041    88721821.40544
      2069.757  
  23875009.441   125464020.51946      -593.969    23875010.617    97764165.85544
      -462.836  
  22879297.639   120231518.43349      2899.105    22879298.049    93686904.99647
      2259.039  
  22807524.279   119854339.37905     -3214.081           0.000           0.0000 
         0.000  
  21960764.095   117063241.83205      3162.789           0.000           0.0000 
         0.000  
  19633104.893   105134384.69808     -1157.656    19633107.062    81771194.51306
      -900.397  
  20000322.730   106913186.27208      1781.612    20000329.289    83154727.27006
      1385.698  
  20298754.406   108546560.56309      -234.694    20298758.066    84425119.32407
      -182.539  
  20836469.053   111461060.10605     -3310.344    20836475.237    86691961.83904
     -2574.715  
  22583154.793   120847024.37304      3393.563    22583160.233    93992153.19605
      2639.438  
 20 09 26 07 19 15.0000000  0 13G15G20G18G24G27G10G13R10R 8R 1R24R23
                                R17
  20596767.943   108236745.98348     -1846.484    20596766.883    84340315.27847
     -1438.824  
  20348184.748   106930433.73049      1427.929    20348181.540    83322402.66746
      1112.671  
  20816163.567   109389680.24249     -1771.449    20816162.735    85238705.30547
     -1380.354  
  21664245.227   113846373.35148      2654.073    21664244.652    88711476.14144
      2068.105  
  23875576.368   125466999.83546      -597.754    23875577.772    97766487.38343
      -465.780  
  22876539.422   120217024.09449      2898.483    22876539.863    93675610.71547
      2258.558  
  22810582.331   119870411.23844     -3215.272    22810580.219    93405512.40854
     -2505.406  
  21957798.698   117047435.34604      3159.859           0.000           0.0000 
         0.000  
  19634186.580   105140177.26708     -1159.683    19634188.647    81775699.83706
      -901.979  
  19998657.011   106904281.76808      1779.750    19998663.520    83147801.55306
      1384.250  
  20298975.803   108547744.62409      -239.155    20298979.506    84426040.25807
      -186.016  
  20839563.763   111477616.68305     -3312.538    20839570.282    86704839.16604
     -2576.417  
  22579985.375   120830064.74104      3388.891    22579990.689    93978962.37705
      2635.804  
 20 09 26 07 19 20.0000000  0 13G15G20G18G24G27G10G13R10R 8R 1R24R23
                                R17
  20598525.995   108245984.45348     -1848.835    20598524.949    84347514.07746
     -1440.655  
  20346827.160   106923299.49349      1425.652    20346823.892    83316843.51346
      1110.894  
  20817850.475   109398544.90549     -1774.594    20817849.662    85245612.83447
     -1382.805  
  21661721.224   113833109.81248      2651.128    21661720.761    88701140.91545
      2065.816  
  23876146.344   125469995.42246      -600.895    23876147.721    97768821.60343
      -468.230  
  22873781.989   120202533.90049      2897.410    22873782.517    93664319.65847
      2257.718  
  22813641.276   119886488.91704     -3216.074           0.000           0.0000 
         0.000  
  21954836.169   117031643.43005      3156.253           0.000           0.0000 
         0.000  
  19635270.332   105145980.80508     -1162.019    19635272.319    81780213.69906
      -903.797  
  19996993.285   106895388.00808      1777.581    19996999.714    83140884.19005
      1382.563  
  20299201.637   108548952.35509      -244.156    20299205.350    84426979.60007
      -189.901  
  20842661.508   111494189.24905     -3316.508    20842668.319    86717728.97504
     -2579.503  
  22576818.890   120813119.30204      3387.262    22576823.806    93965782.60505
      2634.535  
 20 09 26 07 19 25.0000000  0 12G15G20G18G24G27G10R10R 8R 1R24R23R17
  20600286.237   108255234.52348     -1851.125    20600285.239    84354721.92347
     -1442.437  
  20345471.634   106916176.09349      1423.656    20345468.276    83311292.80746
      1109.339  
  20819540.216   109407424.43249     -1777.359    20819539.403    85252531.94547
     -1384.956  
  21659199.634   113819858.98648      2648.902    21659199.200    88690815.60744
      2064.078  
  23876719.436   125473007.25946      -603.710    23876720.905    97771168.47744
      -470.426  
  22871025.338   120188047.76149      2896.976    22871025.929    93653031.76747
      2257.383  
  21951876.218   117015865.82005      3154.206           0.000           0.0000 
         0.000  
  19636356.132   105151795.24508     -1163.737    19636358.057    81784736.04107
      -905.133  
  19995331.527   106886504.80508      1775.848    19995337.882    83133975.03006
      1381.211  
  20299431.857   108550183.66509      -248.550    20299435.589    84427937.28707
      -193.316  
  20845762.390   111510777.90805     -3318.918    20845769.295    86730631.29104
     -2581.375  
  22573654.729   120796188.29904      3384.195    22573659.657    93952614.02105
      2632.147  
 20 09 26 07 19 30.0000000  0 12G15G20G18G24G27G10R10R 8R 1R24R23R17
  20602048.790   108264496.64948     -1853.879    20602047.815    84361939.15847
     -1444.586  
  20344118.285   106909064.01049      1420.977    20344114.870    83305750.92845
      1107.253  
  20821232.863   109416319.28949     -1780.550    20821232.052    85259462.99947
     -1387.444  
  21656680.548   113806621.47648      2646.031    21656680.159    88680500.68044
      2061.844  
  23877295.722   125476035.85046      -607.366    23877297.317    97773528.41643
      -473.281  
  22868269.544   120173566.18349      2895.598    22868270.230    93641747.41847
      2256.304  
  21948919.136   117000103.15805      3151.382           0.000           0.0000 
         0.000  
  19637444.063   105157621.09608     -1166.742    19637445.941    81789267.25806
      -907.469  
  19993671.800   106877632.36108      1773.241    19993678.048    83127074.24406
      1379.184  
  20299666.595   108551439.10009      -253.695    20299670.331    84428913.73407
      -197.324  
  20848866.353   111527383.05006     -3322.973    20848873.421    86743546.39904
     -2584.534  
  22570493.362   120779271.84204      3381.672    22570498.256    93939456.78105
      2630.187  
 20 09 26 07 19 35.0000000  0 12G15G20G18G24G27G10R10R 8R 1R24R23R17
  20603813.929   108273772.45348     -1856.492    20603812.941    84369167.05446
     -1446.620  
  20342767.379   106901964.85649      1418.491    20342763.860    83300219.11146
      1105.316  
  20822928.755   109425231.07549     -1784.043    20822927.915    85266407.24247
     -1390.168  
  21654164.244   113793398.83148      2642.941    21654164.009    88670197.34044
      2059.434  
  23877875.473   125479082.77746      -611.354    23877877.140    97775902.66244
      -476.378  
  22865514.909   120159090.76049      2894.371    22865515.673    93630467.87546
      2255.354  
  21945965.237   116984357.06005      3147.694           0.000           0.0000 
         0.000  
  19638534.434   105163459.92408     -1169.027    19638536.248    81793808.56707
      -909.246  
  19992014.442   106868772.67708      1770.715    19992020.616    83120183.37805
      1377.219  
  20299906.189   108552720.35109      -258.852    20299909.886    84429910.26407
      -201.331  
  20851973.842   111544006.21006     -3326.491    20851980.925    86756475.53504
     -2587.272  
  22567335.057   120762371.86704      3377.644    22567339.934    93926312.35305
      2627.055  
 20 09 26 07 19 40.0000000  0 12G15G20G18G24G27G10R10R 8R 1R24R23R17
  20605581.322   108283060.13348     -1858.550    20605580.298    84376404.21047
     -1448.227  
  20341418.590   106894876.85749      1416.816    20341414.992    83294696.00545
      1104.011  
  20824627.523   109434158.00149     -1786.426    20824626.645    85273363.28847
     -1392.023  
  21651650.411   113780189.27148      2640.789    21651650.232    88659904.19044
      2057.758  
  23878458.357   125482146.19246      -613.968    23878460.181    97778289.74143
      -478.422  
  22862761.120   120144619.72049      2894.159    22862761.911    93619191.74546
      2255.191  
  21943014.185   116968625.72905      3145.659           0.000           0.0000 
         0.000  
  19639626.884   105169310.06908     -1170.890    19639628.661    81798358.67807
      -910.691  
  19990359.083   106859923.77208      1769.058    19990365.179    83113300.90205
      1375.933  
  20300150.218   108554025.50009      -263.116    20300153.924    84430925.37507
      -204.651  
  20855084.407   111560645.63206     -3328.780    20855091.519    86769417.30404
     -2589.050  
  22564179.626   120745486.45305      3375.976    22564184.303    93913179.25405
      2625.753  
 20 09 26 07 19 45.0000000  0 13G15G20G18G24G27G10G13R10R 8R 1R24R23
                                R17
  20607350.595   108292357.66748     -1860.457    20607349.528    84383649.03547
     -1449.710  
  20340071.548   106887798.04349      1414.792    20340067.886    83289180.04846
      1102.434  
  20826328.780   109443098.07549     -1789.401    20826327.891    85280329.57747
     -1394.343  
  21649138.717   113766990.94647      2638.663    21649138.670    88649619.79244
      2056.104  
  23879044.023   125485224.14146      -617.026    23879045.934    97780688.14742
      -480.804  
  22860007.813   120130151.08749      2893.469    22860008.591    93607917.48446
      2254.647  
  22828954.431   119966965.40415     -3222.254           0.000           0.0000 
         0.000  
  21940065.627   116952907.25705      3142.527           0.000           0.0000 
         0.000  
  19640721.056   105175169.24708     -1172.734    19640722.774    81802915.81007
      -912.129  
  19988705.375   106851083.63108      1767.168    19988711.374    83106425.24305
      1374.464  
  20300398.378   108555352.42909      -267.586    20300402.005    84431957.42607
      -208.125  
  20858197.678   111577299.28607     -3332.155    20858204.778    86782370.13204
     -2591.680  
  22561026.471   120728613.63005      3373.105    22561031.049    93900055.92105
      2623.519  
 20 09 26 07 19 50.0000000  0 13G15G20G18G24G27G10G13R10R 8R 1R24R23
                                R17
  20609122.293   108301668.03348     -1863.449    20609121.169    84390903.85946
     -1452.043  
  20338726.821   106880731.36348      1412.136    20338723.126    83283673.54446
      1100.362  
  20828033.105   109452054.23949     -1792.800    20828032.176    85287308.39847
     -1396.991  
  21646629.728   113753806.71447      2635.636    21646629.880    88639346.37245
      2053.746  
  23879633.039   125488319.59546      -620.546    23879634.747    97783100.17443
      -483.542  
  22857255.535   120115687.83349      2892.003    22857256.294    93596647.41146
      2253.504  
  22832020.490   119983079.68005     -3223.976           0.000           0.0000 
         0.000  
  21937119.869   116937204.58105      3139.112           0.000           0.0000 
         0.000  
  19641817.491   105181040.57608     -1175.574    19641819.180    81807482.39507
      -914.339  
  19987053.881   106842255.23208      1764.573    19987059.773    83099558.71305
      1372.445  
  20300651.156   108556704.24209      -272.714    20300654.755    84433008.83007
      -212.117  
  20861314.179   111593970.12107     -3335.699    20861321.264    86795336.32604
     -2594.438  
  22557876.224   120711756.30105      3369.827    22557880.605    93886944.66005
      2620.973  
 20 09 26 07 19 55.0000000  0 13G15G20G18G24G27G10G13R10R 8R 1R24R23
                                R17
  20610896.064   108310989.19848     -1864.969    20610894.906    84398167.10947
     -1453.226  
  20337384.006   106873674.79048      1410.457    20337380.321    83278174.91846
      1099.059  
  20829740.111   109461024.46149     -1795.245    20829739.144    85294298.18047
     -1398.897  
  21644123.029   113740634.64448      2633.434    21644123.330    88629082.40745
      2052.023  
  23880224.953   125491430.53346      -623.594    23880226.809    97785524.28743
      -485.921  
  22854503.897   120101227.90549      2891.836    22854504.586    93585379.94146
      2253.379  
  22835087.471   119999198.86905     -3223.832           0.000           0.0000 
         0.000  
  21934176.771   116921515.49405      3137.241           0.000           0.0000 
         0.000  
  19642915.846   105186922.12108     -1177.194    19642917.560    81812056.92307
      -915.601  
  19985404.216   106833436.66808      1762.983    19985410.004    83092699.83405
      1371.210  
  20300908.167   108558078.84809      -277.030    20300911.767    84434077.96507
      -215.472  
  20864433.599   111610656.06907     -3338.390    20864440.609    86808314.28304
     -2596.531  
  22554728.498   120694912.62505      3367.772    22554732.753    93873844.02905
      2619.374  
 20 09 26 07 20  0.0000000  0 13G15G20G18G24G27G10G13R10R 8R 1R24R23
                                R17
  20612671.756   108320320.55248     -1867.507    20612670.640    84405438.28746
     -1455.198  
  20336042.999   106866627.72149      1408.476    20336039.300    83272683.69346
      1097.516  
  20831449.679   109470008.14249     -1798.133    20831448.665    85301298.44747
     -1401.144  
  21641618.557   113727474.02048      2630.983    21641618.997    88618827.39544
      2050.116  
  23880819.710   125494556.28346      -626.633    23880821.760    97787959.91944
      -488.289  
  22851752.790   120086770.74449      2891.011    22851753.471    93574114.61446
      2252.734  
  22838155.241   120015322.39205     -3225.593           0.000           0.0000 
         0.000  
  21931236.037   116905839.63505      3133.608           0.000           0.0000 
         0.000  
  19644015.951   105192813.13308     -1179.214    19644017.717    81816638.81707
      -917.171  
  19983756.221   106824627.09608      1761.073    19983761.969    83085847.94805
      1369.723  
  20301169.379   108559475.78809      -281.598    20301172.986    84435164.47008
      -219.022  
  20867555.678   111627356.49007     -3341.714    20867562.612    86821303.49404
     -2599.117  
  22551583.068   120678081.85305      3365.155    22551587.299    93860753.41305
      2617.340  
 20 09 26 07 20  5.0000000  0 13G15G20G18G24G27G10G13R10R 8R 1R24R23
                                R17
  20614449.629   108329663.30848     -1869.976    20614448.538    84412718.35546
     -1457.129  
  20334704.026   106859591.39949      1406.055    20334700.391    83267200.83446
      1095.624  
  20833162.041   109479006.47849     -1801.296    20833160.953    85308310.13347
     -1403.613  
  21639116.483   113714326.12748      2628.194    21639117.165    88608582.28044
      2047.944  
  23881417.487   125497698.12246      -630.355    23881419.647    97790408.13443
      -491.187  
  22849002.433   120072317.55149      2890.269    22849003.091    93562852.39546
      2252.156  
  22841224.231   120031451.41905     -3226.511           0.000           0.0000 
         0.000  
  21928298.145   116890178.23305      3130.253           0.000           0.0000 
         0.000  
  19645118.052   105198714.77408     -1181.500    19645119.850    81821228.97307
      -918.949  
  19982110.187   106815827.98008      1758.585    19982115.935    83079004.19106
      1367.788  
  20301434.949   108560896.06609      -286.516    20301438.592    84436269.12808
      -222.847  
  20870680.719   111644072.60407     -3344.961    20870687.556    86834304.90404
     -2601.641  
  22548440.395   120661265.27705      3361.925    22548444.543    93847673.86604
      2614.832  
 20 09 26 07 20 10.0000000  0 13G15G20G18G24G27G10G13R10R 8R 1R24R23
                                R17
  20616229.950   108339018.74148     -1872.565    20616228.838    84420008.29246
     -1459.148  
  20333367.343   106852567.14448      1403.359    20333363.775    83261727.39546
      1093.526  
  20834877.448   109488020.78349     -1804.680    20834876.311    85315334.27247
     -1406.241  
  21636617.150   113701192.41948      2624.957    21636617.903    88598348.25344
      2045.425  
  23882018.661   125500857.34247      -634.136    23882021.076    97792869.88644
      -494.129  
  22846253.090   120057869.65449      2888.859    22846253.707    93551594.28246
      2251.054  
  22844294.488   120047587.31805     -3227.938           0.000           0.0000 
         0.000  
  21925363.263   116874532.75805      3127.362           0.000           0.0000 
         0.000  
  19646222.395   105204628.57408     -1184.226    19646224.275    81825828.58707
      -921.069  
  19980466.329   106807040.64708      1756.070    19980472.115    83072169.60506
      1365.831  
  20301705.170   108562341.18509      -291.730    20301708.859    84437393.10708
      -226.906  
  20873808.960   111660805.80207     -3348.815    20873815.704    86847319.61704
     -2604.640  
  22545300.648   120644464.32605      3358.315    22545304.717    93834606.45405
      2612.019  
 20 09 26 07 20 15.0000000  0 13G15G20G18G24G27G10G13R10R 8R 1R24R23
                                R17
  20618012.762   108348387.13548     -1874.523    20618011.579    84427308.32146
     -1460.672  
  20332033.015   106845555.23848      1401.628    20332029.484    83256263.57346
      1092.176  
  20836595.953   109497051.34249     -1807.315    20836594.760    85322371.06247
     -1408.301  
  21634120.569   113688073.04948      2622.871    21634121.414    88588125.38944
      2043.801  
  23882623.253   125504034.18147      -636.804    23882625.702    97795345.29244
      -496.218  
  22843504.789   120043427.33249      2888.363    22843505.397    93540340.53846
      2250.672  
  22847366.319   120063730.21545     -3228.870    22847358.082    93556099.92054
     -2516.003  
  21922431.216   116858903.23105      3124.433           0.000           0.0000 
         0.000  
  19647329.049   105210554.65408     -1186.147    19647330.990    81830437.76307
      -922.562  
  19978824.705   106798265.19508      1754.422    19978830.494    83065344.26106
      1364.550  
  20301980.097   108563811.40609      -296.078    20301983.834    84438536.60808
      -230.285  
  20876940.357   111677556.10406     -3351.448    20876947.085    86860347.62704
     -2606.688  
  22542163.862   120627679.18505      3355.815    22542168.012    93821551.31405
      2610.069  
 20 09 26 07 20 20.0000000  0 13G15G20G18G24G27G10G13R10R 8R 1R24R23
                                R17
  20619797.452   108357765.52948     -1876.711    20619796.231    84434616.17046
     -1462.370  
  20330700.458   106838552.66348      1399.476    20330696.984    83250807.01946
      1090.500  
  20838316.975   109506095.11949     -1810.175    20838315.709    85329418.15447
     -1410.530  
  21631626.101   113674965.06048      2620.593    21631626.988    88577911.38445
      2042.020  
  23883230.607   125507225.66446      -639.941    23883233.188    97797832.15845
      -498.659  
  22840756.938   120028987.59049      2887.598    22840757.596    93529088.78246
      2250.070  
  22850438.453   120079877.16944     -3230.020    22850433.023    93568703.25954
     -2516.897  
  21919501.657   116843286.69405      3122.180           0.000           0.0000 
         0.000  
  19648437.456   105216490.02908     -1187.953    19648439.459    81835054.15507
      -923.969  
  19977184.726   106789498.56408      1752.363    19977190.529    83058525.77006
      1362.949  
  20302259.130   108565303.58209      -300.722    20302262.924    84439697.19308
      -233.894  
  20880074.387   111694320.73907     -3354.535    20880081.154    86873386.78604
     -2609.086  
  22539029.508   120610906.97105      3353.137    22539033.687    93808506.26404
      2607.992  
 20 09 26 07 20 25.0000000  0 13G15G20G18G24G27G10G13R10R 8R 1R24R23
                                R17
  20621584.502   108367156.57148     -1878.973    20621583.303    84441933.86947
     -1464.136  
  20329370.195   106831562.14548      1397.147    20329366.781    83245359.87546
      1088.688  
  20840041.022   109515154.83249     -1813.328    20840039.701    85336477.67647
     -1412.984  
  21629134.325   113661871.22148      2617.272    21629135.163    88567708.40344
      2039.433  
  23883841.122   125510434.47146      -643.453    23883843.674    97800332.52643
      -501.397  
  22838010.055   120014553.12249      2886.519    22838010.819    93517841.15946
      2249.234  
  22853512.034   120096030.79105     -3231.234           0.000           0.0000 
         0.000  
  21916575.101   116827686.03405      3118.870           0.000           0.0000 
         0.000  
  19649548.131   105222437.39408     -1190.421    19649550.171    81839679.88507
      -925.887  
  19975546.948   106780743.70608      1749.957    19975552.747    83051716.44605
      1361.077  
  20302542.825   108566820.56309      -305.698    20302546.673    84440877.05908
      -237.769  
  20883211.601   111711102.28207     -3357.824    20883218.389    86886439.08504
     -2611.644  
  22535898.058   120594150.25905      3349.977    22535902.137    93795473.26704
      2605.539  
 20 09 26 07 20 30.0000000  0 13G15G20G18G24G27G10G13R10R 8R 1R24R23
                                R17
  20623373.508   108376558.08148     -1881.602    20623372.381    84449259.72046
     -1466.187  
  20328041.795   106824581.54748      1395.124    20328038.526    83239920.42546
      1087.105  
  20841767.694   109524228.30649     -1816.237    20841766.307    85343547.90347
     -1415.253  
  21626644.832   113648789.25348      2615.151    21626645.674    88557514.67444
      2037.781  
  23884454.538   125513658.49346      -646.469    23884457.253    97802844.75044
      -503.746  
  22835263.761   120000121.80949      2885.848    22835264.624    93506595.98046
      2248.707  
  22856586.764   120112188.97904     -3231.676           0.000           0.0000 
         0.000  
  21913651.003   116812098.91405      3116.094           0.000           0.0000 
         0.000  
  19650660.602   105228394.59408     -1192.476    19650662.709    81844313.25807
      -927.483  
  19973910.911   106771998.36808      1747.999    19973916.725    83044914.50305
      1359.551  
  20302830.710   108568360.07809      -310.194    20302834.653    84442074.46208
      -241.261  
  20886351.665   111727898.56907     -3361.124    20886358.358    86899502.85405
     -2614.210  
  22532769.158   120577407.10306      3347.289    22532773.150    93782450.78004
      2603.440  
 20 09 26 07 20 35.0000000  0 13G15G20G18G24G27G10G13R10R 8R 1R24R23
                                R17
  20625164.685   108385970.68348     -1883.335    20625163.576    84456594.20746
     -1467.539  
  20326715.391   106817611.49448      1393.147    20326712.211    83234489.22846
      1085.570  
  20843497.124   109533316.17649     -1818.632    20843495.663    85350629.35747
     -1417.120  
  21624157.742   113635719.94448      2613.034    21624158.606    88547330.79444
      2036.128  
  23885070.980   125516898.32746      -649.265    23885073.815    97805369.24942
      -505.926  
  22832518.139   119985694.25149      2885.629    22832519.079    93495353.74546
      2248.543  
  22859662.439   120128352.44745     -3232.671    22859665.806    93606510.05355
     -2518.964  
  21910729.591   116796526.20805      3113.378           0.000           0.0000 
         0.000  
  19651774.985   105234362.16208     -1194.206    19651777.165    81848954.70707
      -928.827  
  19972276.793   106763263.22608      1746.370    19972282.615    83038120.51105
      1358.289  
  20303122.943   108569922.81209      -314.519    20303126.960    84443289.92108
      -244.628  
  20889494.538   111744710.13207     -3363.323    20889501.205    86912578.50404
     -2615.922  
  22529642.951   120560678.01206      3344.754    22529646.874    93769439.26004
      2601.472  
 20 09 26 07 20 40.0000000  0 13G15G20G18G24G27G10G13R10R 8R 1R24R23
                                R17
  20626957.965   108395394.49848     -1886.120    20626956.836    84463937.43346
     -1469.707  
  20325391.006   106810652.12048      1390.636    20325387.919    83229066.35146
      1083.612  
  20845229.317   109542418.56949     -1822.156    20845227.798    85357722.12847
     -1419.866  
  21621673.070   113622663.34048      2609.745    21621674.021    88537156.83545
      2033.570  
  23885690.513   125520153.99547      -652.733    23885693.335    97807906.11144
      -508.624  
  22829773.320   119971270.66249      2884.026    22829774.362    93484114.58846
      2247.288  
  22862739.131   120144521.29105     -3234.805           0.000           0.0000 
         0.000  
  21907811.110   116780968.06106      3110.011           0.000           0.0000 
         0.000  
  19652891.352   105240340.40808     -1197.054    19652893.575    81853604.45207
      -931.043  
  19970644.616   106754538.33608      1743.737    19970650.430    83031334.48805
      1356.241  
  20303419.548   108571508.85909      -319.879    20303423.618    84444523.50908
      -248.796  
  20892640.304   111761537.23207     -3367.141    20892646.894    86925666.25805
     -2618.886  
  22526519.256   120543963.17406      3341.358    22526523.255    93756438.83204
      2598.836  
 20 09 26 07 20 45.0000000  0 13G15G20G18G24G27G10G13R10R 8R 1R24R23
                                R17
  20628753.661   108404831.22548     -1888.660    20628752.587    84471290.73246
     -1471.684  
  20324068.992   106803705.13748      1388.352    20324065.959    83223653.11546
      1081.831  
  20846964.577   109551537.13749     -1825.203    20846963.018    85364827.50147
     -1422.237  
  21619191.152   113609621.21348      2607.198    21619192.213    88526994.15344
      2031.582  
  23886313.469   125523427.33847      -656.207    23886315.936    97810456.80843
      -511.328  
  22827029.541   119956852.62948      2883.218    22827030.765    93472879.76646
      2246.664  
  22865817.174   120160697.01605     -3235.491           0.000           0.0000 
         0.000  
  21904895.523   116765426.03005      3106.569           0.000           0.0000 
         0.000  
  19654010.047   105246330.81508     -1199.147    19654012.250    81858263.66407
      -932.672  
  19969014.690   106745825.44608      1741.608    19969020.444    83024557.80105
      1354.585  
  20303720.825   108573119.92409      -324.628    20303724.956    84445776.56408
      -252.492  
  20895789.286   111778381.44507     -3370.523    20895795.798    86938767.29904
     -2621.522  
  22523398.719   120527264.27206      3338.241    22523402.476    93743450.85404
      2596.413  
 20 09 26 07 20 50.0000000  0 13G15G20G18G24G27G10G13R10R 8R 1R24R23
                                R17
  20630551.418   108414279.00147     -1890.504    20630550.415    84478652.63346
     -1473.121  
  20322748.975   106796768.77548      1386.473    20322746.098    83218248.16046
      1080.366  
  20848702.560   109560670.11349     -1827.848    20848701.001    85371944.09548
     -1424.300  
  21616711.607   113596591.55448      2604.793    21616712.577    88516841.17545
      2029.707  
  23886939.404   125526716.46147      -659.375    23886941.432    97813019.79642
      -513.796  
  22824286.523   119942438.44449      2882.710    22824287.832    93461647.94746
      2246.269  
  22868896.190   120176878.04204     -3237.074           0.000           0.0000 
         0.000  
  21901982.634   116749898.34906      3104.120           0.000           0.0000 
         0.000  
  19655130.657   105252331.78708     -1201.058    19655132.864    81862931.07707
      -934.159  
  19967386.632   106737122.67108      1739.690    19967392.335    83017788.97705
      1353.094  
  20304026.498   108574754.33709      -329.074    20304030.615    84447047.77508
      -255.949  
  20898941.069   111795240.89107     -3372.987    20898947.534    86951880.18304
     -2623.438  
  22520280.725   120510579.56606      3335.714    22520284.372    93730473.84703
      2594.441  
 20 09 26 07 20 55.0000000  0 12G15G20G18G24G27G10R10R 8R 1R24R23R17
  20632351.303   108423738.02147     -1892.734    20632350.326    84486023.31146
     -1474.858  
  20321431.035   106789843.14148      1384.093    20321428.276    83212851.55446
      1078.511  
  20850443.297   109569817.62449     -1830.832    20850441.750    85379072.01647
     -1426.624  
  21614234.546   113583574.91448      2602.105    21614235.587    88506698.34544
      2027.613  
  23887568.388   125530021.57546      -662.546    23887569.949    97815595.18844
      -516.270  
  22821544.279   119928028.22749      2881.796    22821545.620    93450419.20145
      2245.550  
  21899072.539   116734385.34106      3101.445           0.000           0.0000 
         0.000  
  19656253.333   105258343.35308     -1203.319    19656255.452    81867606.73907
      -935.917  
  19965760.533   106728430.26908      1737.417    19965766.150    83011028.21405
      1351.319  
  20304336.506   108576412.05809      -333.784    20304340.631    84448337.10908
      -259.612  
  20902095.750   111812115.86607     -3376.468    20902102.128    86965005.17404
     -2626.140  
  22517165.488   120493909.18406      3333.035    22517168.910    93717507.96303
      2592.352  
 20 09 26 07 21  0.0000000  0 13G15G20G18G24G27G10G13R10R 8R 1R24R23
                                R17
  20634153.234   108433207.82747     -1895.144    20634152.346    84493402.37546
     -1476.738  
  20320115.041   106782927.79948      1381.969    20320112.382    83207462.97046
      1076.854  
  20852186.738   109578979.21849     -1833.753    20852185.166    85386210.92047
     -1428.901  
  21611759.883   113570570.62948      2599.468    21611761.085    88496565.14545
      2025.559  
  23888200.322   125533342.19146      -665.816    23888201.323    97818182.62244
      -518.827  
  22818802.701   119913621.54549      2881.004    22818804.121    93439193.22346
      2244.934  
  22875057.198   120209236.60715     -3238.698           0.000           0.0000 
         0.000  
  21896165.096   116718886.47006      3098.237           0.000           0.0000 
         0.000  
  19657377.859   105264365.01208     -1205.354    19657379.918    81872290.25507
      -937.500  
  19964136.273   106719747.76208      1735.527    19964141.801    83004275.14505
      1349.852  
  20304650.819   108578092.70609      -338.425    20304654.934    84449644.27108
      -263.222  
  20905253.248   111829005.79207     -3379.757    20905259.497    86978141.77304
     -2628.702  
  22514052.936   120477252.75606      3329.813    22514055.817    93704552.93703
      2589.847  
 20 09 26 07 21  5.0000000  0 13G15G20G18G24G27G10G13R10R 8R 1R24R23
                                R17
  20635957.254   108442688.64248     -1897.565    20635956.469    84500790.02045
     -1478.629  
  20318801.034   106776023.05148      1379.483    20318798.542    83202082.64246
      1074.918  
  20853932.878   109588155.15249     -1836.819    20853931.304    85393360.99847
     -1431.292  
  21609287.583   113557578.85548      2596.980    21609288.746    88486441.70445
      2023.620  
  23888835.227   125536678.51447      -668.772    23888836.062    97820782.30343
      -521.132  
  22816061.866   119899218.67249      2879.890    22816063.309    93427970.21246
      2244.070  
  22878139.316   120225432.96605     -3240.020           0.000           0.0000 
         0.000  
  21893260.419   116703402.12606      3094.917           0.000           0.0000 
         0.000  
  19658504.317   105270397.30308     -1207.766    19658506.376    81876982.04007
      -939.375  
  19962513.884   106711075.32008      1733.266    19962519.397    82997529.91505
      1348.089  
  20304969.479   108579796.50709      -343.398    20304973.545    84450969.44508
      -267.089  
  20908413.592   111845910.90607     -3382.913    20908419.659    86991290.18504
     -2631.160  
  22510943.025   120460610.52406      3326.695    22510945.515    93691608.96903
      2587.425  
 20 09 26 07 21 10.0000000  0 13G15G20G18G24G27G10G13R10R 8R 1R24R23
                                R17
  20637763.522   108452181.20947     -1899.465    20637762.829    84508186.82646
     -1480.105  
  20317489.198   106769129.58848      1377.890    20317486.875    83196711.11246
      1073.676  
  20855681.887   109597346.13049     -1839.371    20855680.340    85400522.79148
     -1433.280  
  21606817.878   113544600.50148      2594.602    21606818.986    88476328.69845
      2021.765  
  23889473.285   125540031.34347      -671.823    23889474.097    97823394.91843
      -523.500  
  22813321.883   119884820.30949      2879.684    22813323.357    93416750.72246
      2243.910  
  22881222.554   120241635.21145     -3240.972    22881223.435    93694788.94353
     -2525.434  
  21890358.439   116687932.78206      3092.547           0.000           0.0000 
         0.000  
  19659632.828   105276440.64408     -1209.395    19659634.880    81881682.40807
      -940.644  
  19960893.558   106702413.84008      1731.726    19960899.066    82990793.21205
      1346.897  
  20305292.618   108581524.19309      -347.547    20305296.615    84452313.19708
      -270.315  
  20911576.840   111862831.90307     -3385.246    20911582.717    87004450.95304
     -2632.972  
  22507835.896   120443983.24406      3324.007    22507838.085    93678676.60902
      2585.331  
 20 09 26 07 21 15.0000000  0 13G15G20G18G24G27G10G13R10R 8R 1R24R23
                                R17
  20639571.831   108461684.40548     -1901.706    20639571.077    84515591.92346
     -1481.852  
  20316179.310   106762246.35748      1375.616    20316177.168    83191347.55246
      1071.905  
  20857433.549   109606551.08149     -1842.487    20857432.037    85407695.48047
     -1435.710  
  21604350.549   113531634.56848      2591.796    21604351.594    88466225.39145
      2019.581  
  23890114.228   125543399.55547      -675.519    23890114.934    97826019.53744
      -526.378  
  22810582.573   119870425.41649      2878.551    22810584.063    93405533.92945
      2243.027  
  22884306.785   120257842.11006     -3241.793           0.000           0.0000 
         0.000  
  21887459.156   116672477.53606      3089.538           0.000           0.0000 
         0.000  
  19660763.253   105282493.99108     -1211.789    19660765.262    81886390.56307
      -942.508  
  19959275.064   106693762.16008      1729.215    19959280.544    82984064.12405
      1344.940  
  20305620.029   108583274.66509      -352.512    20305623.931    84453674.67408
      -274.180  
  20914742.911   111879767.81007     -3388.809    20914748.654    87017623.32804
     -2635.742  
  22504731.445   120427369.82206      3320.921    22504733.396    93665755.03203
      2582.929  
 20 09 26 07 21 20.0000000  0 13G15G20G18G24G27G10G13R10R 8R 1R24R23
                                R17
  20641382.461   108471199.73648     -1904.316    20641381.610    84523006.47246
     -1483.882  
  20314871.649   106755374.77248      1373.159    20314869.718    83185993.07546
      1069.991  
  20859188.121   109615771.42249     -1845.621    20859186.646    85414880.15547
     -1438.148  
  21601885.849   113518682.41648      2589.105    21601886.776    88456132.81145
      2017.483  
  23890758.395   125546784.57846      -678.766    23890759.039    97828657.19844
      -528.913  
  22807844.203   119856035.40648      2877.604    22807845.653    93394320.94245
      2242.289  
  22887392.209   120274055.21506     -3243.159           0.000           0.0000 
         0.000  
  21884562.753   116657037.82806      3086.382           0.000           0.0000 
         0.000  
  19661895.832   105288558.89908     -1213.895    19661897.796    81891107.71507
      -944.140  
  19957658.683   106685121.67808      1727.112    19957664.157    82977343.75305
      1343.308  
  20305951.990   108585049.49909      -357.367    20305955.848    84455055.09308
      -277.956  
  20917911.987   111896719.91307     -3392.065    20917917.577    87030808.28404
     -2638.277  
  22501629.826   120410771.71606      3317.858    22501631.499    93652845.38902
      2580.554  
 20 09 26 07 21 25.0000000  0 13G15G20G18G24G27G10G13R10R 8R 1R24R23
                                R17
  20643195.580   108480728.02248     -1906.246    20643194.689    84530431.10146
     -1485.390  
  20313566.398   106748515.72548      1371.055    20313564.580    83180648.37846
      1068.355  
  20860945.781   109625008.02049     -1848.430    20860944.350    85422077.50048
     -1440.339  
  21599423.907   113505744.88648      2586.487    21599424.784    88446051.61645
      2015.440  
  23891405.892   125550187.26346      -681.902    23891406.651    97831308.65544
      -531.358  
  22805106.938   119841651.17048      2876.918    22805108.301    93383112.44345
      2241.754  
  22890478.954   120290275.36046     -3243.992    22890482.019    93732695.35953
     -2527.780  
  21881669.449   116641614.64205      3083.788           0.000           0.0000 
         0.000  
  19663030.698   105294636.05308     -1216.112    19663032.630    81895834.38307
      -945.870  
  19956044.569   106676493.31308      1725.116    19956050.051    82970632.80405
      1341.757  
  20306288.640   108586849.43609      -361.977    20306292.466    84456455.03808
      -281.543  
  20921084.281   111913689.11207     -3395.085    20921089.749    87044006.53504
     -2640.625  
  22498531.069   120394189.73406      3315.167    22498532.831    93639948.30703
      2578.464  
 20 09 26 07 21 30.0000000  0 13G15G20G18G24G27G10G13R10R 8R 1R24R23
                                R17
  20645010.677   108490266.51548     -1909.242    20645009.660    84537863.70045
     -1487.723  
  20312263.010   106741666.47048      1368.457    20312261.298    83175311.28246
      1066.328  
  20862706.015   109634258.10949     -1851.827    20862704.621    85429285.35847
     -1442.988  
  21596964.231   113492819.17348      2583.402    21596964.975    88435979.64145
      2013.039  
  23892056.269   125553604.89146      -685.633    23892057.179    97833971.73843
      -534.258  
  22802370.280   119827269.96649      2875.421    22802371.591    93371906.32146
      2240.590  
  22893566.545   120306499.85445     -3245.461    22893565.867    93745337.82441
     -2528.925  
  21878778.646   116626205.12506      3080.105           0.000           0.0000 
         0.000  
  19664167.360   105300722.88808     -1218.854    19664169.249    81900568.58307
      -948.003  
  19954432.208   106667874.31708      1722.269    19954437.697    82963929.14205
      1339.542  
  20306629.485   108588671.74009      -367.184    20306633.277    84457872.38808
      -285.590  
  20924259.202   111930672.70307     -3398.780    20924264.682    87057215.99504
     -2643.496  
  22495434.892   120377621.40506      3312.066    22495436.535    93627061.81902
      2576.046  
 20 09 26 07 21 35.0000000  0 13G15G20G18G24G27G10G13R10R 8R 1R24R23
                                R17
  20646827.569   108499814.28048     -1910.223    20646826.456    84545303.51945
     -1488.483  
  20310961.329   106734826.09248      1367.479    20310959.743    83169981.13046
      1065.569  
  20864468.636   109643520.74749     -1853.594    20864467.249    85436502.99547
     -1444.363  
  21594506.691   113479904.46448      2582.183    21594507.396    88425916.26345
      2012.093  
  23892709.272   125557036.50946      -687.543    23892710.353    97836645.78144
      -535.741  
  22799633.997   119812890.85549      2875.917    22799635.289    93360701.81145
      2240.973  
  22896654.729   120322727.55546     -3245.362    22896655.258    93757982.80343
     -2528.862  
  21875890.235   116610808.39505      3078.722           0.000           0.0000 
         0.000  
  19665305.567   105306818.24808     -1219.624    19665307.452    81905309.40407
      -948.602  
  19952821.408   106659263.76208      1721.605    19952826.981    82957232.03705
      1339.023  
  20306974.310   108590515.48609      -370.668    20306978.087    84459306.40608
      -288.300  
  20927436.691   111947669.62606     -3400.745    20927442.172    87070435.84004
     -2645.022  
  22492341.064   120361065.48406      3309.949    22492342.655    93614185.00903
      2574.406  
 20 09 26 07 21 40.0000000  0 13G15G20G18G24G27G10G13R10R 8R 1R24R23
                                R17
  20648646.456   108509372.84848     -1913.405    20648645.331    84552751.75646
     -1490.965  
  20309661.621   106727996.14148      1364.550    20309660.166    83164659.07946
      1063.281  
  20866233.937   109652797.52649     -1857.190    20866232.575    85443731.64947
     -1447.168  
  21592051.527   113467002.27148      2578.647    21592052.215    88415862.58645
      2009.331  
  23893365.228   125560483.64146      -691.863    23893366.481    97839331.82945
      -539.117  
  22796898.403   119798515.43148      2874.293    22796899.631    93349500.18645
      2239.707  
  22899743.859   120338960.20246     -3246.894    22899746.413    93770631.59641
     -2530.051  
  21873004.404   116595426.01506      3074.754           0.000           0.0000 
         0.000  
  19666445.651   105312923.88108     -1222.559    19666447.615    81910058.24007
      -950.879  
  19951212.485   106650663.21108      1718.562    19951218.124    82950542.72805
      1336.660  
  20307323.387   108592382.12809      -376.082    20307327.174    84460758.23808
      -292.511  
  20930616.922   111964681.37806     -3404.339    20930622.441    87083667.18904
     -2647.823  
  22489249.980   120344523.81706      3306.344    22489251.509    93601319.30103
      2571.598  
 20 09 26 07 21 45.0000000  0 13G15G20G18G24G27G10G13R10R 8R 1R24R23
                                R17
  20650468.152   108518946.11148     -1915.819    20650466.954    84560211.43746
     -1492.852  
  20308364.655   106721180.53848      1361.879    20308363.316    83159348.22946
      1061.203  
  20868002.657   109662092.27749     -1860.577    20868001.338    85450974.31347
     -1449.800  
  21589599.409   113454116.39848      2575.691    21589600.020    88405821.66345
      2007.031  
  23894024.871   125563950.24746      -694.706    23894026.355    97842033.06145
      -541.339  
  22794164.247   119784147.53349      2873.129    22794165.456    93338304.44845
      2238.804  
  22902834.710   120355201.60746     -3248.824    22902837.802    93783287.25543
     -2531.547  
  21870122.083   116580061.96506      3070.734           0.000           0.0000 
         0.000  
  19667588.379   105319043.57008     -1225.000    19667590.424    81914817.99607
      -952.780  
  19949606.170   106642076.50508      1716.073    19949611.849    82943864.18105
      1334.723  
  20307677.493   108594275.72209      -381.108    20307681.295    84462231.04308
      -296.418  
  20933800.619   111981711.94605     -3407.875    20933806.237    87096913.17704
     -2650.574  
  22486162.138   120328000.27206      3302.602    22486163.760    93588467.63502
      2568.690  
 20 09 26 07 21 50.0000000  0 13G15G20G18G24G27G10G13R10R 8R 1R24R23
                                R17
  20652292.192   108528531.79048     -1918.354    20652291.019    84567680.77246
     -1494.828  
  20307069.972   106714377.02948      1359.574    20307068.757    83154046.78646
      1059.410  
  20869774.387   109671402.78249     -1863.492    20869773.091    85458229.25247
     -1452.074  
  21587150.023   113441244.81848      2573.070    21587150.466    88395791.86645
      2004.984  
  23894687.841   125567434.01946      -698.323    23894689.392    97844747.70943
      -544.148  
  22791431.105   119769784.99349      2872.097    22791432.301    93327112.85245
      2237.996  
  22905926.788   120371449.55746     -3249.886    22905929.970    93795947.94841
     -2532.394  
  21867242.886   116564714.03406      3068.512           0.000           0.0000 
         0.000  
  19668733.355   105325175.24408     -1227.316    19668735.482    81919587.06007
      -954.582  
  19948002.037   106633501.43308      1713.980    19948007.764    82937194.67805
      1333.094  
  20308036.209   108596194.09509      -386.035    20308040.033    84463723.11008
      -300.254  
  20936987.438   111998759.15205     -3410.464    20936993.094    87110172.12504
     -2652.581  
  22483077.329   120311492.52306      3300.026    22483078.809    93575628.26903
      2566.683  
 20 09 26 07 21 55.0000000  0 13G15G20G18G24G27G10G13R10R 8R 1R24R23
                                R17
  20654118.156   108538127.29548     -1919.883    20654116.951    84575157.81245
     -1496.011  
  20305777.106   106707583.03648      1357.952    20305775.963    83148752.76146
      1058.141  
  20871548.623   109680726.48649     -1865.914    20871547.330    85465494.46247
     -1453.964  
  21584702.920   113428385.17148      2570.941    21584703.373    88385771.36845
      2003.331  
  23895353.654   125570932.39146      -701.319    23895355.105    97847473.72444
      -546.483  
  22788698.502   119755425.22249      2871.858    22788699.665    93315923.41345
      2237.809  
  22909019.567   120387701.49746     -3250.780    22909020.681    93808611.85942
     -2533.078  
  21864366.236   116549379.65406      3065.859           0.000           0.0000 
         0.000  
  19669880.057   105331316.06208     -1228.906    19669882.222    81924363.25507
      -955.819  
  19946399.600   106624935.54908      1712.327    19946405.413    82930532.32205
      1331.819  
  20308399.042   108598134.42109      -390.210    20308402.852    84465232.24508
      -303.499  
  20940176.787   112015820.27005     -3413.313    20940182.443    87123441.90504
     -2654.793  
  22479994.986   120294998.09906      3297.526    22479996.406    93562799.25903
      2564.738  
 20 09 26 07 22  0.0000000  0 13G15G20G18G24G27G10G13R10R 8R 1R24R23
                                R17
  20655945.840   108547731.52748     -1922.117    20655944.549    84582641.61545
     -1497.758  
  20304485.859   106700797.48348      1355.840    20304484.725    83143465.32946
      1056.499  
  20873325.146   109690062.20649     -1868.683    20873323.874    85472769.05047
     -1456.117  
  21582257.828   113415535.97448      2568.444    21582258.255    88375759.01946
      2001.386  
  23896021.981   125574444.22646      -704.082    23896023.512    97850210.21045
      -548.637  
  22785966.224   119741067.10049      2871.112    22785967.375    93304735.26746
      2237.230  
  22912112.889   120403956.29646     -3251.625    22912112.925    93821277.89742
     -2533.730  
  21861491.826   116534057.58905      3062.719           0.000           0.0000 
         0.000  
  19671028.284   105337465.04608     -1230.952    19671030.471    81929145.79807
      -957.409  
  19944798.605   106616377.53208      1710.601    19944804.544    82923876.09705
      1330.468  
  20308765.798   108600095.68909      -394.793    20308769.551    84466757.67608
      -307.066  
  20943368.592   112032894.05606     -3416.323    20943374.144    87136721.50404
     -2657.145  
  22476914.942   120278515.78506      3294.910    22476916.427    93549979.68403
      2562.706  
 20 09 26 07 22  5.0000000  0 13G15G20G18G24G27G10G13R10R 8R 1R24R23
                                R17
  20657776.077   108557349.05148     -1924.417    20657774.778    84590135.78646
     -1499.551  
  20303197.088   106694024.94648      1353.742    20303195.962    83138188.02646
      1054.863  
  20875104.855   109699414.57749     -1871.738    20875103.591    85480056.60247
     -1458.500  
  21579815.619   113402701.88848      2565.699    21579816.161    88365758.42545
      1999.246  
  23896693.741   125577974.09946      -707.269    23896695.131    97852960.78445
      -551.121  
  22783235.141   119726715.22249      2870.137    22783236.241    93293552.01145
      2236.469  
  22915207.565   120420218.52246     -3252.762    22915206.556    93833949.73541
     -2534.620  
  21858620.545   116518752.73205      3059.554           0.000           0.0000 
         0.000  
  19672178.920   105343626.77608     -1233.098    19672181.091    81933938.24707
      -959.073  
  19943200.002   106607832.17508      1708.136    19943206.027    82917229.71005
      1328.550  
  20309137.335   108602082.52909      -399.608    20309141.039    84468302.99008
      -310.812  
  20946563.603   112049985.36806     -3419.512    20946569.142    87150014.75704
     -2659.616  
  22473838.044   120262050.33706      3291.952    22473839.531    93537173.24903
      2560.402  
 20 09 26 07 22 10.0000000  0 13G15G20G18G24G27G10G13R10R 8R 1R24R23
                                R17
  20659608.224   108566976.79648     -1926.776    20659606.855    84597637.92946
     -1501.386  
  20301910.198   106687262.36048      1351.406    20301909.092    83132918.47846
      1053.039  
  20876887.139   109708780.48249     -1874.516    20876885.870    85487354.70447
     -1460.663  
  21577375.700   113389879.93348      2563.066    21577376.325    88355767.30045
      1997.195  
  23897368.411   125581519.01346      -710.883    23897369.997    97855723.02744
      -553.937  
  22780504.640   119712366.50149      2869.300    22780505.838    93282371.18645
      2235.819  
  22918303.118   120436484.95146     -3254.101    22918302.337    93846624.93941
     -2535.663  
  21855751.955   116503461.71706      3056.644           0.000           0.0000 
         0.000  
  19673331.433   105349798.17608     -1235.332    19673333.507    81938738.23507
      -960.812  
  19941603.183   106599296.23508      1706.113    19941609.225    82910590.64705
      1326.976  
  20309513.081   108604091.78109      -404.175    20309516.734    84469865.74208
      -314.363  
  20949761.244   112067090.80706     -3422.538    20949766.784    87163318.98104
     -2661.979  
  22470763.713   120245598.63006      3289.168    22470765.056    93524377.51803
      2558.246  
 20 09 26 07 22 15.0000000  0 13G15G20G18G24G27G10G13R10R 8R 1R24R23
                                R17
  20661442.579   108576615.95748     -1929.430    20661441.113    84605148.96946
     -1503.452  
  20300625.457   106680510.93448      1349.000    20300624.276    83127657.62346
      1051.163  
  20878672.216   109718161.12349     -1877.770    20878670.955    85494664.29947
     -1463.198  
  21574938.293   113377071.27648      2560.042    21574939.026    88345786.53146
      1994.840  
  23898046.154   125585080.07746      -713.953    23898047.843    97858497.91543
      -556.327  
  22777774.989   119698022.18149      2868.172    22777776.169    93271193.80645
      2234.937  
  22921399.654   120452756.85845     -3255.655    22921400.021    93859304.31542
     -2536.883  
  21852886.184   116488185.89106      3053.313           0.000           0.0000 
         0.000  
  19674485.966   105355980.36808     -1237.667    19674487.943    81943546.60707
      -962.573  
  19940008.358   106590770.98108      1703.729    19940014.392    82903959.89105
      1325.121  
  20309893.227   108606124.72009      -409.250    20309896.850    84471446.91107
      -318.309  
  20952961.891   112084211.86105     -3425.897    20952967.219    87176635.35304
     -2664.590  
  22467692.153   120229161.84207      3285.961    22467693.110    93511593.37802
      2555.750  
 20 09 26 07 22 20.0000000  0 13G15G20G18G24G27G10G13R10R 8R 1R24R23
                                R17
  20663279.285   108586267.63348     -1931.390    20663277.777    84612669.74146
     -1504.984  
  20299343.041   106673771.76448      1346.828    20299341.758    83122406.33246
      1049.477  
  20880460.295   109727557.57649     -1880.636    20880459.046    85501986.20247
     -1465.433  
  21572503.639   113364277.01948      2557.565    21572504.468    88335816.98645
      1992.905  
  23898727.163   125588658.42746      -717.280    23898728.729    97861286.21343
      -558.926  
  22775046.399   119683683.34249      2867.550    22775047.547    93260020.68145
      2234.452  
  22924497.382   120469035.27746     -3256.128    22924496.741    93871988.71041
     -2537.253  
  21850023.395   116472926.42706      3050.688           0.000           0.0000 
         0.000  
  19675642.691   105362174.51408     -1239.722    19675644.620    81948364.28407
      -964.229  
  19938415.772   106582257.59808      1701.671    19938421.786    82897338.36505
      1323.519  
  20310278.007   108608182.40509      -413.770    20310281.600    84473047.32507
      -321.823  
  20956165.569   112101349.31406     -3428.797    20956170.773    87189964.45703
     -2666.851  
  22464623.634   120212741.14006      3282.758    22464624.303    93498821.73503
      2553.257  
 20 09 26 07 22 25.0000000  0 13G15G20G18G24G27G10G13R10R 8R 1R24R23
                                R17
  20665118.068   108595930.28548     -1933.734    20665116.511    84620199.08046
     -1506.809  
  20298062.651   106667043.36048      1344.323    20298061.362    83117163.41746
      1047.520  
  20882251.117   109736968.34749     -1883.797    20882249.888    85509319.27247
     -1467.898  
  21570071.437   113351495.77248      2554.793    21570072.224    88325857.56945
      1990.742  
  23899411.167   125592252.48746      -720.655    23899412.729    97864086.79743
      -561.547  
  22772318.594   119669348.50849      2866.374    22772319.705    93248850.68645
      2233.539  
  22927596.119   120485318.71946     -3257.762    22927595.858    93884677.16941
     -2538.507  
  21847163.445   116457681.78305      3047.348           0.000           0.0000 
         0.000  
  19676801.298   105368379.05408     -1242.343    19676803.281    81953190.03407
      -966.269  
  19936825.072   106573754.45908      1699.519    19936831.076    82890724.81505
      1321.847  
  20310667.140   108610263.36709      -418.688    20310670.715    84474665.85807
      -325.645  
  20959372.144   112118501.67305     -3432.089    20959377.192    87203305.16403
     -2669.405  
  22461557.791   120196335.06606      3279.910    22461558.038    93486061.45603
      2551.043  
 20 09 26 07 22 30.0000000  0 13G15G20G18G24G27G10G13R10R 8R 1R24R23
                                R17
  20666959.259   108605605.37348     -1935.976    20666957.596    84627738.10846
     -1508.559  
  20296784.605   106660327.18548      1342.331    20296783.277    83111930.02946
      1045.973  
  20884044.922   109746394.88849     -1886.515    20884043.689    85516664.62147
     -1470.015  
  21567641.975   113338728.92948      2552.265    21567642.767    88315909.38146
      1988.777  
  23900098.398   125595863.75346      -723.683    23900099.920    97866900.79544
      -563.914  
  22769591.830   119655019.11049      2865.688    22769592.911    93237684.92046
      2233.004  
  22930696.086   120501608.71946     -3258.335    22930696.442    93897370.60441
     -2538.972  
  21844306.463   116442453.43105      3044.565           0.000           0.0000 
         0.000  
  19677962.227   105374595.65108     -1244.180    19677964.207    81958025.15407
      -967.698  
  19935236.590   106565263.02108      1697.430    19935242.584    82884120.36005
      1320.218  
  20311060.895   108612369.01109      -423.215    20311064.444    84476303.58407
      -329.171  
  20962581.698   112135670.59505     -3435.171    20962586.777    87216658.76503
     -2671.804  
  22458494.906   120179945.04506      3277.168    22458494.993    93473313.67402
      2548.910  
 20 09 26 07 22 35.0000000  0 13G15G20G18G24G27G10G13R10R 8R 1R24R23
                                R17
  20668802.407   108615290.86948     -1938.409    20668800.713    84635285.23846
     -1510.452  
  20295508.483   106653621.21248      1339.887    20295507.121    83106704.60246
      1044.065  
  20885841.337   109755835.20549     -1889.707    20885840.113    85524020.70647
     -1472.504  
  21565214.885   113325974.54548      2549.558    21565215.699    88305970.91345
      1986.668  
  23900788.423   125599490.23445      -727.262    23900789.836    97869726.63644
      -566.694  
  22766865.703   119640693.18449      2864.613    22766866.908    93226521.86146
      2232.163  
  22933796.963   120517903.18946     -3259.522    22933797.343    93910067.61842
     -2539.895  
  21841452.128   116427239.34305      3041.620           0.000           0.0000 
         0.000  
  19679124.964   105380821.96308     -1246.476    19679126.963    81962867.83807
      -969.484  
  19933649.896   106556781.35808      1694.968    19933655.907    82877523.51605
      1318.438  
  20311458.868   108614497.34209      -428.187    20311462.460    84477958.95207
      -333.038  
  20965794.016   112152853.92205     -3438.319    20965799.060    87230023.56004
     -2674.253  
  22455434.600   120163569.16606      3273.737    22455434.724    93460576.91003
      2546.246  
 20 09 26 07 22 40.0000000  0 13G15G20G18G24G27G10G13R10R 8R 1R24R23
                                R17
  20670648.102   108624989.71748     -1940.711    20670646.401    84642842.77346
     -1512.245  
  20294234.880   106646928.44548      1337.710    20294233.503    83101489.44546
      1042.367  
  20887640.942   109765292.19549     -1892.706    20887639.701    85531389.78347
     -1474.840  
  21562790.718   113313235.42948      2546.604    21562791.550    88296044.33446
      1984.366  
  23901481.958   125603134.90846      -730.155    23901483.329    97872566.59043
      -568.956  
  22764140.821   119626373.64449      2863.772    22764142.007    93215363.78345
      2231.511  
  22936899.254   120534205.05746     -3260.479    22936898.994    93922770.42541
     -2540.640  
  21838601.148   116412042.51605      3037.913           0.000           0.0000 
         0.000  
  19680290.159   105387061.30908     -1248.762    19680292.177    81967720.66107
      -971.262  
  19932065.609   106548312.36908      1693.069    19932071.639    82870936.53105
      1316.832  
  20311861.649   108616651.25709      -432.968    20311865.266    84479634.21207
      -336.758  
  20969009.526   112170054.63604     -3441.652    20969014.514    87243401.86003
     -2676.844  
  22452377.646   120147210.32206      3270.555    22452377.568    93447853.35403
      2543.762  
 20 09 26 07 22 45.0000000  0 13G15G20G18G24G27G10G13R10R 8R 1R24R23
                                R17
  20672495.927   108634699.69548     -1943.168    20672494.164    84650408.99346
     -1514.160  
  20292963.376   106640246.71048      1335.093    20292961.962    83096282.91346
      1040.327  
  20889443.308   109774763.69249     -1895.730    20889442.072    85538770.16047
     -1477.195  
  21560369.061   113300509.50648      2543.793    21560369.912    88286128.03645
      1982.175  
  23902178.388   125606795.45345      -734.133    23902179.663    97875419.02345
      -572.050  
  22761416.742   119612058.32749      2862.593    22761417.924    93204208.99446
      2230.593  
  22940002.471   120550512.19646     -3261.636    22940002.027    93935477.23144
     -2541.534  
  21835753.001   116396860.94605      3034.722           0.000           0.0000 
         0.000  
  19681457.310   105393311.22508     -1250.977    19681459.378    81972581.70107
      -973.022  
  19930483.253   106539853.86308      1690.664    19930489.258    82864357.70205
      1314.961  
  20312268.855   108618828.76909      -437.953    20312272.463    84481327.82707
      -340.633  
  20972227.929   112187270.57705     -3445.113    20972232.824    87256792.01003
     -2679.538  
  22449323.469   120130866.36406      3267.320    22449323.377    93435141.39003
      2541.246  
 20 09 26 07 22 50.0000000  0 13G15G20G18G24G27G10G13R10R 8R 1R24R23
                                R17
  20674345.641   108644419.63348     -1945.199    20674343.866    84657982.96346
     -1515.742  
  20291693.742   106633574.76748      1332.937    20291692.328    83091084.00646
      1038.651  
  20891248.201   109784248.46749     -1898.472    20891246.988    85546160.89647
     -1479.332  
  21557949.672   113287795.56348      2541.229    21557950.525    88276221.08246
      1980.180  
  23902877.518   125610470.62844      -736.215    23902878.664    97878282.81744
      -573.668  
  22758693.227   119597746.03049      2861.851    22758694.479    93193056.56946
      2230.015  
  22943106.458   120566823.31845     -3263.128    22943106.752    93948187.21743
     -2542.703  
  21832907.384   116381693.30005      3031.766           0.000           0.0000 
         0.000  
  19682626.197   105399570.46608     -1253.098    19682628.368    81977450.00207
      -974.636  
  19928902.680   106531404.73208      1688.465    19928908.592    82857786.16105
      1313.249  
  20312680.190   108621028.39109      -442.397    20312683.812    84483038.64607
      -344.090  
  20975448.885   112204500.33304     -3447.934    20975453.650    87270192.91104
     -2681.729  
  22446271.836   120114536.02506      3264.602    22446271.674    93422440.02903
      2539.129  
 20 09 26 07 22 55.0000000  0 13G15G20G18G24G27G10G13R10R 8R 1R24R23
                                R17
  20676197.849   108654152.70648     -1947.684    20676196.021    84665567.16446
     -1517.679  
  20290426.550   106626915.81748      1330.590    20290425.169    83085895.20246
      1036.819  
  20893056.215   109793749.70749     -1901.710    20893055.027    85553564.45047
     -1481.855  
  21555533.160   113275096.80048      2538.339    21555534.068    88266325.93845
      1977.925  
  23903580.219   125614163.81545      -740.007    23903580.979    97881160.61943
      -576.620  
  22755970.912   119583439.95149      2860.785    22755972.267    93181908.97046
      2229.179  
  22946211.640   120583141.59945     -3264.246    22946212.126    93960902.76941
     -2543.574  
  21830065.211   116366542.63706      3028.531           0.000           0.0000 
         0.000  
  19683797.404   105405842.44808     -1255.273    19683799.712    81982328.20407
      -976.328  
  19927324.462   106522968.06808      1686.358    19927330.245    82851224.32405
      1311.613  
  20313096.318   108623253.55109      -447.480    20313099.912    84484769.32407
      -348.043  
  20978672.970   112221747.20304     -3451.355    20978677.696    87283607.14904
     -2684.390  
  22443223.278   120098222.60606      3261.511    22443223.221    93409751.75903
      2536.719  
 20 09 26 07 23  0.0000000  0 13G15G20G18G24G27G10G13R10R 8R 1R24R23
                                R17
  20678052.116   108663896.54048     -1949.582    20678050.274    84673159.77146
     -1519.155  
  20289161.398   106620267.52548      1328.769    20289160.142    83080714.71946
      1035.405  
  20894866.920   109803265.05649     -1904.246    20894865.738    85560979.00747
     -1483.832  
  21553119.143   113262410.96248      2536.097    21553119.973    88256440.90645
      1976.184  
  23904285.877   125617872.63545      -742.922    23904286.750    97884050.60044
      -578.913  
  22753249.355   119569137.76149      2860.289    22753250.762    93170764.42446
      2228.797  
  22949317.795   120599464.71346     -3264.734    22949318.191    93973622.05343
     -2543.960  
  21827225.738   116351406.93205      3026.184           0.000           0.0000 
         0.000  
  19684970.507   105412124.51708     -1257.141    19684972.941    81987214.25407
      -977.781  
  19925748.143   106514541.55408      1684.468    19925753.811    82844670.37905
      1310.140  
  20313516.749   108625501.69509      -451.855    20313520.287    84486517.87107
      -351.444  
  20981899.775   112239008.87404     -3453.055    20981904.386    87297032.82203
     -2685.726  
  22440177.520   120081923.73407      3258.519    22440177.518    93397074.93603
      2534.413  
 20 09 26 07 23  5.0000000  0 13G15G20G18G24G27G10G13R10R 8R 1R24R23
                                R17
  20679908.393   108673651.06048     -1952.020    20679906.563    84680760.68346
     -1521.058  
  20287898.241   106613629.77748      1326.519    20287897.092    83075542.46146
      1033.652  
  20896680.289   109812794.40849     -1907.245    20896679.102    85568404.46047
     -1486.168  
  21550707.504   113249737.86848      2533.316    21550708.333    88246565.73545
      1974.008  
  23904994.655   125621596.82046      -746.163    23904995.512    97886952.58143
      -581.417  
  22750528.504   119554839.34049      2859.354    22750529.832    93159622.79746
      2228.070  
  22952424.974   120615792.60746     -3266.202    22952425.617    93986345.10041
     -2545.082  
  21824389.107   116336285.90605      3022.977           0.000           0.0000 
         0.000  
  19686145.573   105418416.81808     -1259.445    19686148.089    81992108.26507
      -979.573  
  19924173.664   106506125.03008      1682.414    19924179.227    82838124.18905
      1308.539  
  20313941.467   108627772.84909      -456.440    20313944.959    84488284.32307
      -355.015  
  20985129.339   112256285.08005     -3457.129    20985133.856    87310469.81103
     -2688.890  
  22437134.387   120065639.43806      3255.457    22437134.353    93384409.39504
      2532.023  
 20 09 26 07 23 10.0000000  0 13G15G20G18G24G27G10G13R10R 8R 1R24R23
                                R17
  20681766.456   108683415.06348     -1954.765    20681764.690    84688368.99646
     -1523.198  
  20286636.841   106607001.44748      1323.694    20286635.800    83070377.52746
      1031.448  
  20898496.087   109822336.61249     -1910.762    20898494.914    85575839.94147
     -1488.909  
  21548298.145   113237076.47748      2530.101    21548298.743    88236699.74245
      1971.507  
  23905706.297   125625335.33647      -750.062    23905706.871    97889865.69544
      -584.468  
  22747808.172   119540543.55549      2857.902    22747809.405    93148483.22846
      2226.933  
  22955532.790   120632123.97845     -3267.499    22955533.160    93999070.81143
     -2546.120  
  21821555.091   116321178.43904      3018.969           0.000           0.0000 
         0.000  
  19687322.241   105424717.97908     -1262.437    19687324.892    81997009.17107
      -981.895  
  19922600.924   106497717.45508      1679.566    19922606.335    82831584.97105
      1306.328  
  20314370.265   108630065.79709      -461.879    20314373.661    84490067.72507
      -359.241  
  20988361.339   112273574.63005     -3460.854    20988365.827    87323917.26904
     -2691.777  
  22434093.634   120049368.38006      3252.016    22434093.861    93371754.10104
      2529.340  
 20 09 26 07 23 15.0000000  0 13G15G20G18G24G27G10G13R10R 8R 1R24R23
                                R17
  20683628.100   108693197.97248     -1956.886    20683626.356    84695992.04946
     -1524.847  
  20285379.017   106600391.88548      1321.785    20285378.157    83065227.21746
      1029.957  
  20900316.123   109831900.99949     -1913.526    20900314.957    85583292.70947
     -1491.062  
  21545892.708   113224436.07148      2527.531    21545893.204    88226850.05845
      1969.503  
  23906422.474   125629097.56045      -753.155    23906422.883    97892797.26944
      -586.886  
  22745090.132   119526259.78849      2857.147    22745091.301    93137353.01446
      2226.343  
  22958643.093   120648468.32646     -3268.933    22958643.391    94011806.68942
     -2547.223  
  21818725.286   116306094.08204      3016.468           0.000           0.0000 
         0.000  
  19688502.351   105431037.78807     -1264.265    19688505.218    82001924.56307
      -983.319  
  19921031.533   106489328.25708      1677.605    19921036.932    82825060.03805
      1304.805  
  20314804.927   108632390.06509      -466.433    20314808.250    84491875.48507
      -362.784  
  20991597.781   112290887.00905     -3463.516    20991602.230    87337382.47803
     -2693.843  
  22431057.276   120033120.15106      3248.976    22431057.565    93359116.58404
      2526.980  
 20 09 26 07 23 20.0000000  0 13G15G20G18G24G27G10G13R10R 8R 1R24R23
                                R17
  20685490.728   108702986.08548     -1958.352    20685489.006    84703619.13546
     -1525.991  
  20284122.211   106593787.41848      1320.198    20284121.407    83060080.88246
      1028.722  
  20902137.778   109841473.89449     -1915.676    20902136.602    85590752.10447
     -1492.737  
  21543488.655   113211802.90748      2525.770    21543489.135    88217006.07845
      1968.132  
  23907140.346   125632869.72245      -755.867    23907140.985    97895736.59044
      -588.991  
  22742371.785   119511974.33949      2857.098    22742372.832    93126221.49546
      2226.304  
  22961753.219   120664811.77546     -3268.922    22961753.263    94024541.87443
     -2547.206  
  21815897.283   116291018.88904      3013.929           0.000           0.0000 
         0.000  
  19689683.241   105437361.93007     -1265.426    19689686.364    82006843.33707
      -984.223  
  19919463.013   106480943.55208      1676.272    19919468.416    82818538.60705
      1303.766  
  20315242.844   108634731.67909      -470.371    20315246.134    84493696.73507
      -365.847  
  20994835.865   112308208.32605     -3465.331    20994840.293    87350854.59704
     -2695.262  
  22428022.567   120016880.90407      3246.879    22428022.871    93346486.08004
      2525.352  
 20 09 26 07 23 25.0000000  0 13G15G20G18G24G27G10G13R10R 8R 1R24R23
                                R17
  20687355.154   108712783.64848     -1960.648    20687353.428    84711253.60246
     -1527.781  
  20282867.199   106587192.37848      1317.898    20282866.453    83054941.89946
      1026.934  
  20903961.868   109851059.61149     -1918.648    20903960.679    85598221.49247
     -1495.055  
  21541086.830   113199181.44948      2522.835    21541087.323    88207171.18345
      1965.848  
  23907860.865   125636656.16746      -759.194    23907861.795    97898687.03245
      -591.586  
  22739653.948   119497691.54149      2855.898    22739654.888    93115092.03046
      2225.371  
  22964864.061   120681158.86146     -3270.176    22964864.067    94037279.78441
     -2548.187  
  21813071.696   116275957.26705      3010.430           0.000           0.0000 
         0.000  
  19690865.825   105443695.05107     -1267.515    19690869.170    82011769.09107
      -985.847  
  19917896.128   106472567.74808      1674.151    19917901.603    82812024.09905
      1302.117  
  20315684.818   108637095.01909      -475.113    20315688.094    84495534.90107
      -369.531  
  20998076.251   112325543.04606     -3468.687    20998080.858    87364337.18304
     -2697.867  
  22424990.465   120000655.07607      3243.754    22424990.802    93333865.96804
      2522.913  
 20 09 26 07 23 30.0000000  0 13G15G20G18G24G27G10G13R10R 8R 1R24R23
                                R17
  20689222.216   108722595.34548     -1963.483    20689220.527    84718899.05946
     -1529.991  
  20281614.925   106580611.47748      1314.874    20281614.148    83049813.95246
      1024.578  
  20905789.299   109860662.82549     -1922.297    20905788.088    85605704.51647
     -1497.895  
  21538688.124   113186576.38348      2519.397    21538688.697    88197349.05545
      1963.167  
  23908585.074   125640461.53446      -762.848    23908586.046    97901652.31243
      -594.422  
  22736937.495   119483416.07949      2854.547    22736938.360    93103968.30646
      2224.319  
  22967976.405   120697514.11747     -3271.789    22967976.118    94050024.14443
     -2549.452  
  21810249.647   116260914.12404      3006.659           0.000           0.0000 
         0.000  
  19692050.993   105450041.91808     -1270.479    19692054.510    82016705.55207
      -988.152  
  19916331.764   106464205.51408      1671.229    19916337.355    82805520.13105
      1299.843  
  20316131.758   108639484.97709      -480.503    20316135.051    84497393.75707
      -373.729  
  21001320.200   112342895.80306     -3472.234    21001324.814    87377833.75704
     -2700.628  
  22421961.752   119984447.38607      3239.894    22421962.155    93321260.03604
      2519.922  
 20 09 26 07 23 35.0000000  0 13G15G20G18G24G27G10G13R10R 8R 1R24R23
                                R17
  20691091.177   108732417.14548     -1965.281    20691089.562    84726552.41246
     -1531.391  
  20280364.611   106574040.68848      1313.145    20280363.790    83044693.85046
      1023.230  
  20907619.283   109870279.48949     -1924.586    20907618.062    85613198.01847
     -1499.679  
  21536291.768   113173983.60348      2517.515    21536292.394    88187536.50346
      1961.699  
  23909312.073   125644281.78346      -765.104    23909313.271    97904629.08445
      -596.190  
  22734221.662   119469143.93349      2854.195    22734222.455    93092847.16046
      2224.046  
  22971089.533   120713873.55846     -3271.753    22971089.131    94062771.78841
     -2549.421  
  21807430.313   116245885.36105      3004.918           0.000           0.0000 
         0.000  
  19693237.956   105456398.20308     -1272.039    19693241.554    82021649.33107
      -989.363  
  19914769.215   106455852.85808      1669.659    19914774.910    82799023.62905
      1298.621  
  20316582.902   108641897.32309      -484.683    20316586.193    84499270.02207
      -376.980  
  21004566.722   112360262.66206     -3474.832    21004571.538    87391341.28404
     -2702.656  
  22418935.607   119968253.77707      3237.339    22418936.129    93308664.98604
      2517.926  
 20 09 26 07 23 40.0000000  0 13G15G20G18G24G27G10G13R10R 8R 1R24R23
                                R17
  20692962.001   108742248.76648     -1967.308    20692960.473    84734213.41746
     -1532.969  
  20279116.154   106567479.75648      1311.223    20279115.282    83039581.44846
      1021.729  
  20909451.806   109879909.36949     -1927.190    20909450.542    85620701.81247
     -1501.711  
  21533897.715   113161402.92848      2514.851    21533898.428    88177733.39445
      1959.624  
  23910041.937   125648116.74646      -768.831    23910043.318    97907617.37945
      -599.090  
  22731506.420   119454874.86749      2853.668    22731507.138    93081728.41946
      2223.636  
  22974203.322   120730236.94746     -3272.917    22974203.254    94075522.41441
     -2550.332  
  21804613.650   116230870.71505      3001.765           0.000           0.0000 
         0.000  
  19694426.648   105462763.94208     -1274.059    19694430.327    82026600.46407
      -990.934  
  19913208.364   106447509.52608      1667.729    19913214.207    82792534.36905
      1297.125  
  20317038.170   108644331.87709      -489.004    20317041.483    84501163.56907
      -380.335  
  21007815.778   112377642.91906     -3477.386    21007820.773    87404859.28904
     -2704.632  
  22415912.032   119952074.01907      3234.515    22415912.689    93296080.72504
      2515.729  
 20 09 26 07 23 45.0000000  0 13G15G20G18G24G27G10G13R10R 8R 1R24R23
                                R17
  20694835.119   108752092.31748     -1969.891    20694833.636    84741883.71046
     -1534.983  
  20277869.986   106560930.78548      1308.499    20277868.992    83034478.35146
      1019.604  
  20911287.230   109889554.55549     -1930.672    20911285.951    85628217.53547
     -1504.421  
  21531506.367   113148836.58848      2511.593    21531507.123    88167941.43046
      1957.082  
  23910774.970   125651968.51745      -772.227    23910776.631    97910618.76545
      -601.738  
  22728792.162   119440611.00049      2852.147    22728792.846    93070613.72246
      2222.449  
  22977318.390   120746606.42546     -3274.691    22977318.325    94088277.92343
     -2551.706  
  21801800.019   116215872.32004      2997.910           0.000           0.0000 
         0.000  
  19695617.539   105469141.14208     -1276.895    19695621.217    82031560.50907
      -993.141  
  19911649.654   106439177.57808      1665.272    19911655.658    82786053.97106
      1295.210  
  20317497.980   108646790.78009      -494.277    20317501.340    84503076.04808
      -384.437  
  21011067.829   112395039.23006     -3481.297    21011072.975    87418389.73004
     -2707.680  
  22412891.524   119935910.22907      3231.136    22412892.241    93283508.89104
      2513.101  
 20 09 26 07 23 50.0000000  0 13G15G20G18G24G27G10G13R10R 8R 1R24R23
                                R17
  20696710.601   108761948.25848     -1972.198    20696709.167    84749563.66446
     -1536.776  
  20276626.206   106554394.27048      1306.352    20276625.007    83029384.96945
      1017.937  
  20913125.682   109899215.53149     -1933.480    20913124.378    85635745.55747
     -1506.613  
  21529117.822   113136284.88548      2509.090    21529118.738    88158160.92446
      1955.140  
  23911511.236   125655837.46746      -775.727    23911513.232    97913633.52345
      -604.461  
  22726078.997   119426352.81849      2851.418    22726079.689    93059503.45647
      2221.883  
  22980434.507   120762982.29146     -3275.354    22980434.672    94101038.34242
     -2552.223  
  21798989.436   116200890.45904      2994.945           0.000           0.0000 
         0.000  
  19696810.662   105475530.28908     -1278.531    19696814.310    82036529.85707
      -994.413  
  19910093.186   106430857.55108      1663.253    19910099.360    82779582.84006
      1293.640  
  20317962.429   108649274.39709      -498.793    20317965.835    84505007.75208
      -387.952  
  21014322.952   112412451.63107     -3483.968    21014328.230    87431932.72204
     -2709.754  
  22409874.049   119919762.98807      3228.242    22409874.852    93270949.94004
      2510.854  
 20 09 26 07 23 55.0000000  0 13G15G20G18G24G27G10G13R10R 8R 1R24R23
                                R17
  20698587.928   108771813.93148     -1974.402    20698586.566    84757251.20346
     -1538.499  
  20275384.292   106547867.53248      1304.179    20275382.865    83024299.19946
      1016.242  
  20914966.619   109908889.59449     -1936.363    20914965.281    85643283.77747
     -1508.859  
  21526731.543   113123745.25248      2506.445    21526732.588    88148389.78746
      1953.073  
  23912250.323   125659721.02046      -778.387    23912252.613    97916659.66345
      -606.538  
  22723366.409   119412097.63549      2850.543    22723367.112    93048395.53346
      2221.203  
  22983551.366   120779361.90646     -3276.690    22983551.603    94113801.68244
     -2553.266  
  21796181.520   116185922.74805      2991.620           0.000           0.0000 
         0.000  
  19698005.470   105481928.64908     -1280.688    19698009.098    82041506.35707
      -996.093  
  19908538.424   106422546.83608      1660.976    19908544.790    82773118.95206
      1291.871  
  20318431.001   108651780.15609      -503.655    20318434.453    84506956.66908
      -391.737  
  21017580.702   112429877.80207     -3486.699    21017586.010    87445486.37404
     -2711.887  
  22406859.068   119903629.52506      3225.179    22406859.987    93258401.68204
      2508.468  
 20 09 26 07 24  0.0000000  0 13G15G20G18G24G27G10G13R10R 8R 1R24R23
                                R17
  20700467.495   108781691.43548     -1976.727    20700466.202    84764947.96946
     -1540.305  
  20274144.629   106541352.71548      1301.792    20274142.954    83019222.72246
      1014.379  
  20916810.453   109918578.85149     -1939.348    20916809.093    85650833.84747
     -1511.184  
  21524347.973   113111219.72148      2503.651    21524349.110    88138629.62646
      1950.895  
  23912992.613   125663621.18546      -781.527    23912994.783    97919698.75645
      -608.976  
  22720654.784   119397847.57249      2849.543    22720655.532    93037291.59846
      2220.421  
  22986669.308   120795747.45446     -3277.765    22986669.385    94126569.66843
     -2554.098  
  21793376.871   116170971.36204      2988.534           0.000           0.0000 
         0.000  
  19699202.436   105488338.34808     -1283.145    19699205.996    82046491.67807
      -998.004  
  19906985.806   106414247.39108      1658.726    19906992.328    82766663.83205
      1290.121  
  20318904.098   108654310.11109      -508.390    20318907.627    84508924.41208
      -395.418  
  21020841.386   112447319.48407     -3489.988    21020846.749    87459052.11704
     -2714.441  
  22403847.029   119887512.06006      3222.105    22403848.058    93245865.92704
      2506.085  
 20 09 26 07 24  5.0000000  0 13G15G20G18G24G27G10G13R10R 8R 1R24R23
                                R17
  20702349.087   108791579.76548     -1978.977    20702347.944    84772653.16646
     -1542.062  
  20272907.048   106534848.74348      1299.378    20272905.205    83014154.69146
      1012.500  
  20918656.977   109928282.27449     -1942.273    20918655.608    85658394.95347
     -1513.465  
  21521966.940   113098707.49648      2501.054    21521968.084    88128879.84546
      1948.871  
  23913737.789   125667536.98445      -784.800    23913740.039    97922750.05145
      -611.526  
  22717943.974   119383601.60549      2848.585    22717944.708    93026190.85147
      2219.676  
  22989788.245   120812137.82946     -3278.805    22989788.126    94139341.26343
     -2554.921  
  21790574.842   116156035.22104      2986.090           0.000           0.0000 
         0.000  
  19700401.314   105494758.56708     -1285.452    19700404.878    82051485.16407
      -999.801  
  19905435.099   106405958.31508      1656.609    19905441.747    82760216.78105
      1288.473  
  20319381.532   108656863.22709      -513.176    20319385.146    84510910.16208
      -399.141  
  21024104.704   112464775.75006     -3493.187    21024110.218    87472629.18604
     -2716.929  
  22400837.791   119871409.61607      3218.815    22400838.968    93233341.79804
      2503.519  
 20 09 26 07 24 10.0000000  0 13G15G20G18G24G27G10G13R10R 8R 1R24R23
                                R17
  20704232.791   108801478.85248     -1980.796    20704231.665    84780366.72246
     -1543.479  
  20271671.510   106528355.66848      1297.602    20271669.621    83009095.15146
      1011.113  
  20920506.199   109937999.87649     -1944.913    20920504.844    85665967.11247
     -1515.519  
  21519588.409   113086208.45248      2498.504    21519589.507    88119140.31546
      1946.883  
  23914485.971   125671468.45945      -787.934    23914488.364    97925813.53445
      -613.973  
  22715233.940   119369359.78449      2848.022    22715234.642    93015093.33047
      2219.234  
  22992908.153   120828533.05546     -3279.815    22992907.517    94152116.83643
     -2555.694  
  21787775.647   116141114.18504      2982.780           0.000           0.0000 
         0.000  
  19701602.146   105501188.90408     -1287.261    19701605.682    82056486.53507
     -1001.206  
  19903886.337   106397679.57408      1654.890    19903893.068    82753777.76105
      1287.137  
  20319863.324   108659439.59009      -517.613    20319867.014    84512914.00107
      -402.594  
  21027370.733   112482246.61907     -3495.608    21027376.443    87486217.62904
     -2718.813  
  22397831.424   119855322.09307      3216.479    22397832.678    93220829.26405
      2501.702  
 20 09 26 07 24 15.0000000  0 14G15G20G18G24G27G10G13R10R 8R 7R 1R24
                                R23R17
  20706118.548   108811388.73148     -1982.832    20706117.510    84788088.69246
     -1545.065  
  20270438.042   106521873.50248      1295.812    20270436.045    83004044.11345
      1009.722  
  20922358.094   109947731.58749     -1947.378    20922356.784    85673550.24547
     -1517.440  
  21517212.365   113073722.53848      2496.026    21517213.422    88109411.02046
      1944.952  
  23915237.096   125675415.45845      -790.819    23915239.471    97928889.19345
      -616.215  
  22712524.677   119355122.03849      2847.433    22712525.365    93003998.98447
      2218.781  
  22996029.035   120844933.03046     -3280.362    22996028.152    94164896.00341
     -2556.133  
  21784979.385   116126208.34604      2980.362           0.000           0.0000 
         0.000  
  19702804.899   105507629.62508     -1288.800    19702808.467    82061495.99707
     -1002.401  
  22863552.790   122390394.38215     -3408.516    22863556.119    95192537.26015
     -2651.065  
  19902339.501   106389411.16308      1653.015    19902346.266    82747346.76605
      1285.676  
  20320349.429   108662039.04309      -521.937    20320353.194    84514935.80207
      -405.953  
  21030639.579   112499732.11306     -3498.206    21030645.346    87499817.46504
     -2720.828  
  22394827.870   119839249.53406      3213.456    22394829.265    93208328.39004
      2499.359  
 20 09 26 07 24 20.0000000  0 14G15G20G18G24G27G10G13R10R 8R 7R 1R24
                                R23R17
  20708006.270   108821308.99348     -1985.258    20708005.327    84795818.77046
     -1546.957  
  20269206.572   106515401.83248      1293.151    20269204.449    82999001.24346
      1007.647  
  20924212.614   109957477.06449     -1950.645    20924211.325    85681144.12547
     -1519.987  
  21514838.804   113061249.42148      2493.285    21514839.835    88099691.73346
      1942.820  
  23915991.192   125679377.72945      -794.488    23915993.234    97931976.63243
      -619.093  
  22709816.108   119340888.03849      2846.315    22709816.751    92992907.56747
      2217.909  
  22999150.617   120861337.46046     -3281.565    22999149.962    94177678.66744
     -2557.078  
  21782185.593   116111317.42604      2976.996           0.000           0.0000 
         0.000  
  19704009.549   105514080.34508     -1291.237    19704013.118    82066513.23007
     -1004.296  
  22866736.732   122407438.92805     -3409.323    22866740.327    95205794.13305
     -2651.699  
  19900794.483   106381152.68908      1650.608    19900801.294    82740923.50605
      1283.805  
  20320839.808   108664661.28609      -526.891    20320843.620    84516975.32708
      -409.804  
  21033910.930   112517231.63307     -3501.535    21033916.845    87513428.22804
     -2723.418  
  22391826.980   119823191.59906      3209.734    22391828.604    93195838.90604
      2496.460  
 20 09 26 07 24 25.0000000  0 14G15G20G18G24G27G10G13R10R 8R 7R 1R24
                                R23R17
  20709896.619   108831243.12548     -1988.179    20709895.777    84803559.65846
     -1549.229  
  20267977.751   106508944.14348      1290.163    20267975.541    82993969.29245
      1005.323  
  20926070.400   109967239.76449     -1954.270    20926069.158    85688751.42347
     -1522.812  
  21512468.323   113048792.55348      2489.875    21512469.391    88089985.09946
      1940.164  
  23916748.628   125683358.73745      -797.836    23916750.718    97935078.65243
      -621.702  
  22707108.874   119326661.23949      2844.582    22707109.495    92981821.74646
      2216.559  
  23002273.726   120877749.82046     -3283.215    23002272.873    94190467.50043
     -2558.351  
  21779395.484   116096444.97904      2972.647           0.000           0.0000 
         0.000  
  19705216.719   105520544.46808     -1294.086    19705220.274    82071540.86807
     -1006.515  
  22869922.327   122424488.63405     -3410.382    22869925.482    95219055.01105
     -2652.522  
  19899252.052   106372907.69708      1647.875    19899258.877    82734510.74005
      1281.675  
  20321335.108   108667309.87809      -532.238    20321338.940    84519035.33308
      -413.969  
  21037185.646   112534748.84806     -3504.805    21037191.588    87527052.70204
     -2725.965  
  22388829.423   119807151.78706      3205.801    22388831.391    93183363.52404
      2493.402  
 20 09 26 07 24 30.0000000  0 14G15G20G18G24G27G10G13R10R 8R 7R 1R24
                                R23R17
  20711789.324   108841189.45148     -1990.483    20711788.538    84811310.04246
     -1551.027  
  20266751.267   106502498.80448      1287.800    20266749.019    82988946.95145
      1003.480  
  20927931.123   109977017.99049     -1957.152    20927929.921    85696370.81147
     -1525.058  
  21510100.647   113036350.30448      2486.976    21510101.756    88080289.84046
      1937.902  
  23917509.357   125687356.71045      -801.508    23917511.466    97938193.97845
      -624.554  
  22704402.687   119312440.00649      2843.707    22704403.301    92970740.27146
      2215.874  
  23005398.107   120894168.42546     -3284.425    23005397.297    94203261.24143
     -2559.305  
  21776608.539   116081589.21604      2969.652           0.000           0.0000 
         0.000  
  19706426.070   105527020.24008     -1296.148    19706429.593    82076577.57607
     -1008.120  
  22873107.666   122441541.72505     -3411.078    22873111.330    95232318.49505
     -2653.069  
  19897711.814   106364674.39908      1645.562    19897718.684    82728107.06605
      1279.882  
  20321834.977   108669982.99909      -537.073    20321838.851    84521114.43208
      -417.727  
  21040463.359   112552282.15106     -3508.168    21040469.396    87540689.71305
     -2728.578  
  22385834.943   119791128.49905      3202.960    22385837.258    93170900.96104
      2491.188  
 20 09 26 07 24 35.0000000  0 14G15G20G18G24G27G10G13R10R 8R 7R 1R24
                                R23R17
  20713683.379   108851142.87148     -1991.922    20713682.662    84819065.94546
     -1552.151  
  20265526.149   106496060.64048      1286.636    20265523.817    82983930.20145
      1002.574  
  20929793.826   109986806.62549     -1959.117    20929792.643    85703998.31547
     -1526.590  
  21507734.758   113023917.53548      2485.292    21507735.895    88070601.97446
      1936.648  
  23918272.142   125691366.57844      -803.172    23918274.223    97941318.52745
      -625.851  
  22701696.552   119298219.17049      2843.870    22701697.183    92959659.10846
      2216.003  
  23008522.695   120910588.12546     -3284.828    23008521.716    94216055.84141
     -2559.598  
  21773823.838   116066744.91004      2966.597           0.000           0.0000 
         0.000  
  19707636.672   105533502.61108     -1297.569    19707640.095    82081619.43007
     -1009.223  
  22876292.357   122458593.12104     -3409.930    22876297.114    95245580.71005
     -2652.167  
  19896172.828   106356447.73308      1644.300    19896179.678    82721708.54805
      1278.898  
  20322338.469   108672675.48909      -540.781    20322342.358    84523208.58108
      -420.613  
  21043743.026   112569826.03407     -3510.148    21043749.149    87554334.97404
     -2730.116  
  22382842.499   119775116.39005      3201.112    22382845.104    93158447.07304
      2489.749  
 20 09 26 07 24 40.0000000  0 14G15G20G18G24G27G10G13R10R 8R 7R 1R24
                                R23R17
  20715579.681   108861107.97848     -1994.012    20715579.027    84826830.95846
     -1553.777  
  20264303.302   106489634.41248      1284.215    20264300.925    82978922.76045
      1000.688  
  20931659.392   109996610.33349     -1962.059    20931658.273    85711637.56847
     -1528.874  
  21505371.570   113011499.05248      2482.383    21505372.734    88060925.22646
      1934.319  
  23919038.336   125695392.98645      -806.413    23919040.152    97944455.97244
      -628.378  
  22698991.371   119284003.47249      2842.871    22698991.997    92948581.94646
      2215.222  
  23011648.429   120927013.55947     -3285.617    23011647.158    94228854.84542
     -2560.223  
  21771042.244   116051916.95004      2963.854           0.000           0.0000 
         0.000  
  19708849.364   105539996.21008     -1299.741    19708852.630    82086670.00307
     -1010.914  
  22879477.975   122475647.64005     -3411.276    22879483.283    95258845.34206
     -2653.215  
  19894636.031   106348232.42008      1642.125    19894642.810    82715318.85605
      1277.203  
  20322846.489   108675392.16009      -545.491    20322850.379    84525321.53807
      -424.277  
  21047025.575   112587385.48805     -3513.707    21047031.751    87567992.27105
     -2732.891  
  22379853.055   119759120.36505      3197.727    22379855.887    93146005.71904
      2487.120  
 20 09 26 07 24 45.0000000  0 14G15G20G18G24G27G10G13R10R 8R 7R 1R24
                                R23R17
  20717478.411   108871085.87048     -1997.230    20717477.830    84834605.93046
     -1556.288  
  20263082.901   106483221.22148      1281.194    20263080.502    82973925.45745
       998.331  
  20933527.991   110006430.23249     -1965.784    20933527.007    85719289.44147
     -1531.781  
  21503011.291   112999095.95248      2478.933    21503012.510    88051260.47246
      1931.632  
  23919807.925   125699437.04645      -810.891    23919809.228    97947607.20744
      -631.862  
  22696287.370   119269794.01149      2841.063    22696287.978    92937509.63046
      2213.812  
  23014775.547   120943445.86447     -3287.410    23014774.125    94241659.25643
     -2561.625  
  21768263.610   116037106.39204      2960.563           0.000           0.0000 
         0.000  
  19710064.416   105546502.19708     -1302.652    19710067.462    82091730.20407
     -1013.180  
  22882664.644   122492706.03805     -3412.309    22882669.937    95272112.99305
     -2654.019  
  19893101.535   106340029.40808      1639.219    19893108.238    82708938.74105
      1274.949  
  20323359.215   108678134.00109      -551.054    20323363.067    84527454.09207
      -428.598  
  21050311.030   112604961.36405     -3516.835    21050317.385    87581662.37304
     -2735.323  
  22376866.923   119743141.56505      3193.804    22376869.865    93133577.79004
      2484.069  
 20 09 26 07 24 50.0000000  0 14G15G20G18G24G27G10G13R10R 8R 7R 1R24
                                R23R17
  20719379.500   108881075.97148     -1998.523    20719378.907    84842390.42646
     -1557.293  
  20261864.848   106476820.43548      1279.558    20261862.382    82968937.83245
       997.054  
  20935399.554   110016265.73649     -1967.867    20935398.692    85726953.46047
     -1533.406  
  21500653.868   112986707.70748      2476.780    21500655.128    88041607.32247
      1929.960  
  23920580.736   125703498.19444      -812.496    23920581.609    97950771.73245
      -633.121  
  22693584.390   119255590.22149      2840.688    22693584.999    92926441.75846
      2213.522  
  23017903.779   120959884.36347     -3287.453    23017902.210    94254468.45841
     -2561.664  
  21765488.108   116022312.81103      2957.156           0.000           0.0000 
         0.000  
  19711281.648   105553020.01108     -1304.090    19711284.520    82096799.61307
     -1014.297  
  22885851.877   122509768.23405     -3412.409    22885857.071    95285383.54905
     -2654.105  
  19891569.278   106331838.33708      1637.526    19891575.909    82702567.91605
      1273.633  
  20323876.542   108680900.53509      -555.195    20323880.343    84529605.81907
      -431.823  
  21053599.550   112622553.38205     -3519.371    21053606.057    87595345.02205
     -2737.301  
  22373883.854   119727179.40305      3191.522    22373886.940    93121162.78304
      2482.297  
 20 09 26 07 24 55.0000000  0 14G15G20G18G24G27G10G13R10R 8R 7R 1R24
                                R23R17
  20721281.962   108891073.32348     -2000.719    20721281.369    84850180.56746
     -1559.003  
  20260648.247   106470427.15748      1277.546    20260645.729    82963956.06245
       995.492  
  20937273.116   110026111.90249     -1970.762    20937272.368    85734625.78647
     -1535.663  
  21498298.302   112974329.25048      2474.335    21498299.552    88031961.75847
      1928.051  
  23921355.954   125707571.55945      -817.695    23921356.343    97953945.79143
      -637.164  
  22690881.542   119241387.13049      2840.155    22690882.116    92915374.40347
      2213.104  
  23021032.320   120976324.20747     -3288.335    23021030.546    94267278.75141
     -2562.332  
  21762714.966   116007531.09003      2954.604           0.000           0.0000 
         0.000  
  19712500.131   105559544.55808     -1306.098    19712502.843    82101874.26007
     -1015.859  
  22889039.097   122526828.79705     -3412.519    22889044.052    95298652.87305
     -2654.187  
  19890038.324   106323654.16808      1635.542    19890044.819    82696202.43705
      1272.085  
  20324397.506   108683686.74209      -559.519    20324401.339    84531772.86407
      -435.188  
  21056890.103   112640156.02805     -3521.582    21056896.685    87609035.99604
     -2739.003  
  22370903.040   119711228.90505      3188.132    22370906.217    93108756.84604
      2479.659  
 20 09 26 07 25  0.0000000  0 14G15G20G18G24G27G10G13R10R 8R 7R 1R24
                                R23R17
  20723186.671   108901082.22849     -2002.977    20723185.921    84857979.73046
     -1560.762  
  20259433.921   106464045.70248      1275.086    20259431.361    82958983.49046
       993.569  
  20939149.534   110035973.04649     -1973.711    20939148.892    85742309.77847
     -1537.960  
  21495945.430   112961964.94748      2471.483    21495946.758    88022327.27147
      1925.836  
  23922134.473   125711661.32745      -819.812    23922134.446    97957132.55844
      -638.827  
  22688179.631   119227189.11548      2839.101    22688180.281    92904311.02846
      2212.285  
  23024161.914   120992769.71247     -3289.562    23024160.040    94280093.44541
     -2563.301  
  21759944.697   115992765.84004      2950.812           0.000           0.0000 
         0.000  
  19713720.718   105566080.31108     -1308.316    19713723.258    82106957.62207
     -1017.582  
  22892226.689   122543892.34904     -3413.082    22892231.387    95311924.48605
     -2654.628  
  19888509.445   106315481.24508      1633.565    19888515.808    82689845.72005
      1270.546  
  20324923.012   108686497.04309      -564.483    20324926.825    84533958.64607
      -439.046  
  21060183.572   112657774.08806     -3525.359    21060190.176    87622738.94704
     -2741.949  
  22367925.149   119695294.51005      3185.202    22367928.510    93096363.43004
      2477.375  
 20 09 26 07 25  5.0000000  0 13G15G20G18G24G27G10G13R10R 8R 1R24R23
                                R17
  20725093.669   108911103.03749     -2005.449    20725092.694    84865788.15046
     -1562.691  
  20258221.849   106457676.28248      1272.565    20258219.218    82954020.31245
       991.605  
  20941028.881   110045849.42249     -1976.964    20941028.326    85750005.65347
     -1540.496  
  21493595.325   112949615.12448      2468.511    21493596.717    88012704.02747
      1923.512  
  23922916.235   125715767.86045      -823.043    23922915.498    97960332.36745
      -641.347  
  22685478.728   119212996.46548      2837.901    22685479.410    92893251.81946
      2211.348  
  23027292.615   121009221.12247     -3290.887    23027290.290    94292912.66943
     -2564.335  
  21757177.898   115978017.30703      2947.063           0.000           0.0000 
         0.000  
  19714943.441   105572627.59208     -1310.784    19714945.822    82112049.96407
     -1019.499  
  19886982.722   106307319.84708      1630.949    19886988.958    82683497.96105
      1268.512  
  20325453.065   108689331.66409      -569.456    20325456.862    84536163.35507
      -442.909  
  21063480.044   112675407.77006     -3528.038    21063486.557    87636453.98305
     -2744.043  
  22364950.520   119679376.48605      3181.758    22364953.858    93083982.72804
      2474.694  
 20 09 26 07 25 10.0000000  0 13G15G20G18G24G27G10G13R10R 8R 1R24R23
                                R17
  20727003.307   108921137.63049     -2007.926    20727002.092    84873607.31546
     -1564.621  
  20257012.461   106451320.96848      1269.965    20257009.771    82949068.10745
       989.577  
  20942911.484   110055742.97549     -1979.938    20942911.062    85757714.92347
     -1542.809  
  21491248.368   112937281.87348      2465.280    21491249.823    88003093.70247
      1920.995  
  23923701.511   125719893.00945      -826.391    23923700.292    97963546.74843
      -643.945  
  22682779.267   119198811.10748      2836.616    22682779.977    92882198.30946
      2210.351  
  23030424.800   121025680.36847     -3292.288    23030422.179    94305738.07642
     -2565.418  
  21754414.605   115963287.15303      2944.374           0.000           0.0000 
         0.000  
  19716168.640   105579188.32208     -1313.199    19716170.854    82117152.74107
     -1021.382  
  19885458.521   106299172.05908      1628.433    19885464.702    82677160.79905
      1266.558  
  20325988.055   108692192.61909      -574.468    20325991.844    84538388.54207
      -446.813  
  21066779.658   112693058.98105     -3531.651    21066786.232    87650182.69105
     -2746.843  
  22361979.300   119663476.73205      3177.945    22361982.712    93071616.27505
      2471.733  
 20 09 26 07 25 15.0000000  0 13G15G20G18G24G27G10G13R10R 8R 1R24R23
                                R17
  20728914.523   108931180.60349     -2009.457    20728913.069    84881433.00746
     -1565.812  
  20255804.778   106444974.39548      1268.530    20255802.038    82944122.73545
       988.464  
  20944796.345   110065648.32949     -1982.199    20944795.994    85765433.37447
     -1544.574  
  21488903.481   112924959.38248      2463.578    21488904.982    87993491.75347
      1919.667  
  23924489.163   125724031.37145      -829.218    23924487.794    97966771.56144
      -646.128  
  22680080.174   119184627.68148      2836.312    22680080.899    92871146.28946
      2210.113  
  23033557.483   121042142.00747     -3292.729    23033553.138    94318565.36041
     -2565.769  
  21751653.450   115948570.20503      2942.132           0.000           0.0000 
         0.000  
  19717395.295   105585756.78408     -1314.504    19717397.365    82122261.55407
     -1022.390  
  19883935.882   106291032.33708      1627.133    19883941.939    82670829.90505
      1265.547  
  20326526.961   108695074.39509      -578.441    20326530.748    84540629.91207
      -449.902  
  21070081.328   112710722.00204     -3533.082    21070088.178    87663920.59805
     -2747.953  
  22359010.392   119647589.94005      3175.895    22359014.100    93059259.89904
      2470.140  
 20 09 26 07 25 20.0000000  0 13G15G20G18G24G27G10G13R10R 8R 7R 1R24
                                R17
  20730827.764   108941234.16349     -2011.934    20730826.190    84889266.95146
     -1567.746  
  20254599.164   106438638.72748      1265.874    20254596.457    82939185.83446
       986.390  
  20946683.871   110075567.62749     -1985.348    20946683.597    85773162.69747
     -1547.026  
  21486561.099   112912650.20248      2460.437    21486562.659    87983900.17647
      1917.219  
  23925279.803   125728185.20844      -832.866    23925278.382    97970008.29441
      -648.987  
  22677381.875   119170448.33948      2835.241    22677382.613    92860097.44746
      2209.276  
  23036690.974   121058608.27046     -3293.976    23036686.523    94331396.20441
     -2566.734  
  21748895.377   115933868.68704      2939.733           0.000           0.0000 
         0.000  
  19718623.857   105592335.61708     -1316.933    19718625.848    82127378.42207
     -1024.285  
  22904981.043   122612155.46815     -3415.047    22904986.021    95365032.53614
     -2656.147  
  19882415.115   106282902.87208      1624.683    19882421.147    82664506.98705
      1263.641  
  20327070.166   108697979.15509      -583.496    20327073.939    84542889.17207
      -453.835  
  22356044.370   119631718.21806      3173.019    22356048.334    93046915.24704
      2467.906  
 20 09 26 07 25 25.0000000  0 12G15G20G18G24G27G10G13R 8R 7R 1R24R17
  20732743.091   108951298.77449     -2013.937    20732741.361    84897109.50346
     -1569.301  
  20253395.736   106432314.44948      1263.831    20253393.018    82934257.82946
       984.801  
  20948574.152   110085501.37149     -1988.300    20948573.948    85780903.27347
     -1549.324  
  21484221.349   112900354.79748      2457.765    21484222.993    87974319.35247
      1915.140  
  23926073.430   125732354.99744      -835.863    23926072.340    97973257.38844
      -651.332  
  22674684.470   119156273.59748      2834.495    22674685.166    92849052.19546
      2208.694  
  23039825.445   121075079.62146     -3294.688    23039820.461    94344231.00141
     -2567.285  
  19719854.333   105598924.97508     -1319.132    19719856.346    82132503.46807
     -1025.996  
  22908170.943   122629231.16006     -3415.444    22908175.687    95378313.63404
     -2656.461  
  19880896.338   106274784.10808      1622.483    19880902.343    82658192.39905
      1261.933  
  20327617.781   108700907.49609      -588.039    20327621.537    84545166.76807
      -457.366  
  22353081.180   119615862.21505      3169.702    22353085.487    93034582.83404
      2465.324  
 20 09 26 07 25 30.0000000  0 12G15G20G18G24G27G10G13R 8R 7R 1R24R17
  20734660.817   108961375.99249     -2016.124    20734658.970    84904961.88646
     -1571.011  
  20252194.759   106426003.12048      1261.563    20252192.111    82929339.91046
       983.030  
  20950467.494   110095451.13849     -1990.973    20950467.331    85788656.33047
     -1551.410  
  21481884.532   112888074.67848      2455.054    21481886.220    87964750.43947
      1913.030  
  23926870.096   125736542.28843      -838.363    23926869.219    97976520.25643
      -653.272  
  22671988.209   119142105.05448      2833.566    22671988.924    92838011.75446
      2207.965  
  23042961.233   121091557.60946     -3295.370    23042955.965    94357051.95751
     -2567.820  
  19721087.170   105605526.64008     -1320.832    19721089.184    82137638.09907
     -1027.316  
  22911361.519   122646310.71705     -3415.960    22911366.078    95391597.71504
     -2656.862  
  19879379.868   106266677.70408      1620.645    19879385.881    82651887.42305
      1260.500  
  20328170.081   108703860.89309      -592.574    20328173.784    84547463.85107
      -460.894  
  22350121.305   119600023.42306      3166.577    22350125.862    93022263.76904
      2462.891  
 20 09 26 07 25 35.0000000  0 11G15G20G18G24G10G13R 8R 7R 1R24R17
  20736580.793   108971465.09848     -2021.433    20736578.818    84912823.52946
     -1575.147  
  20250996.099   106419703.99448      1256.141    20250993.502    82924431.49246
       978.808  
  20952363.771   110105416.14249     -1997.078    20952363.638    85796421.26447
     -1556.167  
  21479550.453   112875809.04148      2449.155    21479552.248    87955192.80647
      1908.434  
  22669292.986   119127941.93748      2829.723    22669293.668    92826975.56746
      2204.976  
  23046098.128   121108041.51246     -3299.937    23046093.131    94369896.53543
     -2571.421  
  19722322.094   105612139.72308     -1326.414    19722324.183    82142781.60707
     -1031.659  
  22914552.397   122663393.55104     -3419.621    22914556.755    95404884.36704
     -2659.711  
  19877865.614   106258582.96008      1615.292    19877871.614    82645591.50805
      1256.335  
  20328726.943   108706838.65709      -600.534    20328730.558    84549779.89007
      -467.082  
  22347164.622   119584201.11405      3159.898    22347169.348    93009957.53004
      2457.694  
 20 09 26 07 25 40.0000000  0 11G15G20G18G24G10G13R 8R 7R 1R24R17
  20738505.183   108981577.64648     -2022.141    20738503.134    84920703.43946
     -1575.695  
  20249801.984   106413428.68848      1255.312    20249799.434    82919541.64146
       978.159  
  20954265.164   110115407.96649     -1998.289    20954265.033    85804207.09947
     -1557.113  
  21477221.403   112863569.73948      2448.007    21477223.261    87945655.68247
      1907.535  
  22666601.003   119113795.85048      2830.194    22666601.688    92815952.64046
      2205.343  
  23049238.303   121124542.86646     -3299.289    23049233.226    94382754.57643
     -2570.894  
  19723561.286   105618775.97808     -1326.758    19723563.562    82147943.14007
     -1031.926  
  22917746.381   122680491.38404     -3418.175    22917750.335    95418182.63603
     -2658.589  
  19876355.712   106250511.54208      1614.688    19876361.742    82639313.74505
      1255.867  
  20329290.541   108709852.59409      -603.632    20329294.097    84552124.06207
      -469.495  
  22344213.176   119568407.14106      3158.758    22344218.171    92997673.34404
      2456.813  
 20 09 26 07 25 45.0000000  0 11G15G20G18G24G10G13R 8R 7R 1R24R17
  20740429.255   108991688.55349     -2019.723    20740427.113    84928582.06046
     -1573.813  
  20248607.652   106407152.14848      1257.780    20248605.179    82914650.83245
       980.086  
  20956166.902   110125401.57249     -1996.574    20956166.738    85811994.32447
     -1555.776  
  21474892.579   112851331.56348      2449.914    21474894.482    87936119.44147
      1909.019  
  22663907.482   119099641.73448      2834.047    22663908.197    92804923.46646
      2208.347  
  23052376.997   121141036.62846     -3295.565    23052372.729    94395607.00441
     -2567.976  
  19724800.204   105625410.11008     -1324.344    19724802.591    82153103.02607
     -1030.047  
  22920938.263   122697578.68405     -3413.140    22920941.649    95431472.72003
     -2654.672  
  19874845.421   106242438.08108      1617.230    19874851.481    82633034.39205
      1257.848  
  20329856.124   108712877.17309      -603.644    20329859.618    84554476.51307
      -469.504  
  22341262.263   119552616.08306      3160.496    22341267.519    92985391.40604
      2458.163  
 20 09 26 07 25 50.0000000  0 11G15G20G18G24G10G13R 8R 7R 1R24R17
  20742349.763   109001780.79848     -2020.952    20742347.600    84936446.13746
     -1574.772  
  20247409.853   106400857.36448      1256.352    20247407.398    82909745.80946
       978.977  
  20958065.745   110135379.90649     -1998.586    20958065.521    85819769.64847
     -1557.343  
  21472560.758   112839077.44548      2447.914    21472562.671    87926570.78347
      1907.464  
  22661209.190   119085462.58748      2834.109    22661209.906    92793874.75947
      2208.395  
  23055511.036   121157505.77046     -3295.897    23055505.906    94408440.12042
     -2568.223  
  19726035.418   105632024.59208     -1325.555    19726037.932    82158247.61607
     -1030.992  
  22924125.139   122714638.09505     -3413.331    22924127.842    95444741.14103
     -2654.815  
  19873331.525   106234345.22208      1615.937    19873337.587    82626739.93805
      1256.836  
  20330420.428   108715895.04109      -607.437    20330423.920    84556823.73507
      -472.456  
  22338308.652   119536810.52805      3157.879    22338314.212    92973098.20004
      2456.129  
 20 09 26 07 25 55.0000000  0 11G15G20G18G24G10G13R 8R 7R 1R24R17
  20744276.540   109011906.04949     -2027.476    20744274.317    84944335.93746
     -1579.854  
  20246218.417   106394595.98048      1249.761    20246216.042    82904866.81046
       973.835  
  20959971.506   110145394.62149     -2005.504    20959971.219    85827573.31747
     -1562.733  
  21470235.743   112826859.16248      2441.004    21470237.655    87917050.04347
      1902.082  
  22658515.918   119071310.06648      2828.672    22658516.758    92782846.82946
      2204.160  
  23058650.134   121174001.90446     -3300.745    23058644.882    94421294.20143
     -2572.011  
  19727276.838   105638672.15508     -1331.726    19727279.437    82163417.94107
     -1035.792  
  22927316.558   122731722.25804     -3417.961    22927318.433    95458028.80803
     -2658.421  
  19871823.810   106226285.52508      1609.629    19871829.869    82620471.28505
      1251.929  
  20330993.313   108718958.83109      -616.375    20330996.820    84559206.68607
      -479.402  
  22335362.205   119521043.09205      3150.894    22335368.007    92960834.64804
      2450.694  
 20 09 26 07 26  0.0000000  0 11G15G20G18G24G10G13R 8R 7R 1R24R17
  20746207.196   109022051.65148     -2030.605    20746204.948    84952241.61146
     -1582.293  
  20245030.933   106388355.42648      1246.559    20245028.573    82900004.04346
       971.339  
  20961881.811   110155433.12549     -2009.508    20961881.411    85835395.51847
     -1565.854  
  21467915.139   112814664.11948      2437.347    21467917.062    87907547.41647
      1899.230  
  22655825.311   119057171.58148      2826.698    22655826.247    92771829.82246
      2202.621  
  23061791.963   121190512.48246     -3302.862    23061786.414    94434159.56241
     -2573.672  
  19728522.069   105645339.83908     -1335.054    19728524.678    82168603.92007
     -1038.375  
  22930510.261   122748818.24803     -3418.972    22930511.349    95471325.65303
     -2659.206  
  19870319.886   106218246.09708      1606.261    19870325.944    82614218.40005
      1249.316  
  20331572.393   108722055.61509      -622.003    20331575.905    84561615.29707
      -483.784  
  22332420.522   119505301.01906      3146.808    22332426.553    92948590.80804
      2447.516  
 20 09 26 07 26  5.0000000  0 11G15G20G18G24G27G10G13R 8R 1R24R17
  20748139.820   109032207.63149     -2031.351    20748137.573    84960155.35546
     -1582.874  
  20243845.486   106382125.67248      1245.805    20243843.175    82895149.69146
       970.757  
  20963794.734   110165485.38249     -2011.097    20963794.231    85843228.44647
     -1567.093  
  21465597.076   112802482.27248      2435.851    21465599.006    87898055.08147
      1898.065  
  23932528.525   125766284.75154      -860.753    23932528.914    97999704.16751
      -670.737  
  22653135.428   119043037.11948      2827.179    22653136.521    92760815.96847
      2202.995  
  23064934.621   121207027.48346     -3302.843    23064929.070    94447028.37043
     -2573.655  
  19729769.124   105652017.48508     -1335.727    19729771.765    82173797.65107
     -1038.898  
  19868817.913   106210216.81308      1605.679    19868823.855    82607973.40005
      1248.859  
  20332155.721   108725175.27908      -625.456    20332159.308    84564041.71607
      -486.465  
  22329481.590   119489574.16905      3145.066    22329487.939    92936358.81804
      2446.160  
 20 09 26 07 26 10.0000000  0 11G15G20G18G24G27G10G13R 8R 1R24R17
  20750072.967   109042366.35448     -2032.973    20750070.653    84968071.24646
     -1584.136  
  20242660.632   106375899.16248      1243.895    20242658.416    82890297.86646
       969.265  
  20965708.823   110175543.76749     -2013.358    20965708.223    85851066.14047
     -1568.854  
  21463280.115   112790306.14948      2433.597    21463281.997    87888567.19347
      1896.309  
  23933348.546   125770592.61745      -862.379    23933348.498    98003060.97545
      -671.987  
  22650444.882   119028899.07948      2826.788    22650446.091    92749799.32946
      2202.691  
  23068076.713   121223539.19246     -3303.210    23068071.436    94459894.64641
     -2573.926  
  19731016.573   105658697.33008     -1337.187    19731019.255    82178993.08807
     -1040.034  
  19867316.378   106202190.00108      1604.194    19867322.258    82601730.32105
      1247.702  
  20332741.893   108728310.05508      -629.495    20332745.542    84566479.87507
      -489.608  
  22326544.080   119473854.74005      3141.563    22326550.671    92924132.58304
      2443.434  
 20 09 26 07 26 15.0000000  0 11G15G20G18G24G27G10G13R 8R 1R24R17
  20752008.949   109052540.00648     -2036.188    20752006.565    84975998.76346
     -1586.644  
  20241478.703   106369688.05448      1240.804    20241476.533    82885458.03346
       966.855  
  20967626.395   110185620.48949     -2016.949    20967625.681    85858918.12347
     -1571.652  
  21460966.556   112778147.90848      2430.007    21460968.387    87879093.25147
      1893.511  
  23934172.461   125774920.38145      -868.137    23934171.938    98006433.20043
      -676.480  
  22647756.024   119014769.65648      2825.227    22647757.290    92738789.38647
      2201.476  
  23071220.456   121240059.86446     -3304.797    23071215.333    94472767.90944
     -2575.160  
  19732266.782   105665391.76308     -1339.972    19732269.455    82184199.87807
     -1042.199  
  19865817.573   106194177.99708      1601.128    19865823.433    82595498.76505
      1245.323  
  20333333.227   108731472.40208      -635.008    20333336.925    84568939.47807
      -493.894  
  22323610.410   119458155.04706      3138.152    22323617.076    92911921.73104
      2440.785  
 20 09 26 07 26 20.0000000  0 11G15G20G18G24G27G10G13R 8R 1R24R17
  20753947.357   109062726.31948     -2038.480    20753944.946    84983936.14146
     -1588.430  
  20240299.261   106363490.07148      1238.164    20240297.136    82880628.44246
       964.801  
  20969547.033   110195713.26349     -2020.179    20969546.210    85866782.61847
     -1574.167  
  21458655.928   112766005.07048      2427.015    21458657.666    87869631.29847
      1891.180  
  23934999.681   125779265.61046      -870.621    23934999.001    98009819.07344
      -678.414  
  22645068.402   119000646.61148      2823.960    22645069.725    92727784.41447
      2200.483  
  23074365.602   121256587.12246     -3306.246    23074360.279    94485646.21843
     -2576.300  
  19733519.294   105672098.62807     -1342.664    19733521.938    82189416.33307
     -1044.292  
  19864321.163   106186178.54608      1598.495    19864326.917    82589276.96805
      1243.269  
  20333929.303   108734659.91608      -640.116    20333933.044    84571418.65707
      -497.871  
  22320679.946   119442473.04405      3134.645    22320686.635    92899724.60304
      2438.054  
 20 09 26 07 26 25.0000000  0 11G15G20G18G24G27G10G13R 8R 1R24R17
  20755887.951   109072924.17849     -2040.374    20755885.461    84991882.53746
     -1589.901  
  20239122.098   106357304.13648      1236.261    20239120.022    82875808.23146
       963.316  
  20971470.499   110205820.95849     -2022.781    20971469.563    85874658.74047
     -1576.195  
  21456348.062   112753876.74649      2424.546    21456349.681    87860180.67547
      1889.258  
  23935829.875   125783627.33545      -873.777    23935828.843    98013217.76043
      -680.874  
  22642381.802   118986528.80548      2823.351    22642383.174    92716783.53146
      2200.016  
  23077511.752   121273119.90946     -3306.843    23077506.307    94498529.02443
     -2576.750  
  19734773.793   105678816.75808     -1344.526    19734776.501    82194641.54107
     -1045.745  
  19862826.857   106178190.49908      1596.762    19862832.597    82583064.05005
      1241.926  
  20334529.901   108737871.45808      -644.343    20334533.664    84573916.52507
      -501.155  
  22317752.605   119426807.43705      3131.683    22317759.256    92887540.24704
      2435.753  
 20 09 26 07 26 30.0000000  0 11G15G20G18G24G27G10G13R 8R 1R24R17
  20757830.228   109083130.97548     -2042.319    20757827.712    84999835.88746
     -1591.418  
  20237946.791   106351127.66448      1234.288    20237944.680    82870995.40546
       961.785  
  20973396.324   110215940.98849     -2025.309    20973395.263    85882544.47347
     -1578.167  
  21454042.474   112741760.39648      2421.944    21454043.998    87850739.35247
      1887.227  
  23936662.747   125788002.82645      -876.410    23936661.785    98016627.23943
      -682.921  
  22639695.724   118972413.71448      2822.659    22639697.100    92705784.75746
      2199.472  
  23080658.421   121289655.73246     -3307.551    23080653.356    94511414.06841
     -2577.315  
  19736029.895   105685543.31607     -1346.391    19736032.623    82199873.30907
     -1047.195  
  19861334.187   106170211.13708      1594.894    19861339.915    82576857.88305
      1240.472  
  20335134.497   108741104.50408      -648.742    20335138.298    84576431.11907
      -504.581  
  22314827.737   119411155.72505      3128.688    22314834.305    92875366.68504
      2433.421  
 20 09 26 07 26 35.0000000  0 11G15G20G18G24G27G10G13R 8R 1R24R17
  20759774.564   109093348.65448     -2044.144    20759772.047    85007797.70746
     -1592.843  
  20236773.651   106344962.55448      1232.469    20236771.538    82866191.42546
       960.362  
  20975324.853   110226075.25749     -2027.788    20975323.690    85890441.30747
     -1580.097  
  21451739.467   112729657.73148      2419.676    21451740.902    87841308.71347
      1885.461  
  23937498.626   125792394.15445      -879.520    23937497.467    98020049.05845
      -685.347  
  22637010.549   118958303.18148      2822.300    22637011.900    92694789.53046
      2199.190  
  23083806.097   121306196.41446     -3308.270    23083801.115    94524302.89643
     -2577.871  
  19737287.962   105692280.39407     -1347.766    19737290.732    82205113.25407
     -1048.265  
  19859843.529   106162242.49308      1593.163    19859849.221    82570660.04005
      1239.125  
  20335743.519   108744360.90608      -653.105    20335747.303    84578963.86307
      -507.977  
  22311905.869   119395519.81205      3125.437    22311912.280    92863205.39504
      2430.891  
 20 09 26 07 26 40.0000000  0 11G15G20G18G24G27G10G13R 8R 1R24R17
  20761720.509   109103574.88048     -2046.719    20761718.023    85015766.18746
     -1594.851  
  20235602.215   106338806.58648      1229.683    20235600.033    82861394.56146
       958.190  
  20977255.657   110236221.54049     -2031.065    20977254.392    85898347.49347
     -1582.652  
  21449438.708   112717566.81649      2416.500    21449440.097    87831887.24047
      1882.988  
  23938336.947   125796798.86944      -883.163    23938335.394    98023481.29244
      -688.179  
  22634325.826   118944195.05648      2820.785    22634327.184    92683796.19246
      2198.016  
  23086954.258   121322739.67647     -3309.765    23086949.338    94537193.71942
     -2579.039  
  19738547.628   105699025.75407     -1350.508    19738550.376    82210359.63007
     -1050.397  
  19858354.452   106154282.36908      1590.491    19858360.123    82564468.83205
      1237.047  
  20336356.491   108747638.40409      -658.297    20336360.241    84581513.02507
      -512.012  
  22308986.558   119379897.42505      3122.852    22308992.969    92851054.68504
      2428.886  
 20 09 26 07 26 45.0000000  0 11G15G20G18G24G27G10G13R 8R 1R24R17
  20763669.302   109113815.98348     -2049.645    20763666.831    85023746.26046
     -1597.128  
  20234433.716   106332666.05348      1226.504    20234431.507    82856609.73546
       955.714  
  20979189.947   110246386.08849     -2034.777    20979188.557    85906267.91947
     -1585.539  
  21447141.355   112705493.67648      2412.776    21447142.643    87822479.58047
      1880.081  
  23939178.964   125801223.35944      -887.051    23939177.474    98026928.93844
      -691.207  
  22631642.837   118930095.53748      2819.086    22631644.149    92672809.55146
      2196.690  
  23090104.094   121339291.92246     -3311.594    23090099.379    94550091.54542
     -2580.476  
  19739809.943   105705785.64507     -1353.551    19739812.740    82215617.33007
     -1052.762  
  19856868.150   106146337.07708      1587.651    19856873.792    82558289.16105
      1234.835  
  20336974.596   108750943.37309      -663.702    20336978.295    84584083.55707
      -516.218  
  22306071.003   119364295.01405      3118.429    22306077.378    92838919.48504
      2425.444  
 20 09 26 07 26 50.0000000  0 11G15G20G18G24G21G10G13R 8R 1R24R17
  20765620.948   109124071.98148     -2054.254    20765618.482    85031737.94346
     -1600.722  
  20233268.169   106326540.99648      1222.004    20233265.955    82851836.96546
       952.206  
  20981127.721   110256568.97149     -2039.960    20981126.242    85914202.63247
     -1589.578  
  21444847.382   112693438.39248      2407.675    21444848.657    87813085.87147
      1876.108  
  25207675.642   132467223.14116      2919.874           0.000           0.0000 
         0.000  
  22628961.483   118916004.80448      2815.633    22628962.778    92661829.75247
      2193.996  
  23093255.590   121355853.05246     -3314.745    23093251.436    94562996.38141
     -2582.909  
  19741074.985   105712560.16907     -1358.050    19741077.773    82220886.40007
     -1056.266  
  19855384.669   106138406.64608      1582.999    19855390.249    82552121.05205
      1231.223  
  20337597.835   108754275.99108      -670.816    20337601.493    84586675.57807
      -521.750  
  22303159.294   119348712.68505      3113.167    22303165.475    92826799.91804
      2421.354  
 20 09 26 07 26 55.0000000  0 11G15G20G18G24G21G10G13R 8R 1R24R17
  20767575.605   109134343.86848     -2057.445    20767573.167    85039742.02346
     -1603.203  
  20232105.749   106320432.40848      1218.765    20232103.466    82847077.01645
       949.684  
  20983069.135   110266771.13749     -2043.858    20983067.609    85922152.36347
     -1592.620  
  21442557.036   112681402.22748      2403.862    21442558.284    87803707.05347
      1873.140  
  25204897.153   132452622.01946      2917.789    25204892.970   103209814.68351
      2273.598  
  22626281.998   118901923.73648      2813.897    22626283.260    92650857.51046
      2192.648  
  23096408.857   121372424.17546     -3316.823    23096404.784    94575915.81253
     -2584.539  
  19742343.002   105719350.37007     -1361.066    19742345.726    82226167.66007
     -1058.609  
  19853904.107   106130492.13208      1579.637    19853909.704    82545965.31305
      1228.601  
  20338226.360   108757636.99408      -676.522    20338230.002    84589289.69007
      -526.188  
  22300251.590   119333151.34805      3108.605    22300257.561    92814696.63704
      2417.800  
 20 09 26 07 27  0.0000000  0 12G15G20G18G24G21G10G13R10R 8R 1R24R17
  20769537.246   109144652.29948     -2060.188    20769534.836    85047774.57046
     -1605.339  
  20230950.426   106314361.05148      1215.706    20230948.057    82842346.08846
       947.301  
  20985018.168   110277013.31549     -2047.297    20985016.598    85930133.27347
     -1595.301  
  21440274.218   112669405.59648      2400.613    21440275.462    87794359.02947
      1870.609  
  25202123.845   132438051.47046      2916.159    25202115.409   103198460.97443
      2272.336  
  22623608.274   118887873.09648      2812.257    22623609.517    92639908.94946
      2191.366  
  23099567.915   121389025.76646     -3318.211    23099563.365    94588852.14441
     -2585.648  
  21694374.706   115643224.51614      2869.964           0.000           0.0000 
         0.000  
  19743617.901   105726177.33508     -1363.737    19743620.502    82231477.52707
     -1060.684  
  19852430.468   106122614.53108      1577.101    19852436.057    82539838.28505
      1226.565  
  20338864.162   108761047.67108      -681.883    20338867.805    84591942.42807
      -530.354  
  22297351.527   119317632.20905      3105.667    22297357.529    92802626.19604
      2415.516  
 20 09 26 07 27  5.0000000  0 13G15G20G18G24G 8G21G10G13R10R 8R 1R24
                                R17
  20771495.147   109154941.07648     -2056.387    20771492.754    85055791.79346
     -1602.382  
  20229791.459   106308270.60848      1219.441    20229789.009    82837600.29546
       950.215  
  20986964.088   110287239.22349     -2044.293    20986962.485    85938101.51247
     -1592.961  
  21437988.227   112657392.26048      2403.633    21437989.470    87784997.99047
      1872.960  
  24737365.382   129995728.76114       946.918           0.000           0.0000 
         0.000  
  25199346.274   132423455.20547      2921.163    25199342.234   103187087.28543
      2276.234  
  22620929.674   118873796.64448      2817.210    22620930.897    92628940.29247
      2195.230  
  23102722.047   121405601.74646     -3313.421    23102718.012    94601768.45942
     -2581.906  
  21691681.789   115628865.94104      2872.683           0.000           0.0000 
         0.000  
  19744888.923   105732983.69508     -1360.078    19744891.398    82236771.35507
     -1057.844  
  19850953.002   106114716.62808      1580.934    19850958.637    82533695.47305
      1229.608  
  20339500.594   108764450.74208      -680.637    20339504.196    84594589.25807
      -529.387  
  22294448.758   119302098.00305      3107.331    22294454.656    92790544.05604
      2416.813  
 20 09 26 07 27 10.0000000  0 13G15G20G18G24G 8G21G10G13R10R 8R 1R24
                                R17
  20773452.645   109165227.83048     -2055.742    20773450.267    85063807.44946
     -1601.879  
  20228632.216   106302178.80948      1219.819    20228629.670    82832853.43346
       950.508  
  20988910.274   110297466.52849     -2044.336    20988908.638    85946070.83947
     -1592.992  
  21435702.466   112645380.22148      2403.558    21435703.730    87775637.95747
      1872.897  
  24736465.998   129990999.93805       947.395           0.000           0.0000 
         0.000  
  25196567.497   132408850.97746      2922.495    25196563.925   103175707.35541
      2277.270  
  22618249.530   118859712.04748      2818.784    22618250.780    92617965.28546
      2196.456  
  23105874.682   121422169.79846     -3311.800    23105870.069    94614678.60341
     -2580.629  
  21688988.658   115614510.78704      2872.129           0.000           0.0000 
         0.000  
  19746159.526   105739787.49908     -1359.362    19746161.862    82242063.19907
     -1057.284  
  19849475.147   106106816.58208      1581.488    19849480.785    82527550.99205
      1230.042  
  20340138.914   108767864.09308      -682.487    20340142.548    84597244.08707
      -530.754  
  22291546.429   119286566.61505      3107.101    22291552.283    92778464.08804
      2416.633  
 20 09 26 07 27 15.0000000  0 13G15G20G18G24G 8G21G10G13R10R 8R 1R24
                                R17
  20775408.138   109175503.98149     -2058.527    20775405.722    85071814.83646
     -1604.051  
  20227471.094   106296077.07148      1216.879    20227468.405    82828098.84045
       948.218  
  20990855.090   110307686.64049     -2047.651    20990853.401    85954034.56547
     -1595.573  
  21433415.264   112633360.70548      2400.406    21433416.552    87766272.09647
      1870.440  
  24735564.210   129986264.94405       943.113           0.000           0.0000 
         0.000  
  25193785.284   132394230.12946      2921.438    25193780.425   103164314.48241
      2276.440  
  22615566.185   118845610.72348      2817.632    22615567.469    92606977.23147
      2195.555  
  23109024.164   121438721.12846     -3312.628    23109021.631    94627575.78543
     -2581.276  
  21686294.952   115600150.06804      2868.655           0.000           0.0000 
         0.000  
  19747428.018   105746579.90007     -1361.624    19747430.202    82247346.16507
     -1059.047  
  19847995.193   106098905.44408      1579.026    19848000.881    82521397.88705
      1228.133  
  20340777.513   108771279.03308      -687.457    20340781.210    84599900.14707
      -534.691  
  22288643.086   119271029.46005      3103.913    22288648.845    92766379.66104
      2414.156  
 20 09 26 07 27 20.0000000  0 13G15G20G18G24G 8G21G10G13R10R 8R 1R24
                                R17
  20777371.213   109185819.95149     -2070.004    20777368.820    85079853.24146
     -1612.992  
  20226317.694   106290015.81848      1205.284    20226314.879    82823375.77945
       939.179  
  20992808.122   110317949.98649     -2059.883    20992806.412    85962031.97547
     -1605.105  
  21431136.246   112621384.23248      2388.227    21431137.552    87756939.78347
      1860.952  
  24734672.386   129981574.31705       930.765           0.000           0.0000 
         0.000  
  25191009.704   132379643.04546      2911.020    25191007.416   103152947.97341
      2268.348  
  22612889.249   118831543.11148      2807.378    22612890.547    92596015.43647
      2187.562  
  23112180.206   121455306.33046     -3323.477    23112177.577    94640503.36052
     -2589.722  
  21683609.451   115585835.14805      2855.078           0.000           0.0000 
         0.000  
  19748703.973   105753412.45607     -1373.429    19748706.095    82252660.37107
     -1068.226  
  19846522.791   106091034.63908      1567.249    19846528.484    82515276.14905
      1218.969  
  20341426.025   108774746.94708      -701.710    20341429.773    84602597.41407
      -545.776  
  22285748.311   119255537.96605      3090.676    22285753.847    92754330.70305
      2403.854  
 20 09 26 07 27 25.0000000  0 11G15G20G18G24G21G10G13R 8R 1R24R17
  20779341.738   109196175.00449     -2069.245    20779339.394    85087922.12846
     -1612.397  
  20225171.883   106283994.38548      1205.906    20225169.034    82818683.76746
       939.671  
  20994769.240   110328255.85649     -2059.805    20994767.521    85970062.51547
     -1605.043  
  21428865.204   112609449.91548      2388.190    21428866.518    87747640.30847
      1860.831  
  25188239.961   132365089.13846      2913.375    25188236.237   103141607.17741
      2269.953  
  22610218.625   118817508.54548      2808.988    22610219.908    92585079.39447
      2188.815  
  23115342.718   121471924.69445     -3320.972    23115340.184    94653452.70341
     -2587.761  
  19749987.202   105760284.21607     -1372.836    19749989.377    82258005.07207
     -1067.761  
  19845057.761   106083203.37308      1567.828    19845063.522    82509185.17105
      1219.422  
  20342084.277   108778267.07408      -703.516    20342088.092    84605335.29107
      -547.184  
  22282861.787   119240091.24905      3090.718    22282867.330    92742316.54004
      2403.878  
 20 09 26 07 27 30.0000000  0 12G15G20G18G24G 8G21G10G13R10R 8R 1R24
  20781310.001   109206518.14049     -2069.925    20781307.720    85095981.71846
     -1612.934  
  20224023.893   106277961.74948      1205.128    20224020.988    82813983.02445
       939.063  
  20996728.747   110338553.25849     -2060.895    20996727.035    85978086.46047
     -1605.894  
  21426592.542   112597506.96448      2387.148    21426593.897    87738334.11947
      1860.113  
  24732902.004   129972276.83655       930.156    24732901.265   101277093.61452
       724.796  
  25185466.904   132350517.43746      2914.085    25185463.934   103130252.71841
      2270.726  
  22607544.611   118803456.00549      2809.707    22607545.910    92574129.38347
      2189.394  
  23118501.649   121488525.14346     -3320.733    23118500.267    94666388.15543
     -2587.566  
  21678254.132   115557291.56815      2853.394           0.000           0.0000 
         0.000  
  19751268.133   105767143.44807     -1373.207    19751270.323    82263340.00807
     -1068.059  
  19843590.517   106075359.95808      1567.452    19843596.263    82503084.72905
      1219.094  
  20342742.605   108781787.41609      -706.598    20342746.413    84608073.33207
      -549.578  
 20 09 26 07 27 35.0000000  0 13G15G20G18G24G 8G21G10G13R10R 8R 1R24
                                R17
  20783279.237   109216866.51549     -2067.156    20783277.061    85104045.37246
     -1610.773  
  20222877.100   106271935.03348      1207.858    20222874.091    82809286.86245
       941.184  
  20998689.890   110348859.29349     -2059.039    20998688.176    85986117.13047
     -1604.448  
  21424321.500   112585572.49948      2389.104    21424322.806    87729034.53847
      1861.640  
  24732018.218   129967632.10244       930.156    24732024.162   101273474.30844
       724.815  
  25182693.714   132335945.09906      2918.171           0.000           0.0000 
         0.000  
  22604870.395   118789402.56248      2813.851    22604871.728    92563178.65047
      2192.612  
  23121660.521   121505124.81647     -3316.813    23121658.877    94679322.88341
     -2584.534  
  21675577.845   115543025.67205      2855.320           0.000           0.0000 
         0.000  
  19752549.916   105774007.49707     -1370.172    19752552.145    82268678.72007
     -1065.688  
  19842124.204   106067521.54708      1570.266    19842129.913    82496988.19605
      1221.315  
  20343404.275   108785325.51009      -706.160    20343408.092    84610825.18407
      -549.276  
  22277087.894   119209196.16914      3090.793    22277093.363    92718287.58915
      2403.948  
 20 09 26 07 27 40.0000000  0 13G15G20G18G24G 8G21G10G13R10R 8R 1R24
                                R17
  20785247.731   109227210.98749     -2071.706    20785245.660    85112105.98846
     -1614.320  
  20221729.701   106265905.15748      1203.089    20221726.617    82804588.24245
       937.468  
  21000650.934   110359164.80249     -2064.250    21000649.195    85994147.39347
     -1608.512  
  21422050.301   112573637.20448      2384.023    21422051.590    87719734.31847
      1857.680  
  24731134.461   129962987.86545       925.526    24731139.323   101269855.47442
       721.202  
  25179918.852   132321362.81946      2914.370    25179916.589   103107551.63951
      2270.913  
  22602194.266   118775339.19048      2810.586    22602195.670    92552220.20247
      2190.066  
  23124817.582   121521714.56746     -3319.828    23124815.745    94692250.07543
     -2586.863  
  21672902.090   115528761.26405      2849.500           0.000           0.0000 
         0.000  
  19753830.867   105780866.99207     -1374.710    19753833.067    82274013.87407
     -1069.222  
  19840657.093   106059678.99608      1565.555    19840662.749    82490888.43405
      1217.652  
  20344067.541   108788871.94609      -713.320    20344071.389    84613583.51507
      -554.808  
  22274202.156   119193755.00015      3085.059    22274207.525    92706276.00214
      2399.488  
 20 09 26 07 27 45.0000000  0 14G15G20G18G24G 8G21G10G13R10R 8R 1R24
                                R23R17
  20787220.015   109237575.50449     -2073.852    20787218.078    85120182.24046
     -1615.987  
  20220586.246   106259896.07248      1200.753    20220583.084    82799905.85145
       935.647  
  21002616.441   110369493.79849     -2067.081    21002614.698    86002195.95547
     -1610.719  
  21419783.549   112561725.27948      2381.065    21419784.818    87710452.29847
      1855.375  
  24730255.747   129958368.28645       922.473    24730262.703   101266255.70644
       718.801  
  25177146.624   132306794.72345      2913.730    25177144.859   103096200.15141
      2270.469  
  22599520.786   118761289.86348      2809.507    22599522.287    92541272.67447
      2189.226  
  23127977.259   121538318.40846     -3321.112    23127975.299    94705192.07651
     -2587.878  
  21670231.396   115514522.55405      2846.309           0.000           0.0000 
         0.000  
  19755115.592   105787746.48307     -1376.722    19755117.746    82279364.57907
     -1070.788  
  19839193.791   106051856.74908      1563.512    19839199.384    82484804.46605
      1216.050  
  20344736.977   108792451.28009      -718.152    20344740.870    84616367.43907
      -558.566  
  21170403.556   113247375.74015     -3618.773    21170407.818    88081315.49815
     -2814.609  
  22271321.195   119178338.33405      3081.711    22271326.334    92694285.29304
      2396.887  
 20 09 26 07 27 50.0000000  0 15G15G20G18G24G 8G21G10G13R10R 8R 7R 1
                                R24R23R17
  20789195.141   109247954.92448     -2076.358    20789193.289    85128270.08847
     -1617.945  
  20219445.787   106253902.61048      1198.145    20219442.435    82795235.61845
       933.612  
  21004585.442   110379841.09249     -2070.358    21004583.707    86010258.78247
     -1613.270  
  21417520.290   112549831.71148      2377.897    21417521.516    87701184.57747
      1852.902  
  24729380.702   129953768.14545       919.598    24729383.803   101262671.25841
       716.421  
  25174376.009   132292235.70206      2911.854           0.000           0.0000 
         0.000  
  22596848.976   118747249.38048      2808.141    22596850.594    92530332.04047
      2188.159  
  23131138.633   121554931.19506     -3322.625           0.000           0.0000 
         0.000  
  21667564.359   115500304.46905      2842.433           0.000           0.0000 
         0.000  
  19756403.060   105794640.53307     -1379.645    19756405.159    82284726.63807
     -1073.059  
  23000870.370   123125459.01314     -3427.586    23000875.416    95764266.91914
     -2665.913  
  19837733.294   106044049.39608      1560.894    19837738.811    82478732.07605
      1214.023  
  20345411.570   108796058.16609      -723.229    20345415.486    84619172.78307
      -562.515  
  21173788.238   113265483.19805     -3622.019    21173793.023    88095399.06005
     -2817.136  
  22268443.866   119162941.98105      3078.261    22268448.859    92682310.32504
      2394.195  
 20 09 26 07 27 55.0000000  0 15G15G20G18G24G 8G21G10G13R10R 8R 7R 1
                                R24R23R17
  20791172.430   109258345.86448     -2080.104    20791170.612    85136366.92646
     -1620.867  
  20218307.693   106247921.50848      1194.098    20218304.089    82790575.03045
       930.465  
  21006557.264   110390203.34149     -2074.770    21006555.561    86018333.25447
     -1616.707  
  21415259.780   112537952.84048      2373.519    21415260.982    87691928.32246
      1849.495  
  24728508.413   129949184.07645       914.754    24728511.105   101259099.26843
       712.805  
  25171606.494   132277682.33205      2908.855           0.000           0.0000 
         0.000  
  22594178.240   118733214.44249      2805.683    22594179.972    92519395.69747
      2186.238  
  23134301.091   121571549.45906     -3325.347           0.000           0.0000 
         0.000  
  21664900.518   115486103.72805      2837.730           0.000           0.0000 
         0.000  
  19757692.549   105801545.75007     -1382.905    19757694.739    82290097.35007
     -1075.598  
  23004073.351   123142602.32004     -3428.577    23004078.002    95777600.68203
     -2666.664  
  19836274.939   106036253.71808      1557.147    19836280.478    82472668.78105
      1211.117  
  20346090.652   108799689.27308      -729.386    20346094.619    84621996.97807
      -567.304  
  21177176.134   113283605.59305     -3627.026    21177181.073    88109494.24205
     -2821.026  
  22265569.944   119147562.69503      3073.922    22265574.662    92670348.72203
      2390.836  
 20 09 26 07 28  0.0000000  0 15G15G20G18G24G 8G21G10G13R10R 8R 7R 1
                                R24R23R17
  20793152.463   109268751.22848     -2082.019    20793150.690    85144475.01446
     -1622.354  
  20217172.483   106241955.65848      1192.249    20217168.673    82785926.31645
       929.026  
  21008532.515   110400583.47949     -2077.308    21008530.797    86026421.67347
     -1618.687  
  21413002.645   112526091.60748      2370.866    21413003.767    87682685.81047
      1847.429  
  24727639.818   129944619.04945       911.406    24727642.403   101255542.05043
       710.301  
  25168838.679   132263137.55545      2908.859    25168833.837   103062174.53154
      2266.641  
  22591509.183   118719188.01248      2805.026    22591510.942    92508466.02847
      2185.734  
  23137465.193   121588176.21246     -3325.737    23137463.459    94744044.31651
     -2591.503  
  21662240.378   115471923.15405      2834.948           0.000           0.0000 
         0.000  
  19758984.701   105808465.47707     -1384.688    19758986.986    82295479.35907
     -1076.984  
  23007276.892   123159751.59703     -3430.039    23007282.070    95790938.99202
     -2667.813  
  19834819.295   106028472.62308      1555.258    19834824.870    82466616.81505
      1209.641  
  20346774.822   108803347.52509      -733.688    20346778.766    84624842.27607
      -570.608  
  21180567.106   113301745.75605     -3629.551    21180572.360    88123603.23505
     -2822.984  
  22262699.729   119132203.28204      3070.636    22262704.015    92658402.52304
      2388.277  
 20 09 26 07 28  5.0000000  0 14G15G20G18G24G 8G21G10G13R10R 8R 1R24
                                R23R17
  20795134.433   109279166.67548     -2084.573    20795132.634    85152590.93246
     -1624.347  
  20216039.362   106236000.66148      1189.418    20216035.445    82781286.03045
       926.815  
  21010510.328   110410977.08349     -2080.542    21010508.615    86034520.57147
     -1621.206  
  21410748.086   112514243.81848      2367.672    21410749.126    87673453.77447
      1844.938  
  24726773.986   129940068.72745       908.730    24726776.509   101251996.35842
       708.105  
  25166071.765   132248597.10746      2906.964    25166072.899   103050844.23443
      2265.167  
  22588840.852   118705165.62248      2803.562    22588842.605    92497539.50947
      2184.594  
  23140630.057   121604806.99646     -3327.020    23140628.016    94757003.33942
     -2592.488  
  21659583.325   115457758.37805      2830.765           0.000           0.0000 
         0.000  
  19760278.676   105815394.74707     -1387.402    19760281.016    82300868.78907
     -1079.093  
  19833365.564   106020701.66008      1552.573    19833371.210    82460572.73005
      1207.555  
  20347463.212   108807028.43808      -738.840    20347467.190    84627705.20707
      -574.656  
  21183960.582   113319899.19006     -3632.452    21183966.054    88137722.55805
     -2825.245  
  22259832.400   119116859.50305      3066.284    22259836.134    92646468.45804
      2384.883  
 20 09 26 07 28 10.0000000  0 14G15G20G18G24G 8G21G10G13R10R 8R 1R24
                                R23R17
  20797118.642   109289593.85749     -2086.702    20797116.815    85160716.00846
     -1626.007  
  20214908.614   106230058.22748      1187.238    20214904.608    82776655.56645
       925.116  
  21012491.013   110421385.86849     -2083.477    21012489.340    86042631.30847
     -1623.492  
  21408496.413   112502411.19848      2364.961    21408497.326    87664233.56147
      1842.827  
  24725911.081   129935534.75545       905.098    24725915.780   101248463.40943
       705.262  
  25163305.963   132234062.53146      2906.188    25163305.755   103039518.70942
      2264.577  
  22586173.640   118691149.04948      2802.766    22586175.374    92486617.51547
      2183.973  
  23143796.015   121621443.53046     -3328.054    23143793.969    94769966.76241
     -2593.304  
  21656929.331   115443611.12605      2827.124           0.000           0.0000 
         0.000  
  19761574.827   105822335.60807     -1389.472    19761577.237    82306267.22407
     -1080.702  
  19831914.084   106012942.51208      1550.637    19831919.784    82454537.83705
      1206.047  
  20348156.112   108810733.65408      -743.492    20348160.173    84630587.03607
      -578.222  
  21187357.455   113338067.60806     -3634.991    21187362.758    88151853.52605
     -2827.223  
  22256968.170   119101532.86805      3063.191    22256971.420    92634547.73004
      2382.477  
 20 09 26 07 28 15.0000000  0 14G15G20G18G24G 8G21G10G13R10R 8R 1R24
                                R23R17
  20799103.850   109300026.44448     -2087.258    20799102.055    85168845.29846
     -1626.433  
  20213779.039   106224122.08548      1186.324    20213774.947    82772030.01246
       924.406  
  21014473.355   110431803.49249     -2084.676    21014471.770    86050748.93547
     -1624.425  
  21406246.404   112490587.38448      2363.710    21406247.269    87655020.20347
      1841.851  
  24725050.355   129931010.85845       903.563    24725055.140   101244938.35743
       704.081  
  25160540.158   132219527.62446      2906.738    25160538.257   103028192.70643
      2264.988  
  22583506.312   118677131.95748      2803.414    22583508.001    92475695.10047
      2184.472  
  23146961.747   121638079.50246     -3327.066    23146959.328    94782929.87541
     -2592.531  
  21654277.363   115429474.92605      2825.909           0.000           0.0000 
         0.000  
  19762871.899   105829281.46707     -1389.788    19762874.342    82311669.55807
     -1080.948  
  19830463.602   106005188.69808      1550.183    19830469.306    82448507.10605
      1205.699  
  20348852.402   108814456.77608      -746.555    20348856.499    84633482.80207
      -580.651  
  21190755.587   113356244.76006     -3636.129    21190760.879    88165991.32605
     -2828.104  
  22254105.821   119086217.07905      3061.495    22254108.767    92622635.45204
      2381.164  
 20 09 26 07 28 20.0000000  0 14G15G20G18G24G 8G21G10G13R10R 8R 1R24
                                R23R17
  20801090.881   109310468.58249     -2090.027    20801089.070    85176982.04046
     -1628.594  
  20212651.392   106218196.32448      1183.515    20212647.383    82767412.54445
       922.219  
  21016458.195   110442234.08249     -2087.922    21016456.651    86058876.65747
     -1626.956  
  21403998.855   112478776.52648      2360.245    21403999.662    87645816.94147
      1839.152  
  24724192.128   129926501.15845       899.898    24724197.009   101241424.30044
       701.362  
  25157774.952   132204996.46546      2905.112    25157773.584   103016869.67641
      2263.706  
  22580839.707   118663118.47549      2801.831    22580841.295    92464775.51347
      2183.246  
  23150128.170   121654719.00946     -3328.706    23150126.238    94795895.87641
     -2593.789  
  21651628.452   115415354.11405      2822.125           0.000           0.0000 
         0.000  
  19764170.767   105836236.65807     -1392.441    19764173.124    82317079.15907
     -1083.011  
  19829014.911   105997444.67808      1547.223    19829020.589    82442483.97905
      1203.395  
  20349552.825   108818202.16208      -751.938    20349556.955    84636395.86707
      -584.844  
  21194156.101   113374434.65606     -3639.960    21194161.292    88180138.97705
     -2831.089  
  22251246.632   119070916.29204      3058.370    22251248.835    92610734.91104
      2378.741  
 20 09 26 07 28 25.0000000  0 14G15G20G18G24G 8G21G10G13R10R 8R 1R24
                                R23R17
  20803080.680   109320925.29649     -2092.422    20803078.860    85185130.11947
     -1630.460  
  20211526.636   106212285.87948      1180.788    20211522.647    82762807.00045
       920.093  
  21018446.439   110452682.56249     -2091.254    21018444.929    86067018.32647
     -1629.550  
  21401754.694   112466983.47648      2357.175    21401755.453    87636627.56347
      1836.761  
  24723337.554   129922010.40346       896.397    24723342.069   101237925.02445
       698.492  
  25155011.483   132190474.11645      2903.543    25155009.885   103005553.57143
      2262.491  
  22578174.739   118649113.56949      2800.406    22578176.212    92453862.59747
      2182.129  
  23153296.278   121671366.93747     -3330.012    23153293.657    94808868.30143
     -2594.809  
  21648983.139   115401253.70405      2818.137           0.000           0.0000 
         0.000  
  19765472.239   105843206.07307     -1395.125    19765474.494    82322499.81806
     -1085.097  
  19827568.911   105989715.19608      1544.780    19827574.604    82436472.14905
      1201.492  
  20350258.309   108821974.66808      -757.004    20350262.462    84639330.03707
      -588.784  
  21197559.907   113392642.19106     -3643.261    21197565.099    88194300.40705
     -2833.648  
  22248391.174   119055635.72305      3054.093    22248392.915    92598850.00204
      2375.402  
 20 09 26 07 28 30.0000000  0 14G15G20G18G24G 8G21G10G13R10R 8R 1R24
                                R23R17
  20805072.524   109331392.63649     -2094.448    20805070.760    85193286.48946
     -1632.039  
  20210404.105   106206387.00148      1178.698    20210400.198    82758210.48045
       918.469  
  21020437.366   110463145.11149     -2093.706    21020435.906    86075170.98147
     -1631.461  
  21399513.228   112455204.55748      2354.644    21399513.908    87627449.18647
      1834.788  
  24722486.043   129917535.06046       894.184    24722490.531   101234437.74343
       696.761  
  25152248.893   132175956.73446      2903.305    25152249.115   102994241.24043
      2262.304  
  22575510.621   118635113.43949      2799.671    22575512.012    92442953.36147
      2181.562  
  23156465.279   121688019.61745     -3330.449    23156462.226    94821844.49941
     -2595.145  
  21646341.022   115387169.92205      2815.515           0.000           0.0000 
         0.000  
  19766775.659   105850185.92407     -1396.996    19766777.938    82327928.61607
     -1086.551  
  19826124.957   105981996.56108      1542.585    19826130.637    82430468.76905
      1199.784  
  20350968.122   108825770.48308      -761.308    20350972.325    84642282.35507
      -592.128  
  21200966.467   113410863.73906     -3645.172    21200971.409    88208472.71505
     -2835.136  
  22245538.710   119040371.42405      3050.972    22245540.285    92586977.69504
      2372.965  
 20 09 26 07 28 35.0000000  0 13G15G20G18G24G 8G10G13R10R 8R 1R24R23
                                R17
  20807066.296   109341870.00649     -2096.249    20807064.581    85201450.69746
     -1633.441  
  20209283.603   106200499.12948      1176.613    20209279.739    82753622.51046
       916.835  
  21022430.882   110473621.20149     -2096.413    21022429.435    86083334.14947
     -1633.574  
  21397274.348   112443439.25448      2351.878    21397274.979    87618281.42547
      1832.632  
  24721637.440   129913074.52446       890.449    24721641.499   101230962.03943
       693.855  
  22572847.362   118621117.51549      2798.852    22572848.620    92432047.46647
      2180.921  
  23159634.997   121704676.38047     -3331.609    23159631.704    94834823.69941
     -2596.055  
  21643701.903   115373102.02605      2812.233           0.000           0.0000 
         0.000  
  19768080.867   105857175.59607     -1398.425    19768083.232    82333365.02507
     -1087.664  
  19824682.904   105974288.20908      1540.921    19824688.620    82424473.40205
      1198.496  
  20351682.203   108829589.06108      -765.921    20351686.391    84645252.34107
      -595.722  
  21204375.228   113429098.49806     -3648.257    21204380.103    88222655.35104
     -2837.531  
  22242689.128   119025122.67405      3048.522    22242690.538    92575117.63604
      2371.077  
 20 09 26 07 28 40.0000000  0 15G15G20G18G24G 8G21G10G13R10R 8R 7R 1
                                R24R23R17
  20809061.394   109352354.25449     -2098.145    20809059.621    85209620.20846
     -1634.925  
  20208164.615   106194619.05848      1174.562    20208160.878    82749040.65346
       915.241  
  21024426.322   110484107.59249     -2098.972    21024424.983    86091505.36547
     -1635.563  
  21395037.459   112431684.32448      2349.374    21395038.040    87609121.75447
      1830.683  
  24720790.941   129908625.48545       887.878    24720795.073   101227495.25244
       691.855  
  25146725.361   132146933.75355      2901.102    25146722.620   102971629.48251
      2260.430  
  22570184.271   118607122.59649      2798.285    22570185.377    92421142.33847
      2180.476  
  23162804.912   121721333.98846     -3331.968    23162801.019    94847803.54641
     -2596.354  
  21641065.196   115359046.79604      2809.191           0.000           0.0000 
         0.000  
  19769387.360   105864171.71507     -1400.401    19769389.730    82338806.44907
     -1089.206  
  23032909.480   123296967.31414     -3431.895           0.000           0.0000 
         0.000  
  19823242.152   105966586.81208      1538.906    19823247.988    82418483.42305
      1196.922  
  20352399.898   108833427.05308      -770.144    20352404.059    84648237.43007
      -599.003  
  21207785.931   113447343.36806     -3650.133    21207790.732    88236845.75505
     -2839.000  
  22239841.860   119009886.36605      3045.390    22239843.267    92563267.16104
      2368.640  
 20 09 26 07 28 45.0000000  0 15G15G20G18G24G 8G21G10G13R10R 8R 7R 1
                                R24R23R17
  20811059.323   109362853.29049     -2100.984    20811057.503    85217801.29646
     -1637.128  
  20207048.555   106188754.74648      1171.414    20207044.967    82744471.09046
       912.792  
  21026425.257   110494612.25049     -2102.663    21026423.996    86099690.80247
     -1638.445  
  21392804.027   112419947.74448      2345.608    21392804.625    87599976.35647
      1827.741  
  24719948.055   129904195.90545       884.359    24719951.730   101224043.49643
       689.027  
  25143965.565   132132431.05446      2899.723    25143962.411   102960328.66643
      2259.507  
  22567522.904   118593136.70249      2796.512    22567523.927    92410244.23947
      2179.102  
  23165976.373   121738000.44246     -3334.094    23165972.249    94860790.48441
     -2597.987  
  21638432.376   115345012.54404      2805.104           0.000           0.0000 
         0.000  
  19770696.619   105871182.67107     -1403.386    19770698.978    82344259.42007
     -1091.522  
  23036116.172   123314133.20405     -3433.723           0.000           0.0000 
         0.000  
  19821804.224   105958900.54708      1535.804    19821810.135    82412505.21205
      1194.515  
  20353122.776   108837292.63908      -775.608    20353126.884    84651244.00307
      -603.250  
  21211200.109   113465606.35306     -3654.383    21211204.717    88251050.24805
     -2842.304  
  22236998.426   118994670.73404      3040.718    22236999.675    92551432.81504
      2365.003  
 20 09 26 07 28 50.0000000  0 15G15G20G18G24G 8G21G10G13R10R 8R 7R 1
                                R24R23R17
  20813059.311   109373363.20149     -2102.444    20813057.441    85225990.83146
     -1638.272  
  20205934.775   106182902.23248      1170.034    20205931.283    82739910.67746
       911.714  
  21028426.925   110505131.21349     -2104.608    21028425.725    86107887.39147
     -1639.960  
  21390573.314   112408225.51848      2343.577    21390573.958    87590842.18047
      1826.164  
  24719108.246   129899782.02445       881.945    24719111.694   101220604.18843
       687.367  
  25141206.810   132117933.63246      2899.594    25141204.009   102949032.00343
      2259.422  
  22564862.472   118579155.82249      2796.151    22564863.428    92399350.06547
      2178.819  
  23169148.950   121754671.75846     -3334.304    23169144.809    94873781.11941
     -2598.160  
  21635802.605   115330995.25904      2802.241           0.000           0.0000 
         0.000  
  19772007.792   105878204.19507     -1404.852    19772010.239    82349720.59107
     -1092.667  
  23039323.485   123331301.61005     -3433.612           0.000           0.0000 
         0.000  
  19820368.382   105951225.24008      1534.530    19820374.409    82406535.53305
      1193.520  
  20353850.023   108841181.74008      -779.546    20353854.090    84654268.85707
      -606.316  
  21214616.758   113483883.37406     -3655.987    21214621.409    88265265.75505
     -2843.542  
         0.000           0.0000          0.000    22234159.449    92539593.41115
      2363.602  
 20 09 26 07 28 55.0000000  0 15G15G20G18G24G 8G21G10G13R10R 8R 7R 1
                                R24R23R17
  20815061.055   109383882.24949     -2105.304    20815059.231    85234187.48646
     -1640.500  
  20204822.903   106177059.80448      1166.887    20204819.581    82735358.13045
       909.258  
  21030430.986   110515662.71849     -2108.136    21030429.841    86116093.75547
     -1642.706  
  21388345.022   112396515.92448      2340.063    21388345.676    87581717.83047
      1823.425  
  24718270.928   129895382.04145       877.480    24718274.125   101217175.57941
       683.757  
  25138448.672   132103439.64745      2897.347    25138446.333   102937738.00244
      2257.663  
  22562202.643   118565178.23248      2794.511    22562203.549    92388458.43347
      2177.539  
  23172322.007   121771346.16106     -3335.715           0.000           0.0000 
         0.000  
  21633175.717   115316992.81304      2798.949           0.000           0.0000 
         0.000  
  19773320.689   105885234.60207     -1407.801    19773323.189    82355188.70007
     -1094.956  
  23042530.736   123348470.33904     -3434.605           0.000           0.0000 
         0.000  
  19818934.215   105943559.23508      1531.897    19818940.378    82400573.09205
      1191.476  
  20354581.319   108845092.62008      -785.113    20354585.344    84657310.64307
      -610.647  
  21218035.685   113502172.63606     -3659.742    21218040.330    88279490.75205
     -2846.460  
  22231320.479   118964285.48515      3034.754    22231321.900    92527783.43304
      2360.367  
 20 09 26 07 29  0.0000000  0 15G15G20G18G24G 8G21G10G13R10R 8R 7R 1
                                R24R23R17
  20817065.941   109394417.80949     -2108.538    20817064.120    85242397.01246
     -1643.020  
  20203714.386   106171234.91448      1163.277    20203711.160    82730819.23745
       906.445  
  21032438.856   110526214.20849     -2112.155    21032437.777    86124315.69747
     -1645.835  
  21386120.544   112384826.30448      2336.090    21386121.184    87572609.03247
      1820.328  
  24717437.663   129891003.20746       873.539    24717441.437   101213763.51541
       680.702  
  25135692.560   132088956.55446      2896.304    25135690.782   102926452.48143
      2256.851  
  22559544.853   118551211.45248      2792.245    22559545.732    92377575.23947
      2175.776  
  23175497.075   121788031.09746     -3338.055    23175492.096    94899766.35553
     -2601.120  
  21630553.181   115303013.15404      2793.883           0.000           0.0000 
         0.000  
  19774636.640   105892281.39907     -1411.051    19774639.167    82360669.54407
     -1097.483  
  23045739.766   123365647.40405     -3436.316           0.000           0.0000 
         0.000  
  19817503.249   105935910.11808      1528.230    19817509.489    82394623.77505
      1188.620  
  20355318.105   108849032.76408      -790.862    20355322.111    84660375.20007
      -615.090  
  21221458.342   113520481.66807     -3663.284    21221462.986    88293731.10305
     -2849.223  
  22228487.099   118949123.59005      3030.355    22228488.667    92515990.82505
      2356.941  
 20 09 26 07 29  5.0000000  0 14G15G20G18G24G 8G21G10G13R10R 8R 7R 1
                                R24R23
  20819072.549   109404962.38748     -2109.554    20819070.702    85250613.56846
     -1643.808  
  20202607.772   106165420.02548      1162.421    20202604.646    82726288.15546
       905.781  
  21034449.097   110536778.16049     -2113.801    21034448.088    86132547.33747
     -1647.121  
  21383898.458   112373149.35348      2334.551    21383899.107    87563510.12147
      1819.128  
  24716607.069   129886638.15645       872.063    24716610.481   101210362.10843
       679.430  
  25132937.195   132074477.01545      2896.612    25132935.558   102915169.67244
      2257.093  
  22556887.638   118537247.84949      2792.762    22556888.523    92366694.50947
      2176.180  
  23178672.673   121804719.07546     -3337.195    23178667.711    94912769.90441
     -2600.430  
  21627933.410   115289048.86204      2790.270           0.000           0.0000 
         0.000  
  19775954.208   105899337.04007     -1411.729    19775956.795    82366157.26406
     -1098.011  
  23048949.008   123382824.85205     -3434.957           0.000           0.0000 
         0.000  
  19816074.025   105928270.15908      1527.358    19816080.306    82388681.58005
      1187.941  
  20356058.960   108852994.60608      -794.288    20356062.886    84663456.64707
      -617.781  
  21224883.126   113538802.86306     -3665.078    21224887.908    88307980.88205
     -2850.625  
 20 09 26 07 29 10.0000000  0 15G15G20G18G24G 8G21G10G13R10R 8R 7R 1
                                R24R23R17
  20821080.684   109415515.24048     -2111.917    20821078.846    85258836.58346
     -1645.647  
  20201502.941   106159614.38048      1159.563    20201499.914    82721764.27446
       903.550  
  21036461.566   110547353.81849     -2116.938    21036460.592    86140788.10947
     -1649.566  
  21381678.593   112361484.19548      2331.077    21381679.236    87554420.37347
      1816.422  
  24715778.853   129882286.12945       868.530    24715782.170   101206970.87943
       676.777  
  25130182.326   132060000.11245      2894.285    25130181.576   102903889.07544
      2255.297  
  22554230.957   118523286.77249      2791.445    22554231.784    92355815.76047
      2175.151  
  23181848.786   121821409.34905     -3338.855           0.000           0.0000 
         0.000  
  21625316.350   115275098.49204      2787.784           0.000           0.0000 
         0.000  
  19777273.244   105906400.67007     -1414.367    19777275.909    82371651.20007
     -1100.063  
  23052158.178   123400002.09904     -3436.016           0.000           0.0000 
         0.000  
  19814646.384   105920638.66508      1524.780    19814652.724    82382745.98105
      1185.941  
  20356803.713   108856977.32408      -799.172    20356807.632    84666554.29507
      -621.581  
  21228310.034   113557135.38306     -3668.194    21228314.900    88322239.52305
     -2853.038  
  22222828.895   118918848.55515      3024.468    22222831.806    92492447.70916
      2352.363  
 20 09 26 07 29 15.0000000  0 15G15G20G18G24G 8G21G10G13R10R 8R 7R 1
                                R24R23R17
  20823091.086   109426079.81649     -2113.562    20823089.222    85267068.70546
     -1646.937  
  20200400.587   106153821.49948      1158.066    20200397.668    82717250.35446
       902.390  
  21038476.928   110557944.64649     -2119.129    21038475.990    86149040.70047
     -1651.273  
  21379461.643   112349834.38948      2329.008    21379462.327    87545342.62447
      1814.812  
  24714953.821   129877950.58846       866.073    24714956.323   101203592.54644
       674.854  
  25127428.563   132045529.36346      2893.820    25127427.717   102892613.11043
      2254.913  
  22551575.392   118509331.68149      2790.933    22551576.188    92344941.66547
      2174.753  
  23185025.951   121838105.33845     -3339.437    23185020.933    94938783.19052
     -2602.159  
  21622702.578   115261166.21104      2784.461           0.000           0.0000 
         0.000  
  19778594.407   105913475.68807     -1415.539    19778597.168    82377154.00907
     -1100.976  
  23055367.852   123417182.61204     -3436.137           0.000           0.0000 
         0.000  
  19813221.057   105913019.22308      1523.249    19813227.342    82376819.74705
      1184.745  
  20357553.070   108860984.56508      -803.391    20357556.999    84669671.04007
      -624.863  
  21231739.655   113575482.82406     -3669.796    21231744.656    88336509.72805
     -2854.293  
  22220002.882   118903733.02005      3022.019    22220008.503    92480691.18006
      2350.460  
 20 09 26 07 29 20.0000000  0 14G15G20G18G24G 8G21G10G13R10R 8R 1R24
                                R23R17
  20825103.247   109436653.63948     -2115.354    20825101.326    85275308.05946
     -1648.328  
  20199300.193   106148038.89348      1155.848    20199297.304    82712744.42145
       900.655  
  21040494.694   110568548.11049     -2121.671    21040493.768    86157303.13347
     -1653.253  
  21377247.152   112338197.41148      2326.410    21377247.815    87536274.84947
      1812.788  
  24714131.593   129873629.09545       862.938    24714133.761   101200225.13844
       672.176  
  25124675.478   132031062.24345      2893.320    25124675.043   102881340.05643
      2254.530  
  22548920.440   118495380.06448      2790.180    22548921.286    92334070.28447
      2174.163  
  23188203.513   121854804.44745     -3339.769    23188199.148    94951795.44943
     -2602.418  
  21620091.571   115247249.29204      2782.750           0.000           0.0000 
         0.000  
  19779917.361   105920559.86007     -1417.772    19779920.069    82382663.90707
     -1102.714  
  19811797.449   105905409.22408      1521.289    19811803.744    82370900.86605
      1183.226  
  20358306.545   108865013.61408      -807.671    20358310.460    84672804.74907
      -628.188  
  21235171.699   113593842.63305     -3672.284    21235176.744    88350789.60105
     -2856.223  
  22217181.730   118888632.68605      3018.551    22217187.023    92468946.51906
      2347.765  
 20 09 26 07 29 25.0000000  0 14G15G20G18G24G 8G21G10G13R10R 8R 1R24
                                R23R17
  20827116.705   109447234.21248     -2117.297    20827114.778    85283552.65246
     -1649.843  
  20198201.248   106142264.02448      1153.577    20198198.346    82708244.53045
       898.890  
  21042514.366   110579161.71649     -2124.249    21042513.509    86165573.47847
     -1655.261  
  21375034.687   112326570.92148      2323.632    21375035.324    87527215.25747
      1810.620  
  24713311.443   129869319.17845       860.519    24713313.787   101196866.82243
       670.538  
  25121922.629   132016596.33045      2892.969    25121922.623   102870067.98344
      2254.269  
  22546265.625   118481429.44948      2789.362    22546266.603    92323199.67847
      2173.530  
  23191381.359   121871504.38645     -3340.629    23191377.023    94964808.44241
     -2603.082  
  21617483.057   115233345.13403      2778.422           0.000           0.0000 
         0.000  
  19781241.505   105927650.37108     -1419.331    19781244.075    82388178.75407
     -1103.925  
  19810375.128   105897806.16408      1519.331    19810381.412    82364987.37505
      1181.699  
  20359063.619   108869061.93108      -812.038    20359067.509    84675953.44207
      -631.585  
  21238605.500   113612211.93205     -3675.621    21238610.684    88365076.83505
     -2858.816  
  22214363.018   118873544.81005      3015.468    22214368.057    92457211.51006
      2345.362  
 20 09 26 07 29 30.0000000  0 14G15G20G18G24G 8G21G10G13R10R 8R 1R24
                                R23R17
  20829131.018   109457819.46748     -2118.004    20829129.127    85291800.88746
     -1650.398  
  20197103.378   106136494.89348      1152.707    20197100.495    82703749.10646
       898.215  
  21044535.605   110589783.46249     -2125.719    21044534.797    86173850.16147
     -1656.405  
  21372823.795   112314952.82348      2322.253    21372824.404    87518162.19147
      1809.546  
  24712493.202   129865018.72945       858.855    24712495.550   101193515.74741
       669.226  
  25119169.615   132002129.77045      2892.808    25119169.964   102858795.33442
      2254.137  
  22543610.659   118467477.82248      2789.886    22543611.724    92312328.26747
      2173.934  
  23194558.931   121888202.92145     -3339.992    23194554.554    94977820.33743
     -2602.581  
  21614876.831   115219451.85804      2776.906           0.000           0.0000 
         0.000  
  19782566.464   105934745.24907     -1419.913    19782568.889    82393696.99507
     -1104.383  
  19808953.755   105890207.92608      1518.671    19808959.989    82359077.63405
      1181.188  
  20359823.905   108873127.61908      -815.499    20359827.805    84679115.64007
      -634.281  
  21242040.719   113630589.13405     -3676.805    21242046.113    88379370.20605
     -2859.742  
  22211545.506   118858467.45505      3013.984    22211550.518    92445484.65806
      2344.207  
 20 09 26 07 29 35.0000000  0 15G15G20G18G24G 8G27G21G10G13R10R 8R 1
                                R24R23R17
  20831148.484   109468421.38548     -2123.535    20831146.622    85300062.13146
     -1654.702  
  20196008.884   106130743.54048      1146.918    20196005.995    82699267.53146
       893.703  
  21046560.660   110600425.32249     -2131.734    21046559.874    86182142.51247
     -1661.094  
  21370616.781   112303355.10848      2315.940    21370617.412    87509125.01947
      1804.628  
  24711679.009   129860739.83645       852.292    24711681.440   101190181.60244
       664.133  
  23969582.424   125961005.65055      -994.429    23969583.611    98151436.45554
      -774.883  
  25116418.681   131987674.26145      2888.664    25116419.535   102847531.28643
      2250.905  
  22540957.776   118453537.20048      2785.601    22540958.966    92301465.44647
      2170.594  
  23197738.454   121904912.17804     -3344.586           0.000           0.0000 
         0.000  
  21612274.672   115205581.57303      2770.296           0.000           0.0000 
         0.000  
  19783894.497   105941856.68108     -1425.207    19783896.810    82399228.11207
     -1108.495  
  19807535.534   105882626.66008      1513.117    19807541.705    82353181.09805
      1176.867  
  20360589.697   108877222.77808      -823.316    20360593.597    84682300.76107
      -640.359  
  21245479.683   113648986.11505     -3682.930    21245485.193    88393678.98305
     -2864.499  
  22208732.162   118843412.84105      3007.043    22208737.245    92433775.49806
      2338.809  
 20 09 26 07 29 40.0000000  0 16G15G20G18G24G 8G27G21G10G13R10R 8R 7
                                R 1R24R23R17
  20833170.335   109479046.28448     -2125.082    20833168.479    85308341.26446
     -1655.909  
  20194918.958   106125016.28448      1145.148    20194916.097    82694804.73646
       892.324  
  21048590.748   110611093.63049     -2134.121    21048589.978    86190455.48047
     -1662.953  
  21368414.844   112291784.07148      2313.617    21368415.480    87500108.63447
      1802.819  
  24710870.107   129856488.71345       849.534    24710872.605   101186869.02844
       661.866  
  23970531.514   125965987.33945      -997.164    23970531.490    98155318.26744
      -777.019  
  25113671.084   131973236.45145      2887.840    25113671.998   102836281.05045
      2250.261  
  22538308.202   118439613.87848      2785.269    22538309.439    92290616.11047
      2170.340  
  23200921.318   121921638.33305     -3344.320           0.000           0.0000 
         0.000  
  21609677.879   115191740.79904      2767.175           0.000           0.0000 
         0.000  
  19785226.816   105948991.25008     -1426.870    19785229.095    82404777.22007
     -1109.793  
  23071417.558   123503104.53913     -3439.077           0.000           0.0000 
         0.000  
  19806121.677   105875068.90508      1511.410    19806127.788    82347302.84505
      1175.542  
  20361362.223   108881353.82008      -827.554    20361366.080    84685513.80507
      -643.652  
  21248923.665   113667409.47405     -3685.098    21248929.261    88408008.26605
     -2866.188  
  22205924.055   118828387.46405      3003.750    22205929.470    92422089.09906
      2336.250  
 20 09 26 07 29 45.0000000  0 15G15G20G18G24G 8G27G21G10G13R10R 8R 1
                                R24R23R17
  20835192.512   109489672.92548     -2125.676    20835190.645    85316621.75846
     -1656.375  
  20193829.591   106119291.87148      1144.362    20193826.776    82690344.14946
       891.706  
  21050621.840   110621767.12149     -2135.312    21050621.097    86198772.48047
     -1663.883  
  21366213.985   112280218.60248      2312.562    21366214.618    87491096.59547
      1801.996  
  24710062.407   129852244.09945       848.065    24710064.848   101183561.52344
       660.831  
  23971481.372   125970975.74945      -998.979    23971480.401    98159205.30644
      -778.437  
  25110922.821   131958794.82145      2888.711    25110924.236   102825027.83144
      2250.940  
  22535657.864   118425686.66448      2785.733    22535659.133    92279763.73547
      2170.699  
  23204103.381   121938360.31545     -3343.730    23204099.849    95016914.03751
     -2605.503  
  21607082.711   115177907.81003      2766.266           0.000           0.0000 
         0.000  
  19786559.487   105956127.17208     -1427.422    19786561.633    82410327.38207
     -1110.218  
  19804708.205   105867513.14908      1510.754    19804714.245    82341426.14505
      1175.026  
  20362137.373   108885499.17708      -830.563    20362141.222    84688737.96907
      -645.995  
  21252368.513   113685837.39905     -3686.320    21252374.141    88422341.08205
     -2867.141  
  22203117.419   118813369.55605      3002.156    22203123.128    92410408.50606
      2335.008  
 20 09 26 07 29 50.0000000  0 15G15G20G18G24G 8G27G21G10G13R10R 8R 1
                                R24R23R17
  20837216.182   109500307.50848     -2128.093    20837214.322    85324908.44246
     -1658.258  
  20192741.955   106113576.49348      1141.938    20192739.216    82685890.61846
       889.819  
  21052655.088   110632452.01049     -2138.429    21052654.377    86207098.35947
     -1666.313  
  21364015.333   112268664.85848      2309.253    21364016.007    87482093.68447
      1799.418  
  24709257.184   129848012.37145       845.000    24709259.458   101180264.02344
       658.422  
  23972433.382   125975977.09545     -1001.753    23972432.979    98163102.48545
      -780.586  
  25108175.136   131944355.79645      2886.898    25108176.681   102813776.71243
      2249.546  
  22533007.964   118411761.78348      2784.406    22533009.293    92268913.17947
      2169.664  
  23207285.905   121955084.27845     -3345.352    23207285.476    95029945.49244
     -2606.797  
  21604490.227   115164089.16203      2762.390           0.000           0.0000 
         0.000  
  19787893.551   105963270.93208     -1430.054    19787895.648    82415883.63107
     -1112.269  
  19803296.315   105859965.69508      1508.171    19803302.224    82335555.90205
      1173.019  
  20362916.370   108889665.16808      -835.277    20362920.231    84691978.18607
      -649.660  
  21255815.335   113704276.29006     -3689.433    21255821.069    88436682.41805
     -2869.563  
  22200313.419   118798365.63105      2999.284    22200319.274    92398738.79606
      2332.776  
 20 09 26 07 29 55.0000000  0 15G15G20G18G24G 8G27G21G10G13R10R 8R 1
                                R24R23R17
  20839241.987   109510953.15648     -2130.199    20839240.137    85333203.75046
     -1659.898  
  20191656.641   106107873.28548      1139.343    20191653.904    82681446.57146
       887.800  
  21054691.095   110643151.32849     -2141.226    21054690.428    86215435.49147
     -1668.491  
  21361819.473   112257125.81448      2306.520    21361820.234    87473102.23647
      1797.289  
  24708454.799   129843796.52845       842.109    24708457.380   101176978.99244
       656.137  
  23973388.480   125980994.42345     -1005.039    23973387.449    98167012.06844
      -783.156  
  25105428.608   131929922.25545      2885.895    25105430.159   102802529.81644
      2248.757  
  22530359.105   118397842.21648      2783.573    22530360.470    92258066.75147
      2169.015  
  23210469.365   121971813.09944     -3345.604    23210474.852    95042980.82941
     -2606.987  
  21601900.729   115150287.71403      2756.871           0.000           0.0000 
         0.000  
  19789229.641   105970425.25908     -1431.977    19789231.661    82421448.11207
     -1113.757  
  19801886.506   105852429.46108      1506.273    19801892.311    82329694.38805
      1171.543  
  20363699.775   108893854.79108      -840.141    20363703.672    84695236.77007
      -653.445  
  21259264.940   113722729.25905     -3691.925    21259270.677    88451034.74505
     -2871.500  
  22197512.627   118783378.74806      2995.784    22197518.603    92387082.34006
      2330.055  
 20 09 26 07 30  0.0000000  0 14G15G20G18G24G 8G27G21G10G13R 8R 1R24
                                R23R17
  20841269.853   109521609.75448     -2132.530    20841268.050    85341507.59145
     -1661.715  
  20190573.655   106102182.19048      1136.895    20190570.910    82677011.95446
       885.890  
  21056729.824   110653865.04549     -2144.309    21056729.182    86223783.84747
     -1670.890  
  21359626.410   112245601.44248      2303.312    21359627.218    87464122.20247
      1794.785  
  24707655.598   129839596.54744       837.844    24707657.710   101173706.35245
       652.871  
  23974346.393   125986027.63345     -1008.308    23974345.051    98170934.07146
      -785.694  
  25102683.063   131915494.35145      2884.539    25102684.342   102791287.21744
      2247.683  
  22527711.299   118383928.02748      2782.203    22527712.644    92247224.53547
      2167.944  
  23213653.578   121988547.03205     -3347.413           0.000           0.0000 
         0.000  
  19790567.758   105977590.53007     -1434.054    19790569.749    82427021.10707
     -1115.374  
  19800478.780   105844904.51508      1503.871    19800484.534    82323841.63205
      1169.676  
  20364487.599   108898068.01508      -845.034    20364491.542    84698513.71607
      -657.254  
  21262717.091   113741196.15605     -3694.566    21262722.889    88465397.88105
     -2873.550  
  22194714.877   118768408.92405      2992.230    22194720.893    92375439.14105
      2327.289  
 20 09 26 07 30  5.0000000  0 14G15G20G18G24G 8G27G21G10G13R 8R 1R24
                                R23R17
  20843300.098   109532278.76548     -2134.745    20843298.342    85349821.10947
     -1663.440  
  20189493.283   106096504.70348      1134.483    20189490.437    82672587.94345
       884.011  
  21058771.591   110664594.66549     -2147.179    21058770.942    86232144.57547
     -1673.133  
  21357436.472   112234093.46048      2300.457    21357437.343    87455154.93647
      1792.563  
  24706859.508   129835413.81145       834.973    24706861.646   101170447.04241
       650.629  
  23975307.424   125991078.44445     -1012.175    23975307.227    98174869.67444
      -788.723  
  25099938.915   131901073.44445      2884.530    25099940.169   102780050.10141
      2247.683  
  22525064.752   118370020.70149      2781.144    22525066.168    92236387.65747
      2167.125  
  23216839.116   122005287.27305     -3348.500           0.000           0.0000 
         0.000  
  19791908.085   105984768.01607     -1436.336    19791910.094    82432603.59307
     -1117.152  
  19799073.477   105837392.45808      1501.375    19799079.221    82317998.93105
      1167.733  
  20365280.176   108902306.62308      -849.933    20365284.174    84701810.40607
      -661.062  
  21266172.083   113759678.65905     -3698.022    21266177.996    88479773.15305
     -2876.245  
  22191920.864   118753457.72005      2988.948    22191926.634    92363810.40005
      2324.730  
 20 09 26 07 30 10.0000000  0 14G15G20G18G24G 8G27G21G10G13R 8R 1R24
                                R23R17
  20845332.308   109542958.00748     -2137.070    20845330.599    85358142.58146
     -1665.253  
  20188415.046   106090838.68148      1132.082    20188412.234    82668172.84946
       882.137  
  21060815.979   110675337.96949     -2150.085    21060815.338    86240515.97147
     -1675.395  
  21355249.216   112222599.47548      2297.304    21355250.152    87446198.59547
      1790.109  
  24706066.175   129831246.31844       832.152    24706068.862   101167199.60041
       648.426  
  23976271.282   125996144.27345     -1014.238    23976271.336    98178817.10445
      -790.312  
  25097195.601   131886657.54345      2882.206    25097197.327   102768817.06041
      2245.883  
  22522419.127   118356118.00749      2780.226    22522420.577    92225554.40647
      2166.410  
  23220025.310   122022031.83304     -3349.328           0.000           0.0000 
         0.000  
  19793250.284   105991955.39707     -1438.512    19793252.296    82438193.78707
     -1118.844  
  19797670.180   105829890.96908      1499.222    19797675.845    82312164.44205
      1166.062  
  20366077.002   108906568.11408      -854.609    20366081.090    84705124.91407
      -664.695  
  21269629.584   113778174.36206     -3700.499    21269635.572    88494158.72905
     -2878.167  
  22189129.995   118738522.86906      2985.550    22189135.460    92352194.40405
      2322.090  
 20 09 26 07 30 15.0000000  0 14G15G20G18G24G 8G27G21G10G13R 8R 1R24
                                R23R17
  20847366.841   109553649.36548     -2139.648    20847365.111    85366473.50746
     -1667.262  
  20187339.353   106085186.00348      1129.065    20187336.612    82663768.17045
       879.788  
  21062863.337   110686096.84449     -2153.488    21062862.722    86248899.51147
     -1678.046  
  21353065.019   112211121.44248      2293.953    21353066.003    87437254.68647
      1787.496  
  24705276.224   129827095.78645       827.980    24705279.355   101163965.51341
       645.199  
  23977238.199   126001227.36144     -1018.401    23977238.769    98182777.92345
      -793.562  
  25094453.616   131872248.31746      2881.301    25094455.436   102757589.00544
      2245.156  
  22519774.758   118342221.91349      2778.417    22519776.258    92214726.26747
      2164.996  
  23223212.934   122038782.53605     -3351.090           0.000           0.0000 
         0.000  
  19794594.808   105999154.89107     -1441.129    19794596.750    82443793.39007
     -1120.882  
  19796269.187   105822402.01208      1496.383    19796274.891    82306339.70805
      1163.851  
  20366878.503   108910854.53408      -860.055    20366882.678    84708458.79007
      -668.933  
  21273089.866   113796685.23005     -3703.882    21273095.932    88508556.04304
     -2880.800  
  22186342.362   118723606.31105      2981.440    22186347.759    92340592.64906
      2318.898  
 20 09 26 07 30 20.0000000  0 15G15G20G18G24G 8G27G21G10G13R10R 8R 1
                                R24R23R17
  20849403.584   109564352.30248     -2141.354    20849401.788    85374813.45346
     -1668.594  
  20186266.106   106079546.11348      1127.022    20186263.383    82659373.44346
       878.194  
  21064913.527   110696870.72749     -2155.772    21064912.929    86257294.73647
     -1679.827  
  21350883.767   112199658.91648      2291.445    21350884.795    87428322.84747
      1785.542  
  24704489.381   129822961.67945       825.566    24704492.290   101160744.11343
       643.289  
  23978208.160   126006326.94745     -1021.132    23978209.317    98186751.62244
      -795.690  
  25091712.912   131857845.38045      2880.758    25091714.595   102746365.93943
      2244.741  
  22517131.510   118328331.79849      2777.843    22517133.104    92203902.80747
      2164.555  
  23226401.543   122055538.69945     -3351.147    23226403.179    95108222.66753
     -2611.285  
  21589005.080   115081545.11714      2741.148           0.000           0.0000 
         0.000  
  19795941.412   106006365.92507     -1442.886    19795943.417    82449401.96107
     -1122.250  
  19794870.437   105814925.04808      1494.601    19794876.176    82300524.28605
      1162.464  
  20367684.661   108915165.23808      -864.184    20367688.802    84711811.56107
      -672.144  
  21276552.916   113815210.55104     -3705.703    21276559.065    88522964.61605
     -2882.222  
  22183558.256   118708707.52405      2977.883    22183563.324    92329004.66706
      2316.124  
 20 09 26 07 30 25.0000000  0 14G15G20G18G24G 8G21G10G13R10R 8R 1R24
                                R23R17
  20851442.785   109575068.09349     -2145.788    20851440.961    85383163.43046
     -1672.042  
  20185195.498   106073920.31247      1122.410    20185192.823    82654989.67945
       874.602  
  21066966.842   110707660.93649     -2160.980    21066966.246    86265702.69547
     -1683.886  
  21348705.700   112188213.19548      2286.050    21348706.771    87419404.10847
      1781.335  
  24703706.090   129818845.64445       819.276    24703709.260   101157536.76541
       638.852  
  25088973.533   131843450.03546      2876.766    25088975.687   102735148.81943
      2241.632  
  22514489.676   118314449.05249      2774.473    22514491.343    92193085.08147
      2161.921  
  23229591.387   122072301.81504     -3355.019           0.000           0.0000 
         0.000  
  21586436.431   115067852.52004      2735.359           0.000           0.0000 
         0.000  
  19797290.342   106013589.63307     -1447.081    19797292.478    82455020.41107
     -1125.508  
  19793474.191   105807461.40808      1490.070    19793479.857    82294719.22805
      1158.941  
  20368495.520   108919501.54508      -871.167    20368499.707    84715184.24807
      -677.577  
  21280018.777   113833751.82205     -3710.952    21280025.145    88537385.60405
     -2886.301  
  22180777.601   118693827.86706      2972.901    22180782.485    92317431.59705
      2312.250  
 20 09 26 07 30 30.0000000  0 15G15G20G18G24G 8G21G10G13R10R 8R 7R 1
                                R24R23R17
  20853485.782   109585803.93048     -2147.319    20853483.927    85391529.00546
     -1673.242  
  20184128.946   106068315.82648      1120.659    20184126.376    82650622.57246
       873.241  
  21069024.634   110718474.64849     -2162.964    21069024.070    86274128.95347
     -1685.430  
  21346532.218   112176791.43848      2283.940    21346533.324    87410504.04947
      1779.695  
  24702927.563   129814754.55446       817.926    24702930.422   101154348.96344
       637.352  
  25086237.064   131829069.54346      2876.063    25086240.552   102723943.30243
      2241.098  
  22511850.616   118300580.82749      2774.344    22511852.347    92182278.67547
      2161.827  
  23232783.937   122089078.93405     -3354.680           0.000           0.0000 
         0.000  
  21583872.754   115054186.83804      2732.465           0.000           0.0000 
         0.000  
  19798643.090   106020833.44108     -1448.789    19798645.315    82460654.48807
     -1126.836  
  23103556.009   123675146.86915     -3443.824           0.000           0.0000 
         0.000  
  19792081.815   105800018.45408      1488.586    19792087.477    82288930.26905
      1157.785  
  20369312.628   108923870.80408      -875.313    20369316.781    84718582.56307
      -680.797  
  21283489.022   113852316.38705     -3713.229    21283495.553    88551824.69504
     -2888.069  
  22178001.827   118678974.73606      2970.016    22178006.629    92305879.13405
      2310.003  
 20 09 26 07 30 35.0000000  0 15G15G20G18G24G 8G21G10G13R10R 8R 7R 1
                                R24R23R17
  20855528.628   109596538.93648     -2147.031    20855526.730    85399893.93946
     -1673.016  
  20183062.539   106062711.81848      1120.543    20183060.025    82646255.82146
       873.147  
  21071082.928   110729291.02549     -2163.688    21071082.375    86282557.30347
     -1685.995  
  21344359.364   112165372.91748      2283.293    21344360.483    87401606.50347
      1779.187  
  24702149.811   129810667.59445       817.347    24702152.789   101151164.34042
       636.898  
  25083499.350   131814682.88346      2877.918    25083501.882   102712732.81441
      2242.523  
  22509210.375   118286706.32549      2775.335    22509212.131    92171467.37347
      2162.594  
  23235975.363   122105849.27245     -3353.590    23235968.864    95147407.54853
     -2613.187  
  21581309.821   115040526.89704      2731.358           0.000           0.0000 
         0.000  
  19799995.705   106028076.13707     -1448.508    19799997.986    82466287.69207
     -1126.620  
  23106771.552   123692362.39404     -3442.511           0.000           0.0000 
         0.000  
  19790689.301   105792574.79308      1488.578    19790694.958    82283140.76405
      1157.780  
  20370131.901   108928251.88408      -877.691    20370136.078    84721990.05907
      -682.652  
  21286959.535   113870882.79405     -3714.094    21286966.246    88566265.25104
     -2888.733  
  22175227.008   118664126.80205      2968.543    22175231.845    92294330.76406
      2308.871  
 20 09 26 07 30 40.0000000  0 15G15G20G18G24G 8G21G10G13R10R 8R 7R 1
                                R24R23R17
  20857572.444   109607278.98448     -2150.409    20857570.516    85408262.80846
     -1675.647  
  20181997.252   106057114.10547      1117.011    20181994.850    82641893.95146
       870.395  
  21073142.829   110740115.84649     -2167.656    21073142.275    86290992.22047
     -1689.085  
  21342188.217   112153963.33748      2279.133    21342189.329    87392715.92947
      1775.948  
  24701373.962   129806590.54145       812.351    24701376.405   101148006.39654
       633.151  
  25080761.640   131800296.03145      2874.784    25080764.303   102701522.38643
      2240.101  
  22506570.037   118272831.35149      2773.120    22506571.849    92160655.70047
      2160.875  
  23239166.515   122122618.54804     -3355.316           0.000           0.0000 
         0.000  
  21578749.224   115026878.38104      2726.355           0.000           0.0000 
         0.000  
  19801349.106   106035323.56707     -1451.699    19801351.533    82471924.57407
     -1129.102  
  23109987.223   123709574.32104     -3444.000           0.000           0.0000 
         0.000  
  19789297.735   105785136.54408      1485.242    19789303.444    82277355.46505
      1155.188  
  20370954.406   108932650.56508      -883.484    20370958.649    84725411.24007
      -687.160  
  21290431.982   113889457.04104     -3717.710    21290438.458    88580711.90705
     -2891.554  
  22172454.428   118649290.04405      2964.378    22172459.110    92282791.07505
      2305.624  
 20 09 26 07 30 45.0000000  0 15G15G20G18G24G 8G21G10G13R10R 8R 7R 1
                                R24R23R17
  20859620.613   109618042.11848     -2153.030    20859618.705    85416649.67546
     -1677.691  
  20180936.631   106051540.78247      1114.171    20180934.313    82637551.10746
       868.184  
  21075207.795   110750967.25449     -2171.132    21075207.214    86299447.86147
     -1691.797  
  21340022.170   112142580.81148      2275.734    21340023.318    87383846.44447
      1773.301  
  24700603.421   129802541.66645       808.702    24700605.955   101144851.31341
       630.226  
  25078027.168   131785927.09146      2873.637    25078029.851   102690325.73143
      2239.199  
  22503933.062   118258974.01549      2771.558    22503934.880    92149857.78746
      2159.655  
  23242360.881   122139404.99004     -3357.453           0.000           0.0000 
         0.000  
  21576194.367   115013259.58805      2722.358           0.000           0.0000 
         0.000  
  19802706.880   106042594.26107     -1454.659    19802709.418    82477579.55307
     -1131.406  
  23113205.612   123726801.26605     -3444.995           0.000           0.0000 
         0.000  
  19787910.636   105777722.11308      1482.398    19787916.423    82271588.69405
      1152.977  
  20371783.721   108937085.31408      -888.812    20371787.949    84728860.49607
      -691.297  
  21293909.267   113908057.51504     -3721.148    21293915.616    88595178.95605
     -2894.227  
  22169687.158   118634483.04405      2959.949    22169691.991    92271274.51006
      2302.183  
 20 09 26 07 30 50.0000000  0 13G15G20G18G24G 8G21G10G13R 8R 7R 1R24
                                R17
  20861669.581   109628809.42748     -2154.195    20861667.708    85425039.78347
     -1678.594  
  20179877.036   106045972.88648      1113.043    20179874.787    82633212.49146
       867.304  
  21077274.208   110761826.26349     -2172.898    21077273.580    86307909.41147
     -1693.172  
  21337857.683   112131206.32148      2274.043    21337858.779    87374983.20847
      1771.979  
  24699834.638   129798502.02845       807.362    24699837.022   101141704.69154
       629.113  
  25075292.611   131771557.05546      2874.164    25075295.198   102679128.34644
      2239.609  
  22501295.822   118245115.38249      2771.695    22501297.633    92139058.85646
      2159.761  
  23245554.966   122156189.58404     -3357.554           0.000           0.0000 
         0.000  
  19804065.332   106049868.74007     -1455.367    19804068.060    82483237.50007
     -1131.952  
  23116423.887   123744023.88105     -3444.288           0.000           0.0000 
         0.000  
  19786524.456   105770312.18408      1481.457    19786530.241    82265825.41005
      1152.242  
  20372616.207   108941536.93108      -892.159    20372620.424    84732322.86507
      -693.905  
  22166922.001   118619686.37706      2958.219    22166926.839    92259765.97606
      2300.832  
 20 09 26 07 30 55.0000000  0 15G15G20G18G24G 8G21G10G13R10R 8R 7R 1
                                R24R23R17
  20863719.338   109639580.97048     -2155.059    20863717.526    85433433.19346
     -1679.269  
  20178818.505   106040410.61648      1111.449    20178816.337    82628878.25346
       866.063  
  21079342.102   110772692.96249     -2174.456    21079341.428    86316376.96247
     -1694.386  
  21335694.768   112119840.03248      2272.354    21335695.840    87366126.36347
      1770.667  
  24699067.568   129794471.57945       805.586    24699069.928   101138563.97641
       627.695  
  25072557.839   131757186.10746      2873.504    25072560.445   102667930.14842
      2239.086  
  22498658.389   118231255.54649      2771.819    22498660.208    92128258.98047
      2159.878  
  23248748.821   122172972.28104     -3356.890           0.000           0.0000 
         0.000  
  21571090.848   114986051.49115      2718.223           0.000           0.0000 
         0.000  
  19805424.490   106057147.22107     -1456.277    19805427.467    82488898.53707
     -1132.664  
  23119640.413   123761242.16204     -3444.026           0.000           0.0000 
         0.000  
  19785139.101   105762906.82608      1480.133    19785144.938    82260065.68305
      1151.210  
  20373451.816   108946005.33708      -895.949    20373456.007    84735798.28607
      -696.852  
  21300867.339   113945277.50715     -3723.766    21300873.951    88624131.39715
     -2896.270  
  22164158.740   118604900.29506      2955.628    22164163.577    92248265.71605
      2298.820  
 20 09 26 07 31  0.0000000  0 15G15G20G18G24G 8G21G10G13R10R 8R 7R 1
                                R24R23R17
  20865771.149   109650363.28248     -2157.563    20865769.406    85441834.98646
     -1681.219  
  20177762.362   106034860.48448      1108.574    20177760.199    82624553.48245
       863.819  
  21081412.728   110783573.89349     -2177.758    21081411.993    86324855.61147
     -1696.957  
  21333534.700   112108488.67548      2268.530    21333535.777    87357281.17447
      1767.688  
  24698303.580   129790456.98245       800.581    24698305.143   101135435.74844
       623.840  
  25069824.256   131742820.78046      2872.520    25069826.807   102656736.41641
      2238.328  
  22496021.985   118217401.08749      2770.234    22496023.770    92117463.30247
      2158.624  
  23251943.472   122189759.75505     -3358.258           0.000           0.0000 
         0.000  
  21568543.526   114972471.70705      2714.008           0.000           0.0000 
         0.000  
  19806785.699   106064436.46307     -1459.327    19806788.802    82494567.95007
     -1135.031  
  23122857.152   123778462.90105     -3444.434           0.000           0.0000 
         0.000  
  19783755.916   105755512.88008      1477.266    19783761.800    82254314.83805
      1148.984  
  20374291.902   108950497.31308      -900.710    20374295.993    84739292.05107
      -700.558  
  21304349.795   113963905.67704     -3727.538    21304356.262    88638619.98005
     -2899.194  
  22161398.800   118590131.36106      2952.405    22161403.493    92236778.74705
      2296.313  
 20 09 26 07 31  5.0000000  0 15G15G20G18G24G 8G21G10G13R10R 8R 7R 1
                                R24R23R17
  20867823.810   109661150.05748     -2157.655    20867822.153    85450240.26746
     -1681.293  
  20176707.322   106029316.15048      1108.328    20176705.131    82620233.22045
       863.633  
  21083484.873   110794462.74749     -2178.440    21083484.050    86333340.43347
     -1697.491  
  21331376.243   112097145.81548      2267.816    21331377.288    87348442.58347
      1767.129  
  24697541.279   129786451.84745       800.077    24697543.136   101132314.83241
       623.429  
  25067090.453   131728454.73945      2873.594    25067093.005   102645542.14244
      2239.163  
  22493385.381   118203545.67449      2771.308    22493387.127    92106666.87547
      2159.456  
  23255137.909   122206545.75604     -3356.655           0.000           0.0000 
         0.000  
  21565998.243   114958903.10505      2712.875           0.000           0.0000 
         0.000  
  19808147.688   106071729.75907     -1459.241    19808150.852    82500240.49807
     -1134.969  
  23126073.314   123795679.51505     -3442.836           0.000           0.0000 
         0.000  
  19782373.506   105748123.57208      1477.585    19782379.493    82248567.60005
      1149.233  
  20375135.152   108955006.42408      -903.434    20375139.181    84742799.13507
      -702.676  
  21307833.668   113982541.17005     -3727.647    21307839.863    88653114.21104
     -2899.288  
  22158640.869   118575373.18106      2950.234    22158645.493    92225300.19705
      2294.625  
 20 09 26 07 31 10.0000000  0 14G15G20G18G24G21G10G13R10R 8R 7R 1R24
                                R23R17
  20869878.591   109671948.15648     -2162.781    20869877.000    85458654.36646
     -1685.288  
  20175654.668   106023784.47748      1103.102    20175652.536    82615922.83245
       859.559  
  21085559.845   110805366.39049     -2184.301    21085558.935    86341836.77047
     -1702.055  
  21329220.697   112085818.37248      2262.066    21329221.718    87339616.01047
      1762.648  
  25064357.870   131714094.94845      2869.621    25064360.720   102634352.67641
      2236.054  
  22490749.938   118189696.20149      2767.358    22490751.637    92095875.07947
      2156.383  
  23258333.314   122223337.10004     -3360.973           0.000           0.0000 
         0.000  
  21563456.303   114945352.72705      2706.543           0.000           0.0000 
         0.000  
  19809511.804   106079034.47407     -1464.171    19809514.984    82505921.96407
     -1138.801  
  23129289.990   123812898.97905     -3446.383           0.000           0.0000 
         0.000  
  19780993.434   105740746.26508      1472.327    19780999.452    82242829.69305
      1145.140  
  20375982.900   108959539.68008      -911.109    20375986.919    84746324.98607
      -708.648  
  21311320.060   114001190.80205     -3732.711    21311326.181    88667619.49605
     -2903.215  
  22155886.258   118560632.79406      2944.003    22155890.847    92213835.42306
      2289.772  
 20 09 26 07 31 15.0000000  0 15G15G20G18G24G 8G21G10G13R10R 8R 7R 1
                                R24R23R17
  20871938.644   109682774.08948     -2165.602    20871937.149    85467090.14246
     -1687.484  
  20174607.596   106018282.04548      1099.952    20174605.492    82611635.23546
       857.104  
  21087640.764   110816301.32049     -2187.812    21087639.764    86350357.48347
     -1704.792  
  21327071.256   112074522.95448      2258.289    21327072.278    87330814.38247
      1759.703  
  24696029.290   129778509.29255       790.573    24696027.981   101126118.21154
       616.035  
  25061629.587   131699757.88146      2867.410    25061632.352   102623180.96543
      2234.340  
  22488118.731   118175869.20849      2765.612    22488120.432    92085100.79546
      2154.930  
  23261533.142   122240150.21603     -3361.827           0.000           0.0000 
         0.000  
  21560921.092   114931837.19005      2702.004           0.000           0.0000 
         0.000  
  19810881.142   106086367.15607     -1467.086    19810884.316    82511625.15506
     -1141.069  
  23132510.617   123830138.27705     -3446.929           0.000           0.0000 
         0.000  
  19779618.748   105733397.65508      1469.250    19779624.788    82237114.11105
      1142.750  
  20376838.330   108964113.83208      -916.668    20376842.309    84749882.66007
      -712.969  
  21314812.318   114019871.58804     -3736.504    21314818.366    88682149.00105
     -2906.171  
  22153138.162   118545927.08506      2939.851    22153142.647    92202397.66305
      2286.550  
 20 09 26 07 31 20.0000000  0 15G15G20G18G24G 8G27G21G10R10R 8R 7R 1
                                R24R23R17
  20873999.333   109693603.39848     -2166.284    20873997.910    85475528.58346
     -1688.015  
  20173561.467   106012784.34848      1099.226    20173559.362    82607351.29145
       856.535  
  21089722.968   110827243.03149     -2189.023    21089721.903    86358883.49447
     -1705.738  
  21324923.226   112063234.85748      2256.770    21324924.226    87322018.46747
      1758.522  
  24695278.066   129774562.02005       789.093           0.000           0.0000 
         0.000  
  23990077.779   126068709.09154     -1058.640    23990083.180    98235382.57556
      -824.926  
  25058901.000   131685419.09146      2867.683    25058902.757   102612007.82143
      2234.554  
  22485487.171   118162040.17449      2765.988    22485488.773    92074324.93846
      2155.316  
  21558387.661   114918331.60905      2700.348           0.000           0.0000 
         0.000  
  19812251.026   106093702.82207     -1467.285    19812254.114    82517330.65706
     -1141.226  
  23135730.134   123847372.47904     -3447.590           0.000           0.0000 
         0.000  
  19778244.756   105726052.69308      1468.395    19778250.762    82231401.36305
      1142.081  
  20377696.759   108968703.92308      -919.711    20377700.725    84753452.73707
      -715.331  
  21318305.498   114038558.24505     -3738.895    21318311.634    88696683.07604
     -2908.027  
  22150391.945   118531231.02306      2938.430    22150396.199    92190967.35005
      2285.438  
 20 09 26 07 31 25.0000000  0 14G15G20G18G24G 8G21G10R10R 8R 7R 1R24
                                R23R17
  20876061.181   109704438.82548     -2168.199    20876059.822    85483971.76846
     -1689.507  
  20172516.749   106007294.13048      1096.753    20172514.523    82603073.22345
       854.612  
  21091806.956   110838194.24349     -2191.831    21091805.871    86367416.90147
     -1707.926  
  21322777.158   112051957.00248      2254.144    21322778.144    87313230.52847
      1756.477  
  24694529.063   129770625.85705       786.608           0.000           0.0000 
         0.000  
  25056172.642   131671081.16246      2867.030    25056174.187   102600835.47041
      2234.059  
  22482855.707   118148211.83049      2764.926    22482857.205    92063549.60446
      2154.484  
  21555856.578   114904838.85105      2696.843           0.000           0.0000 
         0.000  
  19813622.126   106101044.65507     -1469.210    19813625.014    82523040.97006
     -1142.722  
  23138949.155   123864604.24604     -3446.871           0.000           0.0000 
         0.000  
  19776871.963   105718714.23408      1466.480    19776877.944    82225693.67405
      1140.597  
  20378558.705   108973312.76208      -924.257    20378562.684    84757037.38907
      -718.866  
  21321800.559   114057253.87104     -3740.479    21321806.501    88711224.05404
     -2909.273  
  22147648.003   118516547.54106      2934.520    22147652.088    92179546.89205
      2282.402  
