     2.11           OBSERVATION DATA    M                   RINEX VERSION / TYPE
LEICA GEO OFFICE 8.4                    1-10-20 22:39       PGM / RUN BY / DATE
                                                            OBSERVER / AGENCY
KUCH                                                        MARKER NAME
KUCH                                                        MARKER NUMBER
468588              LEICA GX1220GG      5.60                REC # / TYPE / VERS
                    LEIAX1202GG                             ANT # / TYPE
 -1265372.8433  3799786.9380  4948587.6037                  APPROX POSITION XYZ
        1.6800        0.0000        0.0000                  ANTENNA: DELTA H/E/N
L1PhaOff:   0.0644  L2PhaOff:   0.0640                      COMMENT
     1     1                                                WAVELENGTH FACT L1/2
     6    C1    L1    D1    P2    L2    D2                  # / TYPES OF OBSERV
  2020    10     1     7    25   10.0000000     GPS         TIME OF FIRST OBS
  2020    10     1     9     0   55.0000000     GPS         TIME OF LAST OBS
    18                                                      LEAP SECONDS
    21                                                      # OF SATELLITES
          C1    L1    D1    P2    L2    D2                  COMMENT
   G 1     0     0     0     0     0     0                  PRN / # OF OBS
   G 2     0     0     0     0     0     0                  PRN / # OF OBS
   G 3     0     0     0     0     0     0                  PRN / # OF OBS
   G 4     0     0     0     0     0     0                  PRN / # OF OBS
   G 5     0     0     0     0     0     0                  PRN / # OF OBS
   G 6     0     0     0     0     0     0                  PRN / # OF OBS
   G 7     0     0     0     0     0     0                  PRN / # OF OBS
   G 8   128   128   128   128   128   128                  PRN / # OF OBS
   G 9     0     0     0     0     0     0                  PRN / # OF OBS
   G10  1150  1150  1150  1150  1150  1150                  PRN / # OF OBS
   G11   135   135   135    81    81    81                  PRN / # OF OBS
   G12   262   262   262   260   260   260                  PRN / # OF OBS
   G13   111   111   111    92    92    92                  PRN / # OF OBS
   G14     0     0     0     0     0     0                  PRN / # OF OBS
   G15  1134  1134  1134  1132  1132  1132                  PRN / # OF OBS
   G16     0     0     0     0     0     0                  PRN / # OF OBS
   G17     0     0     0     0     0     0                  PRN / # OF OBS
   G18   798   798   798   773   773   773                  PRN / # OF OBS
   G19     0     0     0     0     0     0                  PRN / # OF OBS
   G20  1150  1150  1150  1150  1150  1150                  PRN / # OF OBS
   G21  1130  1130  1130  1129  1129  1129                  PRN / # OF OBS
   G22     0     0     0     0     0     0                  PRN / # OF OBS
   G23     0     0     0     0     0     0                  PRN / # OF OBS
   G24  1150  1150  1150  1150  1150  1150                  PRN / # OF OBS
   G25     0     0     0     0     0     0                  PRN / # OF OBS
   G26     0     0     0     0     0     0                  PRN / # OF OBS
   G27   223   223   223   223   223   223                  PRN / # OF OBS
   G28     0     0     0     0     0     0                  PRN / # OF OBS
   G29     0     0     0     0     0     0                  PRN / # OF OBS
   G30     0     0     0     0     0     0                  PRN / # OF OBS
   G31     0     0     0     0     0     0                  PRN / # OF OBS
   G32  1025  1025  1025  1024  1024  1024                  PRN / # OF OBS
   R 1     0     0     0     0     0     0                  PRN / # OF OBS
   R 2     0     0     0     0     0     0                  PRN / # OF OBS
   R 3     0     0     0     0     0     0                  PRN / # OF OBS
   R 4     0     0     0     0     0     0                  PRN / # OF OBS
   R 5  1150  1150  1150  1150  1150  1150                  PRN / # OF OBS
   R 6  1150  1150  1150     0     0     0                  PRN / # OF OBS
   R 7   882   882   882   832   832   832                  PRN / # OF OBS
   R 8     0     0     0     0     0     0                  PRN / # OF OBS
   R 9     0     0     0     0     0     0                  PRN / # OF OBS
   R10     0     0     0     0     0     0                  PRN / # OF OBS
   R11     0     0     0     0     0     0                  PRN / # OF OBS
   R12     0     0     0     0     0     0                  PRN / # OF OBS
   R13     0     0     0     0     0     0                  PRN / # OF OBS
   R14   346   346   346   341   341   341                  PRN / # OF OBS
   R15  1150  1150  1150  1150  1150  1150                  PRN / # OF OBS
   R16   814   814   814   804   804   804                  PRN / # OF OBS
   R17     0     0     0     0     0     0                  PRN / # OF OBS
   R18     0     0     0     0     0     0                  PRN / # OF OBS
   R19     0     0     0     0     0     0                  PRN / # OF OBS
   R20     0     0     0     0     0     0                  PRN / # OF OBS
   R21   976   976   976   977   977   977                  PRN / # OF OBS
   R22  1138  1138  1138  1089  1089  1089                  PRN / # OF OBS
   R23   287   287   287   283   283   283                  PRN / # OF OBS
   R24     0     0     0     0     0     0                  PRN / # OF OBS
                                                            END OF HEADER
 20 10 01 07 25 10.0000000  0 14G15G18G20G 8G24G27G10G13R14R15R 6R22
                                R 5R21
  21184161.691   111323520.18549     -2433.289    21184160.999    86745600.36849
     -1896.073  
  21490762.888   112934715.15948     -2615.065    21490763.278    88001075.50947
     -2037.719  
  20045377.987   105339178.14849       736.598    20045377.385    82082480.64748
       573.969  
  24671255.550   129648320.09355       220.073    24671260.823   101024687.90558
       171.500  
  20955267.502   110120696.22849      1735.063    20955269.701    85808356.85849
      1351.996  
  24291200.400   127651136.64745     -1578.726    24291202.933    99468402.62646
     -1230.180  
  22115099.512   116215639.94949      2621.727    22115101.619    90557643.01949
      2042.901  
  23743637.326   124773658.55055     -3455.270    23743633.602    97226209.62754
     -2692.418  
  21995720.617   117249578.67206     -1689.395    21995724.032    91194132.73704
     -1313.983  
  21161421.039   113080217.99908  -2097152.000    21161430.572    87951320.28507
  -2097152.000  
  20188882.668   107731765.11507      2065.938           0.000           0.0000 
         0.000  
  21895857.548   116881585.80816      2297.836           0.000           0.0000 
         0.000  
  20026218.512   107051613.75109     -1813.930    20026222.310    83262384.47808
     -1410.839  
  20674281.704   110632266.57608     -1613.246    20674285.096    86047328.32408
     -1254.750  
 20 10 01 07 25 15.0000000  0 14G15G18G20G 8G24G27G10G13R14R15R 6R22
                                R 5R21
  21186483.476   111335721.21549     -2445.167    21186482.852    86755107.65549
     -1905.328  
  21493258.129   112947827.80349     -2627.820    21493258.503    88011293.16347
     -2047.655  
  20044684.004   105335531.39849       723.921    20044683.470    82079639.02348
       564.089  
  24671053.863   129647256.00245       206.577    24671058.273   101023858.68347
       160.964  
  20953624.191   110112060.44649      1721.440    20953626.337    85801627.68349
      1341.382  
  24292710.030   127659068.86845     -1591.917    24292712.808    99474583.53147
     -1240.460  
  22112611.317   116202564.27249      2610.272    22112613.386    90547454.18349
      2033.980  
  23746931.417   124790968.43046     -3466.241    23746928.558    97239697.89143
     -2700.984  
  21997312.725   117258065.53306     -1703.593    21997317.038    91200733.64405
     -1325.015  
  21159387.570   113069351.75608  -2097152.000    21159397.105    87942868.77307
  -2097152.000  
  20186953.545   107721470.76108      2053.754           0.000           0.0000 
         0.000  
  21893713.563   116870139.20006      2283.012           0.000           0.0000 
         0.000  
  20027921.839   107060718.95209     -1826.272    20027925.702    83269466.30408
     -1420.434  
  20675796.879   110640374.42608     -1627.910    20675800.396    86053634.41708
     -1266.156  
 20 10 01 07 25 20.0000000  0 14G15G18G20G 8G24G27G10G13R14R15R 6R22
                                R 5R21
  21188805.733   111347924.56849     -2438.593    21188805.126    86764616.75749
     -1900.206  
  21495754.479   112960946.11649     -2622.383    21495754.872    88021515.22048
     -2043.417  
  20043991.244   105331890.85549       729.558    20043990.758    82076802.23448
       568.484  
  24670853.693   129646201.00745       212.104    24670858.218   101023036.64847
       165.132  
  20951982.671   110103434.10349      1726.913    20951984.816    85794905.86449
      1345.648  
  24294221.121   127667008.32846     -1586.070    24294223.278    99480770.12447
     -1235.902  
  22110122.987   116189488.10649      2617.707    22110125.128    90537264.96449
      2039.769  
  23750224.412   124808274.61046     -3458.230    23750222.135    97253183.19641
     -2694.718  
  21998907.162   117266566.34306     -1699.348    21998912.469    91207345.35304
     -1321.723  
  21157356.477   113058498.20808  -2097152.000    21157366.009    87934427.11408
  -2097152.000  
  20185024.842   107711178.86007      2060.468           0.000           0.0000 
         0.000  
  21891572.033   116858705.62806      2287.804    21891576.047    90890117.32113
      1779.402  
  20029625.697   107069826.98409     -1819.391    20029629.631    83276550.33308
     -1415.085  
  20677314.939   110648497.84308     -1623.910    20677318.611    86059952.64108
     -1263.043  
 20 10 01 07 25 25.0000000  0 14G15G18G20G 8G24G27G10G13R14R15R 6R22
                                R 5R21
  21191128.578   111360130.98649     -2442.995    21191128.013    86774128.21749
     -1903.641  
  21498252.055   112974070.84248     -2627.211    21498252.408    88031742.30445
     -2047.175  
  20043299.806   105328257.23148       724.527    20043299.368    82073970.85748
       564.565  
  24670655.691   129645155.81544       206.598    24670659.397   101022222.22847
       160.988  
  20950343.128   110094818.34048      1720.641    20950345.309    85788192.26349
      1340.754  
  24295733.371   127674955.50445     -1591.714    24295736.912    99486962.79747
     -1240.289  
  22107634.724   116176412.22649      2613.437    22107636.870    90527075.93349
      2036.438  
  23753517.680   124825577.81946     -3461.641    23753517.653    97266666.22741
     -2697.378  
  22000505.071   117275081.97205     -1706.108    22000510.478    91213968.56306
     -1326.987  
  21155327.900   113047658.11008  -2097152.000    21155337.436    87925995.94007
  -2097152.000  
  20183096.820   107700890.40908      2055.703           0.000           0.0000 
         0.000  
  21889432.878   116847285.85906      2281.319    21889436.794    90881235.31604
      1774.358  
  20031330.232   107078938.63709     -1824.351    20031334.225    83283637.15508
     -1418.944  
  20678835.996   110656637.42108     -1630.960    20678839.784    86066283.42508
     -1268.526  
 20 10 01 07 25 30.0000000  0 13G15G18G20G 8G24G27G10G13R15R 6R22R 5
                                R21
  21193454.222   111372352.01349     -2445.433    21193453.647    86783651.14249
     -1905.527  
  21500752.962   112987213.50848     -2630.065    21500753.363    88041983.29946
     -2049.409  
  20042611.855   105324642.11649       721.648    20042611.465    82071153.88748
       562.319  
  24670460.827   129644132.10745       203.218    24670464.173   101021424.44247
       158.331  
  20948707.715   110086224.15949      1716.921    20948709.890    85781495.49749
      1337.854  
  24297249.662   127682922.07446     -1594.785    24297253.415    99493170.43347
     -1242.698  
  22105148.667   116163348.15949      2611.733    22105150.899    90516896.17449
      2035.113  
  23756811.734   124842889.50344     -3462.921    23756812.565    97280155.90441
     -2698.354  
  21153304.073   113036843.39108  -2097152.000    21153313.606    87917584.48307
  -2097152.000  
  20181171.572   107690616.79707      2053.640           0.000           0.0000 
         0.000  
  21887298.261   116835891.72206      2276.792    21887302.825    90872373.18903
      1770.844  
  20033037.593   107088065.64709     -1826.558    20033041.627    83290735.93308
     -1420.659  
  20680362.346   110664805.13208     -1636.089    20680366.136    86072636.07908
     -1272.523  
 20 10 01 07 25 35.0000000  0 14G15G18G20G 8G24G27G10G13R14R15R 6R22
                                R 5R21
  21195781.887   111384583.69549     -2447.296    21195781.312    86793182.32249
     -1906.983  
  21503256.587   113000370.21248     -2632.651    21503256.985    88052235.27446
     -2051.425  
  20041926.692   105321041.59349       718.788    20041926.362    82068348.28348
       560.093  
  24670269.614   129643125.87046       199.675    24670272.592   101020640.39047
       155.625  
  20947075.710   110077647.91249      1713.729    20947077.825    85774812.71249
      1335.374  
  24298768.331   127690904.01345     -1597.223    24298772.855    99499390.12948
     -1244.590  
  22102664.086   116150292.00249      2610.406    22102666.387    90506722.54149
      2034.077  
  23760106.721   124860205.71306     -3463.729           0.000           0.0000 
         0.000  
  22003713.576   117292173.45315     -1715.378    22003720.798    91227276.65015
     -1334.198  
  21151284.217   113026049.89107  -2097152.000    21151293.758    87909189.57107
  -2097152.000  
  20179248.384   107680354.23107      2051.887           0.000           0.0000 
         0.000  
  21885167.939   116824519.13806      2272.609    21885172.668    90863527.85603
      1767.589  
  20034747.131   107097203.98608     -1828.675    20034751.135    83297843.50107
     -1422.308  
  20681893.117   110672996.65808     -1640.663    20681896.904    86079007.23807
     -1276.073  
 20 10 01 07 25 40.0000000  0 14G15G18G20G 8G24G27G10G13R14R15R 6R22
                                R 5R21
  21198110.782   111396821.83749     -2447.906    21198110.174    86802718.53149
     -1907.464  
  21505762.069   113013536.66849     -2634.019    21505762.480    88062494.85747
     -2052.483  
  20041243.533   105317451.44449       717.226    20041243.191    82065550.75048
       558.875  
  24670081.191   129642132.79845       197.711    24670083.658   101019866.57747
       154.050  
  20945446.305   110069085.36549      1711.417    20945448.429    85768140.61049
      1333.574  
  24300289.124   127698897.18146     -1599.608    24300293.787    99505618.62347
     -1246.437  
  22100180.224   116137239.53049      2610.223    22100182.620    90496551.80549
      2033.944  
  23763401.733   124877522.58506     -3463.507           0.000           0.0000 
         0.000  
  22005323.793   117300756.18706     -1718.074    22005330.772    91233952.05905
     -1336.293  
  21149267.523   113015273.29208  -2097152.000    21149277.059    87900807.75007
  -2097152.000  
  20177326.393   107670098.55807      2050.746           0.000           0.0000 
         0.000  
  21883040.964   116813164.01306      2269.430    21883045.436    90854696.10703
      1765.109  
  20036457.970   107106349.33909     -1829.426    20036461.994    83304956.59108
     -1422.883  
  20683427.587   110681208.01308     -1644.145    20683431.324    86085393.84508
     -1278.781  
 20 10 01 07 25 45.0000000  0 14G15G18G20G 8G24G27G10G13R14R15R 6R22
                                R 5R21
  21200441.046   111409067.24249     -2451.144    21200440.296    86812260.39849
     -1909.988  
  21508269.556   113026713.75749     -2637.785    21508269.975    88072762.72247
     -2055.418  
  20040562.508   105313872.47749       713.434    20040562.135    82062761.93948
       555.918  
  24669895.275   129641153.79945       193.237    24669897.540   101019103.73848
       150.559  
  20943819.683   110060537.37749      1706.910    20943821.793    85761479.83849
      1330.059  
  24301812.646   127706902.37545     -1602.862    24301816.981    99511856.38147
     -1248.992  
  22097697.235   116124191.58549      2607.788    22097699.650    90486384.58349
      2032.042  
  23766697.137   124894840.36105     -3465.132           0.000           0.0000 
         0.000  
  22006937.931   117309357.76406     -1723.535    22006944.457    91240642.20005
     -1340.530  
  21147254.194   113004514.67008  -2097152.000    21147263.723    87892439.90408
  -2097152.000  
  20175405.881   107659850.40007      2047.565           0.000           0.0000 
         0.000  
  21880917.349   116801827.01106      2264.460    21880921.467    90845878.40303
      1761.241  
  20038170.257   107115502.58509     -1832.707    20038174.368    83312075.79108
     -1425.437  
  20684965.910   110689439.86108     -1649.772    20684969.598    86091796.39707
     -1283.155  
 20 10 01 07 25 50.0000000  0 14G15G18G20G 8G24G27G10G13R14R15R 6R22
                                R 5R21
  21202774.516   111421329.58449     -2453.612    21202773.692    86821815.48449
     -1911.906  
  21510780.948   113039911.12149     -2640.895    21510781.317    88083046.37447
     -2057.843  
  20039885.435   105310314.40549       710.348    20039885.065    82059989.42148
       553.520  
  24669713.551   129640198.64945       189.313    24669715.895   101018359.46247
       147.515  
  20942197.679   110052013.71749      1702.870    20942199.756    85754838.02549
      1326.910  
  24303339.995   127714929.39745     -1606.929    24303344.159    99518111.10747
     -1252.164  
  22095216.990   116111157.87449      2605.890    22095219.401    90476228.44049
      2030.559  
  23769995.284   124912169.18106     -3466.148           0.000           0.0000 
         0.000  
  22008557.134   117317988.09305     -1728.144    22008563.687    91247354.70405
     -1344.112  
  21145246.040   112993783.70708  -2097152.000    21145255.575    87884093.62208
  -2097152.000  
  20173488.708   107649619.71707      2044.738           0.000           0.0000 
         0.000  
  21878798.898   116790518.04706      2259.805    21878802.585    90837082.57203
      1757.625  
  20039885.876   107124673.51909     -1835.233    20039890.033    83319208.73808
     -1427.410  
  20686509.867   110697702.16408     -1654.804    20686513.604    86098222.59307
     -1287.078  
 20 10 01 07 25 55.0000000  0 14G15G18G20G 8G24G27G10G13R14R15R 6R22
                                R 5R21
  21205108.986   111433597.17949     -2453.620    21205108.122    86831374.64749
     -1911.913  
  21513293.916   113053117.07349     -2641.831    21513294.311    88093336.72847
     -2058.574  
  20039210.157   105306765.54349       709.117    20039209.707    82057224.06948
       552.558  
  24669534.285   129639255.47345       187.836    24669536.112   101017624.46947
       146.366  
  20940578.062   110043502.60449      1701.426    20940580.143    85748205.98149
      1325.780  
  24304869.449   127722966.26546     -1607.840    24304873.223    99524373.67845
     -1252.855  
  22092737.223   116098126.67349      2606.339    22092739.589    90466074.27849
      2030.914  
  23773293.000   124929497.20046     -3465.559    23773290.077    97347651.34151
     -2700.433  
  22010179.624   117326635.46806     -1730.824    22010186.162    91254080.41305
     -1346.199  
  21143240.836   112983068.50508  -2097152.000    21143250.371    87875759.57507
  -2097152.000  
  20171572.551   107639394.64108      2044.648           0.000           0.0000 
         0.000  
  21876683.389   116779225.25206      2257.148    21876687.211    90828299.30203
      1755.563  
  20041602.557   107133850.35509     -1835.543    20041606.798    83326346.25608
     -1427.647  
  20688057.304   110705982.90608     -1657.504    20688061.038    86104663.17808
     -1289.172  
 20 10 01 07 26  0.0000000  0 14G15G18G20G 8G24G27G10G13R14R15R 6R22
                                R 5R21
  21207444.408   111445869.90749     -2455.413    21207443.544    86840937.80949
     -1913.313  
  21515808.500   113066331.45749     -2644.081    21515808.907    88103633.64047
     -2060.327  
  20038536.607   105303225.76749       706.512    20038536.075    82054465.81248
       550.526  
  24669357.322   129638324.31045       184.809    24669358.748   101016898.88047
       144.004  
  20938960.796   110035003.81349      1698.234    20938962.888    85741583.55949
      1323.301  
  24306400.505   127731013.14345     -1611.434    24306403.737    99530643.94247
     -1255.676  
  22090257.894   116085097.93048      2605.015    22090260.256    90455922.00749
      2029.875  
  23776590.592   124946824.26047     -3465.660    23776585.821    97361152.92442
     -2700.512  
  22011805.311   117335299.54606     -1735.113    22011811.686    91260819.13805
     -1349.530  
  21141238.596   112972369.14308  -2097152.000    21141248.137    87867437.87408
  -2097152.000  
  20169657.429   107629175.05907      2043.136           0.000           0.0000 
         0.000  
  21874570.841   116767948.58106      2253.202    21874574.817    90819528.56103
      1752.491  
  20043320.280   107143032.78808     -1837.332    20043324.557    83333488.16108
     -1429.035  
  20689608.135   110714281.93708     -1662.031    20689611.945    86111117.96808
     -1292.695  
 20 10 01 07 26  5.0000000  0 14G15G18G20G 8G24G27G10G13R14R15R 6R22
                                R 5R21
  21209781.404   111458150.99849     -2457.241    21209780.581    86850507.48949
     -1914.733  
  21518325.326   113079557.53148     -2646.593    21518325.677    88113939.67347
     -2062.285  
  20037865.388   105299698.32949       704.073    20037864.762    82051717.15048
       548.629  
  24669183.212   129637408.35444       180.797    24669183.904   101016185.17547
       140.835  
  20937346.510   110026520.74849      1695.007    20937348.634    85734973.36549
      1320.781  
  24307933.842   127739072.91644     -1612.862    24307937.189    99536924.26548
     -1256.777  
  22087779.669   116072074.80349      2603.832    22087782.051    90445774.11349
      2028.960  
  23779888.449   124964153.55246     -3465.711    23779888.116    97374656.27142
     -2700.550  
  22013434.502   117343983.80106     -1739.538    22013440.999    91267573.53705
     -1352.983  
  21139239.911   112961688.77608  -2097152.000    21139249.456    87859130.93807
  -2097152.000  
  20167743.942   107618964.29207      2041.227           0.000           0.0000 
         0.000  
  21872461.932   116756691.26707      2249.233    21872466.013    90810772.88403
      1749.405  
  20045039.730   107152224.29509     -1839.202    20045044.017    83340637.10608
     -1430.496  
  20691162.988   110722602.58008     -1666.563    20691166.850    86117589.58508
     -1296.214  
 20 10 01 07 26 10.0000000  0 14G15G18G20G 8G24G27G10G13R14R15R 6R22
                                R 5R21
  21212120.475   111470443.02249     -2459.582    21212119.729    86860085.69149
     -1916.562  
  21520844.824   113092797.83449     -2649.406    21520845.175    88124256.78347
     -2064.476  
  20037197.011   105296185.86149       700.980    20037196.311    82048980.17348
       546.218  
  24669012.517   129636510.16044       177.742    24669013.129   101015485.25247
       138.487  
  20935735.747   110018056.06849      1691.042    20935737.833    85728377.52949
      1317.691  
  24309470.476   127747148.48144     -1616.633    24309473.457    99543216.90048
     -1259.719  
  22085303.059   116059059.97349      2602.167    22085305.419    90435632.68549
      2027.663  
  23783187.097   124981487.74945     -3467.448    23783183.306    97388163.40041
     -2701.934  
  22015068.130   117352690.80004     -1743.734    22015074.381    91274345.62405
     -1356.249  
  21137245.280   112951030.06908  -2097152.000    21137254.825    87850840.83908
  -2097152.000  
  20165832.596   107608764.82807      2038.668           0.000           0.0000 
         0.000  
  21870357.232   116745456.08006      2244.965    21870361.355    90802034.41903
      1746.077  
  20046761.362   107161427.43309     -1841.734    20046765.626    83347795.11008
     -1432.460  
  20692722.412   110730947.40708     -1671.413    20692726.287    86124080.00207
     -1299.988  
 20 10 01 07 26 15.0000000  0 15G15G18G20G 8G21G24G27G10G13R14R15R 6
                                R22R 5R21
  21214461.436   111482744.91649     -2461.363    21214460.743    86869671.56649
     -1917.948  
  21523366.876   113106051.33647     -2652.148    21523367.154    88134584.21045
     -2066.604  
  20036531.262   105292687.23249       698.277    20036530.529    82046253.96948
       544.113  
  24668844.464   129635628.65844       174.265    24668845.320   101014798.41445
       135.800  
  24866755.773   130675682.35955      2714.308    24866753.181   101825220.58551
      2115.047  
  20934128.237   110009608.48549      1687.684    20934130.303    85721794.96549
      1315.069  
  24311010.043   127755238.61444     -1619.387    24311012.561    99549520.86548
     -1261.867  
  22082827.771   116046052.37148      2600.871    22082830.229    90425496.88449
      2026.648  
  23786486.578   124998825.79746     -3467.734    23786483.346    97401673.60443
     -2702.125  
  22016705.224   117361419.15205     -1747.063    22016711.876    91281134.35405
     -1358.828  
  21135254.505   112940391.97008  -2097152.000    21135264.048    87842566.75107
  -2097152.000  
  20163923.235   107598575.76808      2036.722           0.000           0.0000 
         0.000  
  21868256.332   116734241.74006      2240.656    21868260.292    90793312.16302
      1742.734  
  20048484.962   107170641.03609     -1843.667    20048489.201    83354961.25708
     -1433.964  
  20694286.152   110739315.38808     -1675.745    20694290.053    86130588.43808
     -1303.359  
 20 10 01 07 26 20.0000000  0 14G15G18G20G21G24G27G10G13R14R15R 6R22
                                R 5R21
  21216804.278   111495056.66749     -2464.293    21216803.629    86879265.13449
     -1920.229  
  21525891.407   113119318.15148     -2655.866    21525891.688    88144921.97345
     -2069.508  
  20035868.182   105289202.59448       694.456    20035867.403    82043538.64048
       541.133  
  24864174.260   130662114.19445      2711.531    24864169.023   101814647.98643
      2113.344  
  20932524.066   110001178.38349      1683.132    20932526.101    85715226.08749
      1311.535  
  24312552.065   127763343.37045     -1623.508    24312554.766    99555836.21947
     -1265.082  
  22080353.900   116033052.02749      2598.359    22080356.345    90415366.74549
      2024.773  
  23789786.839   125016167.75147     -3469.667    23789783.418    97415186.81743
     -2703.645  
  22018346.675   117370169.29206     -1753.379    22018352.867    91287940.04805
     -1363.738  
  21133267.613   112929774.62208  -2097152.000    21133277.154    87834308.80607
  -2097152.000  
  20162015.799   107588397.16807      2033.410           0.000           0.0000 
         0.000  
  21866159.680   116723048.54406      2235.597    21866163.440    90784606.32403
      1738.789  
  20050210.558   107179865.24109     -1846.984    20050214.704    83362135.60308
     -1436.551  
  20695854.201   110747706.55308     -1681.308    20695858.130    86137114.90707
     -1307.683  
 20 10 01 07 26 25.0000000  0 14G15G18G20G21G24G27G10G13R14R15R 6R22
                                R 5R21
  21219150.360   111507385.41149     -2465.694    21219149.771    86888871.94649
     -1921.324  
  21528419.837   113132605.04748     -2657.671    21528420.098    88155275.39046
     -2070.917  
  20035209.097   105285738.92649       692.207    20035208.239    82040839.69248
       539.378  
  24861595.109   130648560.57444      2711.313    24861588.369   101804086.57643
      2112.690  
  20930924.501   109992772.57849      1680.378    20930926.531    85708676.11449
      1309.387  
  24314098.334   127771469.75745     -1626.195    24314101.437    99562168.42447
     -1267.176  
  22077882.762   116020066.01549      2597.367    22077885.253    90405247.78349
      2023.921  
  23793089.123   125033520.49846     -3470.383    23793085.753    97428708.48341
     -2704.187  
  22019993.282   117378948.19704     -1757.046    22019999.501    91294768.07504
     -1366.598  
  21131285.926   112919185.08808  -2097152.000    21131295.466    87826072.49807
  -2097152.000  
  20160111.631   107578236.13507      2032.073           0.000           0.0000 
         0.000  
  21864068.083   116711883.58206      2231.827    21864071.792    90775922.43903
      1735.863  
  20051939.497   107189107.22209     -1848.563    20051943.556    83369323.84908
     -1437.766  
  20697427.934   110756128.19908     -1685.734    20697431.810    86143665.04207
     -1311.132  
 20 10 01 07 26 30.0000000  0 14G15G18G20G21G24G27G10G13R14R15R 6R22
                                R 5R21
  21221496.839   111519716.30249     -2466.434    21221496.296    86898480.41849
     -1921.901  
  21530949.349   113145897.59348     -2659.117    21530949.598    88165633.20747
     -2072.043  
  20034551.162   105282281.45149       690.766    20034550.273    82038145.55848
       538.258  
  24859015.329   130635006.73846      2710.520    24859013.510   101793525.24144
      2112.105  
  20929326.744   109984376.43449      1678.082    20929328.803    85702133.65349
      1307.594  
  24315645.978   127779603.17944     -1626.710    24315649.095    99568506.23247
     -1267.558  
  22075411.541   116007079.59849      2597.168    22075414.056    90395128.49049
      2023.761  
  23796390.579   125050869.39446     -3469.604    23796387.957    97442226.92443
     -2703.609  
  22021642.419   117387740.89705     -1759.965    22021648.952    91301606.81206
     -1368.866  
  21129306.656   112908608.47308  -2097152.000    21129316.196    87817846.23907
  -2097152.000  
  20158207.969   107568077.70207      2031.089           0.000           0.0000 
         0.000  
  21861979.065   116700731.72706      2228.840    21861982.741    90767248.83403
      1733.551  
  20053668.911   107198351.96009     -1849.280    20053672.906    83376514.19108
     -1438.332  
  20699004.525   110764565.10408     -1689.098    20699008.471    86150227.05107
     -1313.750  
 20 10 01 07 26 35.0000000  0 14G15G18G20G21G24G27G10G13R14R15R 6R22
                                R 5R21
  21223844.167   111532051.62849     -2468.035    21223843.670    86908092.36249
     -1923.145  
  21533480.328   113159197.88648     -2661.370    21533480.628    88175997.07146
     -2073.800  
  20033894.859   105278832.52449       688.628    20033893.911    82035458.08548
       536.593  
  24856436.499   130621455.36446      2709.168    24856431.336   101782965.66941
      2111.026  
  20927731.260   109975992.08049      1675.121    20927733.341    85695600.37949
      1305.285  
  24317195.585   127787745.66846     -1629.953    24317198.586    99574850.98047
     -1270.097  
  22072940.680   115994095.04549      2596.273    22072943.204    90385010.67149
      2023.070  
  23799691.640   125068216.68046     -3469.757    23799690.166    97455744.32343
     -2703.707  
  22023294.757   117396549.66405     -1763.477    22023301.557    91308458.09406
     -1371.597  
  21127330.264   112898047.23208  -2097152.000    21127339.819    87809632.00406
  -2097152.000  
  20156305.165   107557923.88008      2029.762           0.000           0.0000 
         0.000  
  21859892.935   116689595.60706      2225.245    21859896.548    90758587.34403
      1730.734  
  20055399.275   107207601.68808     -1850.991    20055403.130    83383708.38907
     -1439.668  
  20700584.497   110773019.57108     -1693.019    20700588.380    86156802.76907
     -1316.792  
 20 10 01 07 26 40.0000000  0 14G15G18G20G21G24G27G10G13R14R15R 6R22
                                R 5R21
  21226193.058   111544395.19749     -2469.530    21226192.613    86917710.73749
     -1924.309  
  21536013.479   113172509.71748     -2663.284    21536013.808    88186369.92746
     -2075.293  
  20033240.916   105275395.94149       686.187    20033239.919    82032780.22248
       534.687  
  24853858.855   130607909.87646      2708.406    24853854.087   101772410.64044
      2110.609  
  20926138.756   109967623.35049      1672.222    20926140.778    85689079.31949
      1303.030  
  24318747.641   127795901.21945     -1632.551    24318750.793    99581205.88548
     -1272.128  
  22070470.938   115981116.15249      2595.367    22070473.391    90374897.26049
      2022.363  
  23802993.205   125085566.17846     -3470.171    23802992.869    97469263.46543
     -2704.023  
  22024950.641   117405378.52104     -1767.964    22024957.729    91315325.01006
     -1375.086  
  21125357.429   112887505.00208  -2097152.000    21125366.978    87801432.46606
  -2097152.000  
  20154404.003   107547779.00807      2028.188           0.000           0.0000 
         0.000  
  21857810.437   116678478.93406      2221.229    21857814.181    90749941.05403
      1727.625  
  20057131.300   107216860.28908     -1852.495    20057135.095    83390909.54107
     -1440.832  
  20702168.392   110781495.62608     -1697.371    20702172.355    86163395.28507
     -1320.175  
 20 10 01 07 26 45.0000000  0 14G15G18G20G21G24G27G10G13R14R15R 6R22
                                R 5R21
  21228543.528   111556747.12648     -2471.531    21228543.119    86927335.60149
     -1925.870  
  21538548.893   113185833.24748     -2666.081    21538549.240    88196751.87946
     -2077.468  
  20032589.318   105271971.80249       683.301    20032588.278    82030112.07848
       532.441  
  24851281.854   130594370.64445      2707.190    24851278.112   101761860.63942
      2109.495  
  20924549.311   109959270.66749      1668.609    20924551.287    85682570.71449
      1300.210  
  24320302.188   127804069.79246     -1635.190    24320305.621    99587571.05248
     -1274.176  
  22068002.318   115968143.11849      2593.703    22068004.657    90364788.39549
      2021.063  
  23806295.262   125102918.10246     -3470.804    23806294.451    97482784.42241
     -2704.531  
  22026610.578   117414227.26206     -1771.862    22026617.595    91322207.39605
     -1378.109  
  21123388.191   112876981.98808  -2097152.000    21123397.738    87793247.89206
  -2097152.000  
  20152504.546   107537643.17308      2026.108           0.000           0.0000 
         0.000  
  21855731.595   116667381.77807      2216.972    21855735.417    90741309.94004
      1724.308  
  20058865.021   107226128.05408     -1854.586    20058868.838    83398117.77807
     -1442.461  
  20703756.307   110789993.25808     -1701.772    20703760.382    86170004.50807
     -1323.609  
 20 10 01 07 26 50.0000000  0 15G15G18G20G 8G21G24G27G10G13R14R15R 6
                                R22R 5R21
  21230895.998   111569109.52849     -2472.913    21230895.609    86936968.65749
     -1926.944  
  21541086.959   113199170.53148     -2668.300    21541087.274    88207144.57646
     -2079.199  
  20031940.486   105268562.22949       681.085    20031939.404    82027455.26548
       530.715  
  24667752.598   129629916.96054       153.394    24667757.693   101010341.82858
       119.527  
  24848706.776   130580839.61145      2705.698    24848703.461   101751316.96741
      2108.332  
  20922963.285   109950935.98548      1665.620    20922965.221    85676076.16449
      1297.886  
  24321859.730   127812253.63646     -1637.448    24321863.164    99593948.02248
     -1275.937  
  22065535.200   115955178.01549      2592.878    22065537.407    90354685.70149
      2020.421  
  23809598.074   125120274.36945     -3471.269    23809597.557    97496308.77743
     -2704.901  
  22028274.686   117423098.33205     -1775.604    22028281.548    91329107.10505
     -1381.026  
  21121422.978   112866480.48507  -2097152.000    21121432.522    87785080.04506
  -2097152.000  
  20150607.167   107527518.24208      2024.656           0.000           0.0000 
         0.000  
  21853656.848   116656306.41806      2213.492    21853660.645    90732695.77503
      1721.602  
  20060600.862   107235407.05608     -1856.168    20060604.684    83405334.78707
     -1443.688  
  20705348.680   110798514.64708     -1706.073    20705352.891    86176632.26007
     -1326.945  
 20 10 01 07 26 55.0000000  0 15G15G18G20G 8G21G24G27G10G13R14R15R 6
                                R22R 5R21
  21233249.723   111581478.47149     -2475.160    21233249.337    86946606.78049
     -1928.699  
  21543626.847   113212517.57749     -2671.136    21543627.163    88217544.87447
     -2081.405  
  20031293.655   105265163.29549       678.008    20031292.572    82024806.75548
       528.312  
  24667608.509   129629157.79644       149.608    24667612.885   101009750.29947
       116.577  
  24846132.678   130567312.72946      2704.593    24846128.740   101740776.60541
      2107.344  
  20921379.925   109942615.30649      1661.866    20921381.782    85669592.52649
      1294.960  
  24323419.279   127820448.65145     -1640.987    24323422.964    99600333.76947
     -1278.683  
  22063068.845   115942216.85749      2590.918    22063070.905    90344586.09849
      2018.897  
  23812900.948   125137631.12146     -3472.023    23812898.608    97509833.49741
     -2705.477  
  22029942.223   117431987.55605     -1780.164    22029948.981    91336020.95905
     -1384.570  
  21119460.998   112855996.25908  -2097152.000    21119470.541    87776925.64407
  -2097152.000  
  20148711.118   107517400.40507      2022.258           0.000           0.0000 
         0.000  
  21851585.384   116645248.71307      2208.991    21851589.177    90724095.32903
      1718.101  
  20062337.969   107244693.16809     -1858.723    20062341.863    83412557.33508
     -1445.671  
  20706944.761   110807055.69308     -1710.883    20706949.036    86183275.30108
     -1330.687  
 20 10 01 07 27  0.0000000  0 15G15G18G20G 8G21G24G27G10G13R14R15R 6
                                R22R 5R21
  21235605.684   111593859.12849     -2476.949    21235605.276    86956254.04849
     -1930.093  
  21546169.615   113225879.69449     -2673.602    21546169.869    88227956.92347
     -2083.323  
  20030649.847   105261780.21849       675.496    20030648.791    82022170.58048
       526.355  
  24667467.612   129628417.28144       147.269    24667472.271   101009173.25848
       114.750  
  24843560.544   130553795.63946      2702.948    24843556.523   101730243.86943
      2106.206  
  20919800.214   109934313.80749      1658.644    20919802.021    85663123.82549
      1292.449  
  24324982.018   127828660.15345     -1643.886    24324985.678    99606732.38347
     -1280.944  
  22060604.207   115929264.94349      2589.852    22060606.185    90334493.73549
      2018.066  
  23816204.818   125154993.60646     -3472.976    23816201.185    97523362.77842
     -2706.198  
  22031614.359   117440900.29306     -1784.551    22031621.128    91342953.13505
     -1387.983  
  21117503.273   112845534.77208  -2097152.000    21117512.822    87768788.95507
  -2097152.000  
  20146817.275   107507294.74807      2020.296           0.000           0.0000 
         0.000  
  21849518.275   116634214.18406      2204.750    21849521.992    90715512.91503
      1714.805  
  20064077.431   107253991.68509     -1860.534    20064081.397    83419789.52308
     -1447.081  
  20708545.560   110815621.82808     -1715.316    20708549.809    86189937.85207
     -1334.140  
 20 10 01 07 27  5.0000000  0 14G15G18G20G21G24G27G10G13R14R15R 6R22
                                R 5R21
  21237963.343   111606248.74349     -2478.789    21237962.909    86965908.28649
     -1931.526  
  21548714.712   113239254.11248     -2676.094    21548714.952    88238378.55046
     -2085.272  
  20030008.532   105258410.27149       672.722    20030007.511    82019544.64448
       524.195  
  24840989.607   130540285.39546      2701.285    24840985.329   101719716.31944
      2104.890  
  20918223.632   109926028.87649      1655.359    20918225.407    85656668.04149
      1289.890  
  24326547.316   127836885.28545     -1646.621    24326550.937    99613141.60647
     -1283.074  
  22058140.828   115916319.51849      2588.499    22058142.656    90324406.37049
      2017.008  
  23819509.333   125172358.98546     -3473.109    23819505.917    97536894.13843
     -2706.335  
  22033290.471   117449833.63106     -1788.733    22033297.098    91349901.29105
     -1391.238  
  21115549.299   112835093.32908  -2097152.000    21115558.850    87760667.84007
  -2097152.000  
  20144925.182   107497198.76507      2018.530           0.000           0.0000 
         0.000  
  21847454.900   116623199.90706      2200.770    21847458.753    90706946.25903
      1711.710  
  20065818.694   107263299.82909     -1862.597    20065822.723    83427029.18808
     -1448.688  
  20710150.469   110824210.11308     -1719.917    20710154.732    86196617.61507
     -1337.714  
 20 10 01 07 27 10.0000000  0 14G15G18G20G 8G24G27G10G13R14R15R 6R22
                                R 5R21
  21240322.664   111618647.02449     -2480.288    21240322.218    86975569.29349
     -1932.690  
  21551262.111   113252640.47549     -2678.304    21551262.309    88248809.45647
     -2086.996  
  20029369.703   105255053.13949       670.457    20029368.671    82016928.70048
       522.429  
  24667195.513   129626985.82854       140.461    24667197.893   101008056.23057
       109.441  
  20916650.162   109917760.29949      1652.253    20916651.905    85650225.00149
      1287.469  
  24328115.095   127845123.80145     -1648.155    24328118.564    99619561.21448
     -1284.285  
  22055678.571   115903380.26649      2587.531    22055680.370    90314323.84649
      2016.254  
  23822814.491   125189727.05146     -3473.879    23822811.234    97550427.73241
     -2706.922  
  22034970.382   117458787.38107     -1792.324    22034976.888    91356865.28205
     -1394.038  
  21113598.986   112824671.44608  -2097152.000    21113608.539    87752561.93807
  -2097152.000  
  20143034.881   107487111.88607      2016.632           0.000           0.0000 
         0.000  
  21845395.260   116612205.59706      2196.921    21845399.236    90698395.15003
      1708.718  
  20067561.732   107272617.39409     -1864.129    20067565.804    83434276.18408
     -1449.882  
  20711759.410   110832820.28808     -1724.043    20711763.691    86203314.42907
     -1340.921  
 20 10 01 07 27 15.0000000  0 15G15G18G20G 8G21G24G27G10G13R14R15R 6
                                R22R 5R21
  21242683.475   111631053.04749     -2481.765    21242683.042    86985236.31749
     -1933.844  
  21553811.599   113266037.87349     -2680.370    21553811.791    88259249.00547
     -2088.601  
  20028733.107   105251707.92949       668.038    20028732.104    82014322.03548
       520.547  
  24667063.531   129626291.41944       138.746    24667065.237   101007515.18048
       108.117  
  24835851.261   130513278.58254      2699.559    24835848.168   101698641.03752
      2103.562  
  20915079.590   109909506.85649      1649.312    20915081.273    85643793.74649
      1285.176  
  24329685.260   127853374.82345     -1651.219    24329688.906    99625990.59747
     -1286.663  
  22053217.284   115890446.33649      2586.254    22053219.189    90304245.47149
      2015.261  
  23826119.909   125207096.63845     -3473.859    23826115.490    97563962.54641
     -2706.898  
  22036653.739   117467760.65007     -1796.421    22036660.274    91363844.43505
     -1397.229  
  21111652.197   112814268.39608  -2097152.000    21111661.741    87744470.64107
  -2097152.000  
  20141146.148   107477033.52307      2015.124           0.000           0.0000 
         0.000  
  21843339.284   116601230.50206      2193.159    21843343.128    90689858.97403
      1705.792  
  20069306.394   107281943.39609     -1865.895    20069310.466    83441529.75408
     -1451.249  
  20713372.263   110841451.42908     -1728.273    20713376.610    86210027.53507
     -1344.215  
 20 10 01 07 27 20.0000000  0 14G15G18G20G21G24G27G10G13R14R15R 6R22
                                R 5R21
  21245045.921   111643467.84849     -2483.766    21245045.501    86994910.19149
     -1935.405  
  21556363.392   113279447.32249     -2683.191    21556363.562    88269697.92147
     -2090.801  
  20028098.993   105248375.67149       665.144    20028097.996    82011725.46748
       518.288  
  24833283.826   130499787.05846      2697.593    24833280.559   101688128.19943
      2102.051  
  20913512.100   109901269.70049      1645.804    20913513.671    85637375.17649
      1282.441  
  24331257.919   127861639.29945     -1653.746    24331261.646    99632430.54647
     -1288.620  
  22050757.225   115877518.69949      2585.034    22050759.203    90294171.98949
      2014.309  
  23829425.817   125224468.92745     -3474.890    23829421.028    97577499.29841
     -2707.715  
  22038341.053   117476754.17006     -1800.461    22038347.374    91370839.42005
     -1400.362  
  21109709.097   112803885.05908  -2097152.000    21109718.651    87736394.75307
  -2097152.000  
  20139259.179   107466964.35807      2012.961           0.000           0.0000 
         0.000  
  21841287.100   116590275.48906      2188.535    21841290.859    90681338.42703
      1702.194  
  20071052.827   107291278.89309     -1867.788    20071056.852    83448790.68107
     -1452.730  
  20714989.293   110850104.57708     -1732.788    20714993.573    86216757.75107
     -1347.730  
 20 10 01 07 27 25.0000000  0 14G15G18G20G21G24G27G10G13R14R15R 6R22
                                R 5R21
  21247410.079   111655891.73649     -2485.706    21247409.639    87004591.13149
     -1936.917  
  21558917.547   113292869.15349     -2685.667    21558917.719    88280156.48747
     -2092.730  
  20027467.416   105245056.71249       662.352    20027466.443    82009139.27048
       516.113  
  24830717.789   130486302.59646      2696.254    24830714.292   101677620.79944
      2101.008  
  20911947.784   109893049.19649      1642.414    20911949.285    85630969.58849
      1279.801  
  24332833.222   127869917.57145     -1657.273    24332837.136    99638881.16548
     -1291.379  
  22048298.459   115864597.73449      2583.476    22048300.455    90284103.70149
      2013.093  
  23832732.247   125241844.39546     -3475.093    23832727.635    97591038.64444
     -2707.866  
  22040032.241   117485768.65206     -1805.117    22040038.500    91377850.69005
     -1403.983  
  21107769.787   112793521.97408  -2097152.000    21107779.337    87728334.56107
  -2097152.000  
  20137374.099   107456905.08807      2010.863           0.000           0.0000 
         0.000  
  21839238.702   116579341.00206      2184.906    21839242.466    90672833.78103
      1699.362  
  20072801.072   107300624.29509     -1870.206    20072805.089    83456059.33008
     -1454.609  
  20716610.530   110858780.08208     -1737.430    20716614.757    86223505.38107
     -1351.339  
 20 10 01 07 27 30.0000000  0 13G15G18G20G21G24G10G13R14R15R 6R22R 5
                                R21
  21249771.538   111668301.44449     -2479.824    21249771.075    87014261.03449
     -1932.336  
  21561469.614   113306280.10549     -2680.511    21561469.822    88290606.57847
     -2088.715  
  20026833.944   105241727.79149       667.382    20026832.975    82006545.29348
       520.034  
  24828148.650   130472801.96146      2702.594    24828145.648   101667100.91042
      2105.930  
  20910382.236   109884822.21849      1646.695    20910383.698    85624558.96149
      1283.137  
  22045836.533   115851660.19549      2589.859    22045838.502    90274022.50749
      2018.069  
  23836034.955   125259199.64846     -3468.562    23836030.113    97604562.20943
     -2702.792  
  22041722.776   117494780.24806     -1801.430    22041728.703    91384859.70005
     -1401.121  
  21105829.829   112783155.42508  -2097152.000    21105839.378    87720271.68507
  -2097152.000  
  20135486.413   107446831.99807      2016.484           0.000           0.0000 
         0.000  
  21837189.777   116568403.42306      2188.594    21837193.436    90664326.80703
      1702.237  
  20074546.696   107309955.78109     -1864.320    20074550.728    83463317.15107
     -1450.026  
  20718231.509   110867454.14208     -1734.168    20718235.715    86230251.85307
     -1348.800  
 20 10 01 07 27 35.0000000  0 13G15G18G20G21G24G10G13R14R15R 6R22R 5
                                R21
  21252134.412   111680718.71149     -2487.804    21252133.965    87023936.82949
     -1938.551  
  21564023.738   113319701.93249     -2689.116    21564023.960    88301065.12947
     -2095.418  
  20026202.729   105238410.70549       658.581    20026201.733    82003960.55948
       513.176  
  24825580.608   130459306.84346      2694.598    24825578.018   101656585.17441
      2099.680  
  20908819.597   109876610.46449      1637.184    20908821.014    85618160.18749
      1275.722  
  22043375.581   115838727.87049      2582.234    22043377.521    90263945.36049
      2012.124  
  23839337.919   125276556.37346     -3475.464    23839332.470    97618080.90153
     -2708.156  
  22043416.952   117503811.03906     -1811.733    22043422.247    91391883.65204
     -1409.124  
  21103893.356   112772807.50308  -2097152.000    21103902.909    87712223.31707
  -2097152.000  
  20133600.235   107436766.90207      2008.526           0.000           0.0000 
         0.000  
  21835144.428   116557484.86706      2178.198    21835147.893    90655834.62202
      1694.156  
  20076293.964   107319295.55709     -1872.418    20076297.880    83470581.41508
     -1456.328  
  20719856.363   110876149.03208     -1744.895    20719860.610    86237014.58607
     -1357.140  
 20 10 01 07 27 40.0000000  0 14G15G18G20G21G24G27G10G13R14R15R 6R22
                                R 5R21
  21254503.873   111693170.81449     -2492.137    21254503.527    87033639.75849
     -1941.930  
  21566585.144   113333161.92849     -2693.901    21566585.340    88311553.42547
     -2099.147  
  20025578.950   105235132.72649       653.465    20025577.955    82001406.28948
       509.194  
  24823018.846   130445844.62746      2690.902    24823016.281   101646095.13743
      2096.801  
  20907265.011   109868441.15549      1631.319    20907266.465    85611794.50449
      1271.160  
  24337565.832   127894770.07055     -1665.718    24337570.102    99658279.80758
     -1297.957  
  22040920.857   115825828.02049      2578.500    22040922.793    90253893.53649
      2009.219  
  23842646.313   125293941.97646     -3478.612    23842640.713    97631628.16342
     -2710.616  
  22045119.810   117512888.72906     -1818.394    22045124.628    91398944.08704
     -1414.308  
  21101965.594   112762506.12708  -2097152.000    21101975.147    87704211.13507
  -2097152.000  
  20131720.758   107426737.83707      2003.968           0.000           0.0000 
         0.000  
  21833107.729   116546613.10806      2171.425    21833111.074    90647378.78103
      1688.883  
  20078047.900   107328671.37809     -1876.973    20078051.844    83477873.72208
     -1459.866  
  20721490.284   110884892.44208     -1751.664    20721494.557    86243814.98907
     -1362.410  
 20 10 01 07 27 45.0000000  0 14G15G18G20G21G24G27G10G13R14R15R 6R22
                                R 5R21
  21256875.397   111705633.53749     -2493.089    21256875.106    87043350.98049
     -1942.668  
  21569149.100   113346635.82848     -2695.555    21569149.343    88322052.55947
     -2100.438  
  20024958.056   105231869.65649       651.594    20024957.015    81998863.64448
       507.733  
  24820458.655   130432390.92446      2690.472    24820455.894   101635611.77742
      2096.296  
  20905713.941   109860290.25549      1628.917    20905715.423    85605443.15349
      1269.285  
  24339152.254   127903106.02745     -1668.055    24339156.536    99664775.36548
     -1299.777  
  22038467.661   115812936.41749      2578.129    22038469.611    90243848.13449
      2008.929  
  23845955.622   125311332.13846     -3477.965    23845949.970    97645178.92542
     -2710.112  
  22046826.936   117521988.82506     -1821.973    22046831.344    91406021.93304
     -1417.094  
  21100041.904   112752226.51208  -2097152.000    21100051.460    87696215.89208
  -2097152.000  
  20129843.468   107416720.16307      2003.003           0.000           0.0000 
         0.000  
  21831075.245   116535763.44607      2168.309    21831078.399    90638940.14603
      1686.457  
  20079804.022   107338058.51609     -1877.992    20079807.970    83485174.82708
     -1460.664  
  20723128.691   110893659.70508     -1755.265    20723133.018    86250633.96407
     -1365.210  
 20 10 01 07 27 50.0000000  0 14G15G18G20G21G24G27G10G13R14R15R 6R22
                                R 5R21
  21259247.443   111718099.00249     -2495.105    21259247.203    87053064.32149
     -1944.242  
  21571714.216   113360115.72949     -2698.199    21571714.473    88332556.36747
     -2102.496  
  20024338.455   105228613.56549       648.883    20024337.384    81996326.42348
       505.617  
  24817898.647   130418938.04946      2688.788    24817896.072   101625129.07743
      2095.172  
  20904164.886   109852149.82249      1625.335    20904166.349    85599099.95549
      1266.491  
  24340740.050   127911449.44845     -1671.354    24340744.320    99671276.70047
     -1302.359  
  22036014.526   115800045.20249      2576.503    22036016.537    90233803.04949
      2007.664  
  23849264.294   125328719.17246     -3478.789    23849259.206    97658727.16441
     -2710.750  
  22048536.891   117531103.25306     -1826.105    22048541.090    91413110.90105
     -1420.312  
  21098120.800   112741960.71508  -2097152.000    21098130.356    87688231.38208
  -2097152.000  
  20127966.767   107406705.76207      2000.801           0.000           0.0000 
         0.000  
  21829045.530   116524928.00007      2164.073    21829048.431    90630512.56403
      1683.164  
  20081560.733   107347448.98709     -1880.011    20081564.719    83492478.52708
     -1462.233  
  20724770.082   110902442.80208     -1759.855    20724774.452    86257465.25307
     -1368.780  
 20 10 01 07 27 55.0000000  0 10G15G18G20G21G24G10R15R 6R 5R21
  21261622.441   111730579.98547     -2496.729    21261622.248    87062789.79349
     -1945.499  
  21574282.934   113373614.49348     -2700.777    21574283.193    88343074.87947
     -2104.503  
  20023722.616   105225377.30749       646.277    20023721.513    81993804.65948
       503.589  
  24815341.184   130405498.71045      2686.984    24815338.071   101614656.96141
      2093.776  
  20902620.236   109844032.69449      1621.957    20902621.723    85592774.90949
      1263.859  
  22033563.901   115787167.20348      2575.175    22033566.016    90223768.26049
      2006.632  
  21096204.729   112731721.81207  -2097152.000    21096214.283    87680267.78206
  -2097152.000  
  20126093.184   107396707.68206      1998.687           0.000           0.0000 
         0.000  
  20083320.495   107356856.01807     -1882.039    20083324.478    83499795.08206
     -1463.816  
  20726416.850   110911254.74208     -1764.340    20726421.282    86264318.96607
     -1372.273  
 20 10 01 07 28  0.0000000  0 10G15G18G20G21G24G10R15R 6R 5R21
  21263998.742   111743067.99746     -2503.499    21263998.584    87072520.71149
     -1950.776  
  21576853.592   113387123.48748     -2707.866    21576853.899    88353601.36347
     -2110.031  
  20023108.948   105222152.33949       638.909    20023107.783    81991291.69448
       497.848  
  24812784.664   130392064.41844      2681.336    24812782.970   101604197.53054
      2089.352  
  20901078.351   109835930.15949      1613.854    20901079.871    85586461.21949
      1257.547  
  22031114.186   115774293.92648      2569.148    22031116.377    90213737.15149
      2001.929  
  21094292.062   112721501.09708  -2097152.000    21094301.614    87672318.33106
  -2097152.000  
  20124221.021   107386717.42807      1992.226           0.000           0.0000 
         0.000  
  20085081.761   107366270.61407     -1888.625    20085085.667    83507117.55206
     -1468.934  
  20728067.358   110920086.88408     -1773.613    20728071.844    86271188.36607
     -1379.484  
 20 10 01 07 28  5.0000000  0  9G15G18G20G24G10R15R 6R 5R21
  21266385.556   111755611.16848     -2506.980    21266385.518    87082294.52849
     -1953.507  
  21579435.393   113400690.91249     -2712.137    21579435.740    88364173.38347
     -2113.354  
  20022506.587   105218986.87849       634.242    20022505.377    81988825.09848
       494.211  
  20899548.412   109827890.43349      1608.738    20899549.999    85580196.52249
      1253.562  
  22028674.576   115761473.62948      2565.976    22028676.725    90203747.27549
      1999.452  
  21092391.962   112711347.53908  -2097152.000    21092401.514    87664421.11907
  -2097152.000  
  20122359.485   107376783.73006      1988.406           0.000           0.0000 
         0.000  
  20086853.529   107375741.92208     -1892.671    20086857.474    83514484.10707
     -1472.082  
  20729730.868   110928988.28508     -1779.738    20729735.235    86278111.78905
     -1384.226  
 20 10 01 07 28 10.0000000  0 11G15G18G20G21G24G10R15R 6R22R 5R21
  21268767.170   111768126.81849     -2501.187    21268767.201    87092047.02649
     -1948.977  
  21582012.638   113414234.17648     -2706.832    21582012.929    88374726.57347
     -2109.219  
  20021899.869   105215798.30349       639.401    20021898.631    81986340.51248
       498.233  
  24807686.457   130365288.13215      2684.249           0.000           0.0000 
         0.000  
  20898014.800   109819831.05749      1613.198    20898016.388    85573916.51849
      1257.042  
  22026229.223   115748623.33449      2572.359    22026231.390    90193734.03949
      2004.429  
  21090488.718   112701177.17808  -2097152.000    21090498.274    87656510.85607
  -2097152.000  
  20120492.763   107366822.66807      1994.504           0.000           0.0000 
         0.000  
  21820978.316   116481864.16416      2148.789    21820982.435    90597021.41513
      1671.281  
  20088620.232   107385185.99009     -1886.745    20088624.170    83521829.50308
     -1467.469  
  20731391.579   110937874.77408     -1776.535    20731395.851    86285023.44407
     -1381.754  
 20 10 01 07 28 15.0000000  0 14G15G18G20G21G24G27G10G13R14R15R 6R22
                                R 5R21
  21271146.796   111780631.65049     -2501.660    21271146.784    87101791.05049
     -1949.343  
  21584588.378   113427769.87748     -2708.223    21584588.642    88385273.87747
     -2110.308  
  20021291.885   105212603.16749       637.852    20021290.669    81983850.78948
       497.026  
  24805131.351   130351864.99046      2684.128    24805133.598   101572870.66151
      2091.526  
  20896480.549   109811768.51649      1611.012    20896482.170    85567633.99649
      1255.327  
  24348734.147   127953452.62155     -1682.194    24348732.003    99703991.46057
     -1310.815  
  22023781.423   115735760.06049      2572.176    22023783.539    90183710.71549
      2004.292  
  23865829.162   125415774.35616     -3479.535           0.000           0.0000 
         0.000  
  22057157.969   117577176.76616     -1844.449    22057164.198    91448858.56215
     -1434.569  
  21088585.491   112691006.91308  -2097152.000    21088595.047    87648600.64907
  -2097152.000  
  20118624.139   107356851.36107      1993.414           0.000           0.0000 
         0.000  
  21818966.640   116471126.13905      2145.848    21818970.879    90588669.58803
      1668.988  
  20090384.987   107394619.55409     -1887.526    20090388.949    83529166.71308
     -1468.081  
  20733052.607   110946763.23708     -1779.688    20733056.909    86291936.68807
     -1384.206  
 20 10 01 07 28 20.0000000  0 14G15G18G20G21G24G27G10G13R14R15R 6R22
                                R 5R21
  21273525.580   111793132.24549     -2503.094    21273525.532    87111531.75349
     -1950.464  
  21587163.951   113441304.60548     -2710.226    21587164.136    88395820.40447
     -2111.867  
  20020683.904   105209408.17649       635.484    20020682.731    81981361.19848
       495.184  
  24802575.853   130338435.72746      2683.523    24802577.330   101562406.26542
      2090.980  
  20894947.002   109803709.64149      1607.875    20894948.633    85561354.35649
      1252.887  
  24350331.933   127961859.35245     -1685.414    24350333.264    99710542.26047
     -1313.292  
  22021332.369   115722890.29249      2571.261    22021334.474    90173682.33049
      2003.578  
  23869136.648   125433160.15845     -3479.983    23869144.970    97740171.04354
     -2711.676  
  22058887.948   117586395.99806     -1848.168    22058892.357    91456029.03105
     -1437.473  
  21086683.566   112680843.60208  -2097152.000    21086693.121    87640695.84507
  -2097152.000  
  20116754.846   107346876.36307      1991.938           0.000           0.0000 
         0.000  
  21816956.309   116460395.20006      2142.305    21816960.675    90580323.34403
      1666.242  
  20092149.068   107404049.48709     -1889.055    20092153.013    83536501.10608
     -1469.253  
  20734715.312   110955660.33208     -1783.691    20734719.580    86298856.67707
     -1387.316  
 20 10 01 07 28 25.0000000  0 14G15G18G20G21G24G27G10G13R14R15R 6R22
                                R 5R21
  21275909.675   111805660.71849     -2499.246    21275909.587    87121294.21649
     -1947.465  
  21589745.417   113454870.45448     -2707.085    21589745.632    88406391.20247
     -2109.422  
  20020082.052   105206245.39449       638.640    20020080.924    81978896.67948
       497.637  
  24800025.301   130325032.51345      2687.503    24800025.999   101551962.24342
      2094.152  
  20893420.235   109795686.42649      1610.156    20893421.823    85555102.51149
      1254.668  
  24351937.230   127970298.62045     -1681.874    24351939.650    99717118.20447
     -1310.566  
  22018888.224   115710046.15949      2575.465    22018890.302    90163673.91549
      2006.852  
  23872449.178   125450567.71306     -3474.257           0.000           0.0000 
         0.000  
  22060624.217   117595655.10006     -1846.508    22060629.321    91463230.53505
     -1436.175  
  21084789.041   112670719.83508  -2097152.000    21084798.586    87632821.76608
  -2097152.000  
  20114890.902   107336930.22307      1995.652           0.000           0.0000 
         0.000  
  21814953.442   116449704.23105      2143.449    21814957.927    90572008.14803
      1667.132  
  20093918.560   107413508.30709     -1885.409    20093922.485    83543857.95408
     -1466.434  
  20736385.664   110964598.82008     -1782.503    20736390.005    86305808.81007
     -1386.397  
 20 10 01 07 28 30.0000000  0 14G15G18G20G21G24G27G10G13R14R15R 6R22
                                R 5R21
  21278287.803   111818157.61749     -2503.309    21278287.658    87131032.04949
     -1950.632  
  21592321.532   113468408.03048     -2711.866    21592321.766    88416939.94647
     -2113.147  
  20019475.038   105203055.44849       633.636    20019473.943    81976411.00748
       493.737  
  24797468.822   130311595.84646      2684.012    24797469.160   101541492.13443
      2091.437  
  20891888.965   109787639.54749      1604.684    20891890.568    85548832.21649
      1250.398  
  24353538.113   127978711.04044     -1687.515    24353540.792    99723673.30147
     -1314.957  
  22016437.624   115697168.29349      2571.801    22016439.692    90153639.23349
      2004.000  
  23875755.345   125467937.80106     -3477.663           0.000           0.0000 
         0.000  
  22062357.189   117604893.75107     -1853.304    22062361.591    91470416.16805
     -1441.464  
  21082890.603   112660575.15908  -2097152.000    21082900.150    87624931.46908
  -2097152.000  
  20113021.154   107326952.82707      1991.210           0.000           0.0000 
         0.000  
  21812946.741   116438992.76105      2137.401    21812951.393    90563676.95103
      1662.417  
  20095682.148   107422935.69509     -1889.484    20095686.092    83551190.38108
     -1469.598  
  20738052.470   110973518.20008     -1789.152    20738056.881    86312746.11307
     -1391.562  
 20 10 01 07 28 35.0000000  0 13G15G18G20G21G24G10G13R14R15R 6R22R 5
                                R21
  21280674.147   111830697.74849     -2516.770    21280673.962    87140803.56449
     -1961.121  
  21594906.500   113481992.09848     -2725.773    21594906.711    88427524.92647
     -2123.983  
  20018877.064   105199913.13549       619.269    20018876.026    81973962.44948
       482.542  
  24794919.890   130298200.74546      2670.753    24794919.539   101531054.36044
      2080.905  
  20890367.409   109779643.71649      1589.699    20890369.067    85542601.70449
      1238.726  
  22013994.814   115684331.45749      2558.753    22013996.885    90143636.50549
      1993.836  
  23879067.830   125485344.90346     -3489.296    23879070.787    97780807.63651
     -2718.933  
  22064100.997   117614187.60305     -1868.714    22064105.478    91477644.71805
     -1453.440  
  21081002.507   112650485.74208  -2097152.000    21081012.061    87617084.17508
  -2097152.000  
  20111159.766   107317020.09907      1977.956           0.000           0.0000 
         0.000  
  21810950.421   116428336.70605      2121.206    21810955.211    90555388.92103
      1649.823  
  20097454.102   107432407.68409     -1903.179    20097458.031    83558557.48408
     -1480.249  
  20739729.899   110982494.61708     -1805.539    20739734.337    86319727.76207
     -1404.313  
 20 10 01 07 28 40.0000000  0 14G15G18G20G21G24G27G10G13R14R15R 6R22
                                R 5R21
  21283073.568   111843306.57649     -2520.168    21283073.324    87150628.64449
     -1963.766  
  21597505.155   113495648.15648     -2729.909    21597505.371    88438166.00547
     -2127.206  
  20018293.009   105196843.94049       614.948    20018292.035    81971570.88448
       479.180  
  24792383.269   130284872.42745      2666.858    24792382.808   101520668.68545
      2078.066  
  20888860.434   109771724.35549      1584.577    20888862.093    85536430.77449
      1234.734  
  24356771.912   127995700.11254     -1705.964    24356774.686    99736919.40057
     -1329.324  
  22011564.699   115671561.12049      2555.770    22011566.686    90133685.58849
      1991.508  
  23882392.065   125502814.68845     -3491.933    23882389.975    97794420.37143
     -2720.999  
  22065859.415   117623562.87107     -1874.879    22065865.164    91484936.58505
     -1458.241  
  21079129.589   112640477.44008  -2097152.000    21079139.145    87609299.94808
  -2097152.000  
  20109311.580   107307157.63707      1974.086           0.000           0.0000 
         0.000  
  21808969.395   116417762.10706      2115.374    21808974.363    90547164.24703
      1645.296  
  20099239.252   107441950.14609     -1906.944    20099243.117    83565979.40508
     -1483.183  
  20741422.866   110991554.08808     -1811.664    20741427.331    86326773.98907
     -1409.073  
 20 10 01 07 28 45.0000000  0 13G15G18G20G21G24G10G13R14R15R 6R22R 5
                                R21
  21285467.504   111855886.60249     -2513.242    21285467.236    87160431.25349
     -1958.370  
  21600098.996   113509278.66048     -2723.667    21600099.106    88448787.16347
     -2122.344  
  20017704.341   105193750.40649       620.874    20017703.369    81969160.33248
       483.793  
  24789840.824   130271513.60146      2674.594    24789841.192   101510259.25344
      2084.093  
  20887349.460   109763784.16349      1590.059    20887351.108    85530243.60249
      1239.004  
  22009128.689   115658759.83249      2563.098    22009130.663    90123710.57749
      1997.218  
  23885709.968   125520249.63445     -3484.249    23885707.249    97808005.96142
     -2715.022  
  22067614.769   117632920.30206     -1870.265    22067620.926    91492214.61704
     -1454.652  
  21077253.300   112630451.11908  -2097152.000    21077262.857    87601501.70308
  -2097152.000  
  20107458.029   107297266.67407      1980.921           0.000           0.0000 
         0.000  
  21806985.087   116407169.95006      2119.934    21806990.100    90538925.92403
      1648.832  
  20101019.057   107451464.00509     -1900.098    20101022.888    83573379.06908
     -1477.858  
  20743112.781   111000597.13508     -1807.090    20743117.373    86333807.48907
     -1405.515  
 20 10 01 07 28 50.0000000  0 14G15G18G20G21G24G27G10G13R14R15R 6R22
                                R 5R21
  21287858.746   111868452.47749     -2513.956    21287858.467    87170222.85149
     -1958.925  
  21602690.753   113522898.24949     -2725.085    21602690.806    88459399.83547
     -2123.444  
  20017113.801   105190647.15849       619.460    20017112.869    81966742.21148
       482.691  
  24787296.065   130258138.83646      2674.425    24787296.706   101499837.38543
      2083.977  
  20885837.302   109755837.68649      1587.722    20885838.984    85524051.55349
      1237.187  
  24360007.590   128012703.71354     -1701.199    24360011.471    99750178.65154
     -1325.604  
  22006689.603   115645942.22049      2563.077    22006691.546    90113722.83049
      1997.199  
  23889023.841   125537664.43604     -3483.562           0.000           0.0000 
         0.000  
  22069369.869   117642275.03306     -1872.456    22069376.321    91499490.50305
     -1456.359  
  21075376.439   112620421.74408  -2097152.000    21075385.999    87593701.08707
  -2097152.000  
  20105601.892   107287362.09408      1980.199           0.000           0.0000 
         0.000  
  21805000.315   116396574.98106      2116.883    21805005.231    90530685.36504
      1646.461  
  20102796.287   107460964.13009     -1900.734    20102800.067    83580768.05407
     -1478.417  
  20744802.454   111009638.82208     -1810.313    20744807.142    86340839.88507
     -1408.022  
 20 10 01 07 28 55.0000000  0 14G15G18G20G21G24G27G10G13R14R15R 6R22
                                R 5R21
  21290251.600   111881026.98248     -2516.019    21290251.341    87180021.17649
     -1960.535  
  21605284.798   113536529.73349     -2727.914    21605284.793    88470021.77947
     -2125.647  
  20016525.731   105187556.98749       616.180    20016524.862    81964334.29348
       480.136  
  24784752.413   130244771.00946      2672.058    24784753.438   101489420.84643
      2082.112  
  20884328.262   109747907.63049      1584.047    20884329.990    85517872.28849
      1234.319  
  24361627.434   128021216.17654     -1704.796    24361631.313    99756807.53958
     -1328.414  
  22004251.762   115633131.15649      2561.323    22004253.604    90103740.17749
      1995.831  
  23892338.310   125555081.83804     -3485.063           0.000           0.0000 
         0.000  
  22071128.519   117651649.94206     -1877.522    22071135.455    91506782.08205
     -1460.301  
  21073503.351   112610412.52908  -2097152.000    21073512.912    87585916.14907
  -2097152.000  
  20103747.527   107277467.00508      1977.742           0.000           0.0000 
         0.000  
  21803019.428   116386000.58806      2112.554    21803024.292    90522460.87003
      1643.101  
  20104575.226   107470473.60909     -1903.195    20104579.023    83588164.33107
     -1480.262  
  20746496.190   111018702.31708     -1815.245    20746500.968    86347889.26207
     -1411.862  
 20 10 01 07 29  0.0000000  0 13G15G18G20G21G24G27G10R14R15R 6R22R 5
                                R21
  21292646.527   111893612.37448     -2518.038    21292646.300    87189827.97549
     -1962.112  
  21607881.521   113550175.35848     -2730.222    21607881.466    88480654.72147
     -2127.448  
  20015940.607   105184482.13949       613.684    20015939.782    81961938.30448
       478.191  
  24782210.541   130231412.28745      2670.862    24782211.286   101479011.47242
      2081.188  
  20882822.822   109739996.48849      1580.574    20882824.605    85511707.77049
      1231.617  
  24363250.368   128029745.19145     -1707.921    24363254.064    99763453.52546
     -1330.835  
  22001815.620   115620328.86249      2559.964    22001817.350    90093764.37649
      1994.776  
  22072891.317   117661047.48705     -1881.429    22072898.533    91514091.26005
     -1463.344  
  21071634.461   112600425.74808  -2097152.000    21071644.016    87578148.62507
  -2097152.000  
  20101895.428   107267583.84707      1975.844           0.000           0.0000 
         0.000  
  21801042.830   116375448.90806      2108.281    21801047.505    90514253.99203
      1639.766  
  20106356.342   107479994.88208     -1905.093    20106360.168    83595569.73907
     -1481.746  
  20748194.466   111027789.91508     -1819.805    20748199.273    86354957.37407
     -1415.405  
 20 10 01 07 29  5.0000000  0 14G15G18G20G 8G21G24G27G10R14R15R 6R22
                                R 5R21
  21295044.099   111906211.73148     -2521.308    21295043.934    87199645.63649
     -1964.659  
  21610481.485   113563838.16749     -2734.180    21610481.444    88491301.07047
     -2130.530  
  20015358.979   105181425.69249       609.570    20015358.175    81959556.65548
       474.983  
  24664920.229   129615031.22755        67.245    24664920.682   100998725.30656
        52.397  
  24779670.955   130218065.73545      2667.827    24779670.832   101468611.67442
      2078.839  
  20881321.520   109732107.12749      1575.675    20881323.308    85505560.20849
      1227.797  
  24364877.284   128038292.75245     -1711.479    24364880.651    99770113.97148
     -1333.621  
  21999381.694   115607538.37249      2556.914    21999383.331    90083797.75749
      1992.398  
  22074658.727   117670470.65105     -1887.164    22074666.487    91521420.40305
     -1467.792  
  21069770.337   112590464.43208  -2097152.000    21069779.900    87570400.97107
  -2097152.000  
  20100046.041   107257715.50707      1972.121           0.000           0.0000 
         0.000  
  21799070.943   116364923.15006      2102.425    21799075.796    90506067.32103
      1635.222  
  20108140.240   107489530.96209     -1908.878    20108144.099    83602986.70108
     -1484.683  
  20749897.810   111036904.66508     -1825.499    20749902.499    86362046.61907
     -1419.836  
 20 10 01 07 29 10.0000000  0 14G15G18G20G 8G21G24G27G10R14R15R 6R22
                                R 5R21
  21297441.695   111918811.56049     -2517.581    21297441.637    87209463.67449
     -1961.758  
  21613082.188   113577504.73549     -2731.526    21613082.165    88501950.34047
     -2128.464  
  20014778.282   105178374.23749       612.077    20014777.510    81957178.89848
       476.940  
  24664856.233   129614692.95545        69.796    24664856.422   100998461.64146
        54.375  
  24777131.215   130204718.12345      2671.965    24777131.025   101458210.83941
      2082.042  
  20879821.792   109724226.21749      1577.660    20879823.607    85499419.24549
      1229.343  
  24366505.052   128046845.42045     -1709.120    24366508.416    99776778.39646
     -1331.781  
  21996947.445   115594746.30349      2560.848    21996949.049    90073829.90449
      1995.461  
  22076428.531   117679905.70505     -1885.582    22076436.748    91528758.83104
     -1466.554  
  21067908.443   112580515.03608  -2097152.000    21067918.006    87562662.55308
  -2097152.000  
  20098196.894   107247848.23307      1975.879           0.000           0.0000 
         0.000  
  21797101.418   116354409.60107      2103.749    21797106.212    90497890.13303
      1636.249  
  20109924.329   107499068.16209     -1905.183    20109928.207    83610404.52308
     -1481.808  
  20751603.600   111046032.91008     -1824.620    20751608.248    86369146.40207
     -1419.144  
 20 10 01 07 29 15.0000000  0 15G15G18G20G 8G21G24G27G10G13R14R15R 6
                                R22R 5R21
  21299838.066   111931404.63449     -2523.063    21299838.014    87219276.46549
     -1966.027  
  21615682.192   113591167.78149     -2737.328    21615682.197    88512596.87847
     -2132.983  
  20014197.161   105175320.54949       605.914    20014196.405    81954799.40348
       472.140  
  24664792.010   129614355.08644        63.262    24664791.438   100998198.47746
        49.296  
  24774589.646   130191362.03045      2667.339    24774587.946   101447803.44741
      2078.421  
  20878322.280   109716346.51149      1570.573    20878324.150    85493279.21849
      1223.819  
  24368132.116   128055396.04245     -1715.441    24368135.844    99783441.25447
     -1336.706  
  21994511.522   115581945.41149      2556.020    21994513.146    90063855.19549
      1991.703  
  23905598.735   125624766.15756     -3486.418    23905603.160    97889429.48353
     -2716.695  
  22078199.077   117689345.52205     -1893.418    22078207.566    91536100.94404
     -1472.663  
  21066047.414   112570570.26408  -2097152.000    21066056.979    87554927.73408
  -2097152.000  
  20096346.590   107237975.12507      1970.007           0.000           0.0000 
         0.000  
  21795132.927   116343901.03907      2096.093    21795137.450    90489716.75804
      1630.288  
  20111707.294   107508599.13108     -1910.828    20111711.129    83617817.51007
     -1486.198  
  20753310.513   111055167.32208     -1832.547    20753315.143    86376250.92107
     -1425.316  
 20 10 01 07 29 20.0000000  0 13G15G18G20G21G24G10G13R14R15R 6R22R 5
                                R21
  21302240.550   111944029.55949     -2525.229    21302240.430    87229114.05449
     -1967.715  
  21618288.871   113604865.97349     -2740.378    21618288.896    88523270.78347
     -2135.363  
  20013622.976   105172303.28249       602.691    20013622.200    81952448.28548
       469.624  
  24772054.037   130178036.15646      2664.968    24772052.973   101437419.75242
      2076.612  
  20876830.371   109708506.63449      1566.965    20876832.295    85487170.23149
      1221.012  
  21992081.252   115569174.38249      2554.054    21992082.899    90053903.73749
      1990.168  
  23908916.352   125642203.85346     -3487.473    23908919.632    97903017.35341
     -2717.508  
  22079977.704   117698829.23105     -1898.046    22079986.256    91543477.16004
     -1476.254  
  21064194.592   112560669.34208  -2097152.000    21064204.157    87547227.01908
  -2097152.000  
  20094502.589   107228135.21207      1967.625           0.000           0.0000 
         0.000  
  21793172.582   116333436.61306      2090.929    21793177.054    90481577.77703
      1626.273  
  20113496.438   107518163.25608     -1913.160    20113500.231    83625256.25207
     -1488.016  
  20755025.901   111064347.14708     -1837.547    20755030.566    86383390.77707
     -1429.207  
 20 10 01 07 29 25.0000000  0 14G15G18G20G21G24G27G10G13R14R15R 6R22
                                R 5R21
  21304643.703   111956658.14949     -2526.624    21304643.544    87238954.52649
     -1968.801  
  21620896.869   113618571.06448     -2742.379    21620896.882    88533950.05047
     -2136.926  
  20013050.347   105169294.15949       600.390    20013049.568    81950103.51448
       467.831  
  24769518.676   130164712.30645      2663.641    24769518.520   101427037.46743
      2075.538  
  20875340.670   109700678.41949      1563.769    20875342.681    85481070.32049
      1218.520  
  24371401.641   128072579.76256     -1720.379    24371404.907    99796829.33457
     -1340.563  
  21989651.294   115556404.96249      2553.023    21989652.953    90043953.54849
      1989.367  
  23912234.325   125659639.10346     -3487.351    23912234.707    97916603.27843
     -2717.410  
  22081759.287   117708328.10304     -1901.855    22081767.911    91550865.17304
     -1479.223  
  21062344.613   112550783.61808  -2097152.000    21062354.180    87539538.13208
  -2097152.000  
  20092659.379   107218299.64907      1966.112           0.000           0.0000 
         0.000  
  21791215.006   116322987.68906      2087.637    21791219.531    90473450.84803
      1623.718  
  20115286.338   107527731.79708     -1914.917    20115290.211    83632698.45607
     -1489.382  
  20756744.411   111073543.58408     -1841.624    20756749.073    86390543.56507
     -1432.374  
 20 10 01 07 29 30.0000000  0 15G15G18G20G 8G21G24G27G10G13R14R15R 6
                                R22R 5R21
  21307049.091   111969298.67549     -2529.266    21307048.953    87248804.27449
     -1970.855  
  21623507.733   113632291.37149     -2745.530    21623507.771    88544641.20247
     -2139.379  
  20012480.886   105166301.58849       596.858    20012480.079    81947771.64548
       465.081  
  24664627.011   129613489.29555        52.030    24664632.085   100997543.57857
        40.538  
  24766985.263   130151398.78644      2662.116    24766984.906   101416663.27042
      2074.160  
  20873854.808   109692870.32149      1559.702    20873856.893    85474986.08249
      1215.348  
  24373040.368   128081191.89346     -1723.582    24373043.629    99803540.03548
     -1343.063  
  21987223.224   115543645.52049      2550.901    21987224.889    90034011.12349
      1987.714  
  23915552.783   125677080.34646     -3488.812    23915552.859    97930193.87241
     -2718.554  
  22083545.403   117717850.72905     -1907.284    22083554.098    91558271.65804
     -1483.445  
  21060499.065   112540921.56608  -2097152.000    21060508.636    87531867.66608
  -2097152.000  
  20090818.574   107208477.07207      1963.405           0.000           0.0000 
         0.000  
  21789262.001   116312562.79006      2082.820    21789266.591    90465342.63203
      1619.977  
  20117078.628   107537313.08108     -1917.570    20117082.620    83640150.57107
     -1491.448  
  20758467.669   111082765.27608     -1846.687    20758472.248    86397715.99707
     -1436.315  
 20 10 01 07 29 35.0000000  0 14G15G18G20G21G24G27G10G13R14R15R 6R22
                                R 5R21
  21309453.665   111981935.32748     -2526.843    21309453.601    87258651.00049
     -1968.972  
  21626118.489   113646010.99049     -2743.949    21626118.483    88555331.82047
     -2138.145  
  20011911.549   105163309.64149       598.434    20011910.684    81945440.25648
       466.312  
  24764450.635   130138079.78845      2664.495    24764450.540   101406284.90544
      2076.242  
  20872369.740   109685066.36149      1560.313    20872371.845    85468905.08949
      1215.827  
  24374679.149   128089804.83745     -1723.019    24374681.857    99810251.46247
     -1342.609  
  21984794.014   115530880.12549      2553.672    21984795.611    90024064.07449
      1989.874  
  23918869.904   125694511.55647     -3485.210    23918869.937    97943776.62541
     -2715.749  
  22085333.327   117727380.68506     -1906.644    22085341.588    91565683.83104
     -1482.953  
  21058654.926   112531067.04708  -2097152.000    21058664.498    87524203.04108
  -2097152.000  
  20088977.241   107198651.42707      1965.508           0.000           0.0000 
         0.000  
  21787310.593   116302145.82407      2082.351    21787315.099    90457240.49303
      1619.593  
  20118870.347   107546891.06508     -1915.265    20118874.388    83647600.11707
     -1489.651  
  20760192.632   111091995.99608     -1846.914    20760197.096    86404895.42407
     -1436.491  
 20 10 01 07 29 40.0000000  0 13G15G18G20G24G27G10G13R14R15R 6R22R 5
                                R21
  21311864.972   111994607.17349     -2540.047    21311865.020    87268525.17149
     -1979.261  
  21628736.578   113659769.04748     -2757.469    21628736.489    88566052.36847
     -2148.680  
  20011349.766   105160357.51149       584.273    20011348.873    81943139.89148
       455.273  
  20870892.910   109677305.66149      1545.800    20870895.041    85462857.79349
      1204.520  
  24376325.567   128098457.54246     -1736.897    24376328.384    99816993.80447
     -1353.430  
  21982371.146   115518147.96249      2541.051    21982372.673    90014142.89249
      1980.034  
  23922192.945   125711972.00847     -3496.956    23922193.580    97957382.14043
     -2724.901  
  22087130.144   117736957.91706     -1922.253    22087138.003    91573132.72604
     -1495.097  
  21056819.642   112521259.84408  -2097152.000    21056829.214    87516575.22008
  -2097152.000  
  20087142.755   107188862.35508      1952.055           0.000           0.0000 
         0.000  
  21785368.056   116291776.43106      2067.108    21785372.613    90449175.43403
      1607.749  
  20120668.923   107556505.54709     -1928.809    20120672.907    83655078.07407
     -1500.184  
  20761926.663   111101275.45408     -1862.792    20761931.212    86412112.80207
     -1448.840  
 20 10 01 07 29 45.0000000  0 15G15G18G20G 8G21G24G27G10G13R14R15R 6
                                R22R 5R21
  21314279.983   112007298.04849     -2536.085    21314280.030    87278414.17149
     -1976.171  
  21631358.888   113673549.37949     -2754.234    21631358.765    88576790.27547
     -2146.160  
  20010792.490   105157428.97649       587.456    20010791.623    81940857.92148
       457.757  
  24664494.997   129612794.68254        40.300    24664501.944   100997012.42357
        31.417  
  24759396.523   130111501.56455      2655.909    24759399.716   101385568.09452
      2069.770  
  20869421.214   109669571.81349      1548.145    20869423.329    85456831.40849
      1206.344  
  24377976.609   128107133.95046     -1733.828    24377979.364    99823754.57648
     -1351.042  
  21979951.485   115505432.83749      2545.344    21979953.097    90004235.00949
      1983.382  
  23925518.233   125729445.32545     -3491.757    23925519.324    97970997.75342
     -2720.843  
  22088932.740   117746565.95804     -1919.624    22088940.532    91580605.62404
     -1493.051  
  21054990.133   112511483.50208  -2097152.000    21054999.707    87508971.40807
  -2097152.000  
  20085312.115   107179093.61607      1955.895           0.000           0.0000 
         0.000  
  21783431.450   116281438.35406      2068.527    21783435.954    90441134.72403
      1608.858  
  20122471.233   107566140.14809     -1924.769    20122475.182    83662571.61608
     -1497.046  
  20763666.787   111110587.21308     -1861.434    20763671.431    86419355.26707
     -1447.784  
 20 10 01 07 29 50.0000000  0 15G15G18G20G 8G21G24G27G10G13R14R15R 6
                                R22R 5R21
  21316691.550   112019970.91749     -2534.500    21316691.596    87288289.13249
     -1974.937  
  21633978.361   113687314.89549     -2753.387    21633978.278    88587516.64847
     -2145.499  
  20010232.680   105154487.03149       587.925    20010231.813    81938565.49848
       458.125  
  24664455.143   129612586.90345        40.894    24664462.157   100996850.53548
        31.870  
  24756867.818   130098214.10044      2658.219    24756862.026   101375214.39443
      2071.374  
  20867947.676   109661828.16249      1548.035    20867949.748    85450797.40349
      1206.261  
  24379625.184   128115796.92646     -1732.476    24379628.097    99830504.95447
     -1349.979  
  21977528.029   115492697.74349      2547.405    21977529.699    89994311.56849
      1984.992  
  23928838.581   125746894.65246     -3489.363    23928841.371    97984594.60741
     -2718.984  
  22090733.890   117756167.10105     -1921.089    22090741.749    91588073.17604
     -1494.183  
  21053159.372   112501700.47108  -2097152.000    21053168.945    87501362.37907
  -2097152.000  
  20083478.242   107169307.30907      1957.129           0.000           0.0000 
         0.000  
  21781493.673   116271093.89506      2067.878    21781498.152    90433089.04604
      1608.352  
  20124270.263   107575757.05709     -1923.316    20124274.135    83670051.44007
     -1495.913  
  20765405.917   111119893.64508     -1862.422    20765410.619    86426593.59707
     -1448.550  
 20 10 01 07 29 55.0000000  0 15G15G18G20G 8G21G24G27G10G13R14R15R 6
                                R22R 5R21
  21319104.423   112032650.68049     -2538.859    21319104.448    87298169.45049
     -1978.336  
  21636599.823   113701090.61549     -2758.344    21636599.719    88598250.97847
     -2149.363  
  20009675.059   105151556.61949       582.832    20009674.197    81936282.05948
       454.151  
  24664418.301   129612393.29745        34.933    24664425.049   100996699.67646
        27.223  
  24754340.660   130084932.04546      2653.566    24754334.052   101364864.73141
      2067.726  
  20866476.946   109654099.51749      1542.102    20866479.019    85444775.07849
      1201.637  
  24381275.933   128124471.51746     -1738.172    24381278.969    99837264.37548
     -1354.421  
  21975105.468   115479967.69149      2543.265    21975107.222    89984392.05549
      1981.762  
  23932159.646   125764344.93746     -3492.449    23932162.436    97998192.31142
     -2721.390  
  22092538.474   117765786.80004     -1928.163    22092546.753    91595555.17905
     -1499.688  
  21051332.101   112491936.09208  -2097152.000    21051341.676    87493767.86807
  -2097152.000  
  20081645.813   107159528.83707      1952.664           0.000           0.0000 
         0.000  
  21779559.319   116260768.40406      2060.793    21779563.843    90425058.09404
      1602.835  
  20126070.741   107585381.67409     -1927.991    20126074.603    83677537.25108
     -1499.550  
  20767148.864   111129220.13508     -1869.562    20767153.508    86433847.54907
     -1454.104  
 20 10 01 07 30  0.0000000  0 13G15G18G20G24G27G10G13R14R15R 6R22R 5
                                R21
  21321520.765   112045348.55349     -2539.515    21321520.760    87308063.90549
     -1978.848  
  21639225.324   113714887.65348     -2759.757    21639225.276    88609001.91347
     -2150.464  
  20009121.769   105148648.99549       581.016    20009120.884    81934016.36948
       452.733  
  20865011.183   109646396.94249      1539.694    20865013.260    85438773.07049
      1199.757  
  24382930.982   128133168.91744     -1739.968    24382934.207    99844041.57948
     -1355.819  
  21972686.021   115467253.81748      2543.043    21972687.813    89974485.13549
      1981.594  
  23935482.539   125781807.26046     -3492.121    23935485.402    98011799.17842
     -2721.155  
  22094348.973   117775436.33906     -1931.055    22094357.383    91603060.32004
     -1501.941  
  21049510.462   112482201.80208  -2097152.000    21049520.035    87486196.74808
  -2097152.000  
  20079817.018   107149769.72107      1951.698           0.000           0.0000 
         0.000  
  21777630.727   116250473.38706      2057.434    21777635.315    90417050.85703
      1600.226  
  20127874.796   107595025.41609     -1928.683    20127878.700    83685037.93308
     -1500.090  
  20768897.609   111138577.95708     -1872.866    20768902.205    86441125.83207
     -1456.683  
 20 10 01 07 30  5.0000000  0 13G15G18G20G24G27G10G13R14R15R 6R22R 5
                                R21
  21323936.487   112058043.22749     -2539.374    21323936.442    87317955.84549
     -1978.737  
  21641850.840   113728684.76749     -2760.156    21641850.796    88619752.88647
     -2150.777  
  20008568.763   105145742.80449       580.464    20008567.811    81931751.81148
       452.309  
  20863546.341   109638699.30349      1538.301    20863548.463    85432774.91049
      1198.676  
  24384586.409   128141867.74745     -1740.452    24384589.725    99850819.83748
     -1356.203  
  21970265.602   115454534.83449      2543.586    21970267.435    89964574.24849
      1982.016  
  23938803.898   125799260.40146     -3490.229    23938806.349    98025399.14843
     -2719.648  
  22096160.876   117785094.17905     -1933.270    22096169.592    91610571.97604
     -1503.652  
  21047690.397   112472475.92708  -2097152.000    21047699.971    87478632.18007
  -2097152.000  
  20077987.753   107140008.32007      1951.871           0.000           0.0000 
         0.000  
  21775703.777   116240187.03706      2055.461    21775708.377    90409050.35304
      1598.690  
  20129678.357   107604666.67109     -1928.656    20129682.396    83692536.69408
     -1500.069  
  20770648.206   111147945.50508     -1875.289    20770652.709    86448411.69907
     -1458.558  
 20 10 01 07 30 10.0000000  0 14G15G18G20G21G24G27G10G13R14R15R 6R22
                                R 5R21
  21326353.770   112070746.00949     -2542.156    21326353.685    87327854.11449
     -1980.905  
  21644478.495   113742493.12548     -2763.586    21644478.438    88630512.67447
     -2153.444  
  20008018.154   105142849.33649       576.741    20008017.126    81929497.16448
       449.405  
  24746767.644   130045141.04655      2651.237    24746767.021   101333873.53654
      2065.897  
  20862084.614   109631017.84349      1534.039    20862086.736    85426789.34949
      1195.351  
  24386244.296   128150579.46845     -1744.593    24386247.647    99857608.18747
     -1359.425  
  21967846.384   115441822.04449      2541.167    21967848.265    89954668.18349
      1980.128  
  23942125.662   125816715.67446     -3491.559    23942127.697    98039000.67241
     -2720.691  
  22097976.466   117794771.47906     -1938.065    22097985.149    91618098.82204
     -1507.383  
  21045874.053   112462769.93508  -2097152.000    21045883.629    87471083.08507
  -2097152.000  
  20076160.242   107130256.06107      1948.750           0.000           0.0000 
         0.000  
  21773780.463   116229920.91706      2050.405    21773785.259    90401065.64304
      1594.762  
  20131483.631   107614316.89209     -1931.694    20131487.721    83700042.41908
     -1502.434  
  20772402.768   111157334.20908     -1880.598    20772407.231    86455714.03907
     -1462.691  
 20 10 01 07 30 15.0000000  0 14G15G18G20G21G24G27G10G13R14R15R 6R22
                                R 5R21
  21328773.343   112083460.82349     -2543.823    21328773.214    87337761.77449
     -1982.199  
  21647109.061   113756316.78549     -2765.945    21647109.060    88641284.34747
     -2155.285  
  20007470.740   105139972.59249       573.948    20007469.660    81927255.53748
       447.229  
  24744246.470   130031891.25156      2649.711    24744241.924   101323521.62452
      2064.711  
  20860626.746   109623356.63749      1530.503    20860628.876    85420819.59449
      1192.602  
  24387905.267   128159307.52546     -1747.680    24387908.661    99864409.32248
     -1361.823  
  21965429.090   115429119.45149      2539.695    21965431.030    89944770.04149
      1978.979  
  23945448.502   125834176.90646     -3491.840    23945449.984    98052606.81744
     -2720.910  
  22099796.472   117804472.69706     -1942.148    22099805.036    91625644.22004
     -1510.563  
  21044062.179   112453087.83408  -2097152.000    21044071.755    87463552.56007
  -2097152.000  
  20074335.127   107120516.95907      1946.934           0.000           0.0000 
         0.000  
  21771861.724   116219679.08706      2046.456    21771866.703    90393099.74504
      1591.684  
  20133291.300   107623980.01509     -1933.687    20133295.449    83707558.16308
     -1503.983  
  20774161.992   111166748.14109     -1884.952    20774166.477    86463035.97607
     -1466.078  
 20 10 01 07 30 20.0000000  0 13G15G18G20G24G27G10G13R14R15R 6R22R 5
                                R21
  21331194.529   112096183.93149     -2545.151    21331194.311    87347675.88749
     -1983.238  
  21649741.835   113770151.94549     -2767.702    21649741.837    88652064.97247
     -2156.656  
  20006925.775   105137108.81549       571.769    20006924.658    81925024.03348
       445.535  
  20859172.029   109615711.95149      1527.629    20859174.150    85414862.70249
      1190.358  
  24389568.717   128168048.70245     -1749.328    24389572.149    99871220.62548
     -1363.113  
  21963013.053   115416423.27849      2538.601    21963015.001    89934876.92849
      1978.132  
  23948771.940   125851640.38046     -3492.804    23948773.429    98066214.61541
     -2721.675  
  22101620.238   117814193.80206     -1946.086    22101628.661    91633205.05204
     -1513.628  
  21042254.080   112443425.89708  -2097152.000    21042263.655    87456037.71807
  -2097152.000  
  20072511.778   107110787.19007      1945.258           0.000           0.0000 
         0.000  
  21769946.856   116209457.73806      2042.609    21769951.905    90385149.80003
      1588.695  
  20135100.756   107633652.34409     -1935.070    20135104.910    83715081.08208
     -1505.058  
  20775925.214   111176183.43408     -1888.785    20775929.696    86470374.51107
     -1469.058  
 20 10 01 07 30 25.0000000  0 13G15G18G20G21G24G27G10R14R15R 6R22R 5
                                R21
  21333616.612   112108911.84449     -2546.152    21333616.266    87357593.73249
     -1984.019  
  21652376.126   113783995.11749     -2769.484    21652376.129    88662851.86647
     -2158.039  
  20006382.646   105134254.55649       569.914    20006381.502    81922799.93048
       444.086  
  24739204.858   130005399.55355      2648.437    24739195.364   101302868.96354
      2063.730  
  20857719.758   109608080.18349      1524.913    20857721.887    85408915.86549
      1188.241  
  24391233.951   128176799.28245     -1751.909    24391237.386    99878039.20749
     -1365.132  
  21960597.604   115403730.09949      2538.508    21960599.490    89924986.13149
      1978.054  
  22103447.042   117823931.13607     -1949.039    22103455.382    91640778.43604
     -1515.934  
  21040449.100   112433780.63408  -2097152.000    21040458.678    87448535.85507
  -2097152.000  
  20070689.516   107101063.49707      1944.136           0.000           0.0000 
         0.000  
  21768035.171   116199253.46806      2039.320    21768040.271    90377213.17603
      1586.136  
  20136911.248   107643330.30209     -1936.063    20136915.369    83722608.37008
     -1505.820  
  20777691.771   111185636.57708     -1892.484    20777696.205    86477726.96007
     -1471.938  
 20 10 01 07 30 30.0000000  0 13G15G18G20G21G24G27G10R14R15R 6R22R 5
                                R21
  21336040.326   112121648.39049     -2548.374    21336039.915    87367518.32749
     -1985.746  
  21655012.676   113797850.21749     -2772.324    21655012.750    88673648.04647
     -2160.254  
  20005842.058   105131413.72149       566.910    20005840.906    81920586.28248
       441.745  
  24736685.980   129992164.29144      2645.559    24736680.796   101292555.91445
      2062.055  
  20856270.692   109600465.29149      1521.241    20856272.864    85402982.17149
      1185.378  
  24392901.753   128185563.20445     -1754.007    24392905.174    99884868.24048
     -1366.757  
  21958183.488   115391043.77649      2536.663    21958185.336    89915100.69949
      1976.621  
  22105277.640   117833688.72307     -1953.378    22105285.836    91648367.73504
     -1519.292  
  21038647.974   112424155.96108  -2097152.000    21038657.552    87441049.99907
  -2097152.000  
  20068869.078   107091349.38507      1941.809           0.000           0.0000 
         0.000  
  21766127.528   116189070.02706      2034.784    21766132.468    90369292.70604
      1582.604  
  20138723.523   107653017.73109     -1938.324    20138727.603    83730143.03608
     -1507.590  
  20779462.427   111195111.46408     -1897.305    20779466.779    86485096.32607
     -1475.683  
 20 10 01 07 30 35.0000000  0 13G15G18G20G24G27G10G13R14R15R 6R22R 5
                                R21
  21338465.971   112134395.05249     -2550.816    21338465.516    87377450.78649
     -1987.648  
  21657651.714   113811718.48448     -2775.245    21657651.874    88684454.47047
     -2162.534  
  20005304.298   105128587.58349       563.339    20005303.151    81918384.10848
       438.965  
  20854825.072   109592868.53649      1517.155    20854827.293    85397062.64349
      1182.198  
  24394572.101   128194341.50444     -1757.296    24394575.557    99891708.49348
     -1369.320  
  21955770.946   115378365.62449      2534.332    21955772.747    89905221.61049
      1974.800  
  23958742.295   125904043.72856     -3494.206    23958741.963    98107051.96854
     -2722.758  
  22107112.244   117843467.91306     -1958.309    22107120.259    91655973.83503
     -1523.117  
  21036850.946   112414553.18708  -2097152.000    21036860.529    87433581.20007
  -2097152.000  
  20067050.755   107081646.43707      1939.027           0.000           0.0000 
         0.000  
  21764224.026   116178908.84706      2029.870    21764228.948    90361389.58304
      1578.789  
  20140537.819   107662716.12409     -1941.218    20140541.884    83737686.24508
     -1509.835  
  20781237.426   111204609.40508     -1902.175    20781241.576    86492483.58207
     -1479.476  
 20 10 01 07 30 40.0000000  0 14G15G18G20G21G24G27G10G13R14R15R 6R22
                                R 5R21
  21340893.855   112147153.70449     -2552.555    21340893.367    87387392.58949
     -1989.004  
  21660293.689   113825602.00349     -2778.246    21660293.843    88695272.80147
     -2164.867  
  20004769.672   105125778.19949       560.487    20004768.558    81916194.97448
       436.738  
  24731653.494   129965731.40255      2642.402    24731653.979   101271998.93954
      2058.816  
  20853383.337   109585292.10849      1513.378    20853385.577    85391158.93449
      1179.258  
  24396245.790   128203136.67545     -1759.859    24396249.167    99898561.89548
     -1371.324  
  21953360.355   115365697.69449      2532.738    21953362.153    89895350.50849
      1973.562  
  23962067.697   125921518.80446     -3495.613    23962070.321    98120668.88244
     -2723.871  
  22108951.299   117853270.83006     -1963.085    22108959.381    91663598.38304
     -1526.840  
  21035058.432   112404974.53708  -2097152.000    21035068.019    87426131.15107
  -2097152.000  
  20065234.877   107071956.81207      1936.762           0.000           0.0000 
         0.000  
  21762325.090   116168772.13506      2025.366    21762329.944    90353505.45604
      1575.277  
  20142354.568   107672427.47009     -1943.265    20142358.594    83745239.52308
     -1511.429  
  20783017.119   111214132.52708     -1907.020    20783021.161    86499890.45407
     -1483.241  
 20 10 01 07 30 45.0000000  0 13G15G18G20G21G24G10G13R14R15R 6R22R 5
                                R21
  21343324.064   112159924.53649     -2557.062    21343323.556    87397343.87049
     -1992.523  
  21662938.538   113839500.90049     -2783.026    21662938.751    88706103.09947
     -2168.597  
  20004238.320   105122985.80149       554.995    20004237.204    81914019.07848
       432.461  
  24729140.832   129952526.08744      2638.050    24729137.355   101261709.25241
      2055.633  
  20851945.506   109577736.16249      1507.476    20851947.765    85385271.17849
      1174.651  
  21950951.730   115353040.19349      2528.878    21950953.563    89885487.51549
      1970.555  
  23965393.507   125938999.83246     -3498.609    23965395.348    98134290.43644
     -2726.191  
  22110794.893   117863097.37507     -1969.434    22110802.738    91671241.15003
     -1531.800  
  21033270.436   112395420.03108  -2097152.000    21033280.021    87418699.86008
  -2097152.000  
  20063421.555   107062280.57708      1932.453           0.000           0.0000 
         0.000  
  21760430.754   116158659.94906      2018.094    21760435.617    90345640.44003
      1569.628  
  20144173.761   107682151.91009     -1947.934    20144177.733    83752802.96208
     -1515.063  
  20784801.493   111223680.98108     -1914.116    20784805.581    86507317.04007
     -1488.757  
 20 10 01 07 30 50.0000000  0 14G15G18G20G21G24G27G10G13R14R15R 6R22
                                R 5R21
  21345758.045   112172715.09849     -2558.813    21345757.530    87407310.55449
     -1993.879  
  21665587.752   113853422.83248     -2785.371    21665588.057    88716951.34447
     -2170.421  
  20003711.594   105120217.96149       552.285    20003710.482    81911862.33248
       430.351  
  24726630.731   129939339.38544      2636.269    24726624.385   101251433.90543
      2054.230  
  20850512.965   109570208.16949      1504.250    20850515.245    85379405.21749
      1172.144  
  24399604.189   128220785.08955     -1768.020    24399607.402    99912312.93158
     -1377.676  
  21948546.551   115340400.73649      2527.539    21948548.396    89875638.59949
      1969.508  
  23968722.129   125956494.70346     -3499.257    23968724.606    98147922.90943
     -2726.688  
  22112644.381   117872955.62506     -1973.504    22112651.921    91678908.66201
     -1534.952  
  21031488.426   112385897.50608  -2097152.000    21031498.013    87411293.46207
  -2097152.000  
  20061612.221   107052625.46807      1930.340           0.000           0.0000 
         0.000  
  21758542.507   116148580.01606      2014.332    21758547.405    90337800.49503
      1566.702  
  20145996.864   107691897.22009     -1949.878    20146000.851    83760382.63208
     -1516.578  
  20786592.068   111233262.45908     -1918.371    20786596.122    86514769.29207
     -1492.066  
 20 10 01 07 30 55.0000000  0 14G15G18G20G21G24G27G10G13R14R15R 6R22
                                R 5R21
  21348188.451   112185487.12349     -2551.570    21348188.034    87417262.78149
     -1988.238  
  21668234.064   113867329.39349     -2778.917    21668234.417    88727787.62447
     -2165.395  
  20003182.237   105117436.32749       558.625    20003181.139    81909694.82148
       435.288  
  24724117.875   129926132.73944      2644.500    24724112.138   101241142.92244
      2060.644  
  20849078.478   109562669.89149      1509.508    20849080.708    85373531.24549
      1176.237  
  24401283.051   128229607.44145     -1762.558    24401286.049    99919187.48948
     -1373.418  
  21946137.518   115327740.99449      2534.796    21946139.399    89865773.84849
      1975.163  
  23972046.368   125973964.98346     -3490.405    23972050.012    98161536.01743
     -2719.816  
  22114492.357   117882806.40807     -1968.698    22114499.962    91686570.44104
     -1531.202  
  21029705.118   112376368.05308  -2097152.000    21029714.706    87403881.66807
  -2097152.000  
  20059799.544   107042952.55307      1937.203           0.000           0.0000 
         0.000  
  21756653.019   116138493.58106      2018.414    21756657.877    90329955.46503
      1569.870  
  20147816.560   107701624.38109     -1942.706    20147820.572    83767948.20808
     -1510.996  
  20788381.507   111242838.01208     -1913.496    20788385.501    86522216.92707
     -1488.276  
 20 10 01 07 31  0.0000000  0 14G15G18G20G21G24G27G10G13R14R15R 6R22
                                R 5R21
  21350619.156   112198260.44049     -2560.707    21350618.803    87427215.99849
     -1995.359  
  21670881.243   113881240.47349     -2788.483    21670881.645    88738627.42147
     -2172.843  
  20002654.064   105114660.82449       548.659    20002652.963    81907532.09248
       427.522  
  24721604.834   129912926.33845      2635.265    24721599.812   101230815.24155
      2053.452  
  20847645.850   109555141.41149      1498.729    20847648.019    85367664.90549
      1167.843  
  24402963.240   128238435.89845     -1773.726    24402966.135    99926066.84848
     -1382.125  
  21943728.430   115315080.86749      2526.242    21943730.315    89855908.83349
      1968.500  
  23975370.210   125991430.69947     -3498.500    23975373.216    98175145.69943
     -2726.109  
  22116342.756   117892670.01606     -1979.851    22116350.366    91694242.13804
     -1539.882  
  21027924.284   112366851.81408  -2097152.000    21027933.876    87396480.16407
  -2097152.000  
  20057987.293   107033281.94108      1927.792           0.000           0.0000 
         0.000  
  21754766.020   116128420.68306      2007.003    21754770.934    90322121.01004
      1561.008  
  20149636.652   107711353.72608     -1952.097    20149640.676    83775515.47308
     -1518.406  
  20790173.587   111252427.85908     -1925.402    20790177.525    86529675.69307
     -1497.538  
 20 10 01 07 31  5.0000000  0 15G15G18G20G 8G21G24G27G10G13R14R15R 6
                                R22R 5R21
  21353058.593   112211079.67249     -2561.913    21353058.290    87437205.00549
     -1996.300  
  21673537.792   113895200.66848     -2790.300    21673538.278    88749505.48547
     -2174.265  
  20002135.539   105111936.01649       546.546    20002134.396    81905408.86548
       425.878  
  24664225.415   129611378.79953        -8.348    24664230.384   100995893.02453
        -6.520  
  24719100.846   129899764.29146      2633.871    24719096.427   101220559.26643
      2052.402  
  20846223.478   109547666.88949      1496.121    20846225.611    85361840.60249
      1165.808  
  24404652.985   128247314.75245     -1774.418    24404655.811    99932985.41648
     -1382.663  
  21941327.736   115302464.91849      2525.367    21941329.626    89846078.22649
      1967.815  
  23978701.657   126008936.20046     -3499.358    23978704.753    98188786.35244
     -2726.773  
  22118204.088   117902591.59006     -1983.312    22118211.633    91701958.91103
     -1542.582  
  21026154.421   112357394.20508  -2097152.000    21026164.007    87389124.22107
  -2097152.000  
  20056184.064   107023659.16007      1926.449           0.000           0.0000 
         0.000  
  21752890.169   116118406.76406      2003.339    21752894.978    90314332.39103
      1558.148  
  20151465.629   107721130.50009     -1953.453    20151469.673    83783119.64408
     -1519.375  
  20791976.856   111262077.26608     -1929.276    20791980.770    86537180.78707
     -1500.551  
 20 10 01 07 31 10.0000000  0 13G15G18G20G21G24G10G13R14R15R 6R22R 5
                                R21
  21355496.648   112223891.67649     -2564.413    21355496.338    87447188.37549
     -1998.250  
  21676193.580   113909156.83848     -2793.648    21676194.082    88760380.43447
     -2176.870  
  20001616.549   105109208.79849       542.925    20001615.363    81903283.76248
       423.055  
  24716595.132   129886593.83245      2632.390    24716591.746   101210296.58144
      2051.218  
  20844801.358   109540193.59449      1491.769    20844803.451    85356017.24849
      1162.413  
  21938925.356   115289840.07449      2522.898    21938927.227    89836240.68049
      1965.894  
  23982030.534   126026428.41046     -3499.976    23982033.080    98202416.57544
     -2727.270  
  22120066.235   117912517.25206     -1988.105    22120073.207    91709678.73201
     -1546.323  
  21024385.416   112347941.17808  -2097152.000    21024395.005    87381771.87807
  -2097152.000  
  20054379.573   107014030.01807      1923.586           0.000           0.0000 
         0.000  
  21751015.095   116108397.71206      1998.261    21751019.914    90306547.59904
      1554.203  
  20153293.368   107730900.62509     -1956.292    20153297.403    83790718.61608
     -1521.565  
  20793781.170   111271732.20008     -1934.343    20793785.038    86544690.17107
     -1504.492  
 20 10 01 07 31 15.0000000  0 14G15G18G20G21G24G27G10G13R14R15R 6R22
                                R 5R21
  21357936.249   112236711.89849     -2563.362    21357935.927    87457178.17749
     -1997.426  
  21678851.513   113923124.43248     -2793.335    21678852.009    88771264.26147
     -2176.628  
  20001100.060   105106494.66349       543.015    20001098.870    81901168.84248
       423.124  
  24714090.654   129873430.43146      2633.512    24714086.653   101200039.32941
      2052.086  
  20843382.398   109532736.82049      1491.288    20843384.460    85350206.77949
      1162.043  
  24408033.850   128265083.16355     -1777.957    24408036.433    99946828.55957
     -1385.421  
  21936524.223   115277221.78949      2524.452    21936526.089    89826408.26249
      1967.104  
  23985359.972   126043922.88046     -3497.511    23985362.009    98216048.70041
     -2725.328  
  22121932.116   117922462.73107     -1989.671           0.000           0.0000 
         0.000  
  21022620.221   112338508.50708  -2097152.000    21022629.807    87374435.34707
  -2097152.000  
  20052576.827   107004410.34507      1924.562           0.000           0.0000 
         0.000  
  21749143.896   116098409.34107      1997.108    21749148.721    90298778.87603
      1553.309  
  20155122.814   107740679.93509     -1955.124    20155126.888    83798324.75708
     -1520.656  
  20795589.373   111281408.41508     -1935.647    20795593.326    86552216.13207
     -1505.504  
 20 10 01 07 31 20.0000000  0 14G15G18G20G21G24G27G10G13R14R15R 6R22
                                R 5R21
  21360376.075   112249533.11349     -2565.440    21360375.729    87467168.72649
     -1999.051  
  21681510.228   113937096.19549     -2795.750    21681510.704    88782151.36047
     -2178.507  
  20000584.677   105103786.37049       540.054    20000583.501    81899058.49148
       420.819  
  24711586.177   129860266.81446      2631.840    24711583.158   101189781.93744
      2050.823  
  20841965.216   109525289.50849      1487.375    20841967.298    85344403.67449
      1158.987  
  24409726.442   128273977.85445     -1780.031    24409728.940    99953759.53047
     -1387.043  
  21934122.973   115264602.81849      2522.832    21934124.769    89816575.29349
      1965.839  
  23988688.124   126061412.28146     -3498.093    23988690.175    98229676.76443
     -2725.788  
  22123800.275   117932420.54007     -1993.969    22123806.246    91725163.13713
     -1550.867  
  21020857.466   112329088.88008  -2097152.000    21020867.058    87367108.99707
  -2097152.000  
  20050774.437   106994792.88207      1922.112           0.000           0.0000 
         0.000  
  21747275.267   116088434.31806      1992.854    21747279.989    90291020.50004
      1549.995  
  20156952.582   107750461.06209     -1957.453    20156956.686    83805932.29308
     -1522.456  
  20797400.143   111291098.55908     -1940.395    20797404.212    86559752.90407
     -1509.198  
 20 10 01 07 31 25.0000000  0 14G15G18G20G21G24G27G10G13R14R15R 6R22
                                R 5R21
  21362817.906   112262364.80349     -2566.882    21362817.495    87477167.44549
     -2000.172  
  21684171.526   113951081.63048     -2798.090    21684172.056    88793049.09147
     -2180.331  
  20000072.225   105101093.38649       537.500    20000071.060    81896960.07148
       418.831  
  24709083.066   129847112.43946      2630.382    24709080.830   101179531.82142
      2049.652  
  20840551.659   109517861.06149      1484.172    20840553.712    85338615.27849
      1156.496  
  24411421.885   128282887.68744     -1783.070    24411424.203    99960702.22648
     -1389.409  
  21931723.393   115251992.69549      2521.457    21931725.144    89806749.22949
      1964.773  
  23992017.116   126078906.12446     -3499.223    23992019.075    98243308.27543
     -2726.676  
  22125672.570   117942400.48707     -1997.551    22125679.115    91732925.28703
     -1553.660  
  21019098.938   112319691.84308  -2097152.000    21019108.528    87359800.17707
  -2097152.000  
  20048974.344   106985187.14907      1920.402           0.000           0.0000 
         0.000  
  21745410.993   116078482.32006      1988.581    21745415.566    90283280.07403
      1546.675  
  20158784.442   107760253.43309     -1959.245    20158788.566    83813548.57808
     -1523.863  
  20799215.318   111300812.20408     -1944.562    20799219.506    86567307.95907
     -1512.437  
 20 10 01 07 31 30.0000000  0 13G15G18G20G21G24G27G10R14R15R 6R22R 5
                                R21
  21365259.034   112275192.89249     -2562.887    21365258.615    87487163.32949
     -1997.063  
  21686832.797   113965066.70848     -2794.511    21686833.312    88803946.55047
     -2177.546  
  19999560.015   105098401.76549       540.702    19999558.882    81894862.69148
       421.324  
  24706578.865   129833953.27445      2634.948    24706577.328   101169277.90241
      2053.199  
  20839138.991   109510437.37349      1486.733    20839141.036    85332830.57649
      1158.491  
  24413117.395   128291798.53045     -1780.012    24413119.748    99967645.76248
     -1387.027  
  21929322.827   115239377.38349      2526.026    21929324.533    89796919.09549
      1968.327  
  22127546.372   117952388.15507     -1995.590    22127551.918    91740693.48104
     -1552.136  
  21017341.985   112310303.21808  -2097152.000    21017351.577    87352497.92407
  -2097152.000  
  20047173.793   106975578.93708      1924.266           0.000           0.0000 
         0.000  
  21743548.272   116068539.05206      1990.328    21743552.838    90275546.43603
      1548.031  
  20160615.843   107770043.13509     -1954.887    20160619.930    83821162.78208
     -1520.473  
  20801032.199   111310535.07708     -1942.905    20801036.500    86574870.21407
     -1511.148  
 20 10 01 07 31 35.0000000  0 13G15G18G20G21G24G27G10R14R15R 6R22R 5
                                R21
  21367700.265   112288021.39749     -2568.937    21367699.893    87497159.61249
     -2001.766  
  21689494.723   113979055.28648     -2801.258    21689495.247    88814846.72847
     -2182.801  
  19999048.811   105095715.33949       533.555    19999047.703    81892769.37348
       415.753  
  24704074.577   129820793.34046      2628.770    24704072.841   101159023.35042
      2048.391  
  20837727.967   109503022.42649      1479.020    20837730.074    85327052.70249
      1152.484  
  24414814.037   128300714.35045     -1787.320    24414816.468    99974593.10847
     -1392.726  
  21926921.985   115226760.81249      2520.109    21926923.694    89787087.99849
      1963.719  
  22129422.270   117962387.62406     -2004.426    22129428.227    91748470.86304
     -1558.996  
  21015587.349   112300926.97608  -2097152.000    21015596.947    87345205.31707
  -2097152.000  
  20045373.527   106965972.40507      1917.558           0.000           0.0000 
         0.000  
  21741687.911   116058608.50606      1981.676    21741692.451    90267822.67803
      1541.301  
  20162447.397   107779833.93609     -1961.526    20162451.489    83828777.86108
     -1525.633  
  20802851.616   111320271.24008     -1951.874    20802856.015    86582442.77807
     -1518.128  
 20 10 01 07 31 40.0000000  0 14G15G18G20G21G24G27G10G13R14R15R 6R22
                                R 5R21
  21370146.679   112300877.30049     -2572.913    21370146.393    87507177.18449
     -2004.870  
  21692162.462   113993074.44148     -2805.745    21692163.031    88825770.76447
     -2186.296  
  19998543.728   105093061.14249       528.827    19998542.641    81890701.16948
       412.070  
  24701575.353   129807659.67045      2624.972    24701574.116   101148789.33243
      2045.430  
  20836323.774   109495643.27749      1473.300    20836325.901    85321302.72349
      1148.027  
  24416516.733   128309662.13944     -1791.062    24416519.271    99981565.33147
     -1395.648  
  21924526.052   115214170.03549      2516.629    21924527.752    89777277.01849
      1961.007  
  24002000.880   126131363.06856     -3501.297    24002003.066    98284192.54654
     -2728.289  
  22131305.534   117972426.29006     -2010.483    22131311.833    91756278.68503
     -1563.715  
  21013840.190   112291590.68708  -2097152.000    21013849.797    87337943.79407
  -2097152.000  
  20043578.700   106956394.74007      1913.637           0.000           0.0000 
         0.000  
  21739835.134   116048718.25506      1975.218    21739839.706    90260130.26904
      1536.280  
  20164284.328   107789653.35609     -1965.625    20164288.450    83836415.17508
     -1528.823  
  20804678.639   111330048.13608     -1958.421    20804683.215    86590047.04208
     -1523.223  
 20 10 01 07 31 45.0000000  0 14G15G18G20G21G24G27G10G13R14R15R 6R22
                                R 5R21
  21372597.842   112313758.12149     -2578.163    21372597.576    87517214.18049
     -2008.965  
  21694835.575   114007121.71148     -2811.746    21694836.235    88836716.68247
     -2190.976  
  19998044.305   105090436.81449       522.491    19998043.257    81888656.24448
       407.137  
  24699080.443   129794549.86345      2619.620    24699078.998   101138573.92944
      2041.254  
  20834925.917   109488297.52049      1466.437    20834928.018    85315578.75249
      1142.679  
  24418224.894   128318637.39956     -1797.659    24418227.689    99988559.58257
     -1400.703  
  21922134.529   115201602.59349      2511.659    21922136.207    89767484.19749
      1957.132  
  24005334.786   126148881.92144     -3504.562    24005334.646    98297843.62342
     -2730.827  
  22133195.564   117982501.59006     -2017.996    22133202.648    91764114.99505
     -1569.563  
  21012100.043   112282291.86708  -2097152.000    21012109.648    87330711.37107
  -2097152.000  
  20041788.785   106946843.47107      1908.082           0.000           0.0000 
         0.000  
  21737989.411   116038865.66006      1967.370    21737994.039    90252467.15504
      1530.180  
  20166126.119   107799498.81209     -1971.261    20166130.277    83844072.75708
     -1533.202  
  20806512.839   111339863.31208     -1966.434    20806517.505    86597681.03707
     -1529.456  
 20 10 01 07 31 50.0000000  0 14G15G18G20G21G24G27G10G13R14R15R 6R22
                                R 5R21
  21375049.341   112326640.77249     -2573.542    21375049.093    87527252.60749
     -2005.362  
  21697509.620   114021173.97448     -2807.886    21697510.385    88847666.47447
     -2187.969  
  19997546.175   105087819.24949       526.000    19997545.164    81886616.57348
       409.866  
  24696585.678   129781440.72445      2624.491    24696585.117   101128359.06242
      2045.062  
  20833530.044   109480962.09549      1469.293    20833532.093    85309862.83049
      1144.897  
  24419934.293   128327621.16445     -1793.844    24419937.209    99995559.90548
     -1397.808  
  21919743.042   115189035.43149      2516.577    21919744.758    89757691.61449
      1960.969  
  24008668.138   126166396.65046     -3499.223    24008668.887    98311491.40744
     -2726.680  
  22135088.015   117992590.26504     -2015.766    22135095.726    91771961.80605
     -1567.812  
  21010362.518   112273007.05908  -2097152.000    21010372.118    87323489.83607
  -2097152.000  
  20039999.485   106937295.20507      1912.483           0.000           0.0000 
         0.000  
  21736146.261   116029027.45605      1969.320    21736151.220    90244815.20404
      1531.690  
  20167968.463   107809347.07209     -1966.676    20167972.590    83851732.51608
     -1529.637  
  20808349.846   111349693.12708     -1964.308    20808354.592    86605326.45207
     -1527.800  
 20 10 01 07 31 55.0000000  0 14G15G18G20G21G24G27G10G13R14R15R 6R22
                                R 5R21
  21377498.467   112339510.98849     -2575.504    21377498.205    87537281.34149
     -2006.890  
  21700181.883   114035216.99848     -2810.503    21700182.761    88858609.09447
     -2190.007  
  19997046.635   105085194.11549       522.980    19997045.604    81884571.01848
       407.516  
  24694088.333   129768318.08445      2622.319    24694087.695   101118133.53643
      2043.354  
  20832133.367   109473622.69949      1465.383    20832135.409    85304143.82949
      1141.854  
  24421642.341   128336596.98445     -1796.813    24421644.969   100002554.02147
     -1400.116  
  21917348.894   115176454.31649      2514.862    21917350.681    89747888.14149
      1959.629  
  24011997.482   126183893.00346     -3500.406    24011998.772    98325124.91644
     -2727.597  
  22136980.189   118002677.55505     -2020.284    22136987.660    91779807.47105
     -1571.331  
  21008624.886   112263721.68408  -2097152.000    21008634.490    87316267.89107
  -2097152.000  
  20038207.987   106927735.61707      1910.319           0.000           0.0000 
         0.000  
  21734303.104   116019189.15406      1964.801    21734308.342    90237163.23003
      1528.179  
  20169808.560   107819183.44809     -1969.007    20169812.606    83859383.03307
     -1531.449  
  20810186.920   111359523.27708     -1968.773    20810191.625    86612972.11007
     -1531.273  
 20 10 01 07 32  0.0000000  0 14G15G18G20G21G24G27G10G13R14R15R 6R22
                                R 5R21
  21379950.821   112352398.13149     -2579.116    21379950.456    87547323.27549
     -2009.707  
  21702857.979   114049280.13648     -2814.711    21702858.938    88869567.37447
     -2193.284  
  19996551.266   105082590.90249       518.422    19996550.244    81882542.54148
       403.965  
  24691594.400   129755211.34945      2619.296    24691594.148   101107920.50043
      2041.012  
  20830741.541   109466308.63449      1460.222    20830743.566    85298444.55749
      1137.835  
  24423354.582   128345594.37346     -1801.750    24423357.065   100009565.02048
     -1403.961  
  21914957.693   115163888.59549      2511.461    21914959.528    89738096.67649
      1956.983  
  24015328.592   126201400.25845     -3502.702    24015329.695    98338766.96144
     -2729.378  
  22138877.976   118012793.57704     -2026.726    22138884.817    91787675.41303
     -1576.359  
  21006892.751   112254465.67608  -2097152.000    21006902.351    87309068.76107
  -2097152.000  
  20036419.916   106918194.44107      1906.413           0.000           0.0000 
         0.000  
  21732465.618   116009380.52806      1958.351    21732471.040    90229534.28403
      1523.163  
  20171652.065   107829037.94109     -1972.867    20171656.086    83867047.64007
     -1534.453  
  20812029.601   111369383.39708     -1975.089    20812034.173    86620641.09907
     -1536.180  
 20 10 01 07 32  5.0000000  0 13G15G18G20G21G24G27G10R14R15R 6R22R 5
                                R21
  21382405.894   112365299.56449     -2581.421    21382405.493    87557376.33349
     -2011.500  
  21705537.413   114063360.75348     -2817.684    21705538.371    88880539.26547
     -2195.602  
  19996059.563   105080006.98349       514.781    19996058.524    81880529.09348
       401.129  
  24689102.881   129742117.86046      2616.944    24689102.220   101097717.81743
      2039.082  
  20829354.023   109459017.39849      1456.129    20829356.051    85292763.07449
      1134.645  
  24425070.393   128354610.58345     -1804.933    24425072.819   100016590.62048
     -1406.445  
  21912568.961   115151335.69249      2509.570    21912570.830    89728315.20049
      1955.508  
  22140780.464   118022935.53404     -2030.926    22140786.916    91795563.69104
     -1579.597  
  21005165.622   112245236.42608  -2097152.000    21005175.222    87301890.45207
  -2097152.000  
  20034634.815   106908668.95707      1904.008           0.000           0.0000 
         0.000  
  21730633.155   115999598.99606      1953.418    21730638.632    90221926.43803
      1519.324  
  20173498.415   107838907.68009     -1975.277    20173502.379    83874724.10108
     -1536.332  
  20813877.373   111379270.94908     -1980.093    20813881.845    86628331.38407
     -1540.081  
 20 10 01 07 32 10.0000000  0 13G15G18G20G21G24G27G10G13R15R 6R22R 5
                                R21
  21384862.911   112378211.24649     -2582.879    21384862.446    87567437.39749
     -2012.636  
  21708219.383   114077454.78448     -2819.659    21708220.389    88891521.61947
     -2197.141  
  19995570.737   105077438.31049       512.499    19995569.732    81878527.54148
       399.352  
  24686612.826   129729033.56344      2616.273    24686612.111   101087522.32944
      2038.663  
  20827970.088   109451744.96049      1453.077    20827972.095    85287096.25249
      1132.269  
  24426789.037   128363641.80345     -1806.003    24426791.382   100023627.97148
     -1407.277  
  21910181.912   115138791.57349      2508.581    21910183.765    89718540.56749
      1954.738  
  24021996.033   126236424.40056     -3503.530    24021994.977    98366049.17452
     -2730.022  
  21003442.743   112236029.87908  -2097152.000    21003452.346    87294729.82207
  -2097152.000  
  20032851.907   106899155.07907      1902.155           0.000           0.0000 
         0.000  
  21728804.950   115989840.29205      1949.546    21728810.533    90214336.32203
      1516.309  
  20175346.894   107848788.70409     -1976.715    20175350.860    83882409.31807
     -1537.453  
  20815729.502   111389181.81308     -1984.039    20815733.935    86636039.83607
     -1543.144  
 20 10 01 07 32 15.0000000  0 13G15G18G20G21G24G27G10G13R15R 6R22R 5
                                R21
  21387320.604   112391126.41249     -2583.593    21387320.100    87577501.14049
     -2013.194  
  21710902.638   114091555.41848     -2821.109    21710903.594    88902509.14647
     -2198.266  
  19995083.511   105074878.10949       511.065    19995082.534    81876532.57648
       398.229  
  24684123.321   129715951.65945      2616.395    24684123.134   101077328.60344
      2038.750  
  20826588.429   109444484.47649      1450.746    20826590.400    85281438.72549
      1130.448  
  24428509.183   128372680.82745     -1808.792    24428511.465   100030671.42448
     -1409.444  
  21907795.180   115126249.36449      2508.039    21907797.094    89708767.42449
      1954.316  
  24025328.648   126253941.59645     -3503.477    24025323.245    98379698.84341
     -2729.983  
  21001722.802   112226839.03708  -2097152.000    21001732.406    87287581.38907
  -2097152.000  
  20031069.874   106889646.15207      1900.836           0.000           0.0000 
         0.000  
  21726979.822   115980097.78806      1946.640    21726985.409    90206758.81203
      1514.051  
  20177196.143   107858674.09008     -1977.570    20177200.160    83890097.96908
     -1538.109  
  20817584.653   111399109.01008     -1987.402    20817589.071    86643760.99607
     -1545.758  
 20 10 01 07 32 20.0000000  0 12G15G18G20G21G24G27G10R15R 6R22R 5R21
  21389779.553   112404048.09049     -2585.202    21389779.005    87587569.97849
     -2014.445  
  21713587.779   114105665.77449     -2823.292    21713588.629    88913504.19747
     -2199.973  
  19994598.546   105072329.50649       508.402    19994597.551    81874546.65348
       396.155  
  24681634.920   129702875.33245      2615.132    24681634.809   101067139.36142
      2037.781  
  20825209.651   109437239.07449      1447.257    20825211.600    85275792.95749
      1127.734  
  24430231.418   128381731.10946     -1811.285    24430233.711   100037723.51748
     -1411.398  
  21905409.440   115113712.27749      2506.664    21905411.379    89698998.25849
      1953.246  
  21000006.389   112217667.04608  -2097152.000    21000015.986    87280447.59207
  -2097152.000  
  20029289.368   106880145.12507      1899.065           0.000           0.0000 
         0.000  
  21725158.282   115970374.53705      1942.641    21725163.787    90199196.27703
      1510.938  
  20179046.758   107868566.84409     -1979.488    20179050.868    83897792.34708
     -1539.601  
  20819443.427   111409055.71608     -1991.594    20819447.793    86651497.30207
     -1549.020  
 20 10 01 07 32 25.0000000  0 12G15G18G20G21G24G27G10R15R 6R22R 5R21
  21392240.219   112416978.88549     -2587.051    21392239.696    87597645.93849
     -2015.882  
  21716275.268   114119788.40349     -2825.952    21716276.049    88924508.85747
     -2202.043  
  19994116.245   105069795.05949       505.491    19994115.254    81872571.76048
       393.887  
  24679148.082   129689807.31644      2613.184    24679147.736   101056956.36944
      2036.233  
  20823834.212   109430011.28349      1443.777    20823836.122    85270160.91749
      1125.020  
  24431956.319   128390795.02446     -1814.512    24431958.600   100044786.33348
     -1413.905  
  21903025.160   115101182.83649      2505.128    21903027.132    89689235.07349
      1952.046  
  20998294.029   112208516.71308  -2097152.000    20998303.636    87273330.70607
  -2097152.000  
  20027510.811   106870654.56107      1897.152           0.000           0.0000 
         0.000  
  21723340.749   115960673.14206      1938.035    21723346.284    90191650.75003
      1507.355  
  20180899.318   107878469.71609     -1981.461    20180903.421    83905494.58608
     -1541.136  
  20821306.287   111419024.44208     -1996.089    20821310.568    86659250.75807
     -1552.519  
 20 10 01 07 32 30.0000000  0 12G15G18G20G21G24G27G10R15R 6R22R 5R21
  21394702.633   112429918.86249     -2588.922    21394702.122    87607729.03949
     -2017.340  
  21718965.117   114133923.37449     -2828.148    21718965.864    88935523.10447
     -2203.758  
  19993636.661   105067274.79849       502.769    19993635.671    81870607.91348
       391.765  
  24676662.684   129676747.27444      2610.827    24676662.104   101046779.71343
      2034.409  
  20822462.157   109422801.24149      1440.210    20822464.067    85264542.70849
      1122.242  
  24433683.880   128399872.76146     -1816.488    24433686.089   100051859.89548
     -1415.448  
  21900642.388   115088661.19049      2503.527    21900644.367    89679477.95549
      1950.801  
  20996585.722   112199388.04108  -2097152.000    20996595.326    87266230.61607
  -2097152.000  
  20025734.320   106861174.73707      1895.020           0.000           0.0000 
         0.000  
  21721527.456   115950993.68906      1934.031    21721533.010    90184122.31103
      1504.245  
  20182753.805   107888382.85709     -1983.503    20182757.940    83913204.81008
     -1542.726  
  20823173.260   111429015.40008     -2000.276    20823177.620    86667021.51107
     -1555.770  
 20 10 01 07 32 35.0000000  0 14G15G18G20G21G24G27G10G13R14R15R 6R22
                                R 5R21
  21397166.529   112442866.53849     -2590.401    21397166.009    87617818.15049
     -2018.495  
  21721657.039   114148069.20648     -2830.327    21721657.764    88946545.82947
     -2205.452  
  19993159.510   105064767.32349       500.141    19993158.507    81868654.03948
       389.715  
  24674178.623   129663694.07145      2610.065    24674178.391   101036608.38744
      2033.866  
  20821093.193   109415607.44349      1437.050    20821095.072    85258937.14849
      1119.776  
  24435413.623   128408962.65445     -1819.434    24435415.860   100058942.95547
     -1417.734  
  21898260.809   115076145.84449      2502.383    21898262.813    89669725.73349
      1949.910  
  24038666.412   126324055.05255     -3503.938    24038670.192    98434326.33053
     -2730.339  
  22152268.776   118084056.07415     -2053.483    22152278.319    91843195.03215
     -1597.152  
  20994881.173   112190279.44908  -2097152.000    20994890.776    87259146.15007
  -2097152.000  
  20023959.480   106851703.88507      1893.266           0.000           0.0000 
         0.000  
  21719717.983   115941334.72706      1929.772    21719723.664    90176609.77704
      1500.929  
  20184609.922   107898304.67709     -1985.272    20184614.005    83920921.77508
     -1544.104  
  20825044.048   111439026.96008     -2004.339    20825048.550    86674808.28607
     -1558.930  
 20 10 01 07 32 40.0000000  0 14G15G18G20G21G24G27G10G13R14R15R 6R22
                                R 5R21
  21399632.487   112455825.23449     -2592.941    21399632.022    87627915.80949
     -2020.480  
  21724351.650   114162229.20048     -2833.581    21724352.276    88957579.59547
     -2207.988  
  19992685.437   105062275.89849       496.542    19992684.389    81866712.66848
       386.917  
  24671696.438   129650650.88444      2606.886    24671696.467   101026444.91945
      2031.347  
  20819727.934   109408433.20649      1432.680    20819729.871    85253346.84749
      1116.375  
  24437146.586   128418068.21946     -1822.565    24437148.683   100066038.13847
     -1420.195  
  21895881.064   115063640.07649      2499.977    21895883.038    89659980.98549
      1948.034  
  24042002.733   126341585.94244     -3507.272    24042004.176    98447986.59241
     -2732.964  
  22154197.561   118094335.64805     -2057.883    22154206.774    91851190.27105
     -1600.573  
  20993181.021   112181194.35008  -2097152.000    20993190.623    87252079.95907
  -2097152.000  
  20022186.993   106842245.49107      1889.855           0.000           0.0000 
         0.000  
  21717913.175   115931699.66306      1924.637    21717918.731    90169115.84503
      1496.941  
  20186468.281   107908238.51309     -1988.148    20186472.294    83928648.07908
     -1546.340  
  20826919.395   111449062.59908     -2009.741    20826923.964    86682613.75007
     -1563.141  
 20 10 01 07 32 45.0000000  0 14G15G18G20G21G24G27G10G13R14R15R 6R22
                                R 5R21
  21402100.056   112468792.55249     -2593.886    21402099.661    87638020.19149
     -2021.219  
  21727048.492   114176400.98448     -2835.233    21727048.975    88968622.53247
     -2209.281  
  19992213.982   105059798.22549       494.589    19992212.895    81864782.01248
       385.394  
  24669215.702   129637615.49745      2606.379    24669215.849   101016287.45444
      2031.191  
  20818365.951   109401276.37549      1429.905    20818368.003    85247770.10349
      1114.210  
  24438882.027   128427186.95646     -1824.602    24438884.010   100073143.69847
     -1421.765  
  21893502.706   115051141.59749      2499.336    21893504.597    89650241.91349
      1947.534  
  24045337.903   126359119.34644     -3506.301    24045338.011    98461649.09241
     -2732.175  
  22156129.833   118104635.27305     -2061.219    22156138.602    91859201.08405
     -1603.172  
  20991484.821   112172130.37008  -2097152.000    20991494.426    87245030.21107
  -2097152.000  
  20020416.416   106832797.29007      1889.117           0.000           0.0000 
         0.000  
  21716112.273   115922086.04506      1920.854    21716117.669    90161638.57903
      1493.996  
  20188328.419   107918181.98709     -1989.289    20188332.432    83936381.91508
     -1547.227  
  20828798.795   111459119.80608     -2013.316    20828803.418    86690436.02907
     -1565.918  
 20 10 01 07 32 50.0000000  0 14G15G18G20G21G24G27G10G13R14R15R 6R22
                                R 5R21
  21404568.480   112481764.33549     -2594.858    21404568.157    87648128.08549
     -2021.969  
  21729746.748   114190580.41549     -2836.762    21729747.168    88979671.43247
     -2210.468  
  19991744.332   105057330.10849       492.659    19991743.220    81862858.80248
       383.886  
  24666735.781   129624583.70645      2605.323    24666735.705   101006132.83144
      2030.124  
  20817006.495   109394132.66949      1427.367    20817008.639    85242203.57749
      1112.230  
  24440619.074   128436314.73245     -1826.183    24440620.939   100080256.29147
     -1422.991  
  21891124.934   115038646.25949      2498.659    21891126.775    89640505.28749
      1947.007  
  24048672.766   126376651.26144     -3507.315    24048677.571    98475310.24844
     -2732.973  
  22158065.553   118114950.78205     -2064.836    22158073.844    91867224.24005
     -1605.983  
  20989791.803   112163083.39908  -2097152.000    20989801.405    87237993.66207
  -2097152.000  
  20018646.867   106823355.01607      1887.773           0.000           0.0000 
         0.000  
  21714314.541   115912489.78707      1917.183    21714319.914    90154174.82104
      1491.141  
  20190189.554   107928130.91309     -1990.452    20190193.584    83944119.96608
     -1548.128  
  20830681.413   111469194.42108     -2016.824    20830686.259    86698271.84707
     -1568.640  
 20 10 01 07 32 55.0000000  0 13G15G18G20G21G24G27G10R14R15R 6R22R 5
                                R21
  21407036.643   112494734.58949     -2595.070    21407036.342    87658234.79349
     -2022.133  
  21732445.233   114204761.42248     -2837.577    21732445.700    88990721.56247
     -2211.105  
  19991275.379   105054865.55449       491.386    19991274.216    81860938.37048
       382.897  
  24664255.453   129611549.49245      2606.468    24664255.381   100995976.25943
      2031.011  
  20815648.403   109386996.09949      1425.495    20815650.618    85236642.61449
      1110.772  
  24442356.578   128445445.50245     -1827.969    24442358.308   100087371.15148
     -1424.394  
  21888746.643   115026148.03349      2498.797    21888748.425    89630766.40449
      1947.109  
  22160002.798   118125276.20305     -2067.522    22160010.950    91875255.12306
     -1608.078  
  20988100.824   112154047.31808  -2097152.000    20988110.426    87230965.60007
  -2097152.000  
  20016877.341   106813912.57807      1887.184           0.000           0.0000 
         0.000  
  21712519.009   115902904.70607      1914.578    21712524.191    90146719.75404
      1489.112  
  20192050.539   107938079.00709     -1990.831    20192054.671    83951857.37408
     -1548.426  
  20832566.280   111479280.28608     -2019.520    20832571.144    86706116.41607
     -1570.737  
 20 10 01 07 33  0.0000000  0 13G15G18G20G21G24G27G10R14R15R 6R22R 5
                                R21
  21409507.997   112507721.54349     -2599.441    21409507.727    87668354.48549
     -2025.543  
  21735147.470   114218962.33948     -2842.570    21735148.005    89001787.20547
     -2214.991  
  19990810.537   105052422.82549       485.921    19990809.382    81859034.95248
       378.641  
  24661778.100   129598531.22645      2601.519    24661777.982   100985832.22243
      2027.160  
  20814295.143   109379884.79149      1419.300    20814297.405    85231101.33949
      1105.949  
  24444098.120   128454597.58645     -1833.347    24444100.017   100094502.69048
     -1428.578  
  21886371.257   115013665.17249      2494.629    21886372.987    89621039.50849
      1943.866  
  22161945.446   118135629.85605     -2074.081    22161952.924    91883307.97505
     -1613.175  
  20986415.337   112145040.58408  -2097152.000    20986424.939    87223960.36507
  -2097152.000  
  20015111.216   106804488.38507      1882.487           0.000           0.0000 
         0.000  
  21710729.017   115893349.38706      1907.703    21710734.122    90139287.84504
      1483.765  
  20193914.895   107948044.96709     -1995.340    20193919.113    83959608.66708
     -1551.933  
  20834456.700   111489395.92808     -2026.578    20834461.491    86713984.12907
     -1576.230  
 20 10 01 07 33  5.0000000  0 13G15G18G20G21G24G27G10R14R15R 6R22R 5
                                R21
  21411981.994   112520722.39449     -2600.469    21411981.722    87678485.01749
     -2026.344  
  21737852.968   114233180.23048     -2844.387    21737853.563    89012866.07747
     -2216.410  
  19990349.301   105049999.07649       483.843    19990348.155    81857146.30748
       377.016  
  24659303.297   129585525.92545      2600.800    24659303.258   100975698.23744
      2026.597  
  20812946.183   109372796.05249      1416.327    20812948.471    85225577.65149
      1103.632  
  24445843.098   128463768.07045     -1835.188    24445845.125   100101648.45847
     -1430.031  
  21883998.239   115001194.91149      2493.816    21883999.951    89611322.41749
      1943.230  
  22163892.525   118146008.82505     -2077.332    22163899.797    91891380.44706
     -1615.711  
  20984734.825   112136060.44008  -2097152.000    20984744.433    87216975.83207
  -2097152.000  
  20013348.018   106795079.71307      1881.160           0.000           0.0000 
         0.000  
  21708944.041   115883820.84506      1903.777    21708949.063    90131876.76903
      1480.715  
  20195782.043   107958026.00209     -1996.640    20195786.359    83967371.68008
     -1552.949  
  20836352.143   111499538.45208     -2030.210    20836356.879    86721872.75907
     -1579.059  
 20 10 01 07 33 10.0000000  0 13G15G18G20G21G24G27G10R14R15R 6R22R 5
                                R21
  21414456.827   112533727.66449     -2601.723    21414456.543    87688618.99649
     -2027.319  
  21740559.919   114247405.63648     -2845.983    21740560.499    89023950.80847
     -2217.652  
  19989889.891   105047584.86049       481.800    19989888.731    81855265.10248
       375.425  
  24656829.179   129572524.25345      2600.077    24656829.519   100965567.03145
      2025.953  
  20811599.743   109365720.37149      1413.522    20811601.999    85220064.13649
      1101.444  
  24447589.870   128472947.48346     -1837.059    24447592.194   100108801.25846
     -1431.477  
  21881625.805   114988727.71549      2492.905    21881627.538    89601607.71749
      1942.520  
  22165842.865   118156403.70206     -2080.492    22165849.711    91899465.36906
     -1618.164  
  20983057.478   112127097.20708  -2097152.000    20983067.082    87210004.41007
  -2097152.000  
  20011585.939   106785676.95507      1879.862           0.000           0.0000 
         0.000  
  21707162.352   115874309.57206      1900.640    21707167.260    90124479.08704
      1478.272  
  20197650.182   107968012.27509     -1997.953    20197654.599    83975138.79508
     -1553.964  
  20838250.861   111509698.31308     -2033.819    20838255.474    86729774.86007
     -1581.862  
 20 10 01 07 33 15.0000000  0 15G15G18G20G 8G21G24G27G10G13R14R15R 6
                                R22R 5R21
  21416933.229   112546741.24849     -2603.703    21416932.970    87698759.42549
     -2028.863  
  21743269.086   114261642.53248     -2848.628    21743269.657    89035044.48047
     -2219.714  
  19989433.028   105045184.12349       478.769    19989431.846    81853394.39248
       373.063  
  24665402.511   129617564.45055       -87.948    24665412.341   101000739.72354
       -68.530  
  24654356.595   129559530.14145      2597.655    24654356.785   100955441.78745
      2024.151  
  20810256.544   109358661.71649      1409.969    20810258.738    85214563.89249
      1098.676  
  24449339.021   128482139.77246     -1839.628    24449341.545   100115964.15046
     -1433.469  
  21879254.690   114976267.54649      2491.152    21879256.492    89591898.49549
      1941.155  
  24065363.605   126464338.87015     -3509.218           0.000           0.0000 
         0.000  
  22167797.007   118166818.44005     -2085.098    22167803.303    91907565.72806
     -1621.741  
  20981384.044   112118154.88008  -2097152.000    20981393.654    87203049.29507
  -2097152.000  
  20009825.661   106776283.93307      1877.363           0.000           0.0000 
         0.000  
  21705384.540   115864819.64706      1895.937    21705389.451    90117098.05303
      1474.616  
  20199520.057   107978007.95809     -2000.160    20199524.557    83982913.21008
     -1555.683  
  20840153.468   111519879.35808     -2038.351    20840158.025    86737693.46007
     -1585.386  
 20 10 01 07 33 20.0000000  0 14G15G18G20G 8G21G24G27G10R14R15R 6R22
                                R 5R21
  21419411.447   112559764.43049     -2605.461    21419411.190    87708907.35149
     -2030.233  
  21745980.644   114275892.17948     -2851.113    21745981.267    89046148.10147
     -2221.651  
  19988978.979   105042798.17349       475.866    19988977.800    81851535.21048
       370.804  
  24665490.417   129618016.24345       -91.901    24665490.160   101001091.75441
       -71.624  
  24651885.659   129546544.78546      2596.359    24651885.963   100945323.30943
      2023.140  
  20808916.842   109351621.38249      1406.145    20808918.976    85209077.91449
      1095.691  
  24451090.975   128491346.22646     -1842.758    24451093.448   100123137.96347
     -1435.921  
  21876885.122   114963815.75949      2489.585    21876887.013    89582195.81249
      1939.938  
  22169755.187   118177254.17105     -2089.652    22169760.855    91915682.38406
     -1625.293  
  20979714.779   112109234.83808  -2097152.000    20979724.399    87196111.52207
  -2097152.000  
  20008067.536   106766902.17907      1875.164           0.000           0.0000 
         0.000  
  21703611.003   115855352.35506      1891.269    21703615.858    90109734.61403
      1470.987  
  20201391.941   107988014.21809     -2002.297    20201396.537    83990695.84508
     -1557.347  
  20842060.319   111530082.99508     -2042.972    20842064.739    86745629.60007
     -1588.984  
 20 10 01 07 33 25.0000000  0 15G15G18G20G 8G21G24G27G10G13R14R15R 6
                                R22R 5R21
  21421890.976   112572794.47549     -2606.296    21421890.722    87719060.65349
     -2030.878  
  21748694.120   114290151.74348     -2852.495    21748694.757    89057259.45447
     -2222.723  
  19988527.212   105040424.21449       473.968    19988526.074    81849685.37548
       369.324  
  24665579.452   129618482.28044       -93.976    24665580.143   101001454.96945
       -73.210  
  24649415.962   129533565.50445      2595.527    24649415.889   100935209.61544
      2022.484  
  20807580.083   109344596.54149      1403.871    20807582.218    85203604.02249
      1093.926  
  24452845.189   128500564.05746     -1844.137    24452847.939   100130320.68846
     -1436.991  
  21874516.620   114951369.53949      2489.141    21874518.567    89572497.45249
      1939.585  
  24072041.888   126499427.23655     -3509.483    24072044.653    98570998.29351
     -2734.663  
  22171716.418   118187708.07605     -2092.008    22171721.932    91923813.18406
     -1627.124  
  20978049.180   112100334.37708  -2097152.000    20978058.792    87189188.91207
  -2097152.000  
  20006311.039   106757528.92207      1874.042           0.000           0.0000 
         0.000  
  21701841.142   115845904.80706      1887.586    21701845.941    90102386.49704
      1468.117  
  20203265.264   107998028.29808     -2003.152    20203269.927    83998484.58808
     -1558.007  
  20843970.800   111540306.29808     -2045.977    20843975.116    86753581.05607
     -1591.320  
 20 10 01 07 33 30.0000000  0 15G15G18G20G 8G21G24G27G10G13R14R15R 6
                                R22R 5R21
  21424371.693   112585830.79449     -2608.218    21424371.403    87729218.81549
     -2032.383  
  21751409.416   114304420.72448     -2855.312    21751409.982    89068378.12747
     -2224.921  
  19988077.622   105038061.72749       470.879    19988076.516    81847844.47848
       366.914  
  24665670.948   129618962.12645       -97.495    24665673.148   101001828.80846
       -75.987  
  24646947.236   129520591.79345      2594.300    24646946.959   100925100.19644
      2021.520  
  20806246.216   109337586.80049      1400.019    20806248.323    85198141.88149
      1090.922  
  24454601.348   128509792.67046     -1847.558    24454604.222   100137511.84047
     -1439.656  
  21872149.093   114938928.35049      2487.152    21872151.048    89562803.01349
      1938.035  
  24075380.205   126516975.73805     -3510.007           0.000           0.0000 
         0.000  
  22173681.083   118198179.62705     -2096.605    22173686.459    91931957.72606
     -1630.694  
  20976387.101   112091452.73608  -2097152.000    20976396.723    87182281.00408
  -2097152.000  
  20004555.870   106748163.22207      1872.113           0.000           0.0000 
         0.000  
  21700074.982   115836476.61406      1883.137    21700079.565    90095053.49103
      1464.660  
  20205139.981   108008049.70009     -2005.476    20205144.636    84006279.00808
     -1559.819  
  20845884.907   111550548.82308     -2050.957    20845889.063    86761547.46007
     -1595.190  
 20 10 01 07 33 35.0000000  0 13G15G18G20G21G24G27G10R14R15R 6R22R 5
                                R21
  21426854.473   112598877.73449     -2610.214    21426854.145    87739385.25849
     -2033.934  
  21754127.277   114318703.42648     -2857.440    21754127.835    89079507.49747
     -2226.582  
  19987631.046   105035715.05149       468.066    19987629.997    81846015.90448
       364.727  
  24644480.376   129507628.01045      2591.926    24644480.104   100914998.52444
      2019.676  
  20804916.031   109330596.44749      1396.531    20804918.127    85192694.85849
      1088.207  
  24456360.449   128519036.40346     -1849.609    24456363.154   100144714.74745
     -1441.258  
  21869783.358   114926496.58149      2485.801    21869785.325    89553115.92849
      1936.984  
  22175649.740   118208673.27205     -2101.141    22175655.090    91940119.46806
     -1634.219  
  20974729.418   112082594.57708  -2097152.000    20974739.037    87175391.31607
  -2097152.000  
  20002803.023   106738809.79107      1869.480           0.000           0.0000 
         0.000  
  21698313.180   115827071.99406      1878.948    21698317.760    90087738.77703
      1461.401  
  20207016.879   108018082.70309     -2007.426    20207021.427    84014082.45608
     -1561.335  
  20847803.457   111560814.81008     -2055.234    20847807.499    86769532.10707
     -1598.520  
 20 10 01 07 33 40.0000000  0 15G15G18G20G 8G21G24G27G10G13R14R15R 6
                                R22R 5R21
  21429338.787   112611932.64649     -2612.211    21429338.374    87749557.92049
     -2035.492  
  21756847.212   114332997.22248     -2860.144    21756847.859    89090645.51047
     -2228.687  
  19987186.984   105033381.57949       465.190    19987185.982    81844197.61148
       362.483  
  24665863.210   129619985.65855      -104.535    24665865.820   101002597.04854
       -81.444  
  24642014.887   129494671.43446      2590.444    24642014.726   100904902.55743
      2018.527  
  20803588.998   109323622.74649      1392.952    20803591.077    85187260.80949
      1085.418  
  24458121.907   128528292.74246     -1853.160    24458124.642   100151927.46447
     -1444.031  
  21867418.908   114914071.56449      2483.934    21867420.847    89543434.10149
      1935.526  
  24082060.454   126552080.80956     -3511.339    24082054.476    98611988.28454
     -2736.108  
  22177622.095   118219186.37406     -2104.266    22177627.359    91948296.32706
     -1636.651  
  20973075.594   112073757.04408  -2097152.000    20973085.215    87168517.69007
  -2097152.000  
  20001051.962   106729466.04307      1867.582           0.000           0.0000 
         0.000  
  21696555.368   115817688.42906      1874.253    21696559.854    90080440.43603
      1457.750  
  20208895.440   108028124.65609     -2009.577    20208899.925    84021892.84608
     -1563.008  
  20849725.830   111571101.72108     -2059.781    20849729.929    86777533.03907
     -1602.050  
 20 10 01 07 33 45.0000000  0 14G15G18G20G 8G21G24G27G10R14R15R 6R22
                                R 5R21
  21431824.680   112624996.10249     -2613.351    21431824.229    87759737.23549
     -2036.382  
  21759569.417   114347302.72448     -2861.999    21759570.139    89101792.63847
     -2230.137  
  19986745.563   105031061.89649       463.011    19986744.620    81842390.05648
       360.785  
  24665963.264   129620515.25745      -107.718    24665966.591   101003009.69044
       -83.937  
  24639550.938   129481722.64145      2589.229    24639550.534   100894812.60244
      2017.589  
  20802265.295   109316666.38849      1389.972    20802267.334    85181840.27349
      1083.094  
  24459885.884   128537562.06346     -1855.027    24459888.453   100159150.32046
     -1445.480  
  21865055.862   114901653.92249      2483.012    21865057.793    89533758.00649
      1934.809  
  22179598.265   118229719.38105     -2108.108    22179603.458    91956488.62605
     -1639.647  
  20971425.754   112064940.79908  -2097152.000    20971435.372    87161660.59807
  -2097152.000  
  19999302.826   106720132.35007      1866.016           0.000           0.0000 
         0.000  
  21694801.633   115808326.55606      1870.434    21694805.953    90073159.00503
      1454.780  
  20210775.804   108038176.34109     -2010.902    20210780.229    84029710.83808
     -1564.046  
  20851652.183   111581410.05608     -2063.617    20851656.304    86785550.63807
     -1605.034  
 20 10 01 07 33 50.0000000  0 15G15G18G20G 8G21G24G27G10G13R14R15R 6
                                R22R 5R21
  21434311.071   112638062.01749     -2612.554    21434310.576    87769918.47249
     -2035.762  
  21762292.697   114361613.75148     -2862.105    21762293.534    89112944.10947
     -2230.210  
  19986305.615   105028749.89249       462.577    19986304.692    81840588.49948
       360.445  
  24666065.822   129621054.89244      -108.895    24666068.880   101003430.23544
       -84.843  
  24637087.249   129468775.67947      2590.042    24637086.891   100884724.02044
      2018.206  
  20800943.758   109309721.41749      1388.754    20800945.765    85176428.60749
      1082.141  
  24461651.126   128546838.41046     -1855.102    24461653.559   100166378.60546
     -1445.543  
  21862693.109   114889237.57249      2484.152    21862695.025    89524082.92949
      1935.699  
  24088741.188   126587190.45915     -3509.449           0.000           0.0000 
         0.000  
  22181576.815   118240266.25705     -2109.909    22181582.054    91964691.74605
     -1641.050  
  20969778.733   112056139.61908  -2097152.000    20969788.352    87154815.23707
  -2097152.000  
  19997554.483   106710802.88507      1866.597           0.000           0.0000 
         0.000  
  21693050.752   115798980.14006      1868.730    21693055.063    90065889.57603
      1453.452  
  20212656.814   108048231.38709     -2010.477    20212661.154    84037531.41408
     -1563.707  
  20853581.415   111591733.60808     -2065.440    20853585.454    86793580.06607
     -1606.452  
 20 10 01 07 33 55.0000000  0 14G15G18G20G 8G21G24G27G10R14R15R 6R22
                                R 5R21
  21436798.540   112651133.88149     -2616.133    21436798.035    87780104.32649
     -2038.551  
  21765017.659   114375933.74248     -2866.155    21765018.585    89124102.51847
     -2233.371  
  19985867.808   105026448.98049       457.809    19985866.829    81838795.58748
       356.734  
  24666170.259   129621607.86645      -113.434    24666172.982   101003861.17244
       -88.374  
  24634624.564   129455833.93047      2586.796    24634624.147   100874639.58845
      2015.691  
  20799624.967   109302791.06149      1383.472    20799627.009    85171028.33349
      1078.030  
  24463418.406   128556125.09546     -1859.257    24463420.536   100173614.92445
     -1448.781  
  21860331.247   114876825.90049      2480.569    21860333.189    89514411.51149
      1932.910  
  22183558.511   118250830.37505     -2115.749    22183564.015    91972908.31506
     -1645.586  
  20968135.205   112047357.10608  -2097152.000    20968144.829    87147984.41207
  -2097152.000  
  19995807.516   106701480.76907      1862.625           0.000           0.0000 
         0.000  
  21691303.479   115789652.67606      1862.308    21691307.781    90058634.87603
      1448.461  
  20214539.104   108058293.30509     -2014.437    20214543.353    84045357.37508
     -1566.784  
  20855514.111   111602075.85708     -2071.559    20855518.145    86801624.01607
     -1611.218  
 20 10 01 07 34  0.0000000  0 15G15G18G20G 8G21G24G27G10G13R14R15R 6
                                R22R 5R21
  21439289.286   112664223.02749     -2618.812    21439288.761    87790303.65449
     -2040.637  
  21767746.546   114390274.16948     -2869.508    21767747.566    89135276.86447
     -2235.984  
  19985434.300   105024170.69449       453.956    19985433.279    81837020.30448
       353.733  
  24666279.579   129622185.75144      -116.819    24666281.509   101004311.47544
       -91.034  
  24632164.880   129442908.76746      2584.105    24632164.738   100864568.03344
      2013.594  
  20798311.169   109295886.94249      1378.827    20798313.283    85165648.50049
      1074.409  
  24465189.838   128565433.56346     -1862.917    24465191.806   100180868.35246
     -1451.624  
  21857972.491   114864430.42849      2478.031    21857974.444    89504752.69249
      1930.930  
  24095424.793   126622309.51255     -3512.871    24095433.049    98666759.55252
     -2737.296  
  22185545.715   118261423.32305     -2121.433    22185551.439    91981147.22405
     -1650.012  
  20966497.355   112038604.92808  -2097152.000    20966506.977    87141177.16007
  -2097152.000  
  19994064.184   106692177.67007      1859.358           0.000           0.0000 
         0.000  
  21689561.763   115780355.77507      1856.727    21689566.229    90051403.96403
      1444.120  
  20216424.837   108068373.69309     -2017.313    20216429.086    84053197.65908
     -1569.022  
  20857452.539   111612448.49808     -2076.944    20857456.392    86809691.61807
     -1615.406  
 20 10 01 07 34  5.0000000  0 14G15G18G20G21G24G27G10G13R14R15R 6R22
                                R 5R21
  21441782.382   112677324.39649     -2621.715    21441781.883    87800512.50849
     -2042.898  
  21770478.339   114404629.93148     -2872.676    21770479.383    89146463.19646
     -2238.448  
  19985004.133   105021909.93349       450.582    19985003.093    81835258.66848
       351.101  
  24629707.464   129429995.30446      2581.766    24629707.487   100854505.62444
      2011.765  
  20797001.399   109289003.86649      1374.703    20797003.555    85160285.07249
      1071.194  
  24466964.499   128574758.87446     -1867.008    24466965.941   100188134.76445
     -1454.820  
  21855615.802   114852046.07349      2475.828    21855617.817    89495102.54249
      1929.215  
  24098768.943   126639881.01245     -3514.891    24098775.391    98680471.60551
     -2738.875  
  22187537.223   118272039.96504     -2125.543    22187543.156    91989404.68305
     -1653.199  
  20964864.188   112029877.77808  -2097152.000    20964873.815    87134389.39707
  -2097152.000  
  19992323.455   106682888.62007      1856.366           0.000           0.0000 
         0.000  
  21687824.861   115771084.35706      1851.753    21687829.334    90044192.85703
      1440.253  
  20218313.052   108078467.44408     -2020.124    20218317.335    84061048.34208
     -1571.211  
  20859395.653   111622846.27408     -2082.105    20859399.371    86817778.76407
     -1619.422  
 20 10 01 07 34 10.0000000  0 15G15G18G20G 8G21G24G27G10G13R14R15R 6
                                R22R 5R21
  21444276.621   112690431.39649     -2621.727    21444276.041    87810725.76249
     -2042.901  
  21773211.869   114418994.50948     -2873.800    21773212.796    89157656.34747
     -2239.328  
  19984576.028   105019660.16449       449.078    19984575.015    81833505.60748
       349.930  
  24666508.719   129623377.38954      -124.452    24666512.638   101005241.12855
       -96.992  
  24627251.017   129417086.96045      2581.512    24627251.334   100844447.15545
      2011.563  
  20795694.407   109282135.35949      1372.253    20795696.580    85154932.97749
      1069.285  
  24468741.099   128584094.31747     -1868.113    24468741.563   100195409.07645
     -1455.683  
  21853260.026   114839666.32449      2475.445    21853262.018    89485455.99949
      1928.917  
  24102112.887   126657452.15244     -3513.933    24102117.785    98694142.33853
     -2738.128  
  22189532.089   118282673.62904     -2128.254    22189538.080    91997675.24905
     -1655.319  
  20963234.506   112021169.25207  -2097152.000    20963244.136    87127616.11007
  -2097152.000  
  19990584.098   106673607.04508      1855.651           0.000           0.0000 
         0.000  
  21686091.499   115761831.80106      1848.776    21686096.048    90036996.42103
      1437.938  
  20220202.519   108088567.97509     -2020.719    20220206.850    84068904.28508
     -1571.680  
  20861342.173   111633262.58608     -2085.023    20861345.878    86825880.34007
     -1621.687  
 20 10 01 07 34 15.0000000  0 14G15G18G20G 8G21G24G27G10R14R15R 6R22
                                R 5R21
  21446771.627   112703542.55448     -2622.843    21446771.019    87820942.25049
     -2043.776  
  21775946.823   114433366.28948     -2874.965    21775947.590    89168855.12147
     -2240.234  
  19984149.740   105017419.84949       447.202    19984148.706    81831759.90848
       348.464  
  24666626.936   129624000.12843      -125.551    24666631.993   101005726.24443
       -97.851  
  24624795.211   129404182.14546      2581.124    24624795.541   100834391.43645
      2011.258  
  20794389.853   109275279.75549      1369.937    20794392.064    85149590.95449
      1067.483  
  24470519.263   128593438.41446     -1869.757    24470519.247   100202690.17445
     -1456.961  
  21850904.861   114827289.59949      2474.984    21850906.766    89475811.79249
      1928.558  
  22191529.754   118293322.68105     -2131.543    22191535.630    92005957.85805
     -1657.871  
  20961607.984   112012477.61507  -2097152.000    20961617.617    87120855.95807
  -2097152.000  
  19988845.831   106664331.09907      1854.746           0.000           0.0000 
         0.000  
  21684361.259   115752596.54006      1845.194    21684366.098    90029813.46504
      1435.152  
  20222092.954   108098673.56008     -2021.683    20222097.389    84076764.17608
     -1572.386  
  20863291.819   111643695.75708     -2088.234    20863295.515    86833995.03707
     -1624.183  
 20 10 01 07 34 20.0000000  0 14G15G18G20G21G24G27G10G13R14R15R 6R22
                                R 5R21
  21449267.818   112716659.97149     -2624.362    21449267.180    87831163.61249
     -2044.956  
  21778683.537   114447747.44549     -2877.461    21778684.171    89180061.21647
     -2242.176  
  19983725.651   105015191.12249       444.047    19983724.585    81830023.23648
       346.008  
  24622340.623   129391283.10646      2578.917    24622340.988   100824340.26344
      2009.546  
  20793088.211   109268439.39549      1366.058    20793090.428    85144260.81649
      1064.461  
  24472299.385   128602793.36245     -1872.190    24472299.778   100209979.65247
     -1458.870  
  21848550.651   114814918.07949      2473.339    21848552.501    89466171.65849
      1927.276  
  24108798.544   126692592.98415     -3514.477           0.000           0.0000 
         0.000  
  22193530.844   118303989.52005     -2135.440    22193536.694    92014254.25905
     -1660.906  
  20959985.050   112003805.14508  -2097152.000    20959994.678    87114110.68607
  -2097152.000  
  19987108.991   106655063.02107      1852.473           0.000           0.0000 
         0.000  
  21682634.937   115743380.81406      1840.719    21682639.987    90022645.69504
      1431.672  
  20223984.769   108108786.42508     -2023.691    20223989.302    84084629.74808
     -1573.979  
  20865245.083   111654148.06808     -2092.647    20865248.615    86842124.58607
     -1627.624  
 20 10 01 07 34 25.0000000  0 14G15G18G20G21G24G27G10G13R14R15R 6R22
                                R 5R21
  21451765.847   112729787.17249     -2626.598    21451765.240    87841392.59249
     -2046.702  
  21781422.655   114462141.48548     -2880.097    21781423.275    89191277.35747
     -2244.230  
  19983304.433   105012977.51549       441.223    19983303.395    81828298.34848
       343.805  
  24619887.806   129378393.24847      2577.128    24619887.993   100814296.19243
      2008.148  
  20791790.115   109261617.75749      1362.383    20791792.319    85138945.24549
      1061.594  
  24474082.069   128612162.45746     -1875.565    24474082.979   100217280.37647
     -1461.473  
  21846198.092   114802555.29449      2471.695    21846199.866    89456538.32449
      1925.996  
  24112143.295   126710166.42746     -3515.226    24112146.376    98735207.92952
     -2739.137  
  22195535.862   118314677.64504     -2139.434    22195541.737    92022567.21405
     -1664.012  
  20958366.376   111995155.44508  -2097152.000    20958376.006    87107383.14807
  -2097152.000  
  19985374.336   106645806.41107      1849.968           0.000           0.0000 
         0.000  
  21680912.777   115734188.08606      1835.859    21680918.044    90015495.75803
      1427.886  
  20225878.597   108118910.27308     -2025.980    20225883.190    84092503.84008
     -1575.766  
  20867202.542   111664623.04408     -2097.246    20867205.990    86850271.80107
     -1631.195  
 20 10 01 07 34 30.0000000  0 14G15G18G20G21G24G27G10G13R14R15R 6R22
                                R 5R21
  21454265.528   112742923.23849     -2627.742    21454265.004    87851628.48849
     -2047.590  
  21784164.046   114476547.52748     -2882.038    21784164.710    89202502.85647
     -2245.746  
  19982885.919   105010778.17649       438.960    19982884.896    81826584.57148
       342.043  
  24617436.490   129365511.71446      2575.574    24617436.570   100804258.71044
      2006.952  
  20790495.435   109254813.85549      1359.531    20790497.620    85133643.51249
      1059.375  
  24475867.520   128621545.06945     -1877.159    24475868.682   100224591.43746
     -1462.729  
  21843847.017   114790200.40649      2470.648    21843848.787    89446911.14349
      1925.179  
  24115488.291   126727742.78045     -3514.887    24115486.876    98748903.77844
     -2738.855  
  22197544.665   118325385.85104     -2143.430    22197550.462    92030895.84305
     -1667.109  
  20956751.784   111986527.55108  -2097152.000    20956761.409    87100672.54507
  -2097152.000  
  19983641.696   106636560.74608      1848.737           0.000           0.0000 
         0.000  
  21679194.812   115725017.53406      1832.762    21679200.279    90008363.14103
      1425.480  
  20227774.302   108129043.99409     -2027.328    20227778.885    84100385.63808
     -1576.812  
  20869164.068   111675119.75108     -2101.226    20869167.475    86858435.90707
     -1634.293  
 20 10 01 07 34 35.0000000  0 14G15G18G20G21G24G27G10G13R14R15R 6R22
                                R 5R21
  21456766.572   112756066.18849     -2629.680    21456766.049    87861869.72649
     -2049.104  
  21786907.395   114490963.48549     -2884.394    21786907.973    89213736.06047
     -2247.585  
  19982469.684   105008591.03549       435.894    19982468.704    81824880.30348
       339.651  
  24614986.358   129352636.71246      2573.327    24614986.660   100794226.20844
      2005.187  
  20789203.745   109248025.79649      1355.690    20789205.857    85128354.11549
      1056.382  
  24477655.015   128630939.01045     -1880.785    24477656.485   100231911.38047
     -1465.554  
  21841497.009   114777851.31549      2468.824    21841498.828    89437288.48549
      1923.757  
  24118832.899   126745320.00005     -3515.972           0.000           0.0000 
         0.000  
  22199556.934   118336112.34805     -2147.473    22199562.768    92039238.63205
     -1670.265  
  20955140.908   111977919.52307  -2097152.000    20955150.530    87093977.39607
  -2097152.000  
  19981910.613   106627323.54307      1846.402           0.000           0.0000 
         0.000  
  21677480.655   115715867.00206      1827.789    21677486.086    90001246.06903
      1421.617  
  20229671.508   108139185.64609     -2029.288    20229676.002    84108273.59608
     -1578.335  
  20871129.236   111685636.07508     -2105.582    20871132.658    86866615.24207
     -1637.683  
 20 10 01 07 34 40.0000000  0 14G15G18G20G21G24G27G10G13R14R15R 6R22
                                R 5R21
  21459269.342   112769218.30348     -2631.141    21459268.859    87872118.12849
     -2050.242  
  21789653.029   114505391.73148     -2886.809    21789653.630    89224978.84747
     -2249.464  
  19982056.235   105006418.49949       433.167    19982055.318    81823187.43148
       337.535  
  24612537.915   129339770.27846      2572.926    24612538.116   100784200.39144
      2004.789  
  20787915.505   109241255.82549      1352.241    20787917.543    85123078.80749
      1053.691  
  24479444.972   128640346.51444     -1882.132    24479446.854   100239241.88948
     -1466.597  
  21839148.593   114765510.42849      2467.374    21839150.414    89427672.21749
      1922.628  
  24122178.336   126762900.39245     -3516.395    24122180.834    98776301.26153
     -2740.015  
  22201573.132   118346859.44305     -2151.987    22201578.921    92047597.49605
     -1673.769  
  20953534.155   111969333.52008  -2097152.000    20953543.775    87087299.38807
  -2097152.000  
  19980181.644   106618097.24607      1844.265           0.000           0.0000 
         0.000  
  21675770.620   115706739.18706      1823.706    21675776.195    89994146.64003
      1418.433  
  20231570.593   108149337.56709     -2031.363    20231575.041    84116169.51408
     -1579.953  
  20873098.572   111696174.51808     -2109.551    20873102.041    86874811.81307
     -1640.765  
 20 10 01 07 34 45.0000000  0 13G15G18G20G21G24G27G10G13R15R 6R22R 5
                                R21
  21461773.402   112782377.47949     -2632.191    21461772.998    87882372.03249
     -2051.063  
  21792400.556   114519830.14748     -2888.344    21792401.312    89236229.55047
     -2250.660  
  19981645.170   105004258.40049       431.133    19981644.280    81821504.23648
       335.948  
  24610090.672   129326910.42746      2571.831    24610090.836   100774179.75144
      2003.926  
  20786630.326   109234501.94949      1349.406    20786632.286    85117816.05349
      1051.484  
  24481237.285   128649765.71444     -1885.035    24481239.416   100246581.53947
     -1468.863  
  21836801.349   114753175.61149      2466.636    21836803.154    89418060.67249
      1922.054  
  24125524.111   126780481.84146     -3516.266    24125526.184    98790001.03742
     -2739.949  
  20951931.177   111960767.69007  -2097152.000    20951940.798    87080637.08207
  -2097152.000  
  19978454.261   106608879.78508      1842.581           0.000           0.0000 
         0.000  
  21674064.499   115697631.70306      1819.757    21674070.111    89987063.05103
      1415.363  
  20233471.247   108159497.68008     -2032.476    20233475.600    84124071.81208
     -1580.819  
  20875071.670   111706732.84008     -2113.398    20875075.189    86883023.83107
     -1643.758  
 20 10 01 07 34 50.0000000  0 14G15G18G20G21G24G27G10G13R14R15R 6R22
                                R 5R21
  21464278.638   112795542.64649     -2634.363    21464278.301    87892630.60949
     -2052.750  
  21795149.809   114534277.63248     -2891.199    21795150.690    89247487.32547
     -2252.886  
  19981236.269   105002109.70849       427.875    19981235.389    81819829.92848
       333.405  
  24607644.504   129314056.16546      2569.675    24607644.683   100764163.44444
      2002.340  
  20785347.954   109227763.03549      1345.577    20785349.854    85112564.96049
      1048.503  
  24483031.455   128659195.26945     -1887.976    24483034.051   100253929.30147
     -1471.145  
  21834455.059   114740845.83549      2464.707    21834456.868    89408453.05549
      1920.546  
  24128869.760   126798063.27945     -3516.414    24128869.717    98803700.96541
     -2740.058  
  22205615.668   118368425.74515     -2159.121    22205621.388    92064355.28415
     -1679.312  
  20950331.759   111952220.88607  -2097152.000    20950341.378    87073989.55807
  -2097152.000  
  19976728.408   106599670.14508      1840.397           0.000           0.0000 
         0.000  
  21672361.955   115688543.50106      1814.897    21672367.424    89979994.44103
      1411.582  
  20235373.227   108169664.85609     -2034.952    20235377.544    84131979.62108
     -1582.741  
  20877048.214   111717309.88008     -2117.918    20877051.799    86891250.41707
     -1647.270  
 20 10 01 07 34 55.0000000  0 14G15G18G20G21G24G27G10G13R14R15R 6R22
                                R 5R21
  21466786.854   112808723.41049     -2637.491    21466786.548    87902901.33749
     -2055.187  
  21797902.702   114548743.77849     -2894.882    21797903.565    89258759.63947
     -2255.757  
  19980831.333   104999982.00148       423.570    19980830.491    81818171.96848
       330.050  
  24605201.218   129301217.08346      2566.433    24605201.212   100754158.90245
      1999.809  
  20784070.268   109221048.81449      1340.547    20784072.141    85107333.09249
      1044.578  
  24484829.375   128668644.96145     -1891.976    24484832.559   100261292.66947
     -1474.270  
  21832111.553   114728530.69149      2461.953    21832113.395    89398856.82849
      1918.401  
  24132217.082   126815654.42244     -3519.397    24132214.262    98817408.25244
     -2742.409  
  22207643.454   118379235.58204     -2164.745    22207649.407    92072763.00105
     -1683.688  
  20948737.702   111943702.72708  -2097152.000    20948747.317    87067364.30707
  -2097152.000  
  19975005.799   106590477.82008      1836.840           0.000           0.0000 
         0.000  
  21670664.973   115679484.39607      1809.188    21670670.295    89972948.43403
      1407.136  
  20237278.351   108179848.77209     -2038.319    20237282.561    84139900.42408
     -1585.363  
  20879030.132   111727915.46308     -2123.698    20879033.675    86899499.20107
     -1651.770  
 20 10 01 07 35  0.0000000  0 13G15G18G20G21G24G10G13R14R15R 6R22R 5
                                R21
  21469296.083   112821909.74348     -2636.784    21469295.868    87913176.39449
     -2054.640  
  21800657.177   114563218.58048     -2894.719    21800658.052    89270038.70847
     -2255.625  
  19980428.543   104997865.29449       423.215    19980427.723    81816522.57648
       329.773  
  24602758.912   129288383.08346      2567.097    24602758.861   100744158.47743
      2000.352  
  20782795.386   109214349.13949      1339.504    20782797.207    85102112.57649
      1043.770  
  21829768.937   114716220.22049      2462.742    21829770.846    89389264.26549
      1919.016  
  24135564.488   126833245.12644     -3516.586    24135561.373    98831115.33343
     -2740.198  
  22209674.551   118390062.34705     -2165.726    22209680.554    92081183.74805
     -1684.460  
  20947147.111   111935203.09108  -2097152.000    20947156.736    87060753.52107
  -2097152.000  
  19973284.612   106581292.98608      1837.254           0.000           0.0000 
         0.000  
  21668971.506   115670444.24407      1807.253    21668976.578    89965917.22003
      1405.641  
  20239184.714   108190039.37409     -2037.773    20239188.844    84147826.45708
     -1584.933  
  20881015.477   111738539.35208     -2125.441    20881019.086    86907762.23207
     -1653.124  
 20 10 01 07 35  5.0000000  0 14G15G18G20G21G24G27G10G13R14R15R 6R22
                                R 5R21
  21471805.475   112835097.19048     -2638.487    21471805.403    87923452.33649
     -2055.965  
  21803412.397   114577697.57548     -2897.234    21803413.311    89281321.03547
     -2257.589  
  19980027.033   104995755.12949       420.383    19980026.226    81814878.29648
       327.570  
  24600316.636   129275549.83546      2565.797    24600316.701   100734158.52144
      1999.319  
  20781522.412   109207659.52349      1335.972    20781524.168    85096899.88049
      1041.016  
  24488430.238   128687570.09453     -1894.507    24488434.435   100276043.56558
     -1476.237  
  21827426.380   114703909.90749      2461.151    21827428.347    89379671.81149
      1917.780  
  24138910.872   126850831.02545     -3517.847    24138910.172    98844818.60641
     -2741.187  
  22211708.036   118400901.49604     -2169.816    22211714.163    92089614.14206
     -1687.651  
  20945559.172   111926717.62908  -2097152.000    20945568.802    87054153.73707
  -2097152.000  
  19971563.976   106572111.03207      1835.090           0.000           0.0000 
         0.000  
  21667280.769   115661418.56406      1802.973    21667285.675    89958897.25403
      1402.309  
  20241091.482   108200232.11009     -2039.644    20241095.561    84155754.14108
     -1586.395  
  20883003.353   111749177.09208     -2129.804    20883007.135    86916036.01807
     -1656.520  
 20 10 01 07 35 10.0000000  0 14G15G18G20G21G24G27G10G13R14R15R 6R22
                                R 5R21
  21474316.122   112848291.26248     -2639.160    21474316.211    87933733.42349
     -2056.492  
  21806169.469   114592186.21048     -2898.354    21806170.375    89292610.87647
     -2258.461  
  19979627.798   104993657.01049       418.824    19979626.975    81813243.39548
       326.352  
  24597875.616   129262722.81646      2565.218    24597875.786   100724163.44344
      1998.866  
  20780252.373   109200985.42149      1333.520    20780254.107    85091699.28749
      1039.104  
  24490233.426   128697044.50556     -1895.909    24490237.974   100283429.75357
     -1477.332  
  21825084.929   114691605.28149      2460.800    21825086.908    89370083.79049
      1917.504  
  24142257.152   126868417.46755     -3517.070    24142255.076    98858498.39853
     -2740.574  
  22213744.799   118411758.55904     -2172.789    22213751.196    92098058.57205
     -1689.945  
  20943974.913   111918251.82808  -2097152.000    20943984.541    87047569.21607
  -2097152.000  
  19969844.859   106562937.33808      1834.491           0.000           0.0000 
         0.000  
  21665593.711   115652412.83906      1799.472    21665598.593    89951892.80403
      1399.589  
  20242999.665   108210432.44309     -2040.465    20243003.743    84163687.73108
     -1587.031  
  20884994.839   111759834.06508     -2132.952    20884998.708    86924324.75407
     -1658.968  
 20 10 01 07 35 15.0000000  0 14G15G18G20G21G24G27G10G13R14R15R 6R22
                                R 5R21
  21476828.852   112861496.43248     -2642.711    21476829.111    87944023.17449
     -2059.254  
  21808929.260   114606689.07448     -2902.507    21808930.215    89303911.83347
     -2261.695  
  19979231.738   104991575.54349       414.078    19979230.879    81811621.48048
       322.659  
  24595436.688   129249906.53646      2561.535    24595436.804   100714176.72145
      1995.995  
  20778986.195   109194331.57849      1328.179    20778987.939    85086514.47849
      1034.945  
  24492039.699   128706536.56545     -1900.559    24492044.308   100290826.10846
     -1480.960  
  21822745.436   114679310.94349      2457.270    21822747.450    89360503.78949
      1914.753  
  24145604.664   126886009.26645     -3520.414    24145601.076    98872206.14543
     -2743.176  
  22215785.930   118422638.15405     -2179.202    22215792.379    92106520.45906
     -1694.944  
  20942395.215   111909810.40308  -2097152.000    20942404.839    87041003.64607
  -2097152.000  
  19968128.165   106553776.72607      1830.168           0.000           0.0000 
         0.000  
  21663911.248   115643431.74206      1793.277    21663916.184    89944907.51003
      1394.765  
  20244910.146   108220645.15108     -2044.461    20244914.228    84171630.95608
     -1590.136  
  20886990.811   111770515.16008     -2139.288    20886994.742    86932632.27707
     -1663.894  
 20 10 01 07 35 20.0000000  0 15G15G18G20G21G32G24G27G10G13R14R15R 6
                                R22R 5R21
  21479343.891   112874713.27249     -2643.827    21479344.234    87954321.99549
     -2060.129  
  21811691.860   114621206.66748     -2904.452    21811692.799    89315224.21647
     -2263.215  
  19978838.943   104989511.20449       411.789    19978838.049    81810012.90748
       320.875  
  24592999.879   129237101.60947      2560.355    24593000.000   100704198.82244
      1995.073  
  24682777.239   129708876.95017      3342.199           0.000           0.0000 
         0.000  
  20777723.979   109187698.52649      1325.159    20777725.712    85081345.87249
      1032.593  
  24493849.046   128716044.78145     -1902.874    24493853.828   100298235.10347
     -1482.762  
  21820407.966   114667027.36049      2456.253    21820410.005    89350932.15349
      1913.961  
  24148953.060   126903606.42345     -3519.363    24148950.343    98885918.23743
     -2742.358  
  22217831.109   118433540.70004     -2181.289    22217837.993    92115000.21506
     -1696.563  
  20940820.181   111901393.89908  -2097152.000    20940829.803    87034457.46507
  -2097152.000  
  19966413.960   106544629.71207      1828.785           0.000           0.0000 
         0.000  
  21662233.533   115634475.76406      1789.598    21662238.542    89937941.75803
      1391.910  
  20246823.037   108230870.62109     -2045.875    20246827.092    84179584.10208
     -1591.233  
  20888991.347   111781220.71808     -2142.960    20888995.364    86940958.80407
     -1666.750  
 20 10 01 07 35 25.0000000  0 14G15G18G20G21G32G24G10G13R14R15R 6R22
                                R 5R21
  21481861.462   112887943.22749     -2647.340    21481861.810    87964631.04549
     -2062.862  
  21814457.619   114635740.45149     -2908.500    21814458.494    89326549.24147
     -2266.367  
  19978449.711   104987465.52649       407.062    19978448.768    81808418.86848
       317.187  
  24590565.418   129224309.46646      2556.921    24590565.620   100694230.94245
      1992.409  
  24679597.714   129692173.68247      3339.695    24679602.837   101058851.15159
      2602.355  
  20776465.995   109181087.81149      1319.784    20776467.780    85076194.66149
      1028.397  
  21818072.826   114654756.05649      2452.847    21818074.870    89341370.10349
      1911.308  
  24152302.966   126921208.85654     -3521.461    24152298.921    98899632.10753
     -2743.996  
  22219881.140   118444467.83304     -2187.828    22219888.093    92123499.16805
     -1701.636  
  20939250.070   111893003.70208  -2097152.000    20939259.689    87027931.74607
  -2097152.000  
  19964702.629   106535497.75207      1824.655           0.000           0.0000 
         0.000  
  21660560.815   115625546.62006      1783.394    21660565.857    89930996.86303
      1387.086  
  20248738.619   108241110.37909     -2049.522    20248742.630    84187548.36408
     -1594.074  
  20890996.791   111791952.25408     -2149.070    20891000.756    86949305.55807
     -1671.503  
 20 10 01 07 35 30.0000000  0 15G15G18G20G21G32G24G27G10G13R14R15R 6
                                R22R 5R21
  21484378.344   112901169.74748     -2645.223    21484378.740    87974937.42449
     -2061.215  
  21817223.269   114650273.85649     -2906.934    21817224.085    89337873.96747
     -2265.147  
  19978060.823   104985421.90549       408.277    19978059.875    81806826.44548
       318.133  
  24588130.208   129211513.50545      2559.898    24588130.603   100684260.08145
      1994.729  
  24676417.410   129675461.44447      3343.316    24676422.777   101045828.64649
      2605.179  
  20775209.095   109174482.63049      1320.313    20775210.906    85071047.78449
      1028.815  
  24497474.681   128735097.21456     -1905.387    24497478.694   100313080.20055
     -1484.714  
  21815736.872   114642480.50249      2455.398    21815738.951    89331804.75049
      1913.297  
  24155651.260   126938803.95146     -3518.363    24155644.419    98913342.64441
     -2741.563  
  22221932.538   118455402.81705     -2187.866    22221939.491    92132004.18605
     -1701.671  
  20937681.752   111884623.08108  -2097152.000    20937691.367    87021413.47207
  -2097152.000  
  19962990.972   106526364.05507      1826.511           0.000           0.0000 
         0.000  
  21658889.997   115616627.33807      1782.656    21658894.881    89924059.66203
      1386.508  
  20250653.718   108251347.68109     -2047.464    20250657.795    84195510.70508
     -1592.476  
  20893003.928   111802693.00108     -2149.140    20893007.809    86957659.47307
     -1671.559  
 20 10 01 07 35 35.0000000  0 15G15G18G20G21G32G24G27G10G13R14R15R 6
                                R22R 5R21
  21486896.434   112914402.46649     -2648.402    21486896.817    87985248.65049
     -2063.690  
  21819990.680   114664816.54048     -2910.496    21819991.435    89349205.93147
     -2267.918  
  19977674.169   104983390.02349       404.117    19977673.203    81805243.15248
       314.894  
  24585696.213   129198723.58745      2556.265    24585696.796   100674293.92445
      1991.890  
  24673237.712   129658750.05247      3341.300    24673243.198   101032806.77148
      2603.609  
  20773955.110   109167892.86149      1315.211    20773956.937    85065912.90049
      1024.839  
  24499289.730   128744634.83046     -1909.847    24499292.968   100320511.97246
     -1488.210  
  21813401.918   114630210.36149      2452.249    21813404.011    89322243.59149
      1910.843  
  24158999.658   126956399.30606     -3519.698           0.000           0.0000 
         0.000  
  22223987.058   118466355.09205     -2193.046    22223994.158    92140522.69505
     -1705.691  
  20936117.067   111876261.88108  -2097152.000    20936126.689    87014910.34507
  -2097152.000  
  19961280.851   106517238.49207      1823.104           0.000           0.0000 
         0.000  
  21657222.968   115607727.81107      1777.124    21657227.613    89917137.78803
      1382.202  
  20252570.225   108261592.32009     -2050.996    20252574.308    84203478.77208
     -1595.218  
  20895014.640   111813452.60508     -2154.863    20895018.443    86966028.04207
     -1676.108  
 20 10 01 07 35 40.0000000  0 15G15G18G20G21G32G24G27G10G13R14R15R 6
                                R22R 5R21
  21489417.326   112927650.02649     -2650.070    21489417.794    87995571.38349
     -2064.996  
  21822761.488   114679377.08049     -2913.066    21822762.226    89360551.79547
     -2269.925  
  19977291.365   104981378.44049       401.141    19977290.412    81803675.68748
       312.573  
  24583265.018   129185948.19746      2554.262    24583265.707   100664339.05245
      1990.323  
  24670059.368   129642048.02347      3339.765    24670064.235   101019792.20249
      2602.413  
  20772705.667   109161326.96749      1311.539    20772707.536    85060796.62349
      1021.977  
  24501108.499   128754191.52745     -1911.956    24501111.386   100327958.74546
     -1489.843  
  21811069.641   114617954.19649      2450.620    21811071.742    89312693.34249
      1909.573  
  24162349.775   126974003.35246     -3520.613    24162344.310    98940759.76552
     -2743.296  
  22226046.671   118477333.77305     -2196.769    22226053.608    92149061.60005
     -1708.605  
  20934557.653   111867928.84708  -2097152.000    20934567.279    87008429.11108
  -2097152.000  
  19959573.891   106508129.73207      1821.020           0.000           0.0000 
         0.000  
  21655561.141   115598856.74006      1771.858    21655565.724    89910238.06503
      1378.108  
  20254489.676   108271852.94609     -2053.104    20254493.813    84211459.24908
     -1596.862  
  20897030.494   111824239.97208     -2159.616    20897034.281    86974418.20707
     -1679.707  
 20 10 01 07 35 45.0000000  0 15G15G18G20G21G32G24G27G10G13R14R15R 6
                                R22R 5R21
  21491939.670   112940905.00349     -2651.913    21491940.154    88005899.92849
     -2066.430  
  21825534.339   114693948.16649     -2915.477    21825535.065    89371905.88747
     -2271.805  
  19976911.084   104979379.89249       398.191    19976910.122    81802118.36748
       310.272  
  24580835.281   129173179.96846      2552.492    24580836.081   100654389.76245
      1988.948  
  24666881.206   129625348.13446      3339.449    24666886.740   101006779.29649
      2602.163  
  20771459.411   109154777.71849      1308.027    20771461.302    85055693.31349
      1019.241  
  24502929.563   128763760.15745     -1916.421    24502932.038   100335414.92046
     -1493.309  
  21808738.659   114605704.70949      2449.210    21808740.741    89303148.28249
      1908.476  
  24165700.041   126991608.96505     -3521.128           0.000           0.0000 
         0.000  
  22228109.780   118488331.30404     -2201.218    22228116.435    92157615.22405
     -1712.066  
  20933002.111   111859616.49908  -2097152.000    20933011.735    87001963.94407
  -2097152.000  
  19957868.680   106499030.49607      1818.645           0.000           0.0000 
         0.000  
  21653903.340   115590006.78706      1767.609    21653907.887    89903354.78904
      1374.808  
  20256410.812   108282122.20609     -2054.858    20256414.980    84219446.44808
     -1598.227  
  20899050.142   111835047.54908     -2163.832    20899053.905    86982824.10007
     -1682.984  
 20 10 01 07 35 50.0000000  0 15G15G18G20G 8G21G32G24G27G10R14R15R 6
                                R22R 5R21
  21494463.108   112954165.85449     -2652.710    21494463.616    88016233.08549
     -2067.046  
  21828308.843   114708528.12449     -2916.813    21828309.572    89383266.87147
     -2272.843  
  19976532.945   104977392.69849       396.354    19976532.003    81800569.91048
       308.847  
  24669444.495   129638800.15554      -184.253    24669446.116   101017259.60757
      -143.563  
  24578406.671   129160417.35046      2551.815    24578407.491   100644444.90644
      1988.434  
  24663703.332   129608648.64147      3340.234    24663708.483   100993766.67848
      2602.772  
  20770216.009   109148243.44449      1305.473    20770217.896    85050601.68349
      1017.249  
  24504752.515   128773342.11755     -1915.222    24504754.198   100342872.91954
     -1492.383  
  21806408.659   114593460.32149      2448.375    21806410.682    89293607.20449
      1907.823  
  22230175.960   118499345.89204     -2204.042    22230182.565    92166182.07205
     -1714.266  
  20931450.134   111851323.20408  -2097152.000    20931459.754    86995513.58807
  -2097152.000  
  19956164.927   106489938.93907      1817.601           0.000           0.0000 
         0.000  
  21652249.124   115581176.24706      1764.301    21652253.599    89896486.62004
      1372.233  
  20258333.216   108292398.33909     -2055.832    20258337.379    84227438.98908
     -1598.983  
  20901073.236   111845873.62808     -2166.949    20901076.956    86991244.38407
     -1685.410  
 20 10 01 07 35 55.0000000  0 16G15G18G20G 8G21G32G24G27G10G13R14R15
                                R 6R22R 5R21
  21496988.606   112967437.31349     -2654.563    21496989.054    88026574.45749
     -2068.495  
  21831085.940   114723121.71449     -2919.258    21831086.587    89394638.50347
     -2274.750  
  19976157.888   104975421.69549       393.289    19976156.958    81799034.06748
       306.460  
  24669622.907   129639736.15344      -187.026    24669624.315   101017988.86645
      -145.754  
  24575979.936   129147665.08046      2550.324    24575980.733   100634508.11143
      1987.121  
  24660526.204   129591954.31346      3338.898    24660531.329   100980758.10649
      2601.734  
  20768976.336   109141728.82449      1301.688    20768978.252    85045525.35949
      1014.300  
  24506578.346   128782936.13846     -1919.249    24506579.893   100350348.71347
     -1495.543  
  21804080.530   114581225.76249      2446.777    21804082.509    89284073.78849
      1906.578  
  24172402.222   127026831.66115     -3522.280           0.000           0.0000 
         0.000  
  22232246.332   118510382.32904     -2208.515    22232252.977    92174766.04804
     -1717.726  
  20929902.642   111843053.87708  -2097152.000    20929912.262    86989081.88907
  -2097152.000  
  19954463.463   106480859.94807      1815.343           0.000           0.0000 
         0.000  
  21650599.360   115572369.88406      1759.664    21650603.947    89889637.20204
      1368.620  
  20260257.809   108302686.33309     -2057.979    20260261.997    84235440.75708
     -1600.687  
  20903100.734   111856723.14808     -2171.519    20903104.394    86999682.89207
     -1688.964  
 20 10 01 07 36  0.0000000  0 16G15G18G20G 8G21G32G24G27G10G13R14R15
                                R 6R22R 5R21
  21499515.063   112980713.83948     -2656.113    21499515.466    88036919.84649
     -2069.695  
  21833864.548   114737723.39549     -2921.375    21833865.175    89406016.45147
     -2276.397  
  19975784.819   104973461.33249       390.589    19975783.914    81797506.51848
       304.354  
  24669802.861   129640684.91043      -190.238    24669804.365   101018728.10847
      -148.258  
  24573554.102   129134917.73945      2549.039    24573554.911   100624575.09045
      1986.262  
  24657349.168   129575259.65847      3338.578    24657354.591   100967749.33249
      2601.492  
  20767739.347   109135228.40349      1298.383    20767741.317    85040460.09949
      1011.726  
  24508405.960   128792539.59646     -1922.305    24508407.717   100357831.97046
     -1497.891  
  21801753.212   114568995.49849      2445.308    21801755.158    89274543.70749
      1905.429  
  24175751.504   127044440.78745     -3521.727    24175751.946    98995665.54253
     -2744.202  
  22234319.531   118521434.89505     -2212.362    22234326.403    92183362.55204
     -1720.719  
  20928358.590   111834802.93208  -2097152.000    20928368.210    86982664.48407
  -2097152.000  
  19952763.387   106471787.92107      1813.375           0.000           0.0000 
         0.000  
  21648953.109   115563582.17806      1755.144    21648957.856    89882802.34803
      1365.112  
  20262183.566   108312980.51009     -2059.831    20262187.775    84243447.34408
     -1602.090  
  20905131.535   111867590.30708     -2175.550    20905135.108    87008135.12707
     -1692.093  
 20 10 01 07 36  5.0000000  0 15G15G18G20G21G32G24G27G10G13R14R15R 6
                                R22R 5R21
  21502043.236   112993999.38649     -2658.461    21502043.608    88047272.19649
     -2071.531  
  21836645.475   114752337.14049     -2924.367    21836646.088    89417403.76247
     -2278.734  
  19975414.532   104971515.58349       387.262    19975413.626    81795990.34248
       301.761  
  24571130.002   129122179.19346      2546.499    24571130.668   100614648.96844
      1984.288  
  24654172.809   129558568.68346      3337.793    24654178.565   100954743.38049
      2600.879  
  20766505.838   109128746.17449      1294.183    20766507.781    85035409.00749
      1008.452  
  24510235.915   128802156.42345     -1924.745    24510237.894   100365325.55346
     -1499.809  
  21799427.480   114556773.51149      2443.214    21799429.359    89265020.07249
      1903.800  
  24179103.486   127062053.22804     -3523.151           0.000           0.0000 
         0.000  
  22236396.790   118532507.98105     -2216.874    22236403.526    92191974.97705
     -1724.230  
  20926818.698   111826574.21608  -2097152.000    20926828.325    86976264.40307
  -2097152.000  
  19951065.383   106462727.01607      1810.476           0.000           0.0000 
         0.000  
  21647311.103   115554817.13506      1750.312    21647315.924    89875985.07504
      1361.348  
  20264111.199   108323284.84508     -2062.257    20264115.429    84251461.82908
     -1603.977  
  20907166.408   111878479.26308     -2180.233    20907169.947    87016604.28407
     -1695.742  
 20 10 01 07 36 10.0000000  0 15G15G18G20G21G32G24G27G10G13R14R15R 6
                                R22R 5R21
  21504574.002   113007298.52549     -2660.249    21504574.303    88057635.15749
     -2072.925  
  21839429.562   114766967.46249     -2926.976    21839430.127    89428803.99747
     -2280.766  
  19975047.894   104969589.01149       384.234    19975047.006    81794489.12548
       299.402  
  24568708.487   129109454.04946      2544.637    24568709.273   100604733.26344
      1982.836  
  24650997.980   129541885.94047      3336.444    24651003.788   100941743.82449
      2599.965  
  20765276.674   109122286.78049      1290.414    20765278.576    85030375.71049
      1005.511  
  24512069.532   128811791.39345     -1927.671    24512071.542   100372833.25345
     -1502.097  
  21797104.198   114544564.39249      2441.444    21797106.044    89255506.48449
      1902.425  
  24182456.610   127079667.13955     -3523.953    24182461.405    99023136.34253
     -2745.938  
  22238478.652   118543605.97306     -2221.187    22238485.414    92200606.72105
     -1727.594  
  20925283.867   111818372.54408  -2097152.000    20925293.494    86969885.32607
  -2097152.000  
  19949370.301   106453681.73508      1808.562           0.000           0.0000 
         0.000  
  21645674.250   115546079.43506      1745.741    21645679.038    89869189.09503
      1357.801  
  20266041.583   108333603.95009     -2064.339    20266045.808    84259487.79908
     -1605.617  
  20909206.248   111889394.58008     -2184.797    20909209.730    87025093.98707
     -1699.285  
 20 10 01 07 36 15.0000000  0 15G15G18G20G21G32G24G27G10G13R14R15R 6
                                R22R 5R21
  21507105.618   113020602.28949     -2661.348    21507105.911    88068001.73249
     -2073.777  
  21842215.136   114781605.50449     -2928.449    21842215.625    89440210.27347
     -2281.909  
  19974683.226   104967672.76349       382.008    19974682.341    81792995.94648
       297.663  
  24566287.757   129096733.43445      2543.753    24566288.586   100594821.14145
      1982.147  
  24647823.388   129525202.56446      3336.656    24647828.872   100928743.82649
      2599.991  
  20764050.179   109115841.41449      1287.476    20764052.061    85025353.33949
      1003.223  
  24513904.718   128821435.42545     -1929.323    24513906.698   100380348.16145
     -1503.362  
  21794781.653   114532359.27149      2440.488    21794783.465    89245996.00549
      1901.680  
  24185809.249   127097285.65805     -3523.035           0.000           0.0000 
         0.000  
  22240563.647   118554719.79806     -2224.022    22240570.504    92209250.83505
     -1729.796  
  20923752.401   111810188.85708  -2097152.000    20923762.031    86963520.24407
  -2097152.000  
  19947676.481   106444642.93608      1806.719           0.000           0.0000 
         0.000  
  21644040.773   115537360.10706      1741.933    21644045.557    89862407.40603
      1354.831  
  20267973.058   108343928.85108     -2065.757    20267977.212    84267518.27608
     -1606.703  
  20911249.326   111900327.24908     -2188.461    20911252.733    87033597.18507
     -1702.136  
 20 10 01 07 36 20.0000000  0 15G15G18G20G21G32G24G27G10G13R14R15R 6
                                R22R 5R21
  21509638.232   113033911.54649     -2662.276    21509638.556    88078372.58249
     -2074.499  
  21845002.342   114796252.05548     -2930.246    21845002.769    89451623.16247
     -2283.309  
  19974320.669   104965767.63649       379.820    19974319.766    81791511.41948
       295.960  
  24563868.159   129084018.23346      2542.266    24563868.800   100584913.14643
      1980.977  
  24644648.655   129508519.29147      3336.785    24644654.018   100915743.86249
      2600.093  
  20762826.470   109109410.83949      1284.695    20762828.359    85020342.51349
      1001.062  
  24515741.772   128831089.39545     -1931.855    24515743.680   100387870.76447
     -1505.339  
  21792460.026   114520158.97949      2439.522    21792461.737    89236489.29549
      1900.922  
  24189162.033   127114903.84644     -3523.145    24189160.464    99050568.46154
     -2745.324  
  22242651.777   118565850.33204     -2227.964    22242658.585    92217907.94206
     -1732.859  
  20922224.461   111802024.00608  -2097152.000    20922234.094    86957169.81907
  -2097152.000  
  19945984.084   106435611.82408      1805.492           0.000           0.0000 
         0.000  
  21642410.934   115528659.88606      1738.073    21642415.717    89855640.58903
      1351.831  
  20269905.773   108354260.41608     -2067.000    20269909.973    84275553.93208
     -1607.672  
  20913295.771   111911278.06608     -2191.987    20913299.206    87042114.47907
     -1704.882  
 20 10 01 07 36 25.0000000  0 15G15G18G20G 8G21G32G24G27G10R14R15R 6
                                R22R 5R21
  21512172.384   113047228.69749     -2664.585    21512172.721    88088749.59849
     -2076.301  
  21847791.631   114810909.52348     -2932.695    21847791.996    89463044.54947
     -2285.222  
  19973960.709   104963876.03449       376.609    19973959.756    81790037.45748
       293.461  
  24670749.557   129645658.39755      -207.565    24670749.012   101022606.62556
      -161.737  
  24561450.057   129071310.70746      2540.188    24561450.589   100575011.22745
      1979.370  
  24641474.557   129491838.63947      3335.563    24641479.813   100902745.95949
      2598.999  
  20761606.013   109102997.39149      1280.676    20761607.921    85015345.02349
       997.929  
  24517581.178   128840755.57144     -1934.738    24517583.149   100395402.77047
     -1507.598  
  21790139.769   114507965.88049      2437.640    21790141.504    89226988.17249
      1899.457  
  22244743.562   118577000.06406     -2232.405    22244750.152    92226579.93806
     -1736.316  
  20920700.513   111793880.49408  -2097152.000    20920710.150    86950835.99007
  -2097152.000  
  19944293.495   106426590.51608      1802.926           0.000           0.0000 
         0.000  
  21640785.119   115519981.26706      1733.539    21640789.903    89848890.54703
      1348.313  
  20271840.137   108364600.88509     -2069.312    20271844.427    84283596.52808
     -1609.465  
  20915346.017   111922249.50508     -2196.612    20915349.530    87050647.80407
     -1708.480  
 20 10 01 07 36 30.0000000  0 14G15G18G20G 8G21G32G24G10R14R15R 6R22
                                R 5R21
  21514707.955   113060553.24348     -2665.703    21514708.325    88099132.34849
     -2077.176  
  21850582.893   114825577.42248     -2934.770    21850583.237    89474474.08747
     -2286.831  
  19973603.223   104961997.52849       374.383    19973602.265    81788573.68348
       291.727  
  24670945.932   129646701.47644      -208.913    24670948.470   101023419.34046
      -162.801  
  24559033.316   129058610.46246      2538.991    24559033.775   100565114.93244
      1978.430  
  24638300.959   129475160.08246      3335.507    24638306.044   100889749.68748
      2599.093  
  20760388.689   109096600.49649      1277.746    20760390.632    85010360.43149
       995.644  
  21787820.788   114495779.55349      2436.477    21787822.520    89217492.35149
      1898.555  
  22246838.716   118588168.53805     -2235.684    22246845.258    92235266.54605
     -1738.863  
  20919180.457   111785757.77408  -2097152.000    20919190.096    86944518.32908
  -2097152.000  
  19942604.687   106417578.58807      1801.152           0.000           0.0000 
         0.000  
  21639163.260   115511323.92306      1729.608    21639168.048    89842157.06703
      1345.249  
  20273776.131   108374950.04108     -2070.702    20273780.472    84291645.86808
     -1610.550  
  20917399.952   111933240.96108     -2200.366    20917403.518    87059196.72307
     -1711.397  
 20 10 01 07 36 35.0000000  0 15G15G18G20G 8G21G32G24G27G10R14R15R 6
                                R22R 5R21
  21517245.855   113073889.93848     -2668.187    21517246.202    88109524.56149
     -2079.109  
  21853376.979   114840260.44748     -2937.777    21853377.359    89485915.39547
     -2289.180  
  19973249.103   104960136.77049       370.809    19973248.158    81787123.73648
       288.937  
  24671149.237   129647764.50844      -213.229    24671153.276   101024247.73345
      -166.152  
  24556618.827   129045922.36146      2536.422    24556619.367   100555228.18143
      1976.444  
  24635128.634   129458488.33847      3334.128    24635133.717   100876758.75648
      2598.026  
  20759175.420   109090224.97649      1273.344    20759177.389    85005392.49449
       992.215  
  24521267.705   128860130.27455     -1940.285    24521270.376   100410499.37856
     -1511.917  
  21785503.983   114483604.72549      2434.215    21785505.775    89208005.47949
      1896.789  
  22248938.395   118599360.35306     -2240.108    22248944.752    92243971.28505
     -1742.312  
  20917665.213   111777660.76809  -2097152.000    20917674.848    86938220.64407
  -2097152.000  
  19940918.497   106408580.88108      1798.488           0.000           0.0000 
         0.000  
  21637546.294   115502692.48107      1724.289    21637550.978    89835443.67104
      1341.104  
  20275714.636   108385312.49408     -2073.546    20275718.997    84299705.54708
     -1612.761  
  20919458.587   111944257.32308     -2205.452    20919462.288    87067765.04107
     -1715.347  
 20 10 01 07 36 40.0000000  0 14G15G18G20G21G32G24G27G10R14R15R 6R22
                                R 5R21
  21519784.374   113087229.81749     -2668.569    21519784.636    88119919.27449
     -2079.410  
  21856172.211   114854949.67548     -2938.710    21856172.651    89497361.55547
     -2289.909  
  19972896.689   104958284.88449       369.309    19972895.749    81785680.71248
       287.773  
  24554204.970   129033237.33147      2536.391    24554205.470   100545343.67443
      1976.406  
  24631955.900   129441814.54247      3334.734    24631960.852   100863766.15349
      2598.491  
  20757964.518   109083861.85949      1270.953    20757966.487    85000434.20949
       990.347  
  24523114.019   128869832.56346     -1941.796    24523116.978   100418059.65546
     -1513.081  
  21783187.696   114471432.45949      2434.034    21783189.543    89198520.58549
      1896.647  
  22251040.719   118610566.61106     -2242.968    22251047.023    92252687.25304
     -1744.538  
  20916153.059   111769580.27608  -2097152.000    20916162.694    86931935.81607
  -2097152.000  
  19939233.338   106399588.36108      1797.906           0.000           0.0000 
         0.000  
  21635932.504   115494078.08906      1720.855    21635937.213    89828743.62603
      1338.444  
  20277653.887   108395679.21309     -2073.999    20277658.357    84307768.57608
     -1613.108  
  20921520.179   111955289.50208     -2208.304    20921523.972    87076345.58307
     -1717.577  
 20 10 01 07 36 45.0000000  0 14G15G18G20G 8G21G32G24G10R14R15R 6R22
                                R 5R21
  21522324.081   113100575.94148     -2669.827    21522324.379    88130318.87949
     -2080.387  
  21858969.269   114869648.18848     -2940.519    21858969.777    89508814.91247
     -2291.320  
  19972546.575   104956444.99249       366.772    19972545.615    81784247.03548
       285.793  
  24671560.973   129649925.22855      -218.726    24671565.317   101025930.16355
      -170.437  
  24551792.303   129020558.49547      2535.066    24551792.974   100535464.06443
      1975.374  
  24628783.379   129425141.73547      3334.593    24628788.273   100850774.41049
      2598.386  
  20756756.557   109077514.26249      1268.023    20756758.520    84995488.03649
       988.069  
  21780872.495   114459265.87549      2432.690    21780874.339    89189040.15049
      1895.604  
  22253146.235   118621790.25905     -2246.363    22253152.281    92261416.73304
     -1747.176  
  20914644.597   111761519.51108  -2097152.000    20914654.233    86925666.33807
  -2097152.000  
  19937549.788   106390604.30308      1796.082           0.000           0.0000 
         0.000  
  21634322.381   115485483.57706      1716.663    21634327.068    89822059.01403
      1335.184  
  20279594.557   108406053.36008     -2075.468    20279599.115    84315837.35508
     -1614.254  
  20923585.271   111966340.53908     -2212.090    20923589.148    87084940.81907
     -1720.520  
 20 10 01 07 36 50.0000000  0 15G15G18G20G 8G21G32G24G27G10R14R15R 6
                                R22R 5R21
  21524865.572   113113931.38349     -2671.551    21524865.844    88140725.71949
     -2081.730  
  21861768.638   114884359.00548     -2942.910    21861769.231    89520277.86447
     -2293.184  
  19972199.309   104954620.03349       363.757    19972198.299    81782824.99048
       283.448  
  24671771.591   129651030.28544      -222.809    24671775.346   101026791.28847
      -173.616  
  24549381.476   129007888.92147      2533.230    24549382.150   100525591.70645
      1974.015  
  24625611.677   129408472.98848      3333.909    24625616.514   100837785.77449
      2597.848  
  20755552.165   109071185.42249      1264.159    20755554.147    84990556.48549
       985.059  
  24526813.200   128889273.04855     -1947.016    24526816.201   100433211.25957
     -1517.160  
  21778558.968   114447108.01949      2430.933    21778560.737    89179566.49249
      1894.229  
  22255255.664   118633034.51806     -2250.503    22255261.724    92270162.31405
     -1750.383  
  20913140.403   111753481.55608  -2097152.000    20913150.042    86919414.60607
  -2097152.000  
  19935868.357   106381631.46208      1793.750           0.000           0.0000 
         0.000  
  21632716.616   115476912.27106      1712.352    21632721.356    89815392.43303
      1331.823  
  20281537.211   108416438.08808     -2077.641    20281541.781    84323914.34408
     -1615.961  
  20925654.425   111977413.59308     -2216.546    20925658.431    87093553.20507
     -1723.984  
 20 10 01 07 36 55.0000000  0 15G15G18G20G 8G21G32G24G27G10R14R15R 6
                                R22R 5R21
  21527408.159   113127292.42349     -2672.488    21527408.380    88151136.88549
     -2082.464  
  21864569.662   114899078.39049     -2944.452    21864570.262    89531747.52347
     -2294.379  
  19971854.192   104952806.43449       361.890    19971853.168    81781411.79848
       281.991  
  24671984.992   129652148.55945      -225.023    24671987.945   101027662.68946
      -175.336  
  24546971.719   128995224.96447      2532.155    24546972.338   100515723.64844
      1973.133  
  24622440.103   129391804.59447      3334.081    24622444.737   100824797.44349
      2597.980  
  20754350.591   109064871.48449      1261.745    20754352.564    84985636.52049
       983.175  
  24528665.914   128899009.59345     -1948.348    24528668.991   100440798.15748
     -1518.194  
  21776246.358   114434955.13949      2430.409    21776248.097    89170096.71149
      1893.823  
  22257368.230   118644295.52405     -2253.344    22257374.143    92278920.85705
     -1752.604  
  20911639.776   111745462.66108  -2097152.000    20911649.413    86913177.67607
  -2097152.000  
  19934188.307   106372666.20707      1792.523           0.000           0.0000 
         0.000  
  21631114.443   115468360.32306      1709.011    21631119.304    89808740.92103
      1329.227  
  20283481.097   108426829.46108     -2078.504    20283485.624    84331996.51108
     -1616.598  
  20927727.042   111988504.77608     -2219.789    20927731.172    87102179.67607
     -1726.508  
 20 10 01 07 37  0.0000000  0 15G15G18G20G 8G21G32G24G27G10R14R15R 6
                                R22R 5R21
  21529951.650   113140658.21449     -2674.394    21529951.784    88161551.79449
     -2083.944  
  21867372.170   114913805.60548     -2946.828    21867372.777    89543223.26347
     -2296.234  
  19971511.059   104951003.41449       358.965    19971510.039    81780006.83648
       279.706  
  24672200.664   129653279.48546      -229.077    24672201.254   101028543.87546
      -178.516  
  24544562.861   128982565.80347      2530.397    24544563.203   100505859.39443
      1971.733  
  24619268.339   129375135.83447      3333.085    24619272.765   100811808.74749
      2597.206  
  20753151.757   109058571.69149      1257.796    20753153.695    84980727.60249
       980.102  
  24530520.510   128908755.37245     -1950.659    24530523.583   100448392.27647
     -1519.999  
  21773934.567   114422806.53349      2428.758    21773936.255    89160630.25949
      1892.535  
  22259483.506   118655572.57505     -2258.323    22259489.470    92287691.89602
     -1756.472  
  20910142.577   111737462.08108  -2097152.000    20910152.215    86906955.01208
  -2097152.000  
  19932509.570   106363707.89008      1790.418           0.000           0.0000 
         0.000  
  21629515.907   115459827.07406      1703.891    21629520.719    89802103.92903
      1325.245  
  20285426.121   108437226.81908     -2080.852    20285430.631    84340083.33208
     -1618.445  
  20929802.982   111999613.48608     -2224.065    20929807.170    87110819.79207
     -1729.832  
 20 10 01 07 37  5.0000000  0 15G15G18G20G 8G21G32G24G27G10R14R15R 6
                                R22R 5R21
  21532497.029   113154034.08349     -2676.042    21532497.141    88171974.57649
     -2085.226  
  21870177.162   114928545.84849     -2949.277    21870177.656    89554709.18047
     -2298.136  
  19971170.958   104949216.17349       355.879    19971169.955    81778614.18748
       277.308  
  24672418.998   129654428.24045      -231.370    24672420.160   101029439.00546
      -180.296  
  24542155.844   128969916.71846      2528.754    24542156.365   100496002.94844
      1970.288  
  24616097.504   129358471.82347      3332.796    24616101.683   100798823.85349
      2596.987  
  20751956.619   109052291.32349      1254.323    20751958.481    84975833.80449
       977.390  
  24532377.860   128918515.59445     -1953.714    24532381.099   100455997.65148
     -1522.374  
  21771624.571   114410667.48349      2426.870    21771626.311    89151171.27049
      1891.070  
  22261602.993   118666870.97404     -2262.297           0.000           0.0000 
         0.000  
  20908649.810   111729485.19008  -2097152.000    20908659.447    86900750.75308
  -2097152.000  
  19930833.146   106354761.89107      1787.964           0.000           0.0000 
         0.000  
  21627921.801   115451317.84406      1699.452    21627926.607    89795485.66303
      1321.796  
  20287373.242   108447635.42208     -2082.832    20287377.748    84348178.95208
     -1619.980  
  20931883.170   112010744.89808     -2228.578    20931887.351    87119477.54107
     -1733.344  
 20 10 01 07 37 10.0000000  0 14G15G18G20G 8G21G32G24G27G10R15R 6R22
                                R 5R21
  21535044.133   113167419.11049     -2677.754    21535044.226    88182404.43049
     -2086.565  
  21872984.471   114943298.26248     -2951.706    21872984.792    89566204.55547
     -2300.035  
  19970833.715   104947443.88749       353.016    19970832.645    81777233.17948
       275.074  
  24672641.373   129655594.01646      -234.769    24672642.066   101030347.36446
      -182.948  
  24539750.636   128957276.85947      2526.933    24539750.990   100486153.71744
      1969.034  
  24612927.383   129341811.88247      3331.523    24612931.399   100785842.10049
      2596.144  
  20750765.040   109046029.62949      1250.641    20750766.869    84970954.57249
       974.522  
  24534237.890   128928289.30645     -1955.702    24534240.996   100463613.52348
     -1523.929  
  21769316.224   114398537.06949      2425.422    21769318.024    89141719.00049
      1889.938  
  20907161.315   111721531.12408  -2097152.000    20907170.950    86894564.25107
  -2097152.000  
  19929158.807   106345827.20608      1786.046           0.000           0.0000 
         0.000  
  21626332.014   115442831.73807      1695.094    21626336.811    89788885.35103
      1318.402  
  20289322.332   108458054.51909     -2084.754    20289326.818    84356282.66408
     -1621.480  
  20933967.471   112021898.19808     -2232.859    20933971.673    87128152.33207
     -1736.671  
 20 10 01 07 37 15.0000000  0 14G15G18G20G21G32G24G27G10R14R15R 6R22
                                R 5R21
  21537592.746   113180812.28848     -2680.289    21537592.907    88192840.69949
     -2088.535  
  21875793.857   114958061.83948     -2954.683    21875794.090    89577708.63047
     -2302.355  
  19970499.135   104945685.52949       349.479    19970498.019    81775863.03548
       272.320  
  24537346.979   128944645.14947      2524.190    24537347.389   100476310.87344
      1966.902  
  24609757.772   129325154.87247      3330.730    24609761.713   100772862.60949
      2595.370  
  20749576.812   109039785.47949      1246.227    20749578.615    84966088.99349
       971.081  
  24536100.125   128938075.73054     -1958.629    24536103.422   100471241.31658
     -1526.202  
  21767009.344   114386414.33549      2422.983    21767011.196    89132272.70849
      1888.034  
  22265853.005   118689525.86713     -2270.394    22265862.176    92314101.40313
     -1765.882  
  20905676.877   111713598.73708  -2097152.000    20905686.515    86888394.62908
  -2097152.000  
  19927486.397   106336902.81008      1783.015           0.000           0.0000 
         0.000  
  21624746.452   115434367.74606      1689.965    21624751.129    89782302.24303
      1314.413  
  20291273.189   108468482.90609     -2087.531    20291277.597    84364393.66508
     -1623.632  
  20936055.562   112033072.21508     -2237.832    20936059.849    87136843.23007
     -1740.539  
 20 10 01 07 37 20.0000000  0 14G15G18G20G21G32G24G27G10R14R15R 6R22
                                R 5R21
  21540143.720   113194217.87249     -2681.500    21540143.922    88203286.58249
     -2089.488  
  21878606.167   114972840.72248     -2956.180    21878606.317    89589224.63547
     -2303.519  
  19970167.986   104943945.29949       347.120    19970166.834    81774507.01148
       270.483  
  24534945.638   128932025.95146      2523.854    24534945.914   100466477.67043
      1966.629  
  24606589.424   129308505.02846      3330.304    24606593.283   100759888.70149
      2595.043  
  20748392.679   109033563.00449      1243.086    20748394.473    84961240.31749
       968.636  
  24537965.575   128947878.70745     -1960.770    24537968.912   100478879.93646
     -1527.878  
  21764704.699   114374303.47049      2421.996    21764706.664    89122835.66149
      1887.265  
  22267984.100   118700887.61803     -2274.793    22267990.450    92322937.43313
     -1769.285  
  20904197.323   111705692.44609  -2097152.000    20904206.964    86882245.30708
  -2097152.000  
  19925816.683   106327992.89507      1781.417           0.000           0.0000 
         0.000  
  21623165.753   115425930.05107      1685.757    21623170.490    89775739.60203
      1311.145  
  20293226.620   108478924.95709     -2088.858    20293230.861    84372515.25208
     -1624.671  
  20938148.369   112044271.27908     -2241.499    20938152.626    87145553.61907
     -1743.390  
 20 10 01 07 37 25.0000000  0 14G15G18G20G21G32G24G27G10R14R15R 6R22
                                R 5R21
  21542695.618   113207628.06149     -2682.855    21542695.774    88213736.05449
     -2090.539  
  21881419.890   114987627.18748     -2958.390    21881420.065    89600746.55747
     -2305.241  
  19969838.835   104942215.43949       344.581    19969837.585    81773159.07348
       268.503  
  24532545.097   128919411.33846      2522.211    24532545.516   100456648.16044
      1965.363  
  24603420.908   129291854.61146      3330.184    24603424.742   100746914.39949
      2594.952  
  20747211.207   109027354.42249      1239.973    20747212.989    84956402.46549
       966.207  
  24539832.856   128957690.80145     -1963.629    24539836.174   100486525.71648
     -1530.108  
  21762400.862   114362196.69549      2420.629    21762402.866    89113401.83749
      1886.202  
  22270118.319   118712265.01605     -2277.590    22270127.288    92331786.43704
     -1771.461  
  20902721.160   111697804.28108  -2097152.000    20902730.792    86876110.02708
  -2097152.000  
  19924148.241   106319089.77008      1779.417           0.000           0.0000 
         0.000  
  21621588.581   115417510.81206      1682.144    21621593.287    89769191.29303
      1308.331  
  20295181.120   108489372.85008     -2090.602    20295185.315    84380641.34808
     -1626.030  
  20940244.410   112055487.42808     -2245.269    20940248.660    87154277.28407
     -1746.323  
 20 10 01 07 37 30.0000000  0 14G15G18G20G21G32G24G27G10R14R15R 6R22
                                R 5R21
  21545248.635   113221044.22549     -2683.198    21545248.793    88224190.23849
     -2090.804  
  21884235.335   115002422.60848     -2959.612    21884235.543    89612275.43947
     -2306.195  
  19969511.886   104940497.34649       342.953    19969510.609    81771820.28848
       267.229  
  24530145.850   128906802.92747      2521.765    24530146.049   100446823.46144
      1965.016  
  24600252.673   129275205.08147      3330.207    24600256.370   100733940.69548
      2594.957  
  20746032.689   109021161.30149      1237.563    20746034.414    84951576.64749
       964.331  
  24541702.092   128967513.13946     -1964.855    24541705.489   100494179.53047
     -1531.055  
  21760098.055   114350095.42449      2420.313    21760100.069    89103972.26749
      1885.952  
  22272255.969   118723659.58505     -2280.000    22272264.923    92340648.83503
     -1773.331  
  20901248.679   111689935.78908  -2097152.000    20901258.318    86869990.12107
  -2097152.000  
  19922481.284   106310194.81607      1778.925           0.000           0.0000 
         0.000  
  21620015.129   115409111.52607      1678.413    21620019.773    89762658.55003
      1305.434  
  20297136.918   108499827.77409     -2091.261    20297141.129    84388772.97308
     -1626.535  
  20942343.935   112066722.19108     -2248.085    20942348.192    87163015.41507
     -1748.516  
 20 10 01 07 37 35.0000000  0 14G15G18G20G21G32G24G27G10R14R15R 6R22
                                R 5R21
  21547802.732   113234466.09749     -2685.641    21547802.910    88234648.82849
     -2092.710  
  21887052.497   115017226.73948     -2962.351    21887052.688    89623811.11547
     -2308.327  
  19969187.133   104938790.82049       339.410    19969185.846    81770490.53148
       264.472  
  24527747.743   128894200.29046      2518.398    24527747.736   100437003.17844
      1962.534  
  24597084.553   129258556.15847      3329.171    24597088.111   100720967.54749
      2594.164  
  20744857.067   109014983.46049      1233.266    20744858.714    84946762.76049
       960.984  
  24543573.292   128977345.58046     -1968.378    24543576.467   100501841.21547
     -1533.792  
  21757796.272   114337999.50149      2418.054    21757798.289    89094546.86449
      1884.195  
  22274396.767   118735071.18005     -2284.362    22274405.344    92349524.57103
     -1776.727  
  20899779.824   111682086.67308  -2097152.000    20899789.461    86863885.24307
  -2097152.000  
  19920815.781   106301307.78108      1776.210           0.000           0.0000 
         0.000  
  21618445.413   115400732.05706      1673.242    21618450.119    89756141.17403
      1301.409  
  20299094.012   108510289.56009     -2093.875    20299098.273    84396909.93908
     -1628.569  
  20944446.880   112077975.28608     -2252.980    20944451.191    87171767.81807
     -1752.319  
 20 10 01 07 37 40.0000000  0 14G15G18G20G21G32G24G27G10R14R15R 6R22
                                R 5R21
  21550359.081   113247899.55249     -2687.422    21550359.242    88245116.45549
     -2094.097  
  21889872.387   115032045.45148     -2964.652    21889872.644    89635358.17447
     -2310.120  
  19968865.724   104937101.73849       336.496    19968864.456    81769174.36648
       262.203  
  24525351.795   128881609.46647      2517.324    24525351.807   100427192.15444
      1961.550  
  24593917.583   129241913.67847      3327.905    24593921.163   100707999.42549
      2593.176  
  20743685.465   109008826.62049      1229.601    20743687.046    84941965.22249
       958.133  
  24545447.530   128987194.04745     -1971.085    24545450.420   100509515.33548
     -1535.914  
  21755496.601   114325914.77249      2416.206    21755498.689    89085130.19949
      1882.758  
  22276541.852   118746505.50204     -2289.063    22276549.559    92358417.96903
     -1780.378  
  20898315.713   111674262.90708  -2097152.000    20898325.344    86857800.06607
  -2097152.000  
  19919152.965   106292434.58307      1773.909           0.000           0.0000 
         0.000  
  21616880.554   115392378.32807      1668.702    21616885.315    89749643.84003
      1297.874  
  20301053.569   108520764.32809     -2095.719    20301057.873    84405056.99508
     -1630.004  
  20946554.349   112089252.65508     -2257.440    20946558.675    87180539.07707
     -1755.796  
 20 10 01 07 37 45.0000000  0 13G15G18G20G21G32G24G27G10R15R 6R22R 5
                                R21
  21552916.960   113261341.07549     -2689.085    21552917.058    88255590.34849
     -2095.394  
  21892694.397   115046875.21548     -2967.125    21892694.708    89646913.83447
     -2312.050  
  19968546.930   104935426.56149       333.535    19968545.666    81767869.03848
       259.897  
  24522957.519   128869026.93347      2515.671    24522957.447   100417387.55844
      1960.257  
  24590751.167   129225274.14547      3328.172    24590754.704   100695033.52449
      2593.378  
  20742517.195   109002687.28849      1226.253    20742518.723    84937181.32349
       955.519  
  24547324.071   128997054.90046     -1973.851    24547326.819   100517199.15546
     -1538.065  
  21753198.369   114313837.70249      2414.590    21753200.545    89075719.49649
      1881.499  
  20896855.678   111666460.92108  -2097152.000    20896865.309    86851731.85707
  -2097152.000  
  19917492.051   106283571.66007      1771.671           0.000           0.0000 
         0.000  
  21615319.656   115384046.58506      1664.140    21615324.662    89743163.58703
      1294.327  
  20303014.866   108531248.36909     -2097.882    20303019.187    84413211.23908
     -1631.688  
  20948665.616   112100550.65608     -2261.843    20948670.093    87189326.42507
     -1759.210  
 20 10 01 07 37 50.0000000  0 14G15G18G20G 8G21G32G24G27G10R15R 6R22
                                R 5R21
  21555475.908   113274788.31448     -2690.273    21555475.987    88266068.73249
     -2096.315  
  21895518.036   115061713.66548     -2968.738    21895518.367    89658476.24847
     -2313.304  
  19968230.366   104933762.94149       331.448    19968229.111    81766572.70648
       258.269  
  24674524.437   129665500.43255      -259.417    24674526.305   101038060.00757
      -202.145  
  24520564.252   128856450.19946      2514.430    24520564.152   100407587.50944
      1959.288  
  24587584.812   129208635.27145      3326.539    24587588.378   100682068.19649
      2592.109  
  20741351.818   108996563.25149      1223.097    20741353.312    84932409.34749
       953.059  
  24549202.557   129006925.84947     -1975.207    24549204.994   100524890.75147
     -1539.129  
  21750901.115   114301765.92849      2413.858    21750903.420    89066312.93249
      1880.930  
  20895399.293   111658678.44108  -2097152.000    20895408.926    86845678.82708
  -2097152.000  
  19915832.594   106274716.66608      1770.066           0.000           0.0000 
         0.000  
  21613762.492   115375734.71406      1660.430    21613767.618    89736698.81603
      1291.440  
  20304977.409   108541739.28508     -2099.151    20304981.732    84421370.84608
     -1632.676  
  20950780.326   112111866.89608     -2265.151    20950784.939    87198127.95008
     -1761.784  
 20 10 01 07 37 55.0000000  0 14G15G18G20G 8G21G32G24G27G10R15R 6R22
                                R 5R21
  21558036.305   113288243.10549     -2691.953    21558036.310    88276552.98449
     -2097.628  
  21898343.624   115076562.63548     -2971.136    21898344.038    89670046.86647
     -2315.176  
  19967916.380   104932112.74749       328.616    19967915.113    81765286.84348
       256.065  
  24674771.406   129666806.29344      -261.968    24674775.477   101039077.60446
      -204.121  
  24518172.464   128843881.26846      2513.050    24518172.345   100397793.58344
      1958.218  
  24584418.872   129191998.86745      3327.043    24584422.469   100669104.79748
      2592.429  
  20740189.696   108990456.13649      1219.430    20740191.135    84927650.55249
       950.199  
  24551083.321   129016808.67246     -1978.292    24551085.567   100532591.66347
     -1541.527  
  21748605.269   114289701.39549      2411.972    21748607.676    89056911.99349
      1879.460  
  20893946.893   111650917.25608  -2097152.000    20893956.525    86839642.34608
  -2097152.000  
  19914174.997   106265871.56607      1767.852           0.000           0.0000 
         0.000  
  21612209.459   115367444.42306      1655.934    21612214.670    89730250.80103
      1287.944  
  20306941.646   108552239.07109     -2101.031    20306945.911    84429537.34708
     -1634.136  
  20952898.750   112123203.32708     -2269.453    20952903.543    87206945.17608
     -1765.129  
 20 10 01 07 38  0.0000000  0 14G15G18G20G21G32G24G27G10R14R15R 6R22
                                R 5R21
  21560598.371   113301706.75949     -2693.176    21560598.314    88287044.18249
     -2098.574  
  21901171.513   115091423.45048     -2972.980    21901171.942    89681626.72447
     -2316.612  
  19967605.208   104930477.36949       325.995    19967603.941    81764012.52148
       254.020  
  24515782.413   128831321.49246      2511.663    24515782.211   100388006.72844
      1957.137  
  24581253.762   129175366.31946      3326.930    24581257.239   100656144.36548
      2592.414  
  20739031.081   108984367.57149      1216.359    20739032.475    84922906.22149
       947.813  
  24552966.667   129026704.91146     -1979.854    24552968.470   100540303.05546
     -1542.741  
  21746311.060   114277645.37049      2410.792    21746313.491    89047517.69249
      1878.538  
  22285156.864   118792425.11215     -2303.156    22285164.072    92394137.43414
     -1791.347  
  20892498.727   111643178.69708  -2097152.000    20892508.360    86833623.46707
  -2097152.000  
  19912519.481   106257037.50907      1766.277           0.000           0.0000 
         0.000  
  21610660.705   115359177.07107      1651.773    21610665.943    89723820.65703
      1284.711  
  20308907.726   108562748.92309     -2102.465    20308912.030    84437711.68908
     -1635.249  
  20955021.204   112134561.19408     -2273.262    20955026.105    87215779.06807
     -1768.098  
 20 10 01 07 38  5.0000000  0 14G15G18G20G21G32G24G27G10R14R15R 6R22
                                R 5R21
  21563161.390   113315175.48149     -2694.433    21563161.259    88297539.26149
     -2099.563  
  21904000.878   115106292.26748     -2974.902    21904001.323    89693212.81747
     -2318.105  
  19967296.121   104928852.92249       323.526    19967294.826    81762746.71648
       252.094  
  24513393.348   128818766.93646      2510.563    24513393.153   100378223.96845
      1956.277  
  24578088.668   129158733.66646      3326.065    24578091.978   100643183.87148
      2591.737  
  20737875.227   108978293.51549      1213.215    20737876.605    84918173.18749
       945.358  
  24554851.639   129036610.41547     -1982.375    24554853.111   100548021.59446
     -1544.714  
  21744017.801   114265594.05549      2409.695    21744020.248    89038127.05649
      1877.683  
  22287319.037   118803950.33605     -2306.780    22287326.149    92403101.54704
     -1794.151  
  20891054.092   111635459.00408  -2097152.000    20891063.725    86827619.26307
  -2097152.000  
  19910865.344   106248210.87507      1764.594           0.000           0.0000 
         0.000  
  21609115.536   115350928.94806      1647.335    21609120.798    89717405.41104
      1281.257  
  20310874.980   108573265.12009     -2103.983    20310879.350    84445890.93708
     -1636.437  
  20957146.965   112145936.66608     -2277.113    20957151.956    87224626.64207
     -1771.097  
 20 10 01 07 38 10.0000000  0 14G15G18G20G21G32G24G27G10R14R15R 6R22
                                R 5R21
  21565725.995   113328652.50849     -2696.464    21565725.776    88308040.84549
     -2101.145  
  21906832.436   115121172.33348     -2977.515    21906832.867    89704807.67247
     -2320.144  
  19966989.724   104927242.66749       320.308    19966988.421    81761491.97448
       249.589  
  24511005.920   128806220.94647      2508.082    24511005.665   100368447.88244
      1954.354  
  24574924.208   129142104.34946      3325.098    24574927.531   100630225.99049
      2590.984  
  20736722.747   108972237.19349      1209.206    20736724.118    84913453.97849
       942.233  
  24556739.041   129046528.56145     -1985.175    24556740.153   100555749.96547
     -1546.898  
  21741726.055   114253550.72349      2407.563    21741728.471    89028742.64449
      1876.019  
  22289484.817   118815495.28905     -2311.453    22289492.167    92412080.90404
     -1797.808  
  20889613.591   111627761.40508  -2097152.000    20889623.228    86821632.25707
  -2097152.000  
  19909213.219   106239394.60007      1761.905           0.000           0.0000 
         0.000  
  21607574.527   115342703.24706      1642.426    21607579.878    89711007.64803
      1277.437  
  20312843.973   108583790.66909     -2106.375    20312848.399    84454077.46408
     -1638.297  
  20959276.637   112157332.96808     -2281.726    20959281.701    87233490.42607
     -1774.680  
 20 10 01 07 38 15.0000000  0 14G15G18G20G21G32G24G27G10R14R15R 6R22
                                R 5R21
  21568292.524   113342139.83848     -2698.309    21568292.319    88318550.43949
     -2102.581  
  21909666.544   115136065.67048     -2979.562    21909666.967    89716412.86847
     -2321.742  
  19966686.414   104925648.67149       317.425    19966685.109    81760249.89948
       247.339  
  24508620.546   128793685.63046      2505.839    24508620.150   100358680.13244
      1952.598  
  24571760.702   129125480.35645      3324.727    24571764.142   100617272.22149
      2590.690  
  20735574.039   108966200.78549      1205.469    20735575.466    84908750.28549
       939.328  
  24558629.013   129056461.43045     -1987.598    24558630.315   100563489.86547
     -1548.781  
  21739436.243   114241517.42949      2405.836    21739438.649    89019366.04949
      1874.675  
  22291654.579   118827061.65005     -2314.925    22291662.021    92421076.91804
     -1800.503  
  20888177.614   111620087.97908  -2097152.000    20888187.248    86815664.02607
  -2097152.000  
  19907563.436   106230591.10507      1759.723           0.000           0.0000 
         0.000  
  21606038.125   115334502.17106      1637.895    21606043.634    89704629.04803
      1273.921  
  20314815.211   108594328.00609     -2108.418    20314819.709    84462273.16908
     -1639.882  
  20961410.568   112168752.16008     -2285.960    20961415.660    87242372.03207
     -1777.968  
 20 10 01 07 38 20.0000000  0 15G15G18G20G 8G21G32G24G27G10R14R15R 6
                                R22R 5R21
  21570860.472   113355634.36748     -2699.604    21570860.291    88329065.66649
     -2103.593  
  21912502.585   115150969.19548     -2981.706    21912503.005    89728025.99947
     -2323.405  
  19966385.614   104924067.83349       314.925    19966384.321    81759018.06948
       245.395  
  24676056.240   129673551.73354      -278.683    24676059.838   101044337.63154
      -217.155  
  24506236.583   128781157.76046      2504.776    24506236.126   100348918.13744
      1951.772  
  24568597.564   129108858.45447      3324.113    24568601.120   100604320.08049
      2590.215  
  20734428.560   108960181.19049      1202.285    20734430.006    84904059.69249
       936.839  
  24560521.252   129066405.77446     -1990.265    24560522.494   100571238.71047
     -1550.854  
  21737147.760   114229491.05649      2404.492    21737150.124    89009994.86049
      1873.629  
  22293827.480   118838646.31505     -2318.734    22293835.598    92430087.17804
     -1803.472  
  20886745.585   111612435.65208  -2097152.000    20886755.224    86809712.23307
  -2097152.000  
  19905915.411   106221797.27207      1757.792           0.000           0.0000 
         0.000  
  21604505.744   115326322.43906      1634.171    21604511.498    89698267.06704
      1271.027  
  20316787.963   108604873.74408     -2110.038    20316792.539    84470475.41708
     -1641.140  
  20963548.243   112180191.13008     -2289.815    20963553.300    87251269.02007
     -1780.862  
 20 10 01 07 38 25.0000000  0 14G15G18G20G21G32G24G27G10R14R15R 6R22
                                R 5R21
  21573429.750   113369135.82749     -2700.944    21573429.542    88339586.26049
     -2104.636  
  21915340.533   115165882.62048     -2983.621    21915340.947    89739646.83747
     -2324.901  
  19966087.252   104922499.89649       312.347    19966085.993    81757796.30648
       243.383  
  24503853.959   128768637.07847      2503.065    24503853.596   100339161.76244
      1950.438  
  24565434.722   129092238.60846      3323.620    24565438.464   100591369.62649
      2589.844  
  20733286.199   108954178.13649      1199.020    20733287.695    84899381.99549
       934.300  
  24562415.718   129076361.38745     -1991.836    24562417.017   100578996.30747
     -1552.081  
  21734860.500   114217471.36349      2403.339    21734862.843    89000628.85649
      1872.727  
  22296004.069   118850249.06704     -2323.328    22296012.493    92439111.63105
     -1807.019  
  20885317.445   111604804.10308  -2097152.000    20885327.094    86803776.62807
  -2097152.000  
  19904269.140   106213012.67208      1756.000           0.000           0.0000 
         0.000  
  21602977.312   115318163.87506      1629.854    21602983.075    89691921.50303
      1267.659  
  20318762.264   108615427.67408     -2111.473    20318766.908    84478684.00008
     -1642.266  
  20965689.566   112191649.56508     -2293.445    20965694.591    87260181.13807
     -1783.788  
 20 10 01 07 38 30.0000000  0 13G15G18G20G21G32G24G10R14R15R 6R22R 5
                                R21
  21576000.433   113382644.73349     -2702.723    21576000.198    88350112.69649
     -2106.019  
  21918180.476   115180806.46548     -2986.016    21918180.862    89751275.81547
     -2326.765  
  19965791.432   104920945.41449       309.191    19965790.184    81756585.02148
       240.929  
  24501472.844   128756124.35647      2501.391    24501472.463   100329411.67144
      1949.141  
  24562272.428   129075621.20447      3322.636    24562276.363   100578421.07049
      2589.081  
  20732147.093   108948192.12449      1195.266    20732148.587    84894717.57049
       931.375  
  21732574.599   114205458.93649      2401.550    21732576.903    88991268.53549
      1871.340  
  22298184.082   118861870.42004     -2325.148    22298192.861    92448150.42404
     -1808.453  
  20883893.318   111597194.00308  -2097152.000    20883902.967    86797857.65807
  -2097152.000  
  19902624.705   106204237.89907      1753.542           0.000           0.0000 
         0.000  
  21601452.992   115310027.04606      1624.694    21601458.727    89685592.82503
      1263.645  
  20320738.234   108625990.33508     -2113.625    20320742.874    84486899.41208
     -1643.930  
  20967834.592   112203127.94108     -2297.887    20967839.566    87269108.75007
     -1787.249  
 20 10 01 07 38 35.0000000  0 14G15G18G20G 8G21G32G24G10R14R15R 6R22
                                R 5R21
  21578572.765   113396162.39848     -2703.555    21578572.461    88360645.93449
     -2106.668  
  21921022.643   115195741.99648     -2987.718    21921023.023    89762913.89547
     -2328.093  
  19965498.411   104919405.63949       307.120    19965497.177    81755385.20448
       239.316  
  24676865.823   129677804.15254      -287.300    24676868.034   101047648.49458
      -223.871  
  24499093.545   128743620.68345      2500.633    24499092.974   100319668.46745
      1948.534  
  24559110.891   129059007.58945      3323.004    24559114.815   100565475.34349
      2589.351  
  20731011.480   108942224.53349      1192.523    20731013.047    84890067.50549
       929.237  
  21730290.320   114193454.96649      2400.352    21730292.563    88981914.79549
      1870.398  
  22300367.929   118873511.71306     -2329.137    22300376.554    92457204.78105
     -1811.551  
  20882473.427   111589606.53408  -2097152.000    20882483.076    86791956.29807
  -2097152.000  
  19900982.351   106195474.14107      1752.066           0.000           0.0000 
         0.000  
  21599932.973   115301913.17306      1621.179    21599938.694    89679282.06003
      1260.918  
  20322716.082   108636563.12609     -2114.940    20322720.745    84495122.68208
     -1644.957  
  20969983.642   112214627.72208     -2301.745    20969988.504    87278053.01007
     -1790.249  
 20 10 01 07 38 40.0000000  0 15G15G18G20G 8G21G32G24G27G10R14R15R 6
                                R22R 5R21
  21581146.044   113409685.04149     -2705.218    21581145.709    88371183.07749
     -2107.960  
  21923866.315   115210685.44048     -2989.792    21923866.758    89774558.14047
     -2329.706  
  19965207.490   104917876.83949       304.323    19965206.247    81754193.92748
       237.133  
  24677141.551   129679248.58245      -291.266    24677143.253   101048774.03246
      -226.964  
  24496715.248   128731122.30247      2498.844    24496714.610   100309929.46444
      1947.148  
  24555949.411   129042393.99447      3322.183    24555953.381   100552529.70348
      2588.710  
  20729878.664   108936271.51249      1188.855    20729880.278    84885428.78749
       926.383  
  24568112.519   129106302.40255     -1998.926    24568114.191   100602318.62557
     -1557.609  
  21728006.924   114181455.79649      2399.176    21728009.187    88972564.78349
      1869.484  
  22302554.748   118885169.21606     -2333.883    22302563.603    92466271.67905
     -1815.249  
  20881057.081   111582038.01008  -2097152.000    20881066.728    86786069.65707
  -2097152.000  
  19899341.360   106186717.65508      1750.027           0.000           0.0000 
         0.000  
  21598416.570   115293818.51606      1616.848    21598422.190    89672986.22903
      1257.546  
  20324695.113   108647142.05608     -2116.668    20324699.754    84503350.74208
     -1646.300  
  20972135.991   112226144.81208     -2305.242    20972140.708    87287010.76707
     -1792.964  
 20 10 01 07 38 45.0000000  0 15G15G18G20G 8G21G32G24G27G10R14R15R 6
                                R22R 5R21
  21583721.334   113423218.27649     -2707.699    21583720.954    88381728.46549
     -2109.895  
  21926712.506   115225642.36548     -2992.883    21926712.992    89786212.86847
     -2332.120  
  19964919.718   104916364.61849       300.629    19964918.473    81753015.56948
       234.253  
  24677420.462   129680711.64443      -295.011    24677422.502   101049914.19748
      -229.862  
  24494338.907   128718634.82745      2496.147    24494338.469   100300199.03345
      1945.058  
  24552789.088   129025786.01146      3320.499    24552793.010   100539588.45249
      2587.406  
  20728749.671   108930338.64649      1184.363    20728751.330    84880805.77649
       922.878  
  24570016.314   129116307.12945     -2001.887    24570018.102   100610114.54147
     -1559.905  
  21725725.531   114169466.96349      2396.594    21725727.715    88963222.84849
      1867.477  
  22304745.630   118896848.10105     -2338.116           0.000           0.0000 
         0.000  
  20879645.331   111574494.04808  -2097152.000    20879654.978    86780202.13006
  -2097152.000  
  19897702.854   106177974.37008      1747.043           0.000           0.0000 
         0.000  
  21596904.810   115285748.79306      1611.305    21596910.217    89666709.77403
      1253.237  
  20326676.306   108657732.85608     -2119.429    20326680.950    84511588.02108
     -1648.449  
  20974292.629   112237685.16808     -2310.449    20974297.262    87295986.60307
     -1797.019  
 20 10 01 07 38 50.0000000  0 14G15G18G20G21G32G24G27G10R14R15R 6R22
                                R 5R21
  21586297.849   113436757.95649     -2708.164    21586297.449    88392278.84049
     -2110.265  
  21929560.497   115240608.72348     -2993.679    21929561.062    89797874.95647
     -2332.745  
  19964634.307   104914864.83949       299.167    19964633.081    81751846.90748
       233.112  
  24491963.945   128706154.35146      2496.093    24491963.325   100290473.99543
      1945.008  
  24549628.842   129009179.52147      3322.022    24549632.961   100526648.35849
      2588.593  
  20727623.772   108924422.00849      1182.202    20727625.423    84876195.40849
       921.191  
  24571922.244   129126322.76545     -2003.316    24571924.053   100617918.87347
     -1561.035  
  21723445.324   114157484.42749      2396.327    21723447.462    88953885.81249
      1867.269  
  22306940.052   118908544.76205     -2340.831    22306949.838    92484451.69815
     -1820.647  
  20878237.395   111566970.46308  -2097152.000    20878247.047    86774350.47507
  -2097152.000  
  19896065.998   106169239.91408      1746.354           0.000           0.0000 
         0.000  
  21595396.985   115277699.85806      1608.477    21595402.286    89660449.47503
      1251.034  
  20328658.961   108668331.44008     -2119.945    20328663.591    84519831.37208
     -1648.852  
  20976452.797   112249244.41308     -2313.269    20976457.301    87304977.09407
     -1799.219  
 20 10 01 07 38 55.0000000  0 14G15G18G20G21G32G24G27G10R14R15R 6R22
                                R 5R21
  21588875.025   113450300.88749     -2709.179    21588874.549    88402831.76249
     -2111.050  
  21932409.618   115255581.26648     -2995.434    21932410.256    89809541.86747
     -2334.109  
  19964350.679   104913374.39349       296.913    19964349.444    81750685.52448
       231.359  
  24489589.642   128693677.40046      2494.668    24489588.827   100280751.73044
      1943.901  
  24546468.415   128992571.52245      3321.569    24546472.509   100513707.08749
      2588.237  
  20726500.304   108918518.20849      1179.155    20726501.999    84871595.04849
       918.824  
  24573829.574   129136345.76146     -2005.124    24573831.683   100625729.05147
     -1562.434  
  21721165.685   114145504.99949      2395.375    21721167.877    88944551.19949
      1866.527  
  22309137.045   118920255.59406     -2343.843    22309146.269    92493560.11505
     -1822.983  
  20876832.675   111559464.06808  -2097152.000    20876842.331    86768512.18307
  -2097152.000  
  19894430.220   106160511.05907      1745.206           0.000           0.0000 
         0.000  
  21593892.378   115269668.35406      1604.348    21593897.512    89654202.75103
      1247.824  
  20330642.486   108678934.45509     -2121.301    20330647.059    84528078.16308
     -1649.905  
  20978615.822   112260819.38808     -2316.854    20978620.310    87313979.85608
     -1802.003  
 20 10 01 07 39  0.0000000  0 13G15G18G20G21G24G27G10R14R15R 6R22R 5
                                R21
  21591452.991   113463847.81549     -2710.809    21591452.456    88413387.83049
     -2112.320  
  21935260.056   115270560.69948     -2997.632    21935260.730    89821214.14246
     -2335.823  
  19964068.952   104911893.93749       293.776    19964067.715    81749531.92248
       228.918  
  24487216.252   128681204.99546      2492.367    24487215.416   100271032.94644
      1942.101  
  20725379.445   108912628.05449      1175.558    20725381.135    84867005.32749
       916.019  
  24575738.544   129146377.18145     -2008.249    24575740.775   100633545.71148
     -1564.874  
  21718886.752   114133529.34749      2393.562    21718888.904    88935219.52949
      1865.112  
  22311336.882   118931981.40105     -2347.999    22311344.809    92502680.18605
     -1826.226  
  20875431.322   111551975.66108  -2097152.000    20875440.974    86762687.84906
  -2097152.000  
  19892795.545   106151788.46308      1742.680           0.000           0.0000 
         0.000  
  21592391.159   115261655.08606      1600.007    21592396.383    89647970.25703
      1244.453  
  20332626.971   108689542.69309     -2123.281    20332631.582    84536328.99208
     -1651.444  
  20980781.977   112272410.73108     -2320.823    20980786.466    87322995.34307
     -1805.085  
 20 10 01 07 39  5.0000000  0 15G15G18G20G 8G21G32G24G27G10R14R15R 6
                                R22R 5R21
  21594034.991   113477416.06649     -2714.679    21594034.422    88423960.48349
     -2115.344  
  21938115.177   115285564.37148     -3001.952    21938115.857    89832905.31747
     -2339.188  
  19963792.414   104910440.84749       289.047    19963791.171    81748399.64348
       225.227  
  24678560.791   129686712.08354      -308.148    24678566.479   101054605.65457
      -240.133  
  24484846.922   128668754.27046      2488.871    24484846.232   100261331.06544
      1939.370  
  24540149.466   128959350.78656      3317.917    24540152.335   100487825.59358
      2585.387  
  20724264.469   108906768.78149      1169.863    20724266.134    84862439.64949
       911.577  
  24577652.214   129156434.27745     -2013.612    24577654.813   100641382.34848
     -1569.063  
  21716611.887   114121574.91249      2389.891    21716614.013    88925904.38649
      1862.249  
  22313542.883   118943739.94206     -2353.804    22313551.113    92511825.75504
     -1830.733  
  20874036.620   111544522.79408  -2097152.000    20874046.268    86756891.16307
  -2097152.000  
  19891165.365   106143089.66607      1738.289           0.000           0.0000 
         0.000  
  21590896.637   115253677.78905      1593.214    21590901.936    89641765.65803
      1239.164  
  20334615.764   108700173.74509     -2127.378    20334620.410    84544597.60008
     -1654.628  
  20982954.507   112284036.06308     -2327.617    20982958.928    87332037.26207
     -1810.371  
 20 10 01 07 39 10.0000000  0 15G15G18G20G 8G21G32G24G27G10R14R15R 6
                                R22R 5R21
  21596617.802   113490988.67349     -2713.108    21596617.197    88434536.54849
     -2114.109  
  21940971.680   115300575.29948     -3001.031    21940972.403    89844602.14447
     -2338.465  
  19963517.889   104908998.21049       289.449    19963516.601    81747275.51648
       225.542  
  24678855.135   129688253.96544      -308.222    24678857.276   101055807.13847
      -240.167  
  24482478.513   128656308.41146      2490.922    24482477.971   100251633.02544
      1940.976  
  24536992.049   128942757.66847      3320.558    24536995.622   100474895.97748
      2587.456  
  20723152.182   108900923.58049      1169.362    20723153.832    84857884.95749
       911.190  
  24579567.615   129166499.86844     -2010.973    24579570.405   100649225.72147
     -1566.987  
  21714337.832   114109624.73349      2391.418    21714339.917    88916592.56349
      1863.440  
  22315751.653   118955513.86704     -2354.719    22315758.655    92520983.21204
     -1831.457  
  20872645.353   111537088.28708  -2097152.000    20872655.009    86751108.79906
  -2097152.000  
  19889536.527   106134397.84507      1739.343           0.000           0.0000 
         0.000  
  21589405.592   115245719.23906      1591.633    21589411.143    89635575.70003
      1237.938  
  20336605.592   108710810.42208     -2126.133    20336610.163    84552870.55107
     -1653.645  
  20985130.110   112295678.18608     -2328.507    20985134.573    87341092.23907
     -1811.065  
 20 10 01 07 39 15.0000000  0 14G15G18G20G21G32G24G27G10R14R15R 6R22
                                R 5R21
  21599200.061   113504558.44649     -2716.237    21599199.418    88445110.40649
     -2116.550  
  21943828.223   115315586.34848     -3004.551    21943828.901    89856299.05747
     -2341.210  
  19963243.970   104907558.75549       285.366    19963242.641    81746153.85148
       222.358  
  24480109.770   128643860.24146      2487.449    24480109.096   100241933.15944
      1938.272  
  24533833.419   128926156.85946      3318.683    24533837.280   100461960.21848
      2585.984  
  20722041.225   108895085.46449      1164.559    20722042.844    84853335.77449
       907.449  
  24581483.388   129176567.10445     -2016.238    24581486.453   100657070.27048
     -1571.101  
  21712063.228   114097671.57649      2388.538    21712065.195    88907278.42649
      1861.199  
  22317961.909   118967295.77305     -2359.625    22317969.687    92530146.88504
     -1835.272  
  20871256.155   111529664.83308  -2097152.000    20871265.810    86745334.99907
  -2097152.000  
  19887907.567   106125705.43407      1736.026           0.000           0.0000 
         0.000  
  21587916.803   115237771.95106      1585.847    21587922.430    89629394.47204
      1233.438  
  20338595.092   108721445.31809     -2129.292    20338599.637    84561142.15307
     -1656.117  
  20987307.491   112307329.70008     -2333.754    20987311.932    87350154.50607
     -1815.144  
 20 10 01 07 39 20.0000000  0 14G15G18G20G21G32G24G27G10R14R15R 6R22
                                R 5R21
  21601785.497   113518144.84849     -2717.691    21601784.817    88455697.21349
     -2117.684  
  21946688.444   115330616.93948     -3007.108    21946689.099    89868011.21447
     -2343.207  
  19962974.366   104906142.07349       282.016    19962973.004    81745049.95248
       219.750  
  24477744.213   128631429.21646      2485.304    24477743.517   100232246.66544
      1936.601  
  24530677.087   128909567.72547      3317.625    24530680.026   100449033.72648
      2585.176  
  20720935.254   108889273.63949      1160.867    20720936.858    84848807.10249
       904.569  
  24583403.222   129186655.24346     -2019.023    24583406.471   100664931.14446
     -1573.270  
  21709791.773   114085735.03549      2386.636    21709793.637    88897977.21249
      1859.714  
  22320177.529   118979105.65205     -2363.308    22320185.076    92539332.40204
     -1838.125  
  20869872.734   111522272.25108  -2097152.000    20869882.391    86739585.22206
  -2097152.000  
  19886282.180   106117032.33807      1733.827           0.000           0.0000 
         0.000  
  21586433.886   115229855.91506      1581.144    21586439.601    89623237.58004
      1229.773  
  20340587.959   108732098.42809     -2131.160    20340592.530    84569427.90908
     -1657.569  
  20989490.307   112319010.51308     -2337.953    20989494.795    87359239.58807
     -1818.410  
 20 10 01 07 39 25.0000000  0 14G15G18G20G21G32G24G27G10R14R15R 6R22
                                R 5R21
  21604371.982   113531736.85349     -2718.980    21604371.226    88466288.37549
     -2118.690  
  21949550.243   115345655.95148     -3008.729    21949550.912    89879729.92347
     -2344.468  
  19962706.960   104904736.96849       279.855    19962705.598    81743955.06248
       218.065  
  24475379.748   128619004.18446      2484.124    24475379.146   100222564.83544
      1935.684  
  24527520.512   128892979.37145      3317.977    24527523.849   100436107.71149
      2585.433  
  20719832.198   108883477.13649      1157.711    20719833.748    84844290.33249
       902.108  
  24585324.797   129196753.09545     -2021.078    24585328.143   100672799.66447
     -1574.858  
  21707521.358   114073803.89249      2385.695    21707523.174    88888680.23549
      1858.984  
  22322396.103   118990931.87005     -2366.550    22322403.489    92548530.58604
     -1840.659  
  20868492.988   111514899.30508  -2097152.000    20868502.642    86733850.69606
  -2097152.000  
  19884658.286   106108367.05608      1732.097           0.000           0.0000 
         0.000  
  21584954.701   115221959.79906      1577.409    21584960.463    89617096.13704
      1226.870  
  20342582.086   108742758.21009     -2132.734    20342586.648    84577718.82107
     -1658.796  
  20991676.514   112330709.25508     -2341.641    20991680.904    87368338.61807
     -1821.276  
 20 10 01 07 39 30.0000000  0 14G15G18G20G21G32G24G27G10R14R15R 6R22
                                R 5R21
  21606960.093   113545337.62648     -2721.155    21606959.301    88476886.39049
     -2120.383  
  21952414.248   115360706.68248     -3011.444    21952414.971    89891457.76747
     -2346.585  
  19962442.416   104903346.78049       276.331    19962441.017    81742871.80248
       215.324  
  24473017.034   128606588.50745      2482.469    24473016.593   100212890.33043
      1934.387  
  24524364.393   128876395.00846      3315.866    24524367.974   100423184.83548
      2583.793  
  20718732.670   108877699.10649      1153.604    20718734.194    84839787.96849
       898.909  
  24587248.804   129206864.07144     -2024.991    24587252.341   100680678.33847
     -1577.918  
  21705252.610   114061881.50949      2383.457    21705254.394    88879390.05449
      1857.233  
  22324618.497   119002778.19905     -2371.386    22324625.517    92557744.35004
     -1844.409  
  20867117.544   111507549.35308  -2097152.000    20867127.202    86728134.08107
  -2097152.000  
  19883036.502   106099713.18608      1729.402           0.000           0.0000 
         0.000  
  21583479.904   115214087.04405      1571.602    21583485.678    89610972.92504
      1222.359  
  20344578.163   108753428.19809     -2135.198    20344582.730    84586017.71008
     -1660.714  
  20993866.633   112342429.30808     -2346.460    20993871.025    87377454.22207
     -1825.022  
 20 10 01 07 39 35.0000000  0 14G15G18G20G21G32G24G27G10R14R15R 6R22
                                R 5R21
  21609549.840   113558946.99448     -2722.340    21609549.030    88487491.08749
     -2121.304  
  21955280.499   115375768.96448     -3013.285    21955281.206    89903194.58447
     -2348.019  
  19962180.681   104901971.35349       274.188    19962179.242    81741800.03448
       213.647  
  24470656.182   128594182.08146      2481.171    24470655.700   100203222.95844
      1933.382  
  24521208.978   128859814.31646      3316.203    24521212.969   100410264.83849
      2584.059  
  20717636.669   108871939.58149      1150.546    20717638.201    84835300.02849
       896.526  
  24589175.476   129216988.02145     -2026.108    24589179.121   100688567.14747
     -1578.784  
  21702985.502   114049967.74249      2382.340    21702987.291    88870106.61449
      1856.367  
  22326844.609   119014644.25205     -2374.750    22326851.552    92566973.50504
     -1847.026  
  20865746.357   111500222.14508  -2097152.000    20865756.016    86722435.14606
  -2097152.000  
  19881416.912   106091070.55208      1727.897           0.000           0.0000 
         0.000  
  21582009.347   115206237.36205      1568.144    21582015.193    89604867.59503
      1219.667  
  20346576.098   108764108.15109     -2136.468    20346580.634    84594324.33307
     -1661.699  
  20996060.697   112354170.40208     -2349.769    20996065.183    87386586.15907
     -1827.605  
 20 10 01 07 39 40.0000000  0 14G15G18G20G21G32G24G27G10R14R15R 6R22
                                R 5R21
  21612140.587   113572561.55449     -2723.878    21612139.740    88498099.83049
     -2122.507  
  21958148.328   115390839.31848     -3015.218    21958149.074    89914937.71147
     -2349.523  
  19961921.081   104900607.27249       271.348    19961919.660    81740737.11948
       211.440  
  24468296.364   128581781.40346      2479.171    24468296.004   100193560.08545
      1931.815  
  24518054.023   128843234.13846      3315.948    24518057.927   100397345.25049
      2583.855  
  20716543.492   108866195.02349      1147.066    20716545.041    84830823.75049
       893.812  
  24591103.745   129227121.42343     -2028.979    24591107.652   100696463.38048
     -1581.015  
  21700719.375   114038059.13349      2380.875    21700721.152    88860827.18349
      1855.227  
  22329073.777   119026526.31705     -2378.555    22329080.588    92576215.10605
     -1849.992  
  20864378.780   111492914.22808  -2097152.000    20864388.434    86716751.18707
  -2097152.000  
  19879798.686   106082435.48608      1725.897           0.000           0.0000 
         0.000  
  21580542.446   115198407.34906      1563.581    21580548.349    89598777.59904
      1216.120  
  20348575.266   108774794.53409     -2138.277    20348579.745    84602635.97207
     -1663.147  
  20998258.102   112365929.10008     -2353.832    20998262.640    87395731.82607
     -1830.757  
 20 10 01 07 39 45.0000000  0 14G15G18G20G21G32G24G27G10R14R15R 6R22
                                R 5R21
  21614732.751   113586183.56549     -2725.081    21614731.892    88508714.38449
     -2123.444  
  21961018.144   115405920.02048     -3017.405    21961018.845    89926688.90947
     -2351.227  
  19961664.082   104899256.79449       268.612    19961662.625    81739684.79448
       209.304  
  24465938.084   128569388.74846      2477.695    24465938.021   100183903.51141
      1930.671  
  24514899.565   128826656.56846      3315.116    24514903.228   100384427.65749
      2583.206  
  20715453.622   108860467.81149      1143.499    20715455.184    84826360.99949
       891.039  
  24593034.247   129237266.55845     -2029.492    24593038.521   100704368.65147
     -1581.425  
  21698454.671   114026157.97049      2379.367    21698456.407    88851553.55849
      1854.051  
  22331306.474   119038427.03206     -2382.191    22331313.560    92585471.17804
     -1852.824  
  20863015.264   111485628.00808  -2097152.000    20863024.921    86711084.14607
  -2097152.000  
  19878182.311   106073810.38708      1724.007           0.000           0.0000 
         0.000  
  21579079.614   115190599.27806      1559.598    21579085.636    89592704.66303
      1213.020  
  20350576.056   108785489.74609     -2139.956    20350580.478    84610954.47907
     -1664.409  
  21000459.217   112377707.61608     -2357.887    21000463.779    87404892.88007
     -1833.914  
 20 10 01 07 39 50.0000000  0 14G15G18G20G21G32G24G27G10R14R15R 6R22
                                R 5R21
  21617326.299   113599812.59349     -2726.387    21617325.390    88519334.41749
     -2124.456  
  21963889.808   115421010.62648     -3018.816    21963890.491    89938447.82247
     -2352.324  
  19961409.600   104897919.51149       266.296    19961408.125    81738642.75148
       207.499  
  24463581.255   128557003.71446      2476.594    24463581.219   100174252.86243
      1929.816  
  24511745.587   128810081.33047      3314.914    24511749.023   100371511.90648
      2583.055  
  20714366.967   108854757.52949      1140.476    20714368.606    84821911.42649
       888.680  
  24594966.782   129247423.00544     -2031.940    24594971.161   100712282.68047
     -1583.343  
  21696191.329   114014263.87449      2378.206    21696192.988    88842285.42049
      1853.145  
  22333542.614   119050345.73106     -2385.207    22333549.503    92594741.25805
     -1855.167  
  20861655.721   111478363.02508  -2097152.000    20861665.379    86705433.60607
  -2097152.000  
  19876567.764   106065194.97707      1722.156           0.000           0.0000 
         0.000  
  21577620.931   115182812.85406      1555.098    21577626.938    89586648.55403
      1209.515  
  20352578.399   108796193.32709     -2141.418    20352582.724    84619279.49807
     -1665.546  
  21002663.954   112389505.60708     -2361.355    21002668.562    87414069.10008
     -1836.608  
 20 10 01 07 39 55.0000000  0 13G15G18G20G21G32G24G10R14R15R 6R22R 5
                                R21
  21619921.368   113613449.68149     -2728.663    21619920.437    88529960.70149
     -2126.234  
  21966763.563   115436112.15548     -3021.633    21966764.244    89950215.23447
     -2354.522  
  19961157.829   104896596.41849       262.667    19961156.342    81737611.77248
       204.676  
  24461226.033   128544627.40846      2473.550    24461226.422   100164608.95643
      1927.577  
  24508592.192   128793509.25446      3313.629    24508595.338   100358598.62049
      2582.046  
  20713283.679   108849064.84449      1136.320    20713285.385    84817475.56649
       885.441  
  21693929.486   114002377.81049      2375.987    21693931.097    88833023.54549
      1851.413  
  22335782.297   119062283.50206     -2389.973    22335788.873    92604026.20304
     -1858.905  
  20860300.323   111471120.18708  -2097152.000    20860309.974    86699800.26107
  -2097152.000  
  19874955.190   106056590.03707      1719.664           0.000           0.0000 
         0.000  
  21576166.598   115175049.06106      1550.105    21576172.447    89580610.03504
      1205.633  
  20354582.492   108806906.22309     -2143.906    20354586.716    84627611.74508
     -1667.483  
  21004872.557   112401324.01108     -2366.215    21004877.163    87423261.18008
     -1840.395  
 20 10 01 07 40  0.0000000  0 13G15G18G20G21G32G24G10R14R15R 6R22R 5
                                R21
  21622518.101   113627095.72649     -2729.730    21622517.171    88540593.98649
     -2127.062  
  21969639.548   115451225.49348     -3023.227    21969640.190    89961991.84846
     -2355.765  
  19960908.916   104895288.46549       260.496    19960907.434    81736592.59948
       202.984  
  24458872.679   128532260.60446      2472.563    24458872.915   100154972.48644
      1926.676  
  24505439.478   128776941.31846      3314.007    24505442.550   100345688.54449
      2582.343  
  20712203.981   108843390.95949      1133.386    20712205.760    84813054.37049
       883.159  
  21691669.346   113990500.72249      2374.991    21691671.003    88823768.68049
      1850.644  
  22338025.484   119074241.29706     -2392.656    22338031.918    92613326.66305
     -1860.968  
  20858949.284   111463900.64808  -2097152.000    20858958.941    86694185.08407
  -2097152.000  
  19873344.772   106047996.69307      1718.188           0.000           0.0000 
         0.000  
  21574716.571   115167308.59306      1546.277    21574722.318    89574589.65703
      1202.655  
  20356588.503   108817629.50608     -2145.011    20356592.713    84635952.04608
     -1668.347  
  21007085.109   112413163.85108     -2369.668    21007089.860    87432469.93208
     -1843.078  
 20 10 01 07 40  5.0000000  0 13G15G18G20G21G32G24G10R14R15R 6R22R 5
                                R21
  21625116.020   113640747.85649     -2731.312    21625115.108    88551232.01149
     -2128.301  
  21972517.259   115466347.81348     -3025.695    21972517.918    89973775.47347
     -2357.687  
  19960662.352   104893992.82149       257.456    19960660.864    81735582.99948
       200.617  
  24456520.569   128519900.49746      2471.469    24456520.570   100145341.24444
      1925.823  
  24502287.050   128760374.85448      3312.660    24502290.093   100332779.60648
      2581.288  
  20711127.342   108837733.12249      1129.577    20711129.191    84808645.65649
       880.187  
  21689410.381   113978629.78349      2373.222    21689412.025    88814518.60549
      1849.266  
  22340271.992   119086216.03806     -2396.940    22340278.505    92622640.37304
     -1864.289  
  20857602.056   111456701.46808  -2097152.000    20857611.713    86688585.72207
  -2097152.000  
  19871735.993   106039411.84707      1715.858           0.000           0.0000 
         0.000  
  21573270.451   115159588.88506      1541.746    21573275.998    89568585.43803
      1199.132  
  20358595.861   108828360.11009     -2147.140    20358600.053    84644298.11607
     -1669.995  
  21009301.122   112425022.09508     -2374.008    21009305.923    87441693.01107
     -1846.452  
 20 10 01 07 40 10.0000000  0 14G15G18G20G21G32G24G10R14R15R 6R22R 7
                                R 5R21
  21627715.021   113654405.69549     -2731.917    21627714.109    88561874.45549
     -2128.773  
  21975396.618   115481478.75948     -3026.804    21975397.276    89985565.80747
     -2358.555  
  19960418.075   104892709.10749       255.659    19960416.591    81734582.70948
       199.214  
  24454169.730   128507547.06646      2470.004    24454169.380   100135715.20343
      1924.679  
  24499134.903   128743809.33447      3313.093    24499137.886   100319871.43949
      2581.636  
  20710053.681   108832090.90149      1126.968    20710055.569    84804249.13649
       878.156  
  21687152.540   113966764.65549      2372.405    21687154.129    88805273.05749
      1848.629  
  22342521.506   119098207.68506     -2400.116    22342528.214    92631967.34104
     -1866.741  
  20856258.550   111449522.18208  -2097152.000    20856268.211    86683001.84807
  -2097152.000  
  19870128.784   106030835.50507      1714.437           0.000           0.0000 
         0.000  
  21571828.125   115151889.49506      1537.789    21571833.626    89562597.01803
      1196.055  
  23604195.661   126355113.78515      3465.714           0.000           0.0000 
         0.000  
  20360604.554   108839097.75509     -2148.148    20360608.768    84652649.59207
     -1670.785  
  21011520.528   112436898.45608     -2376.789    21011525.297    87450930.17907
     -1848.616  
 20 10 01 07 40 15.0000000  0 15G15G18G20G21G32G24G27G10R14R15R 6R22
                                R 7R 5R21
  21630314.989   113668068.68149     -2733.054    21630314.129    88572520.94449
     -2129.655  
  21978277.483   115496617.71048     -3028.456    21978278.127    89997362.37847
     -2359.840  
  19960175.945   104891436.76749       253.348    19960174.502    81733591.27148
       197.409  
  24451819.955   128495199.22845      2469.245    24451819.347   100126093.46141
      1924.073  
  24495982.745   128727244.22347      3312.691    24495985.830   100306963.60848
      2581.324  
  20708982.903   108826463.67449      1124.039    20708984.809    84799864.27149
       875.871  
  24604665.641   129298383.98155     -2043.387    24604669.210   100751989.38156
     -1592.250  
  21684895.665   113954904.72549      2371.570    21684897.305    88796031.54949
      1847.976  
  22344774.045   119110215.23406     -2403.233    22344780.048    92641308.39914
     -1869.184  
  20854918.683   111442362.33408  -2097152.000    20854928.340    86677433.06407
  -2097152.000  
  19868522.998   106022266.87607      1713.222           0.000           0.0000 
         0.000  
  21570389.492   115144209.82006      1533.727    21570394.895    89556623.95903
      1192.898  
  23600957.678   126337783.44805      3466.305    23600962.672    98262742.69515
      2696.015  
  20362614.435   108849841.87609     -2149.339    20362618.577    84661006.11807
     -1671.710  
  21013743.178   112448792.24508     -2380.659    21013747.921    87460180.90108
     -1851.629  
 20 10 01 07 40 20.0000000  0 14G15G18G20G21G32G24G10R14R15R 6R22R 7
                                R 5R21
  21632916.538   113681739.97549     -2735.445    21632915.740    88583173.92049
     -2131.516  
  21981160.449   115511767.83348     -3031.461    21981161.076    90009167.66947
     -2362.180  
  19959936.562   104890178.95949       249.905    19959935.149    81732611.16348
       194.729  
  24449471.857   128482860.48244      2467.293    24449471.610   100116478.93341
      1922.581  
  24492831.332   128710682.71847      3311.714    24492834.298   100294058.55048
      2580.559  
  20707915.574   108820854.60149      1119.691    20707917.516    84795493.57249
       872.488  
  21682640.392   113943053.28049      2369.125    21682642.065    88786796.65949
      1846.069  
  22347030.169   119122242.17604     -2407.184    22347036.585    92650662.79605
     -1872.249  
  20853583.055   111435225.14608  -2097152.000    20853592.714    86671881.92607
  -2097152.000  
  19866919.308   106013709.09507      1710.117           0.000           0.0000 
         0.000  
  21568955.178   115136553.13206      1528.672    21568960.336    89550668.72603
      1188.961  
  23597723.105   126320455.74505      3465.210    23597726.921    98249265.59605
      2695.163  
  20364626.124   108860595.72408     -2152.000    20364630.283    84669370.21808
     -1673.785  
  21015969.724   112460706.75308     -2385.300    21015974.470    87469447.74507
     -1855.234  
 20 10 01 07 40 25.0000000  0 15G15G18G20G21G32G24G27G10R14R15R 6R22
                                R 7R 5R21
  21635519.814   113695420.84548     -2736.785    21635519.170    88593834.34549
     -2132.559  
  21984045.810   115526930.38148     -3033.726    21984046.374    90020982.63847
     -2363.941  
  19959700.196   104888936.94249       247.070    19959698.839    81731643.35648
       192.520  
  24447125.634   128470532.09146      2464.805    24447125.562   100106872.38444
      1920.629  
  24489680.764   128694126.09247      3311.047    24489683.704   100281157.26948
      2580.031  
  20706851.921   108815264.97549      1116.257    20706853.906    84791138.01649
       869.808  
  24608557.045   129318839.38654     -2048.358    24608559.844   100767938.09556
     -1596.125  
  21680386.993   113931211.46749      2367.563    21680388.697    88777569.27449
      1844.855  
  22349289.994   119134291.59515     -2411.188    22349296.541    92660031.90415
     -1875.367  
  20852251.906   111428111.88908  -2097152.000    20852261.573    86666349.42607
  -2097152.000  
  19865317.929   106005163.54407      1707.969           0.000           0.0000 
         0.000  
  21567525.371   115128920.69606      1524.319    21567530.441    89544732.38803
      1185.582  
  23594487.219   126303131.91805      3464.645    23594491.494    98235791.53304
      2694.727  
  20366639.840   108871360.28508     -2153.831    20366644.025    84677742.65607
     -1675.202  
  21018200.348   112472643.21008     -2389.266    21018205.088    87478731.65007
     -1858.319  
 20 10 01 07 40 30.0000000  0 15G15G18G20G21G32G24G10R14R16R15R 6R22
                                R 7R 5R21
  21638124.566   113709109.12949     -2738.120    21638124.023    88604500.49749
     -2133.608  
  21986933.151   115542103.24048     -3035.358    21986933.637    90032805.65247
     -2365.214  
  19959466.449   104887708.65249       244.492    19959465.141    81730686.24548
       190.511  
  24444781.167   128458211.80345      2463.870    24444781.250   100097272.13244
      1919.891  
  24486530.689   128677572.24247      3310.835    24486533.546   100268258.17648
      2579.871  
  20705791.569   108809692.82049      1112.983    20705793.593    84786796.08749
       867.262  
  21678135.011   113919377.28449      2366.402    21678136.709    88768347.82449
      1843.944  
  22351553.629   119146357.48305     -2415.147    22351560.666    92669416.54504
     -1878.445  
  22828478.109   121945627.35314      4363.679           0.000           0.0000 
         0.000  
  20850924.820   111421020.34308  -2097152.000    20850934.479    86660833.74507
  -2097152.000  
  19863718.454   105996628.19308      1706.515           0.000           0.0000 
         0.000  
  21566099.782   115121310.46307      1520.335    21566104.721    89538813.32103
      1182.480  
  23591251.682   126285809.96205      3464.621    23591255.733    98222318.92605
      2694.710  
  20368655.299   108882133.97309     -2155.378    20368659.399    84686122.19508
     -1676.409  
  21020434.740   112484599.45608     -2392.800    21020439.328    87488030.93807
     -1861.069  
 20 10 01 07 40 35.0000000  0 15G15G18G20G21G32G24G10R14R16R15R 6R22
                                R 7R 5R21
  21640730.281   113722802.34849     -2739.460    21640729.801    88615170.56949
     -2134.645  
  21989821.956   115557283.91948     -3037.194    21989822.300    90044634.74347
     -2366.647  
  19959234.833   104886491.56749       241.875    19959233.598    81729737.86348
       188.468  
  24442437.761   128445897.34046      2462.155    24442437.909   100087676.44944
      1918.563  
  24483380.705   128661018.65047      3309.948    24483383.602   100255359.31048
      2579.184  
  20704734.036   108804135.38149      1109.526    20704736.063    84782465.61549
       864.563  
  21675884.007   113907548.20949      2364.875    21675885.713    88759130.37149
      1842.753  
  22353820.286   119158439.41406     -2418.788    22353826.586    92678813.56404
     -1881.292  
  22824394.626   121923811.55605      4362.089           0.000           0.0000 
         0.000  
  20849601.355   111413948.14608  -2097152.000    20849611.022    86655333.18307
  -2097152.000  
  19862120.340   105988100.34607      1704.382           0.000           0.0000 
         0.000  
  21564677.768   115113719.74706      1515.688    21564682.482    89532909.42703
      1178.867  
  23588016.797   126268487.08704      3463.574    23588021.227    98208845.54405
      2693.890  
  20370671.899   108892913.73308     -2157.043    20370675.925    84694506.45708
     -1677.698  
  21022672.278   112496572.91208     -2396.702    21022676.755    87497343.61907
     -1864.104  
 20 10 01 07 40 40.0000000  0 14G15G18G20G21G32G24G10R14R16R15R 6R22
                                R 5R21
  21643338.246   113736507.23549     -2741.543    21643337.851    88625849.72049
     -2136.265  
  21992713.495   115572479.12248     -3039.972    21992713.793    90056475.14447
     -2368.808  
  19959006.637   104885292.48448       238.640    19959005.406    81728803.51848
       185.948  
  24440096.773   128433595.33746      2459.991    24440097.145   100078090.50444
      1916.878  
  24480231.980   128644472.08547      3309.026    24480234.954   100242465.87148
      2578.461  
  20703680.638   108798599.64649      1105.558    20703682.700    84778152.05449
       861.472  
  21673635.249   113895730.96849      2362.944    21673637.008    88749922.14049
      1841.257  
  22356091.168   119170543.71505     -2423.104    22356097.778    92688228.09904
     -1884.620  
  22820311.457   121902005.46605      4360.702           0.000           0.0000 
         0.000  
  20848282.782   111406902.09308  -2097152.000    20848292.454    86649852.94007
  -2097152.000  
  19860524.916   105979586.95507      1701.973           0.000           0.0000 
         0.000  
  21563260.713   115106155.47306      1511.081    21563265.464    89527026.08603
      1175.281  
  20372690.989   108903706.67608     -2159.246    20372694.908    84702900.96708
     -1679.413  
  21024914.369   112508570.51408     -2401.457    21024918.688    87506675.08807
     -1867.804  
 20 10 01 07 40 45.0000000  0 14G15G18G20G21G32G24G10R14R16R15R 6R22
                                R 5R21
  21645947.192   113750217.21449     -2743.273    21645946.827    88636532.79349
     -2137.621  
  21995606.589   115587682.28048     -3041.992    21995606.822    90068321.76946
     -2370.383  
  19958780.607   104884104.78149       235.558    19958779.429    81727878.02348
       183.546  
  24437756.891   128421299.23345      2457.898    24437757.265   100068509.11742
      1915.242  
  24477083.495   128627925.99847      3308.246    24477086.579   100229572.83648
      2577.855  
  20702630.125   108793078.97649      1101.925    20702632.171    84773850.24749
       858.644  
  21671387.499   113883919.02049      2361.218    21671389.238    88740718.02549
      1839.905  
  22358365.105   119182664.42105     -2426.313    22358371.649    92697655.27105
     -1887.137  
  22816229.348   121880202.48304      4359.835           0.000           0.0000 
         0.000  
  20846967.855   111399875.52408  -2097152.000    20846977.516    86644387.78007
  -2097152.000  
  19858930.956   105971081.18507      1699.824           0.000           0.0000 
         0.000  
  21561847.443   115098611.06106      1506.074    21561852.229    89521158.22903
      1171.390  
  20374711.240   108914506.04209     -2161.128    20374715.147    84711300.48407
     -1680.878  
  21027159.657   112520585.44208     -2405.457    21027163.889    87516020.02707
     -1870.910  
 20 10 01 07 40 50.0000000  0 14G15G18G20G21G32G24G10R14R16R15R 6R22
                                R 5R21
  21648557.965   113763936.98349     -2744.434    21648557.693    88647223.50849
     -2138.523  
  21998502.096   115602898.08348     -3043.785    21998502.254    90080178.23647
     -2371.785  
  19958557.645   104882933.19949       233.007    19958556.539    81726965.10748
       181.562  
  24435419.015   128409013.77146      2456.172    24435419.485   100058936.04943
      1913.898  
  24473935.830   128611385.09047      3308.055    24473939.058   100216683.85349
      2577.706  
  20701583.358   108787577.98849      1098.754    20701585.345    84769563.76549
       856.172  
  21669141.643   113872117.09649      2360.066    21669143.429    88731521.72049
      1839.008  
  22360642.876   119194805.88005     -2429.929    22360649.742    92707098.57105
     -1889.957  
  22812148.513   121858407.32905      4358.852           0.000           0.0000 
         0.000  
  20845657.471   111392873.22708  -2097152.000    20845667.130    86638941.54507
  -2097152.000  
  19857339.324   105962587.89908      1697.914           0.000           0.0000 
         0.000  
  21560438.771   115091091.22606      1502.320    21560443.626    89515309.50904
      1168.472  
  20376733.636   108925316.66308     -2162.750    20376737.493    84719708.72708
     -1682.144  
  21029409.109   112532622.55808     -2409.102    21029413.254    87525382.20607
     -1873.749  
 20 10 01 07 40 55.0000000  0 15G15G18G20G21G32G24G27G10R14R16R15R 6
                                R22R 5R21
  21651169.692   113777661.63749     -2744.578    21651169.516    88657918.08049
     -2138.633  
  22001399.065   115618121.66648     -3044.703    22001399.295    90092040.76046
     -2372.500  
  19958336.849   104881772.81749       231.637    19958335.795    81726060.91648
       180.496  
  24433082.301   128396734.00746      2456.155    24433082.773   100049367.38444
      1913.883  
  24470788.282   128594844.39547      3309.003    24470791.491   100203795.00148
      2578.449  
  20700539.383   108782091.89349      1096.613    20700541.321    84765288.88049
       854.500  
  24620295.117   129380524.45954     -2061.434    24620295.128   100815991.90457
     -1606.319  
  21666896.741   113860320.30349      2359.491    21666898.591    88722329.41949
      1838.566  
  22362923.594   119206963.04606     -2432.184    22362930.278    92716554.12705
     -1891.707  
  22808069.537   121836615.26404      4359.117           0.000           0.0000 
         0.000  
  20844350.701   111385890.24708  -2097152.000    20844360.371    86633510.37907
  -2097152.000  
  19855749.165   105954102.41307      1697.050           0.000           0.0000 
         0.000  
  21559033.786   115083591.07206      1498.921    21559038.688    89509476.03704
      1165.824  
  20378757.131   108936133.43208     -2163.219    20378761.027    84728121.78508
     -1682.526  
  21031661.749   112544676.88608     -2411.866    21031665.866    87534757.80707
     -1875.902  
 20 10 01 07 41  0.0000000  0 15G15G18G20G21G32G24G27G10R14R16R15R 6
                                R22R 5R21
  21653782.671   113791392.93348     -2747.422    21653782.554    88668617.75249
     -2140.855  
  22004297.816   115633354.67148     -3047.964    22004298.070    90103910.63347
     -2375.043  
  19958118.479   104880625.36849       227.749    19958117.464    81725166.79348
       177.464  
  24430746.875   128384461.72846      2453.315    24430747.655   100039804.56343
      1911.675  
  24467640.903   128578305.71647      3307.355    24467644.377   100190907.72048
      2577.155  
  20699498.570   108776622.41949      1091.770    20699500.411    84761026.96449
       850.729  
  24622258.253   129390842.59145     -2065.312    24622259.390   100824032.07046
     -1609.328  
  21664653.170   113848530.32349      2356.827    21664655.022    88713142.44049
      1836.488  
  22365207.765   119219137.74006     -2437.226    22365214.024    92726023.36704
     -1895.621  
  22803990.828   121814827.78304      4356.663           0.000           0.0000 
         0.000  
  20843047.862   111378928.26908  -2097152.000    20843057.518    86628095.45107
  -2097152.000  
  19854160.732   105945626.04008      1693.934           0.000           0.0000 
         0.000  
  21557632.864   115076112.22607      1493.183    21557637.705    89503659.14504
      1161.358  
  20380782.113   108946958.21608     -2166.194    20380786.128    84736541.04408
     -1684.824  
  21033917.897   112556750.05608     -2416.940    21033922.063    87544148.04707
     -1879.847  
 20 10 01 07 41  5.0000000  0 14G15G18G20G21G32G24G10R14R16R15R 6R22
                                R 5R21
  21656395.820   113805125.18948     -2747.319    21656395.765    88679318.22649
     -2140.773  
  22007197.251   115648591.49448     -3048.694    22007197.489    90115783.45947
     -2375.608  
  19957901.492   104879485.21949       226.440    19957900.509    81724278.36948
       176.449  
  24428411.964   128372191.37447      2452.968    24428412.765   100030243.29844
      1911.401  
  24464492.916   128561763.49647      3307.832    24464496.658   100178017.68048
      2577.531  
  20698459.854   108771163.92649      1089.656    20698461.578    84756773.58649
       849.077  
  21662409.849   113836741.58949      2356.573    21662411.690    88703956.40549
      1836.292  
  22367494.031   119231324.26405     -2439.245    22367500.286    92735501.78704
     -1897.188  
  22799912.080   121793039.28505      4357.156           0.000           0.0000 
         0.000  
  20841747.901   111371981.67008  -2097152.000    20841757.566    86622692.58007
  -2097152.000  
  19852572.972   105937153.51607      1692.891           0.000           0.0000 
         0.000  
  21556234.856   115068649.13007      1490.089    21556239.673    89497854.53503
      1158.956  
  20382807.536   108957785.32408     -2166.679    20382811.669    84744962.13208
     -1685.198  
  21036176.541   112568836.39008     -2419.547    21036180.650    87553548.51707
     -1881.875  
 20 10 01 07 41 10.0000000  0 15G15G18G20G21G32G24G27G10R14R16R15R 6
                                R22R 5R21
  21659013.103   113818879.04248     -2751.710    21659013.043    88690035.51149
     -2144.195  
  22010101.350   115663852.72948     -3053.707    22010101.653    90127675.33446
     -2379.515  
  19957689.827   104878373.03449       220.632    19957688.838    81723411.73848
       171.917  
  24426081.392   128359943.41746      2448.320    24426082.025   100020699.46044
      1907.785  
  24461348.185   128545238.22947      3304.726    24461352.205   100165140.89048
      2575.117  
  20697427.133   108765737.00349      1083.257    20697428.754    84752544.81549
       844.094  
  24626191.452   129411509.00453     -2071.918    24626194.089   100840147.35156
     -1614.479  
  21660170.680   113824974.71149      2352.206    21660172.513    88694787.41249
      1832.883  
  22369786.456   119243543.55205     -2445.854    22369792.503    92745005.67705
     -1902.331  
  22795836.870   121771270.77504      4352.367           0.000           0.0000 
         0.000  
  20840454.745   111365071.43508  -2097152.000    20840464.407    86617317.94007
  -2097152.000  
  19850989.822   105928705.48907      1688.089           0.000           0.0000 
         0.000  
  21554843.787   115061222.69406      1482.249    21554848.264    89492078.45003
      1152.858  
  20384837.283   108968635.60808     -2171.452    20384841.509    84753401.22008
     -1688.913  
  21038441.561   112580956.84408     -2426.581    21038445.714    87562975.53407
     -1887.343  
 20 10 01 07 41 15.0000000  0 15G15G18G20G 8G21G32G24G10R14R16R15R 6
                                R22R 5R21
  21661631.448   113832638.66149     -2752.198    21661631.476    88700757.27849
     -2144.574  
  22013007.135   115679122.51648     -3054.293    22013007.476    90139573.85247
     -2379.972  
  19957480.490   104877272.93449       219.191    19957479.487    81722554.50948
       170.793  
  24687126.874   129731725.05755      -386.812    24687130.997   101089675.92455
      -301.405  
  24423751.970   128347702.12846      2447.737    24423752.497   100011160.77644
      1907.320  
  24458203.775   128528714.14948      3305.206    24458207.875   100152264.98048
      2575.484  
  20696397.404   108760325.86849      1081.022    20696398.974    84748328.34949
       842.352  
  21657932.704   113813213.87949      2351.926    21657934.491    88685623.11549
      1832.663  
  22372082.090   119255779.38906     -2448.687    22372088.208    92754522.46704
     -1904.530  
  22791762.838   121749506.24503      4352.937           0.000           0.0000 
         0.000  
  20839165.367   111358181.39008  -2097152.000    20839175.031    86611959.02707
  -2097152.000  
  19849408.192   105920265.82707      1687.520           0.000           0.0000 
         0.000  
  21553456.336   115053816.70107      1479.573    21553460.829    89486318.21104
      1150.776  
  20386868.350   108979492.95408     -2171.836    20386872.665    84761845.81408
     -1689.211  
  21040709.987   112593095.27508     -2429.445    21040714.099    87572416.56307
     -1889.566  
 20 10 01 07 41 20.0000000  0 17G15G18G20G 8G21G32G24G27G10G13R14R16
                                R15R 6R22R 5R21
  21664250.543   113846402.25148     -2753.269    21664250.625    88711482.16049
     -2145.410  
  22015914.191   115694399.16548     -3056.109    22015914.579    90151477.73546
     -2381.387  
  19957273.139   104876183.23449       216.883    19957272.132    81721705.39548
       169.000  
  24687496.336   129733665.96944      -389.417    24687500.009   101091188.22045
      -303.453  
  24421423.475   128335465.70946      2446.637    24421423.673   100001625.88243
      1906.464  
  24455059.246   128512189.50348      3304.655    24455063.288   100139388.63949
      2575.058  
  20695370.356   108754928.72349      1078.059    20695371.916    84744122.77949
       840.043  
  24630134.246   129432231.24655     -2073.769    24630139.551   100856303.82656
     -1615.925  
  21655695.521   113801457.30849      2350.851    21655697.285    88676462.16249
      1831.831  
  24390903.223   128175069.07754     -3544.198    24390904.597    99876652.74151
     -2761.714  
  22374380.377   119268030.14606     -2451.655    22374386.513    92764050.81905
     -1906.848  
  22787689.363   121727743.78504      4353.168    22787697.044    94677153.83713
      3385.792  
  20837879.438   111351309.77708  -2097152.000    20837889.108    86606614.46407
  -2097152.000  
  19847827.849   105911832.84707      1685.780           0.000           0.0000 
         0.000  
  21552072.612   115046429.60206      1475.180    21552076.977    89480572.69203
      1147.362  
  20388900.425   108990355.68108     -2173.136    20388904.761    84770294.62508
     -1690.215  
  21042981.339   112605249.86408     -2432.382    21042985.352    87581870.09107
     -1891.858  
 20 10 01 07 41 25.0000000  0 15G15G18G20G21G32G24G10R14R16R15R 6R22
                                R 7R 5R21
  21666870.710   113860171.41648     -2754.339    21666870.842    88722211.38649
     -2146.237  
  22018822.824   115709684.16448     -3058.160    22018823.269    90163388.11647
     -2382.983  
  19957068.043   104875105.44549       214.254    19957067.037    81720865.56348
       166.949  
  24419096.248   128323235.82947      2445.664    24419096.545    99992096.14944
      1905.710  
  24451914.930   128495665.91847      3304.695    24451918.965   100126513.16148
      2575.089  
  20694346.303   108749547.28949      1074.707    20694347.887    84739929.46149
       837.434  
  21653459.445   113789706.62049      2349.504    21653461.227    88667305.78549
      1830.781  
  22376681.781   119280297.42304     -2455.265    22376687.974    92773592.00305
     -1909.660  
  22783615.776   121705985.04104      4351.284    22783623.389    94660230.38303
      3384.734  
  20836597.281   111344458.31708  -2097152.000    20836606.952    86601285.55607
  -2097152.000  
  19846249.063   105903408.17308      1684.007           0.000           0.0000 
         0.000  
  21550692.558   115039062.81206      1471.168    21550696.842    89474842.98203
      1144.241  
  23555679.029   126095393.26314      3460.766    23555682.277    98074208.87314
      2691.706  
  20390933.821   109001225.41208     -2174.746    20390938.146    84778748.85707
     -1691.472  
  21045256.028   112617422.27608     -2436.526    21045260.014    87591337.52607
     -1895.081  
 20 10 01 07 41 30.0000000  0 14G15G18G20G21G32G24G10R14R16R15R 6R22
                                R 5R21
  21669492.245   113873947.92748     -2756.323    21669492.432    88732946.32949
     -2147.788  
  22021733.343   115724979.32948     -3060.262    22021733.882    90175306.40147
     -2384.625  
  19956865.578   104874041.45349       211.073    19956864.572    81720036.47248
       164.468  
  24416770.554   128311014.28846      2443.616    24416770.591    99982572.88443
      1904.116  
  24448771.177   128479145.07347      3303.293    24448775.019   100113639.76048
      2573.995  
  20693325.572   108744183.28349      1070.667    20693327.160    84735749.72349
       834.281  
  21651224.858   113777963.63049      2347.585    21651226.631    88658155.39349
      1829.285  
  22378986.600   119292582.90406     -2459.188    22378992.881    92783147.32005
     -1912.711  
  22779543.768   121684231.97704      4349.906    22779551.269    94643311.37103
      3383.266  
  20835319.213   111337628.71308  -2097152.000    20835328.888    86595973.65407
  -2097152.000  
  19844672.224   105894993.76407      1681.570           0.000           0.0000 
         0.000  
  21549316.754   115031718.39506      1466.488    21549320.963    89469130.66003
      1140.598  
  20392968.817   109012103.72509     -2176.953    20392973.192    84787209.74908
     -1693.219  
  21047534.343   112629614.28208     -2440.632    21047538.331    87600820.20707
     -1898.272  
 20 10 01 07 41 35.0000000  0 16G15G18G20G 8G21G32G24G10R14R16R15R 6
                                R22R 7R 5R21
  21672115.361   113887732.86748     -2757.741    21672115.644    88743687.81849
     -2148.891  
  22024646.034   115740285.77848     -3062.336    22024646.652    90187233.52147
     -2386.233  
  19956665.937   104872992.36549       208.332    19956664.954    81719219.00948
       162.335  
  24688621.916   129739583.71456      -398.604    24688624.603   101095790.08755
      -310.628  
  24414446.759   128298802.32046      2441.340    24414446.909    99973057.01442
      1902.526  
  24445628.185   128462628.22547      3302.862    24445631.762   100100769.52148
      2573.664  
  20692308.351   108738837.81249      1067.093    20692309.996    84731584.41649
       831.499  
  21648991.924   113766229.48149      2346.054    21648993.717    88649011.92449
      1828.094  
  22381294.953   119304887.75505     -2462.707    22381301.372    92792717.80805
     -1915.437  
  22775472.943   121662485.86204      4348.616    22775480.238    94626397.69403
      3382.250  
  20834045.478   111330822.25608  -2097152.000    20834055.149    86590679.73007
  -2097152.000  
  19843097.488   105886590.64007      1679.355           0.000           0.0000 
         0.000  
  21547945.293   115024397.34606      1461.867    21547949.496    89463436.53004
      1137.008  
         0.000           0.0000          0.000    23549219.061    98047277.67615
      2691.418  
  20395005.709   109022992.11008     -2178.483    20395010.106    84795678.49807
     -1694.378  
  21049816.531   112641827.07708     -2444.530    21049820.594    87610319.02707
     -1901.305  
