     2.11           OBSERVATION DATA    M                   RINEX VERSION / TYPE
LEICA GEO OFFICE 8.4                    1-10-20 22:39       PGM / RUN BY / DATE
                                                            OBSERVER / AGENCY
KUCH                                                        MARKER NAME
KUCH                                                        MARKER NUMBER
468588              LEICA GX1220GG      5.60                REC # / TYPE / VERS
                    LEIAX1202GG                             ANT # / TYPE
 -1265372.8433  3799786.9380  4948587.6037                  APPROX POSITION XYZ
        1.7880        0.0000        0.0000                  ANTENNA: DELTA H/E/N
L1PhaOff:   0.0644  L2PhaOff:   0.0640                      COMMENT
     1     1                                                WAVELENGTH FACT L1/2
     6    C1    L1    D1    P2    L2    D2                  # / TYPES OF OBSERV
  2020    10     1     5    52    0.0000000     GPS         TIME OF FIRST OBS
  2020    10     1     7    22   25.0000000     GPS         TIME OF LAST OBS
    18                                                      LEAP SECONDS
    19                                                      # OF SATELLITES
          C1    L1    D1    P2    L2    D2                  COMMENT
   G 1     0     0     0     0     0     0                  PRN / # OF OBS
   G 2     0     0     0     0     0     0                  PRN / # OF OBS
   G 3     0     0     0     0     0     0                  PRN / # OF OBS
   G 4     0     0     0     0     0     0                  PRN / # OF OBS
   G 5   448   448   448   448   448   448                  PRN / # OF OBS
   G 6     0     0     0     0     0     0                  PRN / # OF OBS
   G 7     0     0     0     0     0     0                  PRN / # OF OBS
   G 8   119   119   119   118   118   118                  PRN / # OF OBS
   G 9     0     0     0     0     0     0                  PRN / # OF OBS
   G10   892   892   892   890   890   890                  PRN / # OF OBS
   G11     0     0     0     0     0     0                  PRN / # OF OBS
   G12     0     0     0     0     0     0                  PRN / # OF OBS
   G13  1086  1086  1086  1086  1086  1086                  PRN / # OF OBS
   G14     0     0     0     0     0     0                  PRN / # OF OBS
   G15  1086  1086  1086  1086  1086  1086                  PRN / # OF OBS
   G16     0     0     0     0     0     0                  PRN / # OF OBS
   G17     0     0     0     0     0     0                  PRN / # OF OBS
   G18  1086  1086  1086  1086  1086  1086                  PRN / # OF OBS
   G19     0     0     0     0     0     0                  PRN / # OF OBS
   G20  1086  1086  1086  1086  1086  1086                  PRN / # OF OBS
   G21     0     0     0     0     0     0                  PRN / # OF OBS
   G22     0     0     0     0     0     0                  PRN / # OF OBS
   G23     0     0     0     0     0     0                  PRN / # OF OBS
   G24  1079  1079  1079  1079  1079  1079                  PRN / # OF OBS
   G25     0     0     0     0     0     0                  PRN / # OF OBS
   G26     0     0     0     0     0     0                  PRN / # OF OBS
   G27  1063  1063  1063  1063  1063  1063                  PRN / # OF OBS
   G28     0     0     0     0     0     0                  PRN / # OF OBS
   G29   163   163   163   163   163   163                  PRN / # OF OBS
   G30    94    94    94    71    71    71                  PRN / # OF OBS
   G31     0     0     0     0     0     0                  PRN / # OF OBS
   G32     0     0     0     0     0     0                  PRN / # OF OBS
   R 1     0     0     0     0     0     0                  PRN / # OF OBS
   R 2     0     0     0     0     0     0                  PRN / # OF OBS
   R 3     0     0     0     0     0     0                  PRN / # OF OBS
   R 4   966   966   966   970   970   970                  PRN / # OF OBS
   R 5  1086  1086  1086  1086  1086  1086                  PRN / # OF OBS
   R 6  1011  1011  1011     0     0     0                  PRN / # OF OBS
   R 7     0     0     0     0     0     0                  PRN / # OF OBS
   R 8     0     0     0     0     0     0                  PRN / # OF OBS
   R 9     0     0     0     0     0     0                  PRN / # OF OBS
   R10     0     0     0     0     0     0                  PRN / # OF OBS
   R11     0     0     0     0     0     0                  PRN / # OF OBS
   R12     0     0     0     0     0     0                  PRN / # OF OBS
   R13     0     0     0     0     0     0                  PRN / # OF OBS
   R14  1080  1080  1080  1082  1082  1082                  PRN / # OF OBS
   R15   691   691   691   690   690   690                  PRN / # OF OBS
   R16     0     0     0     0     0     0                  PRN / # OF OBS
   R17     0     0     0     0     0     0                  PRN / # OF OBS
   R18     0     0     0     0     0     0                  PRN / # OF OBS
   R19     0     0     0     0     0     0                  PRN / # OF OBS
   R20   953   953   953   953   953   953                  PRN / # OF OBS
   R21  1086  1086  1086  1085  1085  1085                  PRN / # OF OBS
   R22   494   494   494   256   256   256                  PRN / # OF OBS
   R23     0     0     0     0     0     0                  PRN / # OF OBS
   R24     0     0     0     0     0     0                  PRN / # OF OBS
                                                            END OF HEADER
 20 10 01 05 52  0.0000000  0 15G15G18G20G29G 5G30G24G27G13R14R 4R 6
                                R 5R20R21
  20019217.743   105201699.76149       521.237    20019217.727    81975350.68749
       406.156  
  20468386.089   107562091.66349       800.995    20468385.880    83814617.12648
       624.147  
  22062644.806   115939979.07848      2774.804    22062644.151    90342842.89545
      2162.180  
  24176336.040   127047501.73347     -3654.788    24176338.161    98998064.61949
     -2847.890  
  23325570.911   122576706.46348     -3154.930    23325570.947    95514314.00246
     -2458.390  
  24330656.472   127858485.51346     -1883.987    24330661.752    99629979.55243
     -1468.047  
  24213110.071   127240755.57047      3838.586    24213113.354    99148639.51347
      2991.109  
  24486085.295   128675244.83747      1963.512    24486086.828   100266431.66348
      1530.012  
  20837497.676   109501786.17449     -1571.569    20837496.727    85326063.99748
     -1224.604  
  22746960.908   121254101.56206      2866.297    22746966.881    94308768.50004
      2229.331  
  20514845.530   109856066.42708     -2617.835    20514848.197    85443612.88807
     -2036.098  
  23247419.263   124052685.19215      3592.461           0.000           0.0000 
         0.000  
  19438519.008   103910023.03008       856.027    19438523.841    80818924.97208
       665.797  
  19793718.752   105845908.95805     -1275.777    19793725.189    82324618.94408
      -992.272  
  21664356.168   115930349.80507      3218.272    21664358.571    90168059.01207
      2503.101  
 20 10 01 05 52  5.0000000  0 15G15G18G20G29G 5G30G24G27G13R14R 4R 6
                                R 5R20R21
  20018721.622   105199092.63049       520.711    20018721.600    81973319.16149
       405.746  
  20467623.707   107558085.57049       800.636    20467623.532    83811495.50048
       623.871  
  22060003.491   115926098.75048      2776.477    22060002.916    90332027.04345
      2163.483  
  24179812.137   127065769.05747     -3652.652    24179814.335    99012298.87748
     -2846.226  
  23328571.388   122592474.48348     -3153.094    23328571.531    95526600.77146
     -2456.960  
  24332448.817   127867903.35245     -1883.906    24332453.837    99637318.15245
     -1467.977  
  24209456.492   127221556.66747      3840.414    24209460.162    99133679.36248
      2992.535  
  24484216.622   128665424.89446      1963.382    24484218.173   100258779.77148
      1529.910  
  20838992.700   109509642.48849     -1571.758    20838991.714    85332185.81447
     -1224.746  
  22744272.846   121239769.30506      2866.262    22744278.327    94297621.24204
      2229.319  
  20517288.918   109869150.71908     -2616.797    20517291.578    85453789.57807
     -2035.285  
  23244051.241   124034716.50105      3594.765           0.000           0.0000 
         0.000  
  19437717.922   103905741.17208       855.878    19437722.792    80815594.63308
       665.680  
  19794912.409   105852292.25605     -1277.956    19794918.822    82329583.72908
      -993.968  
  21661348.756   115914257.06808      3218.073    21661351.343    90155542.44607
      2502.945  
 20 10 01 05 52 10.0000000  0 15G15G18G20G29G 5G30G24G27G13R14R 4R 6
                                R 5R20R21
  20018227.504   105196496.01849       517.226    20018227.470    81971295.81549
       403.030  
  20466863.179   107554089.09449       797.198    20466863.044    83808381.36648
       621.190  
  22057362.159   115912218.39748      2774.887    22057361.726    90321211.18545
      2162.249  
  24183287.809   127084033.99847     -3653.581    24183290.048    99026531.28049
     -2846.952  
  23331571.560   122608240.74248     -3154.184    23331571.801    95538886.15346
     -2457.809  
  24334242.684   127877328.87645     -1886.695    24334247.067    99644662.72443
     -1470.160  
  24205802.354   127202354.07347      3839.504    24205806.364    99118716.29648
      2991.819  
  24482349.297   128655613.63046      1960.449    24482351.514   100251134.67748
      1527.624  
  20840489.411   109517507.59849     -1574.987    20840488.387    85338314.47147
     -1227.266  
  22741585.880   121225445.51506      2862.789    22741591.148    94286480.59204
      2226.620  
  20519732.726   109882237.60608     -2618.749    20519735.263    85463968.25307
     -2036.808  
  23240684.885   124016746.73305      3592.910           0.000           0.0000 
         0.000  
  19436918.411   103901467.57608       852.723    19436923.306    80812270.72908
       663.229  
  19796109.336   105858692.60605     -1283.152    19796115.682    82334561.78008
      -998.011  
  21658343.191   115898173.84108      3214.565    21658345.876    90143033.27407
      2500.219  
 20 10 01 05 52 15.0000000  0 15G15G18G20G29G 5G30G24G27G13R14R 4R 6
                                R 5R20R21
  20017736.745   105193917.00249       513.992    20017736.693    81969286.19649
       400.507  
  20466105.789   107550109.32649       794.206    20466105.725    83805280.24348
       618.858  
  22054722.185   115898345.08148      2773.992    22054721.836    90310400.80845
      2161.551  
  24186764.374   127102303.59247     -3654.522    24186766.660    99040767.32749
     -2847.679  
  23334572.755   122624012.31348     -3154.995    23334573.129    95551175.68546
     -2458.441  
  24336039.047   127886769.04645     -1889.043    24336043.522    99652018.62444
     -1471.991  
  24202148.843   127183154.95847      3839.374    24202153.121    99103755.94148
      2991.723  
  24480485.374   128645818.20946      1957.472    24480487.718   100243501.86548
      1525.305  
  20841989.099   109525388.54349     -1577.827    20841988.112    85344455.46747
     -1229.476  
  22738902.047   121211137.73506      2859.921    22738907.064    94275352.33704
      2224.387  
  20522178.377   109895334.36308     -2620.309    20522180.797    85474154.62807
     -2038.019  
  23237317.190   123998782.72305      3591.996           0.000           0.0000 
         0.000  
  19436121.765   103897209.36109       849.979    19436126.665    80808958.78008
       661.094  
  19797310.742   105865117.12605     -1287.394    19797317.092    82339558.62908
     -1001.313  
  21655340.767   115882107.32708      3211.312    21655343.533    90130537.10307
      2497.687  
 20 10 01 05 52 20.0000000  0 15G15G18G20G29G 5G30G24G27G13R14R 4R 6
                                R 5R20R21
  20017249.348   105191355.65249       510.421    20017249.298    81967290.33449
       397.727  
  20465351.584   107546146.32449       790.852    20465351.569    83802192.19148
       616.241  
  22052083.536   115884478.88548      2772.727    22052083.275    90299595.96945
      2160.566  
  24190241.892   127120577.85647     -3655.265    24190244.101    99055006.99448
     -2848.261  
  23337574.955   122639789.23148     -3155.887    23337575.536    95563469.38547
     -2459.137  
  24337838.380   127896224.07445     -1892.948    24337842.227    99659386.17645
     -1475.030  
  24198495.907   127163959.06146      3838.792    24198500.568    99088798.12548
      2991.266  
  24478624.284   128636038.61346      1953.953    24478627.021   100235881.40648
      1522.563  
  20843491.828   109533285.37949     -1581.069    20843490.860    85350608.84447
     -1232.008  
  22736221.302   121196845.82706      2856.620    22736225.702    94264236.45704
      2221.820  
  20524625.897   109908441.03508     -2622.343    20524628.201    85484348.69507
     -2039.605  
  23233951.673   123980824.64704      3590.328           0.000           0.0000 
         0.000  
  19435328.065   103892966.54908       846.797    19435332.928    80805658.80908
       658.617  
  19798516.747   105871566.08705     -1291.894    19798523.063    82344574.47708
     -1004.813  
  21652341.498   115866057.56908      3208.141    21652344.333    90118053.98106
      2495.222  
 20 10 01 05 52 25.0000000  0 15G15G18G20G29G 5G30G24G27G13R14R 4R 6
                                R 5R20R21
  20016765.009   105188810.37149       507.554    20016764.964    81965307.00449
       395.495  
  20464600.283   107542198.49149       788.125    20464600.289    83799115.95448
       614.120  
  22049445.907   115870618.18148      2771.905    22049445.774    90288795.43645
      2159.926  
  24193719.935   127138855.25247     -3655.676    24193722.195    99069249.11248
     -2848.586  
  23340577.888   122655570.00248     -3156.449    23340578.631    95575766.08447
     -2459.573  
  24339640.272   127905692.23345     -1894.827    24339643.575    99666763.96045
     -1476.487  
  24194843.332   127144765.14747      3838.679    24194848.406    99073841.82048
      2991.179  
  24476765.880   128626273.29046      1951.668    24476768.851   100228272.10548
      1520.784  
  20844997.260   109541196.53849     -1583.621    20844996.309    85356773.37848
     -1233.996  
  22733543.227   121182568.30706      2854.246    22733547.253    94253131.72104
      2219.969  
  20527074.964   109921555.99008     -2623.695    20527077.252    85494549.21907
     -2040.651  
  23230587.093   123962871.07105      3589.813           0.000           0.0000 
         0.000  
  19434536.918   103888737.56909       844.410    19434541.713    80802369.60508
       656.758  
  19799726.900   105878037.69305     -1296.690    19799733.280    82349607.95608
     -1008.538  
  21649345.147   115850023.04908      3205.397    21649347.955    90105582.70107
      2493.085  
 20 10 01 05 52 30.0000000  0 15G15G18G20G29G 5G30G24G27G13R14R 4R 6
                                R 5R20R21
  20016283.854   105186281.72749       504.409    20016283.764    81963336.63349
       393.043  
  20463851.981   107538266.42349       785.210    20463852.014    83796052.01648
       611.851  
  22046809.436   115856763.61648      2770.573    22046809.462    90277999.67645
      2158.891  
  24197198.643   127157136.29847     -3656.438    24197200.890    99083494.04048
     -2849.179  
  23343581.640   122671355.07548     -3157.124    23343582.466    95588066.13346
     -2460.101  
  24341444.836   127915174.12545     -1897.401    24341447.334    99674152.45444
     -1478.495  
  24191191.319   127125573.78447      3838.370    24191196.604    99058887.52048
      2990.933  
  24474910.385   128616522.81947      1949.211    24474913.665   100220674.33449
      1518.867  
  20846505.511   109549122.54549     -1586.363    20846504.599    85362949.47648
     -1236.132  
  22730867.813   121168305.81407      2851.211    22730871.437    94242038.68004
      2217.608  
  20529525.725   109934679.76508     -2625.448    20529527.985    85504756.59207
     -2042.019  
  23227223.161   123944922.54804      3590.050           0.000           0.0000 
         0.000  
  19433748.517   103884523.11509       841.957    19433753.223    80799091.70008
       654.851  
  19800941.500   105884532.64305     -1301.438    19800947.847    82354659.58708
     -1012.234  
  21646351.754   115834004.36208      3202.508    21646354.571    90093123.69207
      2490.832  
 20 10 01 05 52 35.0000000  0 15G15G18G20G29G 5G30G24G27G13R14R 4R 6
                                R 5R20R21
  20015805.369   105183767.05349       501.534    20015805.253    81961377.14849
       390.805  
  20463106.163   107534347.43249       782.582    20463106.248    83792998.25948
       609.801  
  22044173.628   115842912.44848      2769.813    22044173.784    90267206.58045
      2158.296  
  24200677.542   127175418.31347     -3656.573    24200679.869    99097739.75249
     -2849.284  
  23346585.702   122687141.80848     -3157.457    23346586.696    95600367.48347
     -2460.359  
  24343251.417   127924666.99346     -1899.648    24343253.756    99681549.48344
     -1480.249  
  24187539.186   127106382.10146      3838.141    24187544.666    99043932.97648
      2990.757  
  24473057.329   128606784.60347      1946.219    24473060.627   100213086.10749
      1516.534  
  20848016.066   109557060.68849     -1588.723    20848015.230    85369135.04148
     -1237.969  
  22728194.578   121154055.40307      2848.679    22728197.552    94230955.02104
      2215.636  
  20531977.583   109947809.60708     -2626.633    20531979.859    85514968.68607
     -2042.940  
  23223860.059   123926976.14305      3589.503           0.000           0.0000 
         0.000  
  19432962.269   103880320.29409       839.297    19432966.862    80795822.83708
       652.781  
  19802160.035   105891048.06905     -1305.085    19802166.218    82359727.13608
     -1015.070  
  21643360.774   115817998.77508      3199.909    21643363.660    90080674.91306
      2488.820  
 20 10 01 05 52 40.0000000  0 15G15G18G20G29G 5G30G24G27G13R14R 4R 6
                                R 5R20R21
  20015329.601   105181266.71649       498.410    20015329.477    81959428.83249
       388.370  
  20462362.884   107530441.88249       779.546    20462363.032    83789954.97948
       607.437  
  22041538.563   115829065.08748      2768.948    22041538.945    90256416.41845
      2157.617  
  24204156.760   127193701.63747     -3657.042    24204159.090    99111986.48548
     -2849.651  
  23349590.142   122702930.53048     -3158.104    23349591.157    95612670.37246
     -2460.866  
  24345060.223   127934171.29945     -1902.233    24345062.548    99688955.40344
     -1482.269  
  24183887.034   127087190.53747      3838.016    24183892.762    99028978.54148
      2990.659  
  24471206.444   128597058.88347      1943.565    24471209.858   100205507.61348
      1514.464  
  20849528.984   109565011.34649     -1591.593    20849528.246    85375330.36847
     -1240.202  
  22725523.631   121139817.69207      2846.008    22725526.516    94219881.23504
      2213.559  
  20534430.695   109960945.87608     -2628.351    20534432.922    85525185.79607
     -2044.272  
  23220497.054   123909032.40804      3588.456           0.000           0.0000 
         0.000  
  19432178.301   103876129.53409       836.691    19432182.774    80792563.35808
       650.761  
  19803382.366   105897584.36405     -1309.710    19803388.569    82364810.92308
     -1018.663  
  21640372.296   115802006.66708      3196.983    21640375.111    90068236.62407
      2486.543  
 20 10 01 05 52 45.0000000  0 15G15G18G20G29G 5G30G24G27G13R14R 4R 6
                                R 5R20R21
  20014857.218   105178784.07949       495.019    20014857.095    81957494.31849
       385.729  
  20461622.841   107526553.21349       776.202    20461623.027    83786924.84348
       604.827  
  22038904.850   115815224.92548      2767.601    22038905.380    90245631.87845
      2156.574  
  24207636.855   127211989.66147     -3657.843    24207639.130    99126236.88448
     -2850.272  
  23352595.597   122718724.67648     -3159.180    23352596.697    95624977.49647
     -2461.702  
  24346871.734   127943690.44845     -1904.949    24346873.934    99696372.91444
     -1484.382  
  24180235.666   127068002.59247      3837.562    24180241.452    99014026.87948
      2990.304  
  24469358.753   128587349.20147      1940.340    24469362.171   100197941.64448
      1511.948  
  20851044.915   109572977.89849     -1594.578    20851044.289    85381538.06248
     -1242.530  
  22722855.493   121125596.13606      2843.234    22722858.789    94208820.04504
      2211.401  
  20536885.622   109974092.11808     -2629.886    20536887.769    85535410.64507
     -2045.472  
  23217135.114   123891094.89205      3586.801           0.000           0.0000 
         0.000  
  19431397.264   103871954.29009       833.765    19431401.731    80789315.94708
       648.480  
  19804609.210   105904145.19305     -1314.379    19804615.490    82369913.78208
     -1022.297  
  21637387.032   115786031.51008      3193.683    21637389.725    90055811.49607
      2483.973  
 20 10 01 05 52 50.0000000  0 15G15G18G20G29G 5G30G24G27G13R14R 4R 6
                                R 5R20R21
  20014388.053   105176318.28649       491.480    20014387.925    81955572.92849
       382.972  
  20460885.869   107522680.52249       772.930    20460886.071    83783907.16148
       602.276  
  22036272.306   115801391.09648      2766.308    22036272.848    90234852.31645
      2155.570  
  24211117.724   127230281.46947     -3658.628    24211119.987    99140490.22648
     -2850.886  
  23355601.938   122734523.35748     -3160.050    23355603.114    95637288.14646
     -2462.383  
  24348685.862   127953223.47245     -1908.004    24348688.195    99703801.25945
     -1486.758  
  24176584.813   127048817.26147      3836.727    24176590.352    98999077.29947
      2989.656  
  24467513.950   128577654.57246      1937.714    24467517.483   100190387.39349
      1509.906  
  20852563.740   109580959.46949     -1597.734    20852563.162    85387757.46847
     -1244.991  
  22720190.111   121111389.71306      2840.000    22720193.790    94197770.60205
      2208.891  
  20539342.244   109987247.31408     -2631.875    20539344.314    85545642.47507
     -2047.015  
  23213774.445   123873162.34404      3586.949           0.000           0.0000 
         0.000  
  19430618.945   103867793.60109       830.749    19430623.396    80786079.85508
       646.141  
  19805840.667   105910729.50105     -1318.844    19805846.801    82375034.90008
     -1025.769  
  21634404.699   115770072.48008      3190.382    21634407.453    90043398.92507
      2481.409  
 20 10 01 05 52 55.0000000  0 15G15G18G20G29G 5G30G24G27G13R14R 4R 6
                                R 5R20R21
  20013921.805   105173867.85949       488.234    20013921.640    81953663.50349
       380.437  
  20460151.661   107518822.32949       769.921    20460151.857    83780900.77148
       599.934  
  22033640.742   115787562.13548      2765.027    22033641.248    90224076.45145
      2154.562  
  24214599.058   127248575.62448     -3659.358    24214601.288    99154745.41448
     -2851.449  
  23358608.871   122750325.08448     -3160.812    23358609.970    95649601.15447
     -2462.976  
  24350502.171   127962768.86545     -1909.331    24350504.632    99711239.23544
     -1487.792  
  24172934.152   127029633.25247      3836.398    24172939.663    98984128.71448
      2989.397  
  24465671.646   128567973.64046      1934.453    24465675.535   100182843.82948
      1507.371  
  20854085.152   109588954.60649     -1600.688    20854084.614    85393987.43647
     -1247.293  
  22717527.074   121097196.94806      2836.844    22717531.597    94186731.82505
      2206.434  
  20541800.276   110000410.02308     -2633.507    20541802.384    85555880.12507
     -2048.288  
  23210414.505   123855233.65304      3585.042           0.000           0.0000 
         0.000  
  19429843.027   103863646.03509       827.891    19429847.478    80782853.97308
       643.914  
  19807075.934   105917335.55905     -1324.055    19807082.175    82380172.94508
     -1029.820  
  21631425.108   115754128.05108      3187.265    21631427.894    90030997.73907
      2478.987  
 20 10 01 05 53  0.0000000  0 14G15G18G20G29G 5G24G27G13R14R 4R 6R 5
                                R20R21
  20013459.162   105171436.40349       484.362    20013458.949    81951768.86249
       377.426  
  20459420.913   107514982.28249       766.034    20459421.140    83777908.54648
       596.910  
  22031010.816   115773741.65448      2763.058    22031011.362    90213307.28645
      2153.034  
  24218081.394   127266875.73746     -3660.832    24218083.545    99169005.20549
     -2852.604  
  23361617.047   122766133.46448     -3162.309    23361618.116    95661919.38646
     -2464.141  
  24169284.427   127010454.03947      3835.477    24169290.001    98969183.86148
      2988.679  
  24463832.564   128558309.88646      1930.379    24463836.772   100175313.62048
      1504.190  
  20855609.803   109596966.89149     -1604.227    20855609.340    85400230.77847
     -1250.046  
  22714867.579   121083021.75006      2833.499    22714872.472    94175706.67305
      2203.831  
  20544260.395   110013583.84908     -2635.914    20544262.611    85566126.44507
     -2050.155  
  23207056.219   123837312.32004      3582.808           0.000           0.0000 
         0.000  
  19429070.279   103859515.22209       824.367    19429074.702    80779641.12208
       641.172  
  19808316.147   105923967.41005     -1329.355    19808322.385    82385331.04408
     -1033.944  
  21628448.912   115738202.01308      3183.203    21628451.681    90018610.79207
      2475.815  
 20 10 01 05 53  5.0000000  0 14G15G18G20G29G 5G24G27G13R14R 4R 6R 5
                                R20R21
  20012999.644   105169021.39749       481.565    20012999.400    81949887.05349
       375.246  
  20458693.139   107511157.83749       763.569    20458693.422    83774928.44548
       594.983  
  22028382.029   115759927.13048      2762.590    22028382.428    90202542.70945
      2152.664  
  24221564.279   127285179.11047     -3660.891    24221566.487    99183267.55248
     -2852.647  
  23364626.022   122781945.92648     -3162.617    23364626.907    95674240.75546
     -2464.383  
  24165635.107   126991277.23446      3835.616    24165640.586    98954240.93248
      2988.793  
  24461996.380   128548660.95247      1928.586    24462000.524   100167794.93148
      1502.784  
  20857137.263   109604993.80749     -1606.641    20857136.797    85406485.52147
     -1251.934  
  22712210.966   121068861.44606      2831.042    22712216.252    94164693.15905
      2201.930  
  20546722.152   110026766.28808     -2637.109    20546724.450    85576379.44807
     -2051.089  
  23203698.494   123819395.79104      3582.578           0.000           0.0000 
         0.000  
  19428300.186   103855398.66209       822.042    19428304.568    80776439.34708
       639.367  
  19809560.690   105930622.23205     -1333.184    19809566.788    82390507.01508
     -1036.792  
  21625475.649   115722291.61008      3180.921    21625478.417    90006236.02107
      2474.046  
 20 10 01 05 53 10.0000000  0 14G15G18G20G29G 5G24G27G13R14R 4R 6R 5
                                R20R21
  20012542.621   105166619.60049       478.910    20012542.352    81948015.51849
       373.172  
  20457967.710   107507345.74649       761.055    20457968.068    83771957.99248
       593.031  
  22025753.772   115746115.29448      2762.054    22025753.713    90191780.21644
      2152.245  
  24225047.259   127303482.66947     -3660.772    24225049.503    99197530.01549
     -2852.559  
  23367635.190   122797759.23848     -3162.780    23367635.768    95686562.85245
     -2464.500  
  24161985.618   126972099.57247      3835.554    24161991.109    98939297.27548
      2988.738  
  24460162.556   128539023.48446      1926.379    24460166.249   100160285.22348
      1501.069  
  20858666.888   109613032.00949     -1608.824    20858666.359    85412749.04247
     -1253.632  
  22709556.415   121054712.75506      2828.586    22709561.823    94153688.57004
      2200.003  
  20549184.870   110039953.97108     -2638.069    20549187.294    85586636.54407
     -2051.832  
  23200341.207   123801480.72704      3582.823           0.000           0.0000 
         0.000  
  19427532.160   103851293.09209       819.883    19427536.487    80773246.13708
       637.688  
  19810808.851   105937296.76905     -1337.070    19810814.890    82395698.31408
     -1039.949  
  21622504.767   115706393.72508      3178.344    21622507.462    89993871.05007
      2472.051  
 20 10 01 05 53 15.0000000  0 14G15G18G20G29G 5G24G27G13R14R 4R 6R 5
                                R20R21
  20012088.512   105164233.11649       475.593    20012088.233    81946155.91649
       370.589  
  20457245.050   107503548.13949       757.917    20457245.488    83768998.83348
       590.585  
  22023126.459   115732308.32948      2760.574    22023126.087    90181021.52845
      2151.094  
  24228530.634   127321788.36447     -3661.538    24228533.061    99211794.22949
     -2853.144  
  23370644.910   122813575.54948     -3163.820    23370645.184    95698887.25245
     -2465.315  
  24158336.414   126952923.12246      3835.030    24158341.936    98924354.61948
      2988.339  
  24458331.222   128529399.63746      1923.203    24458334.745   100152786.11448
      1498.602  
  20860199.108   109621083.66449     -1611.918    20860198.516    85419023.06247
     -1256.043  
  22706904.644   121040577.70106      2825.667    22706909.965    94142694.67505
      2197.746  
  20551648.993   110053149.08108     -2639.930    20551651.529    85596899.37307
     -2053.284  
  23196984.742   123783569.23804      3581.655           0.000           0.0000 
         0.000  
  19426766.570   103847200.51109       816.983    19426770.785    80770063.01008
       635.429  
  19812061.051   105943993.12705     -1341.504    19812067.041    82400906.60508
     -1043.390  
  21619536.544   115690510.41308      3174.944    21619539.233    89981517.36407
      2469.401  
 20 10 01 05 53 20.0000000  0 14G15G18G20G29G 5G24G27G13R14R 4R 6R 5
                                R20R21
  20011637.185   105161861.35049       472.938    20011636.900    81944307.78449
       368.519  
  20456525.043   107499764.44749       755.437    20456525.565    83766050.49648
       588.648  
  22020499.920   115718505.58248      2760.133    22020499.536    90170266.14945
      2150.754  
  24232014.389   127340095.74847     -3661.508    24232016.817    99226059.71948
     -2853.129  
  23373655.125   122829394.24348     -3164.046    23373655.089    95711213.49545
     -2465.495  
  24154687.415   126933747.38147      3835.097    24154692.941    98909412.46848
      2988.382  
  24456502.307   128519788.87146      1920.659    24456505.760   100145297.19648
      1496.613  
  20861733.782   109629148.18049     -1614.168    20861733.076    85425307.10947
     -1257.793  
  22704255.478   121026455.87507      2823.140    22704260.655    94131711.02905
      2195.777  
  20554114.308   110066350.88608     -2640.999    20554117.023    85607167.44007
     -2054.112  
  23193628.623   123765660.90904      3581.730           0.000           0.0000 
         0.000  
  19426003.303   103843120.35009       814.801    19426007.417    80766889.55508
       633.734  
  19813317.356   105950710.87405     -1345.440    19813323.165    82406131.51708
     -1046.456  
  21616570.995   115674641.19608      3172.484    21616573.700    89969174.61807
      2467.483  
 20 10 01 05 53 25.0000000  0 14G15G18G20G29G 5G24G27G13R14R 4R 6R 5
                                R20R21
  20011189.157   105159506.82049       469.180    20011188.850    81942473.09349
       365.594  
  20455808.171   107495997.16749       751.766    20455808.715    83763114.95848
       585.792  
  22017874.644   115704709.57348      2758.281    22017874.242    90159516.03845
      2149.309  
  24235498.954   127358407.19547     -3662.750    24235501.314    99240328.30748
     -2854.101  
  23376666.313   122845217.82948     -3165.258    23376666.040    95723543.55545
     -2466.437  
  24151039.006   126914574.83147      3834.159    24151044.564    98894472.81648
      2987.652  
  24454676.366   128510193.61347      1917.543    24454679.806   100137820.37648
      1494.184  
  20863271.371   109637228.01249     -1617.520    20863270.556    85431603.08247
     -1260.409  
  22701609.272   121012349.91807      2819.621    22701614.421    94120739.69905
      2193.063  
  20556581.432   110079562.03508     -2643.238    20556584.119    85617442.77707
     -2055.851  
  23190273.876   123747758.42504      3580.140           0.000           0.0000 
         0.000  
  19425242.852   103839055.20909       811.527    19425246.865    80763727.77608
       631.184  
  19814578.049   105957452.36605     -1350.069    19814583.810    82411374.88708
     -1050.059  
  21613608.583   115658788.63508      3168.843    21613611.332    89956844.85607
      2464.655  
 20 10 01 05 53 30.0000000  0 14G15G18G20G29G 5G24G27G13R14R 4R 6R 5
                                R20R21
  20010744.237   105157168.77849       465.737    20010743.890    81940651.24149
       362.909  
  20455094.237   107492245.60249       748.516    20455094.822    83760191.65548
       583.253  
  22015250.491   115690919.61648      2757.159    22015250.069    90148770.61346
      2148.434  
  24238984.121   127376722.02647     -3663.797    24238986.500    99254599.62349
     -2854.910  
  23379678.269   122861045.54948     -3166.219    23379677.843    95735876.82545
     -2467.188  
  24147391.045   126895404.66247      3833.714    24147396.621    98879535.04048
      2987.305  
  24452853.232   128500613.19947      1914.266    24452856.638   100130355.12149
      1491.636  
  20864811.741   109645322.55749     -1620.683    20864810.819    85437910.51647
     -1262.875  
  22698965.906   120998258.91207      2816.554    22698971.007    94109779.99705
      2190.644  
  20559050.127   110092781.84908     -2645.042    20559052.884    85627724.85008
     -2057.257  
  23186920.017   123729860.68904      3578.644           0.000           0.0000 
         0.000  
  19424485.095   103835004.41009       808.362    19424488.998    80760577.16108
       628.726  
  19815843.216   105964217.03106     -1355.362    19815848.854    82416636.30408
     -1054.171  
  21610649.104   115642951.92908      3165.530    21610651.896    89944527.45507
      2462.082  
 20 10 01 05 53 35.0000000  0 14G15G18G20G29G 5G24G27G13R14R 4R 6R 5
                                R20R21
  20010303.211   105154851.23649       462.276    20010302.844    81938845.35849
       360.211  
  20454384.059   107488513.71749       745.188    20454384.660    83757283.69148
       580.663  
  22012628.227   115677139.71348      2755.727    22012627.695    90138033.02545
      2147.316  
  24242470.770   127395044.20947     -3664.358    24242473.176    99268876.63649
     -2855.347  
  23382691.779   122876881.43248     -3167.273    23382691.171    95748216.49045
     -2468.003  
  24143744.357   126876241.00347      3832.461    24143749.888    98864602.30848
      2986.332  
  24451033.676   128491051.64646      1911.081    24451037.101   100122904.54549
      1489.147  
  20866355.633   109653435.70049     -1623.620    20866354.639    85444232.44847
     -1265.159  
  22696326.044   120984186.99706      2813.355    22696331.121    94098835.20105
      2188.167  
  20561521.152   110106014.29508     -2647.027    20561523.998    85638016.76407
     -2058.801  
  23183567.893   123711972.01704      3578.007           0.000           0.0000 
         0.000  
  19423730.732   103830971.84309       805.542    19423734.586    80757440.72408
       626.535  
  19817113.410   105971008.76806     -1360.219    19817119.012    82421918.77108
     -1057.948  
  21607693.303   115627135.24708      3161.901    21607696.168    89932225.57807
      2459.254  
 20 10 01 05 53 40.0000000  0 14G15G18G20G29G 5G24G27G13R14R 4R 6R 5
                                R20R21
  20009864.525   105152545.92449       460.039    20009864.135    81937049.01149
       358.469  
  20453676.064   107484793.27349       743.120    20453676.669    83754384.64848
       579.050  
  22010006.365   115663361.61148      2755.491    22010005.550    90127296.87345
      2147.141  
  24245957.205   127413365.42547     -3663.917    24245959.606    99283152.89049
     -2855.004  
  23385705.258   122892717.18248     -3167.027    23385704.490    95760556.02745
     -2467.813  
  24140097.312   126857075.59247      3833.313    24140102.641    98849668.25348
      2987.000  
  24449216.133   128481500.67846      1909.523    24449219.582   100115462.23449
      1487.938  
  20867901.443   109661559.11449     -1625.628    20867900.452    85450562.38947
     -1266.723  
  22693688.053   120970125.80006      2811.574    22693693.370    94087898.70006
      2186.780  
  20563993.024   110119250.89908     -2647.616    20563995.831    85648311.89307
     -2059.262  
  23180215.479   123694083.77104      3578.004           0.000           0.0000 
         0.000  
  19422978.265   103826949.29009       803.637    19422982.063    80754312.07608
       625.051  
  19818387.109   105977819.24505     -1364.093    19818392.643    82427215.80808
     -1060.828  
  21604739.635   115611330.13608      3159.988    21604742.723    89919932.70107
      2457.766  
 20 10 01 05 53 45.0000000  0 14G15G18G20G29G 5G24G27G13R14R 4R 6R 5
                                R20R21
  20009428.234   105150253.10849       456.898    20009427.812    81935262.40649
       356.022  
  20452970.327   107481084.53749       740.183    20452970.895    83751494.71548
       576.762  
  22007384.889   115649585.56748      2754.594    22007383.746    90116562.30645
      2146.441  
  24249443.464   127431685.90447     -3664.496    24249445.854    99297428.58949
     -2855.457  
  23388718.814   122908553.11848     -3167.531    23388717.880    95772895.70245
     -2468.211  
  24136449.962   126837908.69847      3832.647    24136455.054    98834733.02548
      2986.480  
  24447400.648   128471960.58246      1906.641    24447404.187   100108028.43348
      1485.699  
  20869449.245   109669693.11849     -1628.203    20869448.300    85456900.56747
     -1268.733  
  22691052.160   120956075.69706      2808.609    22691057.810    94076970.87305
      2184.476  
  20566465.723   110132492.03108     -2649.371    20566468.556    85658610.54707
     -2060.621  
  23176863.679   123676196.45303      3577.440           0.000           0.0000 
         0.000  
  19422227.696   103822936.91209       801.026    19422231.466    80751191.34308
       623.019  
  19819664.267   105984648.69205     -1368.069    19819669.895    82432527.59508
     -1064.059  
  21601788.278   115595536.89008      3157.098    21601791.564    89907649.09407
      2455.523  
 20 10 01 05 53 50.0000000  0 13G15G18G20G29G 5G24G27G13R14R 4R 5R20
                                R21
  20008995.166   105147977.16449       453.785    20008994.674    81933488.93349
       353.593  
  20452267.632   107477391.91049       737.219    20452268.189    83748617.34648
       574.456  
  22004764.620   115635815.93048      2753.668    22004763.273    90105832.71945
      2145.710  
  24252930.448   127450010.12647     -3665.063    24252932.881    99311707.19549
     -2855.898  
  23391733.221   122924393.52648     -3168.237    23391732.125    95785238.87545
     -2468.762  
  24132803.202   126818744.75247      3832.422    24132808.179    98819800.08748
      2986.305  
  24445588.259   128462435.85146      1903.163    24445591.718   100100606.51747
      1482.973  
  20870999.868   109677842.03949     -1630.917    20870998.955    85463250.39547
     -1270.844  
  22688419.164   120942041.03406      2805.695    22688425.118    94066054.99905
      2182.202  
  20568940.099   110145742.10708     -2650.777    20568942.858    85668916.17707
     -2061.714  
  19421479.842   103818939.04909       798.335    19421483.594    80748081.90908
       620.929  
  19820945.779   105991501.54405     -1372.754    19820951.511    82437857.59308
     -1067.702  
  21598839.948   115579760.00007      3153.941    21598843.352    89895378.18907
      2453.065  
 20 10 01 05 53 55.0000000  0 13G15G18G20G29G 5G24G27G13R14R 4R 5R20
                                R21
  20008565.002   105145716.54149       450.555    20008564.487    81931727.42049
       351.081  
  20451567.725   107473713.78449       734.211    20451568.234    83745751.27348
       572.108  
  22002145.274   115622051.17448      2752.496    22002143.848    90095106.92445
      2144.797  
  24256417.929   127468336.43447     -3665.272    24256420.268    99325987.36548
     -2856.070  
  23394748.185   122940236.83548     -3168.883    23394747.051    95797584.33745
     -2469.258  
  24129156.714   126799582.20046      3832.237    24129161.575    98804868.22947
      2986.159  
  24443778.271   128452924.54946      1901.104    24443781.815   100093195.17449
      1481.391  
  20872553.036   109686004.36649     -1633.737    20872552.176    85469610.63847
     -1273.047  
  22685788.704   120928020.26006      2802.496    22685794.986    94055149.95805
      2179.589  
  20571415.864   110158999.40508     -2652.238    20571418.463    85679227.39307
     -2062.855  
  19420734.439   103814954.34509       795.698    19420738.164    80744982.68808
       618.874  
  19822231.298   105998376.19705     -1376.960    19822237.220    82443204.54808
     -1070.969  
  21595894.384   115563997.87808      3150.832    21595897.889    89883118.75507
      2450.648  
 20 10 01 05 54  0.0000000  0 13G15G18G20G29G 5G24G27G13R14R 4R 5R20
                                R21
  20008138.037   105143472.91849       446.948    20008137.528    81929979.15849
       348.273  
  20450870.921   107470051.89949       730.758    20450871.318    83742897.86148
       569.422  
  21999527.248   115608293.04048      2750.866    21999525.725    90084386.30345
      2143.526  
  24259906.100   127486666.45747     -3665.976    24259908.373    99340270.51049
     -2856.608  
  23397764.039   122956084.85048     -3170.039    23397762.949    95809933.43246
     -2470.160  
  24125510.821   126780422.71743      3831.961    24125515.569    98789938.88347
      2985.965  
  24441971.294   128443428.78847      1897.776    24441974.971   100085795.85549
      1478.784  
  20874109.097   109694181.74249     -1637.124    20874108.259    85475982.60147
     -1275.688  
  22683161.217   120914015.21606      2799.351    22683167.807    94044257.16206
      2177.272  
  20573893.333   110172265.79008     -2654.121    20573895.767    85689545.67907
     -2064.320  
  19419991.800   103810984.36009       792.472    19419995.473    80741894.92108
       616.363  
  19823521.333   106005274.40405     -1382.194    19823527.339    82448569.81908
     -1075.043  
  21592951.842   115548252.30608      3147.589    21592955.377    89870872.22607
      2448.124  
 20 10 01 05 54  5.0000000  0 13G15G18G20G29G 5G24G27G13R14R 4R 5R20
                                R21
  20007714.224   105141245.80049       443.703    20007713.696    81928243.73249
       345.738  
  20450177.101   107466405.78549       727.577    20450177.437    83740056.72248
       566.940  
  21996910.395   115594541.01348      2749.769    21996908.804    90073670.48345
      2142.680  
  24263394.803   127504999.77546     -3666.859    24263397.178    99354556.24148
     -2857.293  
  23400780.620   122971936.96448     -3170.835    23400779.622    95822285.70446
     -2470.785  
  24121865.312   126761265.68945      3831.093    24121870.392    98775011.30448
      2985.270  
  24440167.191   128433947.94547      1894.516    24440170.980   100078408.21949
      1476.246  
  20875667.967   109702373.65949     -1639.776    20875667.061    85482365.94947
     -1277.745  
  22680536.627   120900025.36006      2796.698    22680543.349    94033376.17605
      2175.078  
  20576372.338   110185540.78108     -2655.773    20576374.629    85699870.68107
     -2065.602  
  19419251.845   103807028.65609       789.676    19419255.516    80738818.26608
       614.190  
  19824815.609   106012195.64005     -1386.784    19824821.715    82453952.98008
     -1078.616  
  21590012.350   115532522.86208      3144.433    21590015.912    89858638.19307
      2445.667  
 20 10 01 05 54 10.0000000  0 13G15G18G20G29G 5G24G27G13R14R 4R 5R20
                                R21
  20007293.191   105139033.35049       440.565    20007292.648    81926519.73549
       343.292  
  20449485.916   107462773.58249       724.684    20449486.207    83737226.43948
       564.687  
  21994294.320   115580793.19548      2748.851    21994292.710    90062957.88845
      2141.956  
  24266883.849   127523334.55747     -3667.542    24266886.396    99368843.03548
     -2857.831  
  23403797.625   122987791.36848     -3171.445    23403796.779    95834639.77446
     -2471.261  
  24118220.089   126742109.57145      3831.082    24118225.133    98760084.42047
      2985.253  
  24438365.547   128424480.21347      1891.809    24438369.436   100071030.73248
      1474.129  
  20877229.257   109710578.29349     -1642.690    20877228.260    85488759.17347
     -1280.019  
  22677914.581   120886048.85207      2793.254    22677921.247    94022505.58105
      2172.534  
  20578852.556   110198822.39308     -2657.590    20578854.771    85710200.82107
     -2067.020  
  19418514.182   103803085.42709       786.913    19418517.928    80735751.30908
       612.043  
  19826113.888   106019138.08605     -1391.151    19826120.016    82459352.65508
     -1082.011  
  21587075.517   115516807.52508      3141.168    21587079.164    89846415.12907
      2443.125  
 20 10 01 05 54 15.0000000  0 14G15G18G20G29G 5G30G24G27G13R14R 4R 5
                                R20R21
  20006875.594   105136838.85949       437.218    20006875.023    81924809.75449
       340.690  
  20448798.031   107459158.63149       721.272    20448798.238    83734409.59948
       562.030  
  21991679.713   115567053.03048      2747.261    21991678.036    90052251.23645
      2140.719  
  24270373.839   127541674.10847     -3668.273    24270376.390    99383133.57149
     -2858.406  
  23406815.719   123003651.40548     -3172.469    23406814.901    95846998.29045
     -2472.051  
  24379903.430   128117257.83754     -1952.313    24379909.329    99831644.42855
     -1521.297  
  24114575.515   126722957.51645      3829.585    24114580.598    98745160.75347
      2984.093  
  24436567.001   128415028.88247      1888.570    24436570.997   100063666.04748
      1471.609  
  20878793.566   109718798.98349     -1645.761    20878792.572    85495164.89147
     -1282.414  
  22675295.750   120872089.00806      2790.250    22675302.459    94011647.88906
      2170.188  
  20581334.646   110212113.99908     -2659.265    20581336.794    85720538.76407
     -2068.315  
  19417779.475   103799157.93509       783.694    19417783.271    80732696.59708
       609.539  
  19827416.726   106026105.00805     -1396.022    19827422.876    82464771.38608
     -1085.796  
  21584141.977   115501109.84108      3137.714    21584145.832    89834205.83907
      2440.444  
 20 10 01 05 54 20.0000000  0 14G15G18G20G29G 5G30G24G27G13R14R 4R 5
                                R20R21
  20006461.078   105134660.75149       434.011    20006460.502    81923112.51649
       338.188  
  20448113.089   107455559.29649       718.202    20448113.300    83731604.92548
       559.640  
  21989066.233   115553318.78648      2746.422    21989064.543    90041549.23145
      2140.069  
  24273864.445   127560016.68247     -3668.625    24273866.917    99397426.47648
     -2858.675  
  23409834.587   123019515.38248     -3172.969    23409833.850    95859359.78746
     -2472.444  
  24381760.860   128127024.16743     -1955.019    24381763.989    99839254.57744
     -1523.394  
  24110931.596   126703807.87244      3830.477    24110936.787    98730238.98646
      2984.785  
  24434771.388   128405592.40547      1885.820    24434775.285   100056312.97148
      1469.469  
  20880360.590   109727034.02949     -1648.495    20880359.644    85501581.82447
     -1284.543  
  22672679.759   120858144.23907      2787.593    22672686.539    94000802.01706
      2168.136  
  20583818.321   110225413.96608     -2660.898    20583820.397    85730883.16607
     -2069.590  
  19417047.376   103795244.50709       781.229    19417051.252    80729652.82608
       607.620  
  19828723.815   106033094.88306     -1400.422    19828730.074    82470207.93808
     -1089.222  
  21581211.382   115485428.04208      3134.953    21581215.481    89822008.89407
      2438.297  
 20 10 01 05 54 25.0000000  0 13G15G18G20G29G 5G30G27G13R14R 4R 5R20
                                R21
  20006049.115   105132496.03049       431.750    20006048.526    81921425.73049
       336.430  
  20447430.542   107451972.61349       716.105    20447430.762    83728810.10848
       558.003  
  21986453.293   115539587.56948      2745.854    21986451.688    90030849.59045
      2139.628  
  24277355.025   127578359.30447     -3668.659    24277357.417    99411719.39948
     -2858.698  
  23412853.593   123035380.36448     -3173.327    23412853.001    95871722.14346
     -2472.723  
  24383621.185   128136800.90144     -1956.520    24383620.800    99846872.93844
     -1524.542  
  24432978.029   128396167.71047      1883.729    24432981.792   100048969.07249
      1467.843  
  20881929.803   109735280.51849     -1650.460    20881928.852    85508007.65347
     -1286.078  
  22670066.097   120844211.60606      2785.331    22670072.773    93989965.52106
      2166.370  
  20586302.951   110238719.23408     -2661.695    20586305.050    85741231.71807
     -2070.207  
  19416317.344   103791342.19409       779.449    19416321.341    80726617.69308
       606.234  
  19830034.732   106040104.51005     -1404.280    19830040.958    82475659.88308
     -1092.218  
  21578283.247   115469759.22208      3132.602    21578287.494    89809822.04407
      2436.468  
 20 10 01 05 54 30.0000000  0 13G15G18G20G29G 5G30G27G13R14R 4R 5R20
                                R21
  20005640.326   105130347.95549       427.863    20005639.710    81919751.91449
       333.398  
  20446751.013   107448401.88249       712.313    20446751.290    83726027.72348
       555.046  
  21983841.540   115525862.62148      2744.250    21983839.999    90020154.84745
      2138.374  
  24280846.275   127596705.34847     -3669.858    24280848.555    99426014.96348
     -2859.641  
  23415873.381   123051249.58148     -3174.397    23415872.847    95884087.72146
     -2473.566  
  24385484.591   128146591.19444     -1960.401    24385488.151    99854501.77145
     -1527.573  
  24431187.504   128386758.12347      1880.629    24431191.207   100041636.95849
      1465.429  
  20883501.818   109743541.66949     -1653.875    20883500.889    85514444.91547
     -1288.738  
  22667455.300   120830294.37307      2781.527    22667462.023    93979141.02306
      2163.410  
  20588789.195   110252033.17708     -2663.894    20588791.415    85751586.99607
     -2071.921  
  19415590.045   103787454.36109       775.918    19415594.100    80723593.81608
       603.487  
  19831349.891   106047137.25305     -1408.637    19831356.146    82481129.79408
     -1095.605  
  21575358.136   115454106.64008      3128.816    21575362.494    89797647.80807
      2433.523  
 20 10 01 05 54 35.0000000  0 13G15G18G20G29G 5G30G27G13R14R 4R 5R20
                                R21
  20005234.820   105128217.16149       424.305    20005234.196    81918091.56149
       330.629  
  20446074.662   107444847.69849       709.047    20446074.983    83723258.23248
       552.500  
  21981231.079   115512144.61948      2742.746    21981229.604    90009465.49645
      2137.202  
  24284338.211   127615055.37947     -3670.608    24284340.412    99440313.62849
     -2860.226  
  23418894.087   123067123.68447     -3175.335    23418893.585    95896457.16746
     -2474.293  
  24387350.316   128156395.55144     -1962.085    24387354.979    99862141.46544
     -1528.905  
  24429399.981   128377364.31148      1877.128    24429403.682   100034317.12548
      1462.698  
  20885076.747   109751818.09949     -1656.979    20885075.876    85520894.06647
     -1291.155  
  22664847.558   120816393.32906      2778.355    22664854.314    93968329.10406
      2160.941  
  20591277.154   110265356.42808     -2665.831    20591279.525    85761949.51207
     -2073.430  
  19414865.540   103783581.56409       772.902    19414869.629    80720581.64508
       601.141  
  19832669.439   106054193.81505     -1413.827    19832675.783    82486618.23908
     -1099.645  
  21572436.270   115438471.14408      3125.398    21572440.619    89785486.86007
      2430.859  
 20 10 01 05 54 40.0000000  0 13G15G18G20G29G 5G30G27G13R14R 4R 5R20
                                R21
  20004832.176   105126101.22049       421.597    20004831.550    81916442.79549
       328.519  
  20445400.998   107441307.63049       706.605    20445401.351    83720499.73048
       550.598  
  21978621.497   115498431.05148      2742.285    21978620.080    89998779.59146
      2136.840  
  24287830.382   127633406.61347     -3671.098    24287832.590    99454613.44645
     -2860.570  
  23421915.198   123083000.16848     -3175.531    23421914.793    95908828.41846
     -2474.448  
  24389218.266   128166211.76044     -1964.464    24389223.429    99869790.48344
     -1530.750  
  24427615.011   128367983.82447      1874.870    24427618.589   100027007.65448
      1460.933  
  20886654.124   109760107.36549     -1659.203    20886653.260    85527353.22247
     -1292.890  
  22662242.352   120802505.86307      2776.168    22662249.220    93957527.71506
      2159.233  
  20593766.397   110278686.30608     -2666.562    20593768.872    85772317.17908
     -2073.995  
  19414143.393   103779721.30209       770.730    19414147.508    80717579.20908
       599.452  
  19833993.085   106061271.81805     -1417.504    19833999.396    82492123.34408
     -1102.507  
  21569517.044   115422850.02607      3122.835    21569521.283    89773337.10707
      2428.867  
 20 10 01 05 54 45.0000000  0 12G15G18G20G 5G30G27G13R14R 4R 5R20R21
  20004432.286   105123999.94449       419.315    20004431.689    81914805.42949
       326.737  
  20444730.021   107437781.50049       704.444    20444730.347    83717752.11248
       548.918  
  21976012.744   115484721.86748      2741.855    21976011.391    89988097.13145
      2136.512  
  23424936.627   123098878.85346     -3174.742    23424936.467    95921201.47844
     -2473.815  
  24391088.269   128176039.37944     -1966.359    24391092.068    99877448.34344
     -1532.222  
  24425832.503   128358616.43547      1872.476    24425836.028   100019708.36349
      1459.070  
  20888233.925   109768409.24549     -1660.898    20888233.107    85533822.24146
     -1294.206  
  22659639.674   120788631.81105      2774.082    22659646.660    93946736.83205
      2157.624  
  20596256.848   110292022.80508     -2667.116    20596259.446    85782690.01907
     -2074.426  
  19413423.586   103775873.43109       768.996    19413427.681    80714586.47107
       598.116  
  19835320.818   106068370.83405     -1421.527    19835326.999    82497644.82807
     -1105.633  
  21566600.477   115407243.16807      3120.495    21566604.764    89761198.45107
      2427.050  
 20 10 01 05 54 50.0000000  0 12G15G18G20G 5G24G27G13R14R 4R 5R20R21
  20004034.848   105121911.38949       415.027    20004034.245    81913177.99249
       323.395  
  20444061.269   107434267.43149       700.063    20444061.616    83715013.86348
       545.503  
  21973404.330   115471014.93247      2739.550    21973403.142    89977416.44546
      2134.726  
  23427958.096   123114757.84446     -3176.960    23427958.220    95933574.77145
     -2475.551  
  24089073.994   126588938.89855      3826.582    24089079.715    98640747.49355
      2981.753  
  24424052.166   128349260.29547      1868.687    24424055.588   100012417.85249
      1456.113  
  20889815.757   109776721.86249     -1665.097    20889814.932    85540299.61446
     -1297.479  
  22657039.070   120774769.22406      2769.652    22657046.201    93935954.81706
      2154.172  
  20598748.172   110305363.92108     -2670.116    20598750.878    85793066.43407
     -2076.762  
  19412705.711   103772036.10308       764.843    19412709.889    80711601.88208
       594.878  
  19836651.815   106075488.99305     -1426.800    19836658.130    82503181.13908
     -1109.742  
  21563686.203   115391648.76908      3115.926    21563690.544    89749069.46007
      2423.492  
 20 10 01 05 54 55.0000000  0 14G15G18G20G29G 5G30G24G27G13R14R 4R 5
                                R20R21
  20003642.012   105119846.99249       411.050    20003641.415    81911569.35949
       320.296  
  20443397.002   107430776.78348       696.175    20443397.395    83712293.89748
       542.477  
  21970798.599   115457321.84848      2738.233    21970797.460    89966746.48545
      2133.676  
  24298310.613   127688475.56555     -3673.000    24298312.235    99497530.34458
     -2862.078  
  23430981.864   123130648.72746     -3178.559    23430982.318    95945957.19645
     -2476.808  
  24394834.945   128195721.94654     -1973.499    24394839.984    99892791.55956
     -1537.797  
  24085432.233   126569806.28445      3826.097    24085438.161    98625838.97246
      2981.374  
  24422276.056   128339926.80247      1865.383    24422279.422   100005145.03349
      1453.546  
  20891401.783   109785056.57649     -1668.585    20891401.014    85546794.19846
     -1300.194  
  22654442.840   120760929.82604      2765.910    22654450.012    93925190.84605
      2151.262  
  20601242.575   110318721.27208     -2672.555    20601245.418    85803455.47907
     -2078.655  
  19411991.967   103768220.69908       761.292    19411996.212    80708634.33508
       592.113  
  19837988.551   106082637.84005     -1432.897    19837995.037    82508741.34808
     -1114.480  
  21560776.444   115376078.31308      3112.562    21560780.714    89736959.11306
      2420.883  
 20 10 01 05 55  0.0000000  0 13G15G18G20G29G 5G24G27G13R14R 4R 5R20
                                R21
  20003252.762   105117801.46849       405.894    20003252.167    81909975.45349
       316.277  
  20442736.218   107427304.40048       691.340    20442736.676    83709588.14148
       538.703  
  21968194.514   115443637.38148      2734.641    21968193.411    89956083.27945
      2130.890  
  24301805.559   127706844.03845     -3675.469    24301807.477    99511843.43048
     -2864.004  
  23434006.899   123146546.05046     -3181.409    23434007.601    95958344.72645
     -2479.022  
  24081792.526   126550678.96244      3823.034    24081797.480    98610934.58245
      2978.984  
  24420503.263   128330610.80547      1860.241    24420506.609    99997885.78248
      1449.535  
  20892991.035   109793408.15049     -1673.323    20892990.296    85553301.91746
     -1303.890  
  22651849.584   120747108.21705      2761.168    22651857.159    93914440.64306
      2147.565  
  20603738.987   110332089.54108     -2676.266    20603741.979    85813853.03807
     -2081.539  
  19411281.351   103764422.11308       756.612    19411285.670    80705679.88908
       588.476  
  19839330.195   106089812.21405     -1439.398    19839336.681    82514321.41608
     -1119.535  
  21557870.208   115360526.64508      3107.188    21557874.491    89724863.37407
      2416.699  
 20 10 01 05 55  5.0000000  0 13G15G18G20G29G 5G24G27G13R14R 4R 5R20
                                R21
  20002867.085   105115774.62949       405.945    20002866.471    81908396.09149
       316.315  
  20442078.859   107423850.04749       691.565    20442079.353    83706896.42148
       538.878  
  21965592.021   115429961.28148      2737.027    21965590.909    89945426.59545
      2132.750  
  24305301.787   127725217.59246     -3672.772    24305303.225    99526160.43647
     -2861.910  
  23437033.197   123162449.66747     -3178.706    23437034.028    95970737.12647
     -2476.922  
  24078153.458   126531556.31243      3826.848    24078157.900    98596033.86148
      2981.969  
  24418733.824   128321312.00047      1860.667    24418737.066    99990640.02249
      1449.878  
  20894583.467   109801776.40649     -1672.848    20894582.765    85559822.62347
     -1303.523  
  22649259.912   120733304.27605      2762.078    22649267.563    93903704.19606
      2148.269  
  20606237.384   110345468.43708     -2674.156    20606240.425    85824258.82207
     -2079.906  
  19410573.823   103760639.93609       757.354    19410578.135    80702738.16008
       589.047  
  19840676.601   106097011.80105     -1439.995    19840683.045    82519921.08508
     -1119.781  
  21554967.391   115344993.45907      3107.116    21554971.662    89712782.04007
      2416.651  
 20 10 01 05 55 10.0000000  0 12G15G18G20G29G 5G27G13R14R 4R 5R20R21
  20002480.969   105113745.54349       404.980    20002480.371    81906814.98349
       315.565  
  20441420.945   107420392.71749       690.707    20441421.491    83704202.39748
       538.211  
  21962987.123   115416272.54848      2738.184    21962986.081    89934760.03746
      2133.645  
  24308794.566   127743575.58046     -3671.042    24308797.063    99540465.39947
     -2860.551  
  23440056.771   123178338.56247     -3177.304    23440057.690    95983118.07846
     -2475.824  
  24416963.669   128312009.45747      1859.901    24416966.890    99983391.32048
      1449.281  
  20896175.033   109810140.33149     -1673.406    20896174.419    85566339.96247
     -1303.957  
  22646669.695   120719496.74406      2760.604    22646677.290    93892965.06907
      2147.137  
  20608733.781   110358836.62008     -2673.566    20608736.871    85834656.30707
     -2079.444  
  19409865.392   103756852.93509       756.847    19409869.735    80699792.71408
       588.656  
  19842023.714   106104215.13805     -1442.323    19842030.068    82525523.68008
     -1121.808  
  21552064.110   115329457.47708      3106.473    21552068.468    89700698.50107
      2416.144  
 20 10 01 05 55 15.0000000  0 12G15G18G20G29G 5G27G13R14R 4R 5R20R21
  20002098.362   105111734.90249       399.410    20002097.767    81905248.25449
       311.227  
  20440766.447   107416953.18349       685.229    20440766.994    83701522.24848
       533.944  
  21960383.841   115402592.05148      2734.516    21960382.819    89924099.89946
      2130.784  
  24312288.961   127761938.74847     -3674.152    24312291.223    99554774.33848
     -2862.987  
  23443081.484   123194233.47347     -3180.422    23443082.455    95995503.70547
     -2478.253  
  24415196.802   128302723.91647      1854.909    24415199.935    99976155.84249
      1445.382  
  20897769.689   109818520.61749     -1678.499    20897769.172    85572870.05347
     -1307.926  
  22644082.774   120705706.59106      2755.065    22644090.208    93882239.35606
      2142.823  
  20611232.130   110372215.13808     -2677.651    20611235.252    85845061.82007
     -2082.617  
  19409159.973   103753082.16209       751.628    19409164.336    80696859.89608
       584.597  
  19843375.323   106111443.33105     -1448.887    19843381.733    82531145.61608
     -1126.909  
  21549164.269   115313939.74808      3100.840    21549168.675    89688629.14807
      2411.761  
 20 10 01 05 55 20.0000000  0 13G15G18G20G29G 5G24G27G13R14R 4R 5R20
                                R21
  20001720.345   105109748.31249       395.464    20001719.724    81903700.26149
       308.156  
  20440116.402   107413537.05149       681.520    20440116.890    83698860.33948
       531.055  
  21957783.137   115388925.16648      2732.573    21957782.104    89913450.37445
      2129.276  
  24315785.580   127780312.45047     -3674.929    24315787.431    99569091.44248
     -2863.594  
  23446108.386   123210140.04647     -3181.937    23446109.487    96007898.45546
     -2479.438  
  24067230.479   126474149.11056      3824.343    24067234.009    98551300.32458
      2980.008  
  24413434.160   128293461.01247      1850.812    24413437.319    99968937.97149
      1442.191  
  20899368.533   109826922.91249     -1681.906    20899368.075    85579417.29647
     -1310.582  
  22641500.296   120691939.62507      2751.242    22641507.479    93871531.75507
      2139.858  
  20613733.502   110385609.77508     -2679.758    20613736.652    85855479.87307
     -2084.258  
  19408458.644   103749333.28209       748.121    19408462.993    80693944.10408
       581.870  
  19844732.849   106118702.29006     -1454.063    19844739.103    82536791.46408
     -1130.941  
  21546269.002   115298446.08908      3097.269    21546273.350    89676578.51607
      2408.983  
 20 10 01 05 55 25.0000000  0 13G15G18G20G29G 5G24G27G13R14R 4R 5R20
                                R21
  20001345.268   105107777.20849       392.574    20001344.644    81902164.33749
       305.897  
  20439469.184   107410135.73749       678.620    20439469.619    83696209.96548
       528.797  
  21955183.468   115375263.50248      2731.882    21955182.342    89902804.93945
      2128.742  
  24319282.397   127798688.15947     -3675.612    24319283.601    99583410.17448
     -2864.116  
  23449135.911   123226049.64047     -3182.344    23449137.001    96020295.52847
     -2479.754  
  24063591.390   126455027.69446      3823.729    24063595.164    98536400.55048
      2979.543  
  24411674.187   128284212.13947      1848.194    24411677.336    99961731.04549
      1440.147  
  20900969.913   109835338.59849     -1684.605    20900969.557    85585974.97147
     -1312.683  
  22638920.549   120678187.03006      2749.202    22638927.426    93860835.27906
      2138.148  
  20616236.228   110399011.85208     -2681.328    20616239.432    85865903.70707
     -2085.476  
  19407759.806   103745597.68709       745.651    19407764.112    80691038.63808
       579.953  
  19846094.523   106125983.08605     -1458.413    19846100.571    82542454.29508
     -1134.323  
  21543376.497   115282967.68208      3094.215    21543380.910    89664539.76507
      2406.612  
 20 10 01 05 55 30.0000000  0 13G15G18G20G29G 5G24G27G13R14R 4R 5R20
                                R21
  20000973.180   105105821.81249       389.519    20000972.585    81900640.66349
       303.522  
  20438824.815   107406749.46549       675.922    20438825.133    83693571.30947
       526.691  
  21952584.816   115361607.30648      2730.801    21952583.720    89892163.73645
      2127.894  
  24322779.679   127817066.12548     -3675.741    24322780.420    99597730.68748
     -2864.219  
  23452164.120   123241962.48547     -3182.973    23452165.172    96032695.16246
     -2480.238  
  24059952.933   126435908.22047      3823.737    24059957.235    98521502.24448
      2979.535  
  24409917.006   128274977.52446      1845.507    24409919.963    99954535.17749
      1438.043  
  20902573.940   109843767.94148     -1687.215    20902573.535    85592543.30645
     -1314.710  
  22636343.548   120664449.25704      2746.046    22636350.186    93850150.30705
      2135.684  
  20618740.459   110412421.55406     -2682.409    20618743.565    85876333.55305
     -2086.313  
  19407063.481   103741875.52408       742.973    19407067.771    80688143.63707
       577.867  
  19847460.218   106133285.97405     -1462.413    19847466.250    82548134.32808
     -1137.434  
  21540486.949   115267504.84407      3091.191    21540491.423    89652513.11905
      2404.261  
 20 10 01 05 55 35.0000000  0 12G15G18G20G29G24G27G13R14R 4R 5R20R21
  20000604.124   105103882.28649       385.632    20000603.519    81899129.33949
       300.488  
  20438183.363   107403378.48849       671.866    20438183.592    83690944.55848
       523.530  
  21949987.165   115347956.64848      2728.762    21949986.128    89881526.84446
      2126.309  
  24326277.319   127835446.41347     -3677.254    24326278.273    99612052.96648
     -2865.401  
  24056314.989   126416791.01046      3822.253    24056319.560    98506605.73048
      2978.378  
  24408162.519   128265757.48147      1841.762    24408165.441    99947350.82549
      1435.151  
  20904180.565   109852210.93649     -1690.780    20904180.157    85599122.24747
     -1317.495  
  22633769.268   120650726.33306      2742.105    22633775.530    93839476.95906
      2132.758  
  20621246.021   110425838.78808     -2685.069    20621249.324    85886769.13507
     -2088.394  
  19406369.676   103738166.98809       739.573    19406373.985    80685259.20208
       575.219  
  19848830.077   106140611.28905     -1467.938    19848836.069    82553831.80108
     -1141.729  
  21537600.306   115252057.83608      3087.098    21537604.726    89640498.80407
      2401.069  
 20 10 01 05 55 40.0000000  0 13G15G18G20G29G 5G24G27G13R14R 4R 5R20
                                R21
  20000238.725   105101962.00649       383.379    20000238.084    81897633.00449
       298.734  
  20437545.455   107400026.13149       669.594    20437545.592    83688332.36448
       521.765  
  21947391.194   115334315.04148      2728.457    21947390.273    89870897.06145
      2126.074  
  24329776.000   127853832.57547     -3677.016    24329777.193    99626379.83748
     -2865.210  
  23458222.972   123273792.84457     -3182.824    23458223.969    96057505.01656
     -2480.120  
  24052678.200   126397679.49345      3823.604    24052682.478    98491713.67648
      2979.438  
  24406411.445   128256555.24346      1839.804    24406414.232    99940180.26449
      1433.617  
  20905790.498   109860671.25148     -1692.434    20905790.131    85605714.69546
     -1318.784  
         0.000           0.0000          0.000    22631204.605    93828820.88914
      2130.438  
  20623753.790   110439267.36807     -2685.507    20623756.965    85897213.53107
     -2088.733  
  19405679.085   103734475.57108       737.262    19405683.394    80682388.11008
       573.426  
  19850204.769   106147962.38305     -1471.754    19850210.738    82559549.31508
     -1144.699  
  21534717.267   115236630.07908      3084.539    21534721.673    89628499.43607
      2399.086  
 20 10 01 05 55 45.0000000  0 13G15G18G20G29G 5G24G27G13R14R 4R 5R20
                                R21
  19999875.553   105100053.45949       380.418    19999874.872    81896145.83949
       296.430  
  20436909.640   107396684.87249       666.973    20436909.692    83685728.77348
       519.714  
  21944795.545   115320674.87948      2727.699    21944794.622    89860268.36845
      2125.477  
  24333274.494   127872216.93748     -3676.949    24333275.680    99640705.30648
     -2865.156  
  23461252.946   123289715.46158     -3184.343    23461253.805    96069912.25356
     -2481.308  
  24049040.907   126378566.17146      3822.554    24049044.939    98476820.18447
      2978.609  
  24404662.252   128247363.26647      1837.473    24404665.001    99933017.67348
      1431.788  
  20907402.238   109869141.06849     -1695.081    20907401.938    85612314.55647
     -1320.847  
  22628629.397   120623326.89815      2737.652    22628635.620    93818170.08106
      2129.297  
  20626262.147   110452699.19408     -2686.988    20626265.197    85907660.57006
     -2089.870  
  19404990.301   103730793.56209       735.305    19404994.555    80679524.33107
       571.897  
  19851582.881   106155331.36205     -1475.781    19851588.760    82565280.74808
     -1147.828  
  21531836.327   115221213.83605      3081.979    21531840.773    89616509.06005
      2397.101  
 20 10 01 05 55 50.0000000  0 13G15G18G20G29G 5G24G27G13R14R 4R 5R20
                                R21
  19999515.443   105098161.03949       377.175    19999514.781    81894671.26349
       293.906  
  20436276.787   107393359.14149       663.808    20436276.657    83683137.28847
       517.250  
  21942201.026   115307040.59048      2726.608    21942200.100    89849644.20245
      2124.621  
  24336773.473   127890603.91647     -3677.140    24336774.339    99655032.82148
     -2865.308  
  23464283.633   123305641.57848     -3185.300    23464284.428    96082322.20647
     -2482.055  
  24045404.252   126359455.10544      3822.183    24045408.011    98461928.51049
      2978.335  
  24402915.894   128238186.09247      1833.870    24402918.509    99925866.58048
      1428.988  
  20909016.696   109877624.94448     -1697.878    20909016.319    85618925.36445
     -1323.022  
  22626063.421   120609648.24105      2733.890    22626069.371    93807531.15006
      2126.362  
  20628772.020   110466139.17006     -2688.199    20628775.025    85918113.88305
     -2090.819  
  19404304.078   103727125.43408       732.355    19404308.313    80676671.38407
       569.612  
  19852965.182   106162722.96305     -1480.895    19852971.003    82571029.76608
     -1151.812  
  21528958.420   115205813.60605      3078.430    21528962.919    89604531.14205
      2394.340  
 20 10 01 05 55 55.0000000  0 14G15G18G20G29G 5G30G24G27G13R14R 4R 5
                                R20R21
  19999158.681   105096286.14949       373.668    19999157.987    81893210.28349
       291.164  
  20435647.130   107390050.27349       660.543    20435646.934    83680558.95948
       514.703  
  21939607.868   115293413.51148      2725.379    21939606.943    89839025.72046
      2123.675  
  24340273.208   127908994.80648     -3677.996    24340274.065    99669363.33648
     -2865.977  
  23467315.270   123321572.68947     -3186.351    23467315.939    96094736.08446
     -2482.867  
  24417533.232   128315003.06754     -2003.476    24417538.169    99985736.52053
     -1561.152  
  24041768.196   126340348.28746      3821.261    24041772.017    98447040.03547
      2977.597  
  24401174.185   128229035.22456      1831.113    24401173.885    99918727.32559
      1426.839  
  20910634.066   109886124.24849     -1700.891    20910633.660    85625548.20247
     -1325.374  
  22623500.614   120595986.28605      2730.976    22623506.548    93796905.17106
      2124.085  
  20631283.579   110479588.54808     -2690.476    20631286.624    85928574.48107
     -2092.604  
  19403620.753   103723472.51009       729.378    19403624.911    80673830.21608
       567.288  
  19854351.678   106170138.36705     -1484.792    19854357.702    82576797.28808
     -1155.065  
  21526083.764   115190430.96108      3075.395           0.000           0.0000 
         0.000  
 20 10 01 05 56  0.0000000  0 13G15G18G20G29G 5G24G27G13R14R 4R 5R20
                                R21
  19998804.737   105094426.03449       369.776    19998804.019    81891760.84149
       288.132  
  20435020.191   107386755.59449       656.816    20435019.939    83677991.67448
       511.804  
  21937015.551   115279790.95348      2723.222    21937014.681    89828410.77846
      2121.996  
  24343773.235   127927386.94547     -3679.085    24343774.100    99683694.89548
     -2866.820  
  23470347.376   123337506.16848     -3187.395    23470347.905    96107151.75747
     -2483.688  
  24038132.466   126321242.48746      3820.171    24038136.404    98432152.37248
      2976.754  
  24399431.300   128219887.67447      1827.375    24399434.840    99911599.34849
      1423.925  
  20912253.813   109894636.14049     -1704.358    20912253.382    85632180.84847
     -1328.070  
  22620940.174   120582338.13906      2727.589    22620946.391    93786289.90207
      2121.448  
  20633796.347   110493044.39808     -2692.562    20633799.308    85939040.12707
     -2094.219  
  19402939.751   103719832.13409       725.937    19402943.890    80670998.78708
       564.613  
  19855742.350   106177574.97805     -1490.332    19855748.444    82582581.33908
     -1159.148  
  21523211.821   115175062.98908      3071.484    21523216.458    89580613.94917
      2388.934  
 20 10 01 05 56  5.0000000  0 13G15G18G20G29G 5G24G27G13R14R 4R 5R20
                                R21
  19998454.128   105092583.57449       367.695    19998453.396    81890325.16049
       286.511  
  20434396.516   107383477.93949       654.625    20434396.222    83675437.66048
       510.098  
  21934424.648   115266175.82248      2723.457    21934423.804    89817801.60045
      2122.179  
  24347273.918   127945783.19247     -3678.570    24347274.740    99698029.55448
     -2866.434  
  23473380.389   123353444.82247     -3187.305    23473381.018    96119571.47247
     -2483.616  
  24034497.485   126302140.65946      3820.327    24034501.297    98417267.87047
      2976.882  
  24397693.892   128210756.28647      1825.382    24397696.728    99904483.97849
      1422.374  
  20913876.527   109903163.52949     -1706.085    20913876.073    85638825.58947
     -1329.414  
  22618383.016   120568706.82906      2725.852    22618389.353    93775687.81605
      2120.108  
  20636310.910   110506509.71008     -2693.102    20636313.804    85949513.16508
     -2094.637  
  19402261.648   103716207.19209       724.374    19402265.719    80668179.39408
       563.401  
  19857137.489   106185035.62905     -1493.757    19857143.690    82588384.06808
     -1161.813  
  21520343.262   115159712.72108      3069.218    21520347.395    89568674.81107
      2387.163  
 20 10 01 05 56 10.0000000  0 14G15G18G20G29G 5G30G24G27G13R14R 4R 5
                                R20R21
  19998105.439   105090751.17049       364.852    19998104.688    81888897.32249
       284.300  
  20433774.624   107380209.74949       652.116    20433774.338    83672891.02248
       508.145  
  21931833.714   115252560.52648      2722.351    21931832.875    89807192.27345
      2121.313  
  24350774.039   127964175.88648     -3678.687    24350774.973    99712361.54648
     -2866.511  
  23476412.972   123369381.06048     -3187.397    23476413.655    96131989.30147
     -2483.694  
  24423258.979   128345092.19557     -2010.012    24423259.973   100009175.37854
     -1566.238  
  24030861.953   126283035.53046      3821.042    24030865.300    98402380.79048
      2977.438  
  24395957.452   128201633.76047      1822.758    24395960.670    99897375.51949
      1420.323  
  20915500.743   109911698.84149     -1708.516    20915500.265    85645476.47747
     -1331.313  
  22615827.497   120555084.62804      2723.027    22615833.799    93765092.75506
      2117.905  
  20638825.787   110519976.85308     -2694.238    20638828.657    85959987.59607
     -2095.522  
  19401585.007   103712590.00009       722.058    19401589.011    80665366.02308
       561.598  
  19858535.681   106192512.51905     -1497.414    19858541.934    82594199.41408
     -1164.659  
  21517476.523   115144372.37708      3066.374    21517481.139    89556743.47707
      2384.960  
 20 10 01 05 56 15.0000000  0 14G15G18G20G29G 5G30G24G27G13R14R 4R 5
                                R20R21
  19997760.900   105088940.60149       360.280    19997760.149    81887486.49449
       280.738  
  20433156.765   107376962.78549       647.562    20433156.453    83670360.91748
       504.593  
  21929244.988   115238956.83648      2719.742    21929244.174    89796592.01046
      2119.280  
  24354275.639   127982576.82347     -3680.765    24354276.624    99726699.91248
     -2868.137  
  23479447.396   123385326.69247     -3189.937    23479448.119    96144414.48847
     -2485.663  
  24425174.079   128355153.14446     -2013.957    24425174.563   100017015.05745
     -1569.320  
  24027227.961   126263938.64846      3819.015    24027231.431    98387500.07848
      2975.855  
  24394225.835   128192531.52247      1818.675    24394229.027    99890282.88449
      1417.148  
  20917128.698   109920253.77049     -1712.640    20917128.225    85652142.64047
     -1334.527  
  22613275.865   120541483.52606      2717.781    22613282.444    93754514.16906
      2113.835  
  20641343.241   110533457.67508     -2697.063    20641346.100    85970472.71707
     -2097.714  
  19400911.994   103708992.39309       717.891    19400915.968    80662567.89008
       558.359  
  19859939.179   106200017.83805     -1503.308    19859945.518    82600036.88308
     -1169.241  
  21514613.889   115129053.93908      3061.723    21514618.534    89544829.12207
      2381.336  
 20 10 01 05 56 20.0000000  0 14G15G18G20G29G 5G30G24G27G13R14R 4R 5
                                R20R21
  19997419.923   105087148.78649       356.472    19997419.169    81886090.26949
       277.770  
  20432542.365   107373734.02749       644.055    20432542.110    83667845.00648
       501.859  
  21926657.910   115225361.67948      2717.983    21926657.087    89785998.38045
      2117.909  
  24357778.209   128000982.95347     -3682.140    24357779.248    99741042.35348
     -2869.198  
  23482482.966   123401278.53347     -3190.698    23482483.667    96156844.48847
     -2486.258  
  24427091.094   128365229.56047     -2016.460    24427093.179   100024866.78344
     -1571.272  
  24023594.982   126244847.05846      3817.745    24023598.623    98372623.52348
      2974.863  
  24392496.619   128183446.87047      1815.523    24392500.062    99883203.93949
      1414.694  
  20918759.819   109928825.33649     -1715.941    20918759.396    85658821.79247
     -1337.097  
  22610727.758   120527900.33806      2715.440    22610734.387    93743949.50606
      2111.886  
  20643862.671   110546949.13708     -2699.508    20643865.554    85980966.02907
     -2099.624  
  19400242.112   103705411.42909       714.621    19400246.071    80659782.68108
       555.813  
  19861347.447   106207548.23005     -1508.542    19861353.753    82605893.84808
     -1173.315  
  21511754.813   115113754.47308      3058.012    21511759.683    89532929.54507
      2378.452  
 20 10 01 05 56 25.0000000  0 14G15G18G20G29G 5G30G24G27G13R14R 4R 5
                                R20R21
  19997080.536   105085365.36249       356.253    19997079.796    81884700.59549
       277.601  
  20431929.453   107370513.09249       643.699    20431929.255    83665335.18748
       501.582  
  21924070.442   115211764.69348      2719.597    21924069.558    89775403.32145
      2119.167  
  24361279.894   128019383.84148     -3679.362    24361280.925    99755380.66348
     -2867.043  
  23485517.848   123417226.41448     -3189.085    23485518.492    96169271.40247
     -2485.007  
  24429009.484   128375311.17546     -2016.464    24429011.769   100032722.58845
     -1571.272  
  24019961.023   126225750.19046      3820.137    24019964.806    98357742.87047
      2976.730  
  24390769.158   128174369.34146      1814.520    24390772.869    99876130.55749
      1413.909  
  20920392.123   109937403.09149     -1715.784    20920391.717    85665505.74947
     -1336.979  
  22608181.108   120514324.79205      2714.656    22608187.862    93733390.75406
      2111.394  
  20646382.047   110560440.56308     -2697.929    20646385.004    85991459.35607
     -2098.397  
  19399573.354   103701836.53309       714.535    19399577.330    80657002.21808
       555.750  
  19862758.427   106215093.28105     -1510.284    19862764.745    82611762.21808
     -1174.671  
  21508897.260   115098463.35108      3057.855    21508901.705    89521036.47807
      2378.332  
 20 10 01 05 56 30.0000000  0 14G15G18G20G29G 5G30G24G27G13R14R 4R 5
                                R20R21
  19996743.791   105083595.71949       351.597    19996743.059    81883321.65149
       273.969  
  20431319.059   107367305.38649       639.234    20431318.889    83662835.68248
       498.104  
  21921483.712   115198171.36748      2717.203    21921482.801    89764811.13946
      2117.300  
  24364781.522   128037784.92547     -3681.112    24364782.651    99769719.14948
     -2868.405  
  23488552.929   123433175.56047     -3190.983    23488553.556    96181699.29246
     -2486.483  
  24430930.009   128385403.26146     -2020.034    24430932.836   100040586.56443
     -1574.062  
  24016327.051   126206653.85345      3817.905    24016330.977    98342862.60648
      2974.992  
  24389043.998   128165304.19247      1811.026    24389047.792    99869066.84249
      1411.194  
  20922026.669   109945992.46949     -1719.996    20922026.238    85672198.77847
     -1340.262  
  22605636.757   120500762.18605      2709.745    22605643.751    93722842.10705
      2107.590  
  20648902.490   110573937.57808     -2700.913    20648905.480    86001957.01807
     -2100.715  
  19398906.723   103698272.97609       710.573    19398910.722    80654230.55708
       552.663  
  19864173.199   106222658.48106     -1516.237    19864179.415    82617646.25908
     -1179.301  
  21506042.347   115083186.07008      3052.980    21506046.894    89509154.15607
      2374.538  
 20 10 01 05 56 35.0000000  0 14G15G18G20G29G 5G30G24G27G13R14R 4R 5
                                R20R21
  19996411.201   105081847.94749       347.421    19996410.485    81881959.75449
       270.718  
  20430712.716   107364119.00349       635.230    20430712.571    83660352.78648
       494.980  
  21918899.203   115184589.65148      2715.429    21918898.280    89754227.95846
      2115.937  
  24368284.690   128056194.26248     -3682.715    24368285.873    99784064.07048
     -2869.651  
  23491589.749   123449134.12847     -3192.520    23491590.441    96194134.51547
     -2487.679  
  24432854.067   128395514.06745     -2024.132    24432857.371   100048465.06044
     -1577.266  
  24012694.752   126187565.99046      3816.840    24012698.612    98327988.92648
      2974.156  
  24387323.035   128156259.75047      1806.570    24387326.618    99862019.23449
      1407.719  
  20923664.940   109954601.54849     -1723.640    20923664.473    85678907.13747
     -1343.101  
  22603096.448   120487220.69507      2705.977    22603103.547    93712309.84506
      2104.652  
  20651425.482   110587448.33708     -2703.504    20651428.512    86012465.38707
     -2102.730  
  19398243.796   103694729.28109       706.909    19398247.861    80651474.35208
       549.815  
  19865593.186   106230251.94905     -1521.391    19865599.402    82623552.29008
     -1183.309  
  21503191.559   115067930.86608      3048.800    21503196.005    89497288.99807
      2371.284  
 20 10 01 05 56 40.0000000  0 14G15G18G20G29G 5G30G24G27G13R14R 4R 5
                                R20R21
  19996081.905   105080117.54849       344.402    19996081.223    81880611.38649
       268.367  
  20430109.559   107360949.42049       632.441    20430109.452    83657882.98948
       492.813  
  21916316.078   115171015.14048      2714.351    21916315.071    89743650.43146
      2115.078  
  24371788.500   128074607.28147     -3683.043    24371789.828    99798411.83548
     -2869.910  
  23494627.544   123465097.50147     -3192.988    23494628.198    96206573.59147
     -2488.031  
  24434780.624   128405638.78545     -2026.546    24434784.003   100056354.48144
     -1579.121  
  24009063.151   126168481.80346      3816.214    24009067.047    98313118.11747
      2973.672  
  24385605.023   128147231.38046      1803.905    24385608.502    99854984.11849
      1405.640  
  20925306.104   109963225.79849     -1726.145    20925305.593    85685627.34347
     -1345.046  
  22600559.381   120473696.07305      2703.440    22600566.259    93701790.70205
      2102.671  
  20653950.144   110600968.16108     -2704.750    20653953.261    86022980.81608
     -2103.698  
  19397583.680   103691200.68009       704.375    19397587.786    80648729.88508
       547.843  
  19867017.705   106237869.11905     -1525.234    19867023.850    82629476.75308
     -1186.297  
  21500344.058   115052693.09408      3046.015    21500348.173    89485437.37607
      2369.120  
 20 10 01 05 56 45.0000000  0 14G15G18G20G29G 5G30G24G27G13R14R 4R 5
                                R20R21
  19995755.845   105078404.00049       341.246    19995755.156    81879276.16449
       265.905  
  20429509.499   107357796.14949       629.233    20429509.425    83655425.88548
       490.308  
  21913734.220   115157447.32648      2713.316    21913733.193    89733078.10246
      2114.270  
  24375292.863   128093023.55047     -3683.425    24375294.420    99812762.17648
     -2870.207  
  23497666.155   123481065.38847     -3193.894    23497666.828    96219016.05747
     -2488.758  
  24436709.638   128415777.10344     -2028.913    24436713.117   100064254.47341
     -1580.968  
  24005432.275   126149401.16746      3816.104    24005436.237    98298250.12047
      2973.590  
  24383889.988   128138218.46746      1801.453    24383893.467    99847961.05849
      1403.726  
  20926950.090   109971864.65749     -1729.136    20926949.503    85692358.91247
     -1347.383  
  22598025.076   120460187.36305      2700.543    22598032.030    93691283.96205
      2100.426  
  20656476.491   110614496.57508     -2706.397    20656479.646    86033502.90108
     -2104.980  
  19396926.324   103687686.67309       701.479    19396930.421    80645996.77908
       545.598  
  19868446.365   106245509.46005     -1530.523    19868452.624    82635419.23908
     -1190.410  
  21497499.752   115037472.45308      3042.780    21497503.652    89473599.13207
      2366.608  
 20 10 01 05 56 50.0000000  0 14G15G18G20G29G 5G30G24G27G13R14R 4R 5
                                R20R21
  19995432.433   105076704.42449       338.261    19995431.752    81877951.81649
       263.577  
  20428911.986   107354656.31849       626.371    20428911.988    83652979.26148
       488.078  
  21911153.086   115143883.31248      2712.108    21911152.068    89722508.76646
      2113.332  
  24378797.381   128111440.07347     -3683.574    24378799.072    99827112.70348
     -2870.315  
  23500705.065   123497034.80947     -3194.430    23500705.753    96231459.72647
     -2489.171  
  24438640.985   128425926.08845     -2031.293    24438643.793   100072162.86443
     -1582.820  
  24001801.461   126130321.05245      3815.227    24001805.409    98283382.48847
      2972.897  
  24382177.343   128129218.39646      1798.499    24382180.775    99840948.02549
      1401.429  
  20928596.302   109980515.24949     -1731.534    20928595.633    85699099.63547
     -1349.250  
  22595493.111   120446692.03504      2697.511    22595500.293    93680787.64705
      2098.074  
  20659003.903   110628030.75108     -2707.761    20659007.033    86044029.50408
     -2106.035  
  19396271.162   103684184.36009       698.973    19396275.217    80643272.75208
       543.644  
  19869878.834   106253170.14205     -1534.062    19869885.194    82641377.54108
     -1193.352  
  21494658.111   115022265.94608      3039.640    21494661.946    89461771.85107
      2364.163  
 20 10 01 05 56 55.0000000  0 14G15G18G20G29G 5G30G24G27G13R14R 4R 5
                                R20R21
  19995111.935   105075020.13549       335.257    19995111.238    81876639.39749
       261.238  
  20428317.332   107351531.26649       623.367    20428317.363    83650544.15448
       485.737  
  21908572.915   115130324.42248      2711.043    21908572.005    89711943.39946
      2112.500  
  24382302.279   128129858.21847     -3683.742    24382304.082    99841464.47848
     -2870.457  
  23503744.482   123513006.99147     -3194.945    23503745.205    96243905.55447
     -2489.573  
  24440574.549   128436087.03545     -2033.785    24440577.501   100080080.38743
     -1584.776  
  23998171.060   126111242.82046      3815.565    23998175.171    98268516.33448
      2973.163  
  24380467.402   128120232.34347      1795.616    24380470.786    99833945.90449
      1399.179  
  20930245.004   109989178.92649     -1734.288    20930244.246    85705850.55447
     -1351.397  
  22592963.980   120433211.25003      2694.504    22592971.303    93670302.59805
      2095.730  
  20661532.621   110641571.92108     -2709.023    20661535.628    86054561.51207
     -2107.023  
  19395618.434   103680695.09509       696.370    19395622.472    80640558.88508
       541.620  
  19871315.458   106260852.32205     -1539.179    19871321.792    82647352.56708
     -1197.145  
  21491819.319   115007074.80708      3036.636    21491823.428    89449956.52707
      2361.823  
 20 10 01 05 57  0.0000000  0 14G15G18G20G29G 5G30G24G27G13R14R 4R 5
                                R20R21
  19994794.197   105073350.38049       332.297    19994793.492    81875338.27949
       258.929  
  20427725.307   107348420.21849       620.645    20427725.374    83648119.96348
       483.612  
  21905993.583   115116769.94248      2710.144    21905992.774    89701381.47446
      2111.801  
  24385807.283   128148277.17248     -3684.085    24385809.283    99855816.87648
     -2870.723  
  23506784.266   123528981.31848     -3195.430    23506785.062    96256353.07547
     -2489.949  
  24442510.257   128446259.15144     -2035.555    24442513.041   100088006.75643
     -1586.141  
  23994540.875   126092165.72646      3815.362    23994545.169    98253651.08248
      2973.008  
  24378760.144   128111259.57947      1793.280    24378763.096    99826954.13748
      1397.363  
  20931896.022   109997854.86449     -1736.602    20931895.223    85712611.02847
     -1353.194  
  22590437.783   120419744.44804      2691.555    22590444.970    93659828.47005
      2093.437  
  20664062.475   110655119.30008     -2710.168    20664065.455    86065098.37407
     -2107.909  
  19394968.004   103677218.04709       693.957    19394971.972    80637854.50908
       539.742  
  19872755.990   106268555.36805     -1543.327    19872762.315    82653343.82208
     -1200.367  
  21488983.314   114991898.48908      3033.597    21488987.563    89438152.71707
      2359.460  
 20 10 01 05 57  5.0000000  0 14G15G18G20G29G 5G30G24G27G13R14R 4R 5
                                R20R21
  19994479.691   105071697.64149       329.003    19994478.956    81874050.43449
       256.363  
  20427136.411   107345325.70749       617.430    20427136.529    83645708.64848
       481.108  
  21903415.572   115103222.33648      2709.063    21903414.859    89690824.87646
      2110.952  
  24389312.999   128166699.51847     -3684.632    24389314.972    99870171.93148
     -2871.147  
  23509824.959   123544960.17447     -3196.238    23509825.769    96268804.10347
     -2490.582  
  24444448.539   128456445.11544     -2038.777    24444450.659   100095943.82143
     -1588.656  
  23990911.369   126073092.26046      3814.523    23990915.903    98238788.62347
      2972.351  
  24377055.855   128102302.63747      1789.813    24377058.182    99819974.70849
      1394.655  
  20933549.845   110006545.57549     -1739.496    20933548.988    85719383.01147
     -1355.456  
  22587914.520   120406294.13304      2688.359    22587921.552    93649367.14305
      2091.284  
  20666593.995   110668675.44308     -2711.987    20666596.941    86075642.04607
     -2109.323  
  19394320.319   103673755.77109       691.171    19394324.230    80635161.63408
       537.574  
  19874200.925   106276281.83605     -1547.620    19874207.251    82659353.30608
     -1203.706  
  21486150.511   114976739.49508      3030.172    21486154.788    89426362.38607
      2356.797  
 20 10 01 05 57 10.0000000  0 14G15G18G20G29G 5G30G24G27G13R14R 4R 5
                                R20R21
  19994168.144   105070060.63549       325.566    19994167.414    81872774.84649
       253.684  
  20426550.425   107342246.39149       614.093    20426550.581    83643309.19648
       478.516  
  21900838.616   115089680.28048      2707.694    21900837.951    89680272.64946
      2109.890  
  24392819.058   128185123.79847     -3685.391    24392821.023    99884528.46948
     -2871.742  
  23512866.185   123560942.11547     -3196.762    23512867.020    96281257.54947
     -2490.992  
  24446389.214   128466643.21244     -2041.116    24446391.218   100103890.46244
     -1590.476  
  23987282.377   126054021.27946      3812.762    23987286.888    98223928.13247
      2970.984  
  24375354.354   128093360.18847      1786.300    24375356.395    99813006.55149
      1391.918  
  20935206.272   110015249.78549     -1742.531    20935205.334    85726165.50547
     -1357.820  
  22585394.129   120392858.77804      2685.656    22585401.028    93638917.41305
      2088.762  
  20669126.931   110682239.04308     -2713.718    20669129.819    86086191.52108
     -2110.671  
  19393675.125   103670306.90209       688.105    19393679.084    80632479.17508
       535.188  
  19875650.026   106284030.26605     -1552.051    19875656.233    82665379.87108
     -1207.151  
  21483320.576   114961596.37707      3026.746    21483325.017    89414584.43907
      2354.140  
 20 10 01 05 57 15.0000000  0 13G15G18G20G29G 5G24G27G13R14R 4R 5R20
                                R21
  19993860.405   105068443.51749       320.742    19993859.649    81871514.75349
       249.925  
  20425968.186   107339186.45349       609.366    20425968.347    83640924.82748
       474.832  
  21898263.437   115076147.96748      2705.022    21898262.851    89669728.01246
      2107.809  
  24396326.254   128203554.20347     -3687.086    24396328.252    99898889.85948
     -2873.051  
  23515908.807   123576931.48347     -3199.344    23515909.740    96293716.79347
     -2492.999  
  23983654.515   126034956.79746      3811.488    23983659.090    98209072.72148
      2969.996  
  24373656.453   128084436.41047      1782.066    24373658.230    99806052.97149
      1388.624  
  20936865.993   110023971.58149     -1746.824    20936865.020    85732961.70447
     -1361.163  
  22582877.402   120379442.79905      2679.855    22582883.887    93628482.76905
      2084.335  
  20671662.047   110695814.31508     -2717.112    20671664.850    86096750.05407
     -2113.312  
  19393033.290   103666875.89409       683.773    19393037.357    80629810.61808
       531.819  
  19877103.872   106291804.82405     -1558.233    19877110.096    82671426.73608
     -1211.965  
  21480494.435   114946473.56707      3021.855    21480498.993    89402822.30107
      2350.335  
 20 10 01 05 57 20.0000000  0 13G15G18G20G29G 5G24G27G13R14R 4R 5R20
                                R21
  19993556.026   105066844.15449       319.172    19993555.294    81870268.50149
       248.707  
  20425389.222   107336143.75649       608.003    20425389.388    83638553.89848
       473.769  
  21895689.711   115062623.32048      2705.414    21895689.287    89659189.32546
      2108.108  
  24399834.268   128221988.63248     -3685.937    24399836.190    99913254.34048
     -2872.164  
  23518952.392   123592926.03747     -3198.313    23518953.389    96306180.05947
     -2492.195  
  23980027.473   126015896.75246      3812.977    23980032.130    98194220.73648
      2971.147  
  24371961.616   128075529.16847      1780.855    24371963.130    99799112.25849
      1387.676  
  20938528.665   110032708.85749     -1747.714    20938527.654    85739769.97347
     -1361.858  
  22580364.039   120366044.16405      2678.854    22580370.072    93618061.60505
      2083.555  
  20674198.863   110709399.03908     -2716.723    20674201.723    86107315.97907
     -2113.007  
  19392394.316   103663460.30309       682.820    19392398.401    80627154.05008
       531.082  
  19878562.320   106299603.48705     -1560.382    19878568.487    82677492.36808
     -1213.637  
  21477671.680   114931368.74608      3020.628    21477676.458    89391074.09507
      2349.379  
 20 10 01 05 57 25.0000000  0 14G15G18G20G29G 5G30G24G27G13R14R 4R 5
                                R20R21
  19993253.430   105065254.18949       316.699    19993252.703    81869029.56849
       246.773  
  20424811.921   107333109.95949       605.715    20424812.111    83636189.89148
       471.980  
  21893115.816   115049097.88048      2704.887    21893115.567    89648650.02646
      2107.706  
  24403341.494   128240418.69948     -3685.738    24403343.289    99927615.39048
     -2872.011  
  23521995.466   123608917.43447     -3198.241    23521996.431    96318640.90147
     -2492.136  
  24452227.923   128497317.45956     -2047.694    24452228.751   100127791.27854
     -1595.604  
  23976399.601   125996832.81245      3812.688    23976404.422    98179365.72348
      2970.922  
  24370268.317   128066630.16647      1778.358    24370269.678    99792177.94749
      1385.730  
  20940192.678   110041453.24049     -1749.871    20940191.649    85746583.78547
     -1363.534  
  22577851.999   120352654.13604      2677.034    22577857.662    93607647.07405
      2082.125  
  20676735.887   110722984.68808     -2717.394    20676738.749    86117882.56907
     -2113.530  
  19391756.650   103660051.77209       680.734    19391760.721    80624502.97508
       529.460  
  19880023.638   106307417.81105     -1565.382    19880029.833    82683570.16708
     -1217.523  
  21474850.685   114916273.56508      3017.714    21474855.489    89379333.40307
      2347.112  
 20 10 01 05 57 30.0000000  0 14G15G18G20G29G 5G30G24G27G13R14R 4R 5
                                R20R21
  19992953.582   105063678.66449       313.203    19992952.837    81867801.88649
       244.054  
  20424237.275   107330090.14349       602.074    20424237.514    83633836.79048
       469.144  
  21890542.772   115035576.78948      2703.413    21890542.622    89638114.12346
      2106.555  
  24406848.818   128258849.46347     -3686.656    24406850.573    99941976.97548
     -2872.729  
  23525038.980   123624910.77247     -3199.218    23525039.857    96331103.22047
     -2492.905  
  24454176.881   128507563.67545     -2050.582    24454179.531   100135775.33344
     -1597.854  
  23972771.991   125977769.90745      3812.434    23972776.721    98164511.55147
      2970.734  
  24368577.541   128057744.35947      1775.354    24368578.723    99785253.95949
      1383.395  
  20941858.987   110050209.81849     -1753.132    20941857.938    85753407.08547
     -1366.077  
  22575342.654   120339278.07404      2673.617    22575348.257    93597243.53505
      2079.378  
  20679274.037   110736576.45908     -2719.426    20679276.900    86128453.94008
     -2115.112  
  19391121.308   103656655.41009       677.535    19391125.339    80621861.36208
       526.968  
  19881488.955   106315252.74005     -1569.430    19881495.014    82689664.00808
     -1220.667  
  21472032.551   114901193.12708      3014.180    21472037.413    89367604.16107
      2344.358  
 20 10 01 05 57 35.0000000  0 14G15G18G20G29G 5G30G24G27G13R14R 4R 5
                                R20R21
  19992657.203   105062121.18049       309.679    19992656.421    81866588.26849
       241.309  
  20423665.937   107327087.89749       598.710    20423666.244    83631497.37948
       466.526  
  21887971.254   115022063.67948      2701.776    21887971.114    89627584.41346
      2105.277  
  24410356.963   128277284.48447     -3687.609    24410358.718    99956341.93148
     -2873.465  
  23528083.493   123640909.63747     -3200.277    23528084.307    96343569.86047
     -2493.729  
  24456129.536   128517824.69645     -2053.581    24456133.780   100143770.90641
     -1600.210  
  23969145.440   125958711.93845      3811.289    23969150.170    98149661.14948
      2969.828  
  24366890.010   128048875.51247      1772.151    24366891.066    99778343.19049
      1380.897  
  20943528.290   110058982.12749     -1756.023    20943527.265    85760242.63747
     -1368.331  
  22572836.640   120325919.63706      2670.265    22572842.001    93586853.64605
      2076.702  
  20681814.030   110750178.03608     -2721.190    20681816.855    86139032.95107
     -2116.479  
  19390488.912   103653274.83009       674.577    19390492.947    80619232.02308
       524.671  
  19882958.689   106323112.00405     -1574.117    19882964.667    82695776.76408
     -1224.316  
  21469217.858   114886131.10308      3010.652    21469222.680    89355889.27107
      2341.617  
 20 10 01 05 57 40.0000000  0 14G15G18G20G29G 5G30G24G27G13R14R 4R 5
                                R20R21
  19992363.698   105060578.86649       307.042    19992362.882    81865386.46149
       239.249  
  20423097.415   107324100.35649       595.976    20423097.734    83629169.42848
       464.398  
  21885400.716   115008555.63148      2701.155    21885400.674    89617058.67246
      2104.796  
  24413865.353   128295720.88647     -3687.624    24413867.107    99970707.94549
     -2873.476  
  23531128.569   123656911.15047     -3200.824    23531129.285    96356038.56547
     -2494.151  
  24458084.227   128528097.41945     -2054.855    24458088.985   100151775.58143
     -1601.199  
  23965519.272   125939655.85946      3810.952    23965523.850    98134812.31748
      2969.582  
  24365205.069   128040020.65147      1769.352    24365206.197    99771443.31149
      1378.719  
  20945200.031   110067767.34049     -1758.378    20945199.084    85767088.27147
     -1370.164  
  22570333.205   120312575.85805      2667.046    22570338.511    93576475.07105
      2074.363  
  20684355.288   110763786.36008     -2722.371    20684358.107    86149617.20808
     -2117.401  
  19389858.940   103649907.17009       672.253    19389862.957    80616612.73708
       522.863  
  19884432.517   106330992.75505     -1578.163    19884438.356    82701906.24308
     -1227.460  
  21466406.084   114871084.70108      3007.625    21466411.009    89344186.49607
      2339.261  
 20 10 01 05 57 45.0000000  0 14G15G18G20G29G 5G30G24G27G13R14R 4R 5
                                R20R21
  19992073.376   105059053.27549       303.387    19992072.510    81864197.68949
       236.401  
  20422531.968   107321129.07149       592.570    20422532.302    83626854.14148
       461.738  
  21882831.454   114995054.22648      2699.531    21882831.447    89606538.11846
      2103.530  
  24417374.197   128314160.14347     -3688.289    24417376.032    99985076.18748
     -2873.995  
  23534174.467   123672916.83047     -3201.590    23534175.007    96368510.53946
     -2494.746  
  24460041.790   128538383.60945     -2058.694    24460045.621   100159790.80344
     -1604.184  
  23961893.791   125920603.26545      3810.276    23961898.139    98119966.16847
      2969.050  
  24363523.042   128031181.31947      1766.324    24363524.168    99764555.49449
      1376.348  
  20946874.491   110076566.93749     -1761.487    20946873.601    85773945.10747
     -1372.590  
  22567832.993   120299248.28806      2664.167    22567838.372    93566109.19905
      2072.035  
  20686898.152   110777403.05908     -2724.340    20686900.900    86160207.97507
     -2118.930  
  19389231.666   103646554.00409       669.023    19389235.709    80614004.72108
       520.352  
  19885910.562   106338896.40305     -1583.113    19885916.337    82708053.51308
     -1231.313  
  21463597.458   114856055.30308      3004.175    21463602.399    89332496.96507
      2336.582  
 20 10 01 05 57 50.0000000  0 14G15G18G20G29G 5G30G24G27G13R14R 4R 5
                                R20R21
  19991786.320   105057544.65949       300.352    19991785.383    81863022.13949
       234.034  
  20421969.673   107318174.31649       589.457    20421970.029    83624551.72548
       459.312  
  21880263.494   114981559.72548      2698.472    21880263.505    89596022.92046
      2102.706  
  24420883.676   128332602.64247     -3688.343    24420885.573    99999446.95348
     -2874.038  
  23537221.195   123688927.02447     -3202.362    23537221.565    96380985.99946
     -2495.351  
  24462001.595   128548683.10845     -2060.449    24462006.390   100167816.38745
     -1605.543  
  23958268.908   125901554.25446      3809.944    23958273.251    98105122.79548
      2968.793  
  24361844.055   128022357.87247      1763.335    24361845.203    99757680.10049
      1374.027  
  20948551.745   110085381.18549     -1763.965    20948550.865    85780813.34947
     -1374.523  
  22565335.886   120285937.27305      2661.167    22565341.315    93555756.19605
      2069.797  
  20689442.610   110791028.42308     -2725.762    20689445.323    86170805.46907
     -2120.039  
  19388607.161   103643215.60309       666.405    19388611.250    80611408.17908
       518.313  
  19887392.866   106346823.32305     -1587.801    19887398.697    82714218.90008
     -1234.960  
  21460792.110   114841043.41208      3000.839    21460797.075    89320821.07707
      2333.987  
 20 10 01 05 57 55.0000000  0 14G15G18G20G29G 5G30G24G27G13R14R 4R 5
                                R20R21
  19991501.981   105056050.38949       297.483    19991500.996    81861857.77549
       231.801  
  20421410.039   107315233.41849       586.862    20421410.365    83622260.11948
       457.292  
  21877696.384   114968069.43848      2697.738    21877696.425    89585511.00146
      2102.128  
  24424393.240   128351045.58747     -3688.289    24424395.242   100013818.05348
     -2873.995  
  23540268.181   123704938.98247     -3202.289    23540268.562    96393462.84647
     -2495.293  
  24463963.863   128558993.74045     -2063.491    24463968.625   100175850.66344
     -1607.914  
  23954644.323   125882506.52345      3809.472    23954648.702    98090280.40748
      2968.422  
  24360167.555   128013547.61347      1760.933    24360168.748    99750814.98749
      1372.156  
  20950231.299   110094207.42649     -1766.261    20950230.421    85787690.94147
     -1376.312  
  22562841.186   120272640.11905      2658.520    22562846.888    93545414.00705
      2067.741  
  20691988.218   110804659.69708     -2726.813    20691990.866    86181407.56607
     -2120.859  
  19387984.879   103639889.15109       664.202    19387989.095    80608820.93308
       516.598  
  19888879.121   106354770.81005     -1591.472    19888884.910    82720400.28008
     -1237.813  
  21457989.447   114826046.14008      2998.000    21457994.374    89309156.54507
      2331.777  
 20 10 01 05 58  0.0000000  0 14G15G18G20G29G 5G30G24G27G13R14R 4R 5
                                R20R21
  19991220.448   105054570.79449       294.229    19991219.421    81860704.83949
       229.265  
  20420853.105   107312306.73849       583.867    20420853.438    83619979.59748
       454.961  
  21875130.134   114954583.73448      2696.507    21875130.187    89575002.65446
      2101.171  
  24427902.964   128369489.31047     -3688.773    24427904.987   100028189.77948
     -2874.371  
  23543315.617   123720953.11548     -3202.949    23543315.930    96405941.37246
     -2495.809  
  24465928.152   128569315.55545     -2066.253    24465933.072   100183893.61745
     -1610.070  
  23951019.996   125863460.30746      3808.492    23951024.269    98075439.21047
      2967.656  
  24358493.621   128004750.90747      1757.632    24358494.656    99743960.42248
      1369.586  
  20951913.208   110103046.01149     -1769.047    20951912.348    85794578.15047
     -1378.477  
  22560349.214   120259357.22704      2655.625    22560355.217    93535082.83905
      2065.480  
  20694534.938   110818297.23408     -2728.227    20694537.648    86192014.54207
     -2121.956  
  19387364.895   103636575.10709       661.422    19387369.265    80606243.35408
       514.438  
  19890369.174   106362739.13305     -1595.750    19890375.035    82726597.86808
     -1241.141  
  21455189.614   114811064.01208      2994.722    21455194.462    89297503.77407
      2329.227  
 20 10 01 05 58  5.0000000  0 14G15G18G20G29G 5G30G24G27G13R14R 4R 5
                                R20R21
  19990941.990   105053107.36449       291.207    19990940.925    81859564.50649
       226.909  
  20420299.184   107309395.80349       580.723    20420299.537    83617711.34048
       452.511  
  21872565.055   114941104.18448      2695.374    21872565.133    89564499.12046
      2100.292  
  24431413.129   128387935.38447     -3689.582    24431415.175   100042563.31948
     -2875.007  
  23546363.752   123736970.89447     -3203.827    23546363.904    96418422.75546
     -2496.491  
  24467895.156   128579650.16545     -2068.633    24467899.592   100191946.56544
     -1611.929  
  23947396.209   125844416.99045      3808.191    23947400.347    98060600.29248
      2967.425  
  24356822.472   127995969.24447      1754.930    24356823.529    99737117.56049
      1367.472  
  20953597.786   110111898.46349     -1771.680    20953596.952    85801476.16947
     -1380.534  
  22557860.228   120246090.12505      2652.007    22557866.330    93524763.99006
      2062.707  
  20697083.087   110831942.58108     -2729.711    20697085.774    86202627.58507
     -2123.112  
  19386747.517   103633275.01909       658.745    19386751.992    80603676.62608
       512.358  
  19891863.457   106370729.83005     -1600.016    19891869.296    82732812.84608
     -1244.461  
  21452392.893   114796098.54008      2991.589    21452397.740    89285863.96807
      2326.793  
 20 10 01 05 58 10.0000000  0 14G15G18G20G29G 5G30G24G27G13R14R 4R 5
                                R20R21
  19990666.768   105051661.00149       287.827    19990665.661    81858437.47149
       224.276  
  20419748.437   107306501.54449       577.386    20419748.806    83615456.06548
       449.906  
  21870001.280   114927631.64448      2694.031    21870001.377    89554001.03346
      2099.246  
  24434923.913   128406384.64947     -3690.129    24434925.981   100056939.32548
     -2875.434  
  23549412.816   123752993.26748     -3204.616    23549412.771    96430907.69946
     -2497.112  
  24469864.554   128589998.33245     -2070.733    24469869.587   100200010.14443
     -1613.551  
  23943773.166   125825377.55046      3807.550    23943777.028    98045764.37348
      2966.921  
  24355154.279   127987203.58047      1751.874    24355155.483    99730287.16049
      1365.094  
  20955285.205   110120765.66149     -1774.663    20955284.332    85808385.67647
     -1382.858  
  22555374.458   120232839.75906      2648.577    22555380.599    93514458.20106
      2060.007  
  20699632.932   110845596.67008     -2731.324    20699635.526    86213247.43107
     -2124.366  
  19386132.939   103629989.81409       655.792    19386137.462    80601121.45808
       510.058  
  19893362.135   106378743.84205     -1604.934    19893367.850    82739045.95908
     -1248.284  
  21449599.475   114781150.67408      2987.894    21449604.440    89274237.84607
      2323.914  
 20 10 01 05 58 15.0000000  0 14G15G18G20G29G 5G30G24G27G13R14R 4R 5
                                R20R21
  19990394.545   105050230.42849       284.909    19990393.434    81857322.74549
       222.004  
  20419200.602   107303622.62149       574.640    20419200.971    83613212.74148
       447.772  
  21867438.581   114914164.88248      2693.195    21867438.763    89543507.46246
      2098.594  
  24438434.922   128424835.81046     -3690.179    24438437.124   100071316.90349
     -2875.460  
  23552462.512   123769018.87447     -3205.309    23552462.357    96443395.18146
     -2497.647  
  24471836.444   128600358.93246     -2072.969    24471840.014   100208083.33944
     -1615.301  
  23940150.582   125806340.68346      3807.598    23940154.418    98030930.48647
      2966.964  
  24353489.070   127978452.65947      1749.086    24353490.235    99723468.28148
      1362.925  
  20956975.177   110129646.24249     -1777.120    20956974.233    85815305.59947
     -1384.770  
  22552891.611   120219604.81806      2645.194    22552897.825    93504164.35305
      2057.374  
  20702184.130   110859258.12408     -2732.757    20702186.714    86223873.00808
     -2125.476  
  19385520.901   103626718.08509       653.374    19385525.363    80598576.77408
       508.176  
  19894864.876   106386779.89105     -1609.082    19894870.579    82745296.21808
     -1251.511  
  21446809.145   114766219.08708      2985.117    21446814.123    89262624.38506
      2321.753  
 20 10 01 05 58 20.0000000  0 14G15G18G20G29G 5G30G24G27G13R14R 4R 5
                                R20R21
  19990125.143   105048814.71249       281.613    19990124.017    81856219.59349
       219.437  
  20418655.538   107300758.19749       571.351    20418655.893    83610980.73548
       445.211  
  21864876.882   114900702.96748      2691.824    21864877.008    89533017.66046
      2097.520  
  24441946.050   128443288.00946     -3690.683    24441948.466   100085695.16549
     -2875.867  
  23555512.583   123785046.79047     -3205.640    23555512.275    96455884.45846
     -2497.906  
  24473810.371   128610730.95545     -2076.019    24473813.061   100216165.32743
     -1617.684  
  23936528.334   125787305.51545      3806.628    23936532.122    98016097.88247
      2966.202  
  24351826.403   127969715.50147      1745.941    24351827.548    99716660.10248
      1360.472  
  20958667.533   110138539.38349     -1780.031    20958666.498    85822235.32947
     -1387.043  
  22550411.381   120206384.48206      2642.054    22550417.684    93493881.86006
      2055.003  
  20704736.525   110872926.04908     -2734.448    20704739.102    86234503.61307
     -2126.796  
  19384911.186   103623458.99809       650.508    19384915.676    80596041.92808
       505.949  
  19896371.482   106394836.92305     -1613.344    19896377.239    82751562.79808
     -1254.824  
  21444021.644   114751302.97908      2981.472    21444026.620    89251022.98307
      2318.922  
 20 10 01 05 58 25.0000000  0 14G15G18G20G29G 5G30G24G27G13R14R 4R 5
                                R20R21
  19989858.295   105047412.51149       279.085    19989857.203    81855126.96949
       217.468  
  20418112.976   107297906.82649       568.882    20418113.311    83608758.89448
       443.284  
  21862315.830   114887244.48448      2691.379    21862315.965    89522530.52546
      2097.175  
  24445457.208   128461739.67146     -3690.440    24445459.781   100100073.10049
     -2875.671  
  23558562.856   123801075.67948     -3205.934    23558562.421    96468374.48546
     -2498.132  
  24475786.165   128621112.98146     -2078.180    24475788.367   100224255.24942
     -1619.359  
  23932906.267   125768270.83245      3806.917    23932909.642    98001265.68447
      2966.430  
  24350166.134   127960990.79447      1743.922    24350167.274    99709861.62348
      1358.895  
  20960361.999   110147443.61649     -1782.020    20960360.858    85829173.70047
     -1388.586  
  22547933.579   120193177.18706      2640.094    22547939.950    93483609.53805
      2053.406  
  20707289.882   110886599.00508     -2735.230    20707292.397    86245138.12107
     -2127.405  
  19384303.621   103620211.12309       648.362    19384308.043    80593515.81108
       504.280  
  19897881.905   106402913.67505     -1617.190    19897887.544    82757844.72208
     -1257.816  
  21441236.745   114736400.76708      2978.898    21441241.733    89239432.37307
      2316.922  
 20 10 01 05 58 30.0000000  0 14G15G18G20G29G 5G30G24G27G13R14R 4R 5
                                R20R21
  19989594.897   105046028.43549       274.660    19989593.823    81854048.47349
       214.019  
  20417573.801   107295073.22549       564.671    20417574.095    83606550.89348
       439.999  
  21859756.300   114873794.15848      2689.065    21859756.425    89512049.76146
      2095.374  
  24448969.044   128480195.71645     -3691.785    24448971.946   100114454.39149
     -2876.726  
  23561614.177   123817110.13548     -3207.702    23561613.643    96480868.88546
     -2499.507  
  24477764.821   128631509.76546     -2081.187    24477766.334   100232356.59642
     -1621.710  
  23929285.105   125749241.24446      3805.472    23929288.147    97986437.42448
      2965.301  
  24348509.059   127952283.15147      1739.499    24348510.202    99703076.47149
      1355.453  
  20962059.463   110156363.62949     -1785.887    20962058.243    85836124.36347
     -1391.602  
  22545459.324   120179987.79406      2636.324    22545465.607    93473351.17606
      2050.480  
  20709844.993   110900281.72508     -2737.741    20709847.540    86255780.23307
     -2129.359  
  19383699.030   103616979.17409       644.410    19383703.417    80591002.07008
       501.202  
  19899396.904   106411014.80605     -1622.449    19899402.396    82764145.59008
     -1261.910  
  21438455.439   114721517.40808      2974.554    21438460.301    89227856.42507
      2313.538  
 20 10 01 05 58 35.0000000  0 14G15G18G20G29G 5G30G24G27G13R14R 4R 5
                                R20R21
  19989335.434   105044664.97849       271.335    19989334.358    81852986.03749
       211.426  
  20417038.439   107292259.84849       561.304    20417038.689    83604358.65048
       437.378  
  21857198.776   114860354.43648      2687.367    21857198.996    89501577.26646
      2094.050  
  24452482.124   128498661.32355     -3692.714    24452485.271   100128838.84059
     -2877.440  
  23564667.044   123833152.74448     -3208.526    23564666.439    96493369.60746
     -2500.156  
  24479746.610   128641923.66845     -2083.827    24479748.494   100240471.33844
     -1623.766  
  23925665.299   125730219.06946      3804.007    23925668.248    97971614.98048
      2964.159  
  24346855.865   127943595.08847      1736.362    24346856.936    99696306.56048
      1353.012  
  20963760.355   110165301.87649     -1788.773    20963759.145    85843089.24447
     -1393.848  
  22542988.902   120166818.83906      2632.363    22542995.083    93463108.65406
      2047.261  
  20712402.424   110913976.68508     -2739.664    20712405.046    86266431.87307
     -2130.854  
  19383097.908   103613765.70509       641.397    19383102.188    80588502.70208
       498.863  
  19900916.869   106419142.87105     -1627.843    19900922.360    82770467.40708
     -1266.105  
  21435678.096   114706655.34608      2970.789    21435682.687    89216297.02606
      2310.609  
 20 10 01 05 58 40.0000000  0 15G15G18G20G29G 5G30G24G27G13R14R 4R 6
                                R 5R20R21
  19989078.413   105043314.42149       268.819    19989077.363    81851933.65549
       209.464  
  20416505.463   107289459.01149       558.937    20416505.676    83602176.17848
       435.535  
  21854641.794   114846917.59448      2687.223    21854642.072    89491106.99846
      2093.940  
  24455995.035   128517122.95345     -3692.601    24455998.473   100143224.47049
     -2877.363  
  23567719.976   123849195.73147     -3208.456    23567719.271    96505870.66146
     -2500.097  
  24481729.982   128652346.97945     -2085.418    24481732.050   100248593.38644
     -1625.004  
  23922045.490   125711196.74846      3804.417    23922048.465    97956792.38348
      2964.476  
  24345204.906   127934918.92947      1733.983    24345205.959    99689545.89648
      1351.152  
  20965463.273   110174250.67749     -1790.715    20965462.106    85850062.33247
     -1395.366  
  22540520.803   120153662.54307      2630.202    22540526.971    93452876.00006
      2045.718  
  20714960.721   110927676.12408     -2740.266    20714963.398    86277086.97607
     -2131.319  
  22980600.073   122628884.80814      3523.651           0.000           0.0000 
         0.000  
  19382498.741   103610562.78309       639.613    19382502.951    80586011.55308
       497.476  
  19902440.366   106427289.91005     -1631.031    19902445.891    82776803.99808
     -1268.578  
  21432903.272   114691806.79308      2968.515    21432907.670    89204748.15406
      2308.840  
 20 10 01 05 58 45.0000000  0 15G15G18G20G29G 5G30G24G27G13R14R 4R 6
                                R 5R20R21
  19988824.702   105041981.09749       264.839    19988823.653    81850894.69249
       206.363  
  20415975.672   107286675.00349       554.897    20415975.882    83600006.82348
       432.387  
  21852086.200   114833488.04648      2685.085    21852086.542    89480642.43546
      2092.272  
  24459508.550   128535587.72746     -3693.937    24459512.319   100157612.64548
     -2878.395  
  23570773.759   123865243.44047     -3210.144    23570772.948    96518375.33446
     -2501.418  
  24483715.899   128662784.13844     -2088.843    24483717.472   100256726.20146
     -1627.679  
  23918426.518   125692178.61046      3802.960    23918429.445    97941973.07248
      2963.347  
  24343556.935   127926258.96947      1730.125    24343558.025    99682797.85349
      1348.140  
  20967168.952   110183214.26749     -1794.413    20967167.897    85857046.94947
     -1398.245  
  22538055.916   120140523.21406      2625.925    22538062.083    93442656.50006
      2042.386  
  20717520.617   110941384.37708     -2742.679    20717523.292    86287748.94007
     -2133.198  
  22977300.311   122611273.24004      3520.988           0.000           0.0000 
         0.000  
  19381902.384   103607374.88109       635.922    19381906.526    80583532.06608
       494.602  
  19903968.203   106435460.28305     -1636.391    19903973.761    82783158.73008
     -1272.858  
  21430131.888   114676976.02808      2964.015    21430135.948    89193213.11707
      2305.340  
 20 10 01 05 58 50.0000000  0 15G15G18G20G29G 5G30G24G27G13R14R 4R 6
                                R 5R20R21
  19988574.300   105040665.10249       261.601    19988573.236    81849869.24649
       203.839  
  20415449.142   107283907.97349       551.921    20415449.289    83597850.69748
       430.070  
  21849532.043   114820065.85648      2683.800    21849532.397    89470183.57446
      2091.272  
  24463022.930   128554056.01146     -3694.312    24463026.716   100172003.45049
     -2878.694  
  23573828.422   123881295.83248     -3210.918    23573827.555    96530883.68846
     -2502.020  
  24485704.402   128673234.97845     -2091.093    24485705.911   100264869.71543
     -1629.426  
  23914808.369   125673164.89046      3802.327    23914811.264    97927157.22548
      2962.855  
  24341912.128   127917615.32546      1727.086    24341913.299    99676062.56848
      1345.776  
  20968877.477   110192192.84949     -1797.093    20968876.587    85864043.24947
     -1400.336  
  22535594.284   120127401.08306      2623.265    22535600.433    93432450.42206
      2040.320  
  20720082.206   110955101.53608     -2744.234    20720084.886    86298417.85407
     -2134.406  
  22974001.323   122593667.70705      3520.651           0.000           0.0000 
         0.000  
  19381308.879   103604202.10109       633.215    19381312.924    80581064.35108
       492.495  
  19905500.458   106443654.22105     -1641.270    19905506.055    82789531.80008
     -1276.367  
  21427363.784   114662163.34608      2960.637    21427367.827    89181692.13207
      2302.719  
 20 10 01 05 58 55.0000000  0 14G15G18G20G29G 5G24G27G13R14R 4R 6R 5
                                R20R21
  19988326.599   105039363.36149       259.054    19988325.529    81848854.89849
       201.858  
  20414925.229   107281154.79449       549.336    20414925.349    83595705.34548
       428.050  
  21846978.681   114806647.94448      2683.315    21846979.072    89459728.07346
      2090.894  
  24466537.176   128572524.43346     -3693.897    24466541.186   100186394.46449
     -2878.366  
  23576883.363   123897349.87247     -3210.710    23576882.586    96543393.34147
     -2501.852  
  23911190.458   125654152.32946      3802.257    23911193.400    97912342.27048
      2962.800  
  24340269.703   127908984.85347      1724.991    24340271.143    99669337.55648
      1344.148  
  20970588.241   110201183.19349     -1799.136    20970587.494    85871048.69247
     -1401.929  
  22533135.346   120114292.96306      2620.452    22533141.479    93422255.20906
      2038.124  
  20722644.892   110968824.48208     -2745.140    20722647.512    86309091.25607
     -2135.113  
  22970703.049   122576065.39104      3520.844           0.000           0.0000 
         0.000  
  19380717.574   103601041.30109       631.038    19380721.586    80578605.94808
       490.805  
  19907036.559   106451868.47805     -1644.660    19907042.086    82795920.66108
     -1279.184  
  21424598.437   114647365.41208      2958.280    21424602.548    89170182.63507
      2300.883  
 20 10 01 05 59  0.0000000  0 14G15G18G20G29G 5G24G27G13R14R 4R 6R 5
                                R20R21
  19988081.409   105038074.91049       256.050    19988080.370    81847850.91649
       199.516  
  20414403.770   107278414.56749       546.546    20414403.865    83593570.11248
       425.878  
  21844425.976   114793233.35748      2682.430    21844426.359    89449275.14246
      2090.199  
  24470051.456   128590992.25546     -3693.761    24470055.540   100200784.93749
     -2878.265  
  23579938.471   123913404.82647     -3211.340    23579937.728    96555903.66846
     -2502.351  
  23907572.607   125635140.17346      3801.890    23907575.483    97897527.57049
      2962.508  
  24338629.649   127900366.77947      1721.933    24338631.228    99662622.16049
      1341.766  
  20972301.059   110210184.42449     -1801.695    20972300.427    85878062.64647
     -1403.921  
  22530678.835   120101197.96906      2617.305    22530684.920    93412070.23706
      2035.683  
  20725208.414   110982552.11808     -2746.395    20725211.081    86319768.30707
     -2136.085  
  22967404.773   122558464.84704      3520.417           0.000           0.0000 
         0.000  
  19380128.350   103597891.43909       628.585    19380132.341    80576156.06408
       488.898  
  19908576.290   106460102.17405     -1648.961    19908581.820    82802324.64108
     -1282.527  
  21421835.622   114632581.53308      2955.147    21421839.862    89158684.05307
      2298.444  
 20 10 01 05 59  5.0000000  0 14G15G18G20G29G 5G24G27G13R14R 4R 6R 5
                                R20R21
  19987839.479   105036803.46449       252.734    19987838.459    81846860.17649
       196.933  
  20413885.488   107275691.00749       543.227    20413885.580    83591447.85448
       423.289  
  21841874.602   114779825.76448      2680.960    21841875.006    89438827.68446
      2089.058  
  24473566.208   128609463.03046     -3694.172    24473570.452   100215177.66149
     -2878.589  
  23582994.337   123929464.16647     -3212.679    23582993.765    96568417.44247
     -2503.391  
  23903955.448   125616131.93746      3801.766    23903958.436    97882715.99249
      2962.417  
  24336992.641   127891764.68447      1718.757    24336994.455    99655919.22348
      1339.293  
  20974016.684   110219200.18449     -1804.457    20974016.115    85885087.91247
     -1406.074  
  22528225.470   120088119.84107      2614.089    22528231.581    93401898.36906
      2033.147  
  20727773.528   110996288.40508     -2747.945    20727776.280    86330452.08207
     -2137.289  
  22964106.795   122540870.42304      3519.065           0.000           0.0000 
         0.000  
  19379541.893   103594756.39209       625.651    19379545.873    80573717.69308
       486.616  
  19910120.316   106468359.17905     -1653.452    19910125.976    82808746.76108
     -1286.019  
  21419076.152   114617815.39307      2951.492    21419080.558    89147199.29607
      2295.604  
 20 10 01 05 59 10.0000000  0 13G15G18G20G29G 5G24G27G13R14R 4R 5R20
                                R21
  19987600.793   105035549.16049       249.378    19987599.811    81845882.79649
       194.320  
  20413370.404   107272984.22649       539.894    20413370.491    83589338.68148
       420.690  
  21839324.655   114766425.42248      2679.914    21839325.009    89428385.84147
      2088.241  
  24477081.569   128627936.90846     -3694.625    24477085.998   100229572.89349
     -2878.937  
  23586051.101   123945527.97448     -3212.901    23586050.646    96580934.67146
     -2503.562  
  23900339.077   125597127.77946      3800.785    23900342.129    97867907.56949
      2961.651  
  24335358.704   127883178.75347      1715.925    24335360.659    99649228.91548
      1337.085  
  20975735.080   110228230.73349     -1807.215    20975734.570    85892124.69947
     -1408.222  
  22525775.305   120075058.74306      2610.910    22525781.416    93391739.71706
      2030.652  
  20730340.271   111010033.38508     -2749.581    20730343.144    86341142.63808
     -2138.562  
  19378958.229   103591636.22109       622.815    19378962.173    80571290.89308
       484.413  
  19911668.766   106476639.34205     -1658.207    19911674.496    82815186.88208
     -1289.719  
  21416320.066   114603067.08508      2948.104    21416324.526    89135728.40707
      2292.977  
 20 10 01 05 59 15.0000000  0 14G15G18G20G29G 5G30G24G27G13R14R 4R 5
                                R20R21
  19987364.982   105034309.87549       246.527    19987364.024    81844917.13149
       192.097  
  20412858.090   107270292.09249       537.109    20412858.194    83587240.91148
       418.522  
  21836775.686   114753030.15549      2678.729    21836775.983    89417947.97346
      2087.319  
  24480597.078   128646411.78146     -3694.460    24480601.701   100243968.88849
     -2878.805  
  23589108.363   123961594.27648     -3213.254    23589107.896    96593453.88146
     -2503.839  
  24495679.306   128725662.89355     -2103.097    24495679.757   100305712.78853
     -1638.784  
  23896723.099   125578125.68646      3800.352    23896726.196    97853100.70648
      2961.304  
  24333727.520   127874606.82747      1712.812    24333729.542    99642549.48348
      1334.660  
  20977455.922   110237273.75749     -1809.660    20977455.391    85899171.20447
     -1410.124  
  22523327.864   120062012.47007      2607.703    22523333.993    93381592.62705
      2028.215  
  20732908.256   111023784.82808     -2750.729    20732911.212    86351838.20508
     -2139.456  
  19378376.928   103588528.80209       620.406    19378380.842    80568874.00908
       482.535  
  19913221.206   106484940.59205     -1662.148    19913226.970    82821643.41008
     -1292.785  
  21413566.913   114588334.43908      2945.125    21413571.431    89124269.67907
      2290.651  
 20 10 01 05 59 20.0000000  0 13G15G18G20G29G 5G24G27G13R14R 4R 5R20
                                R21
  19987131.884   105033084.87449       243.628    19987130.973    81843962.57849
       189.835  
  20412348.443   107267613.91149       534.070    20412348.583    83585154.01448
       416.160  
  21834227.510   114739639.18348      2677.926    21834227.776    89407513.46147
      2086.695  
  24484112.749   128664886.88246     -3695.179    24484117.410   100258365.07049
     -2879.367  
  23592166.025   123977662.24148     -3213.715    23592165.619    96605974.33847
     -2504.198  
  23893107.429   125559124.99646      3800.023    23893110.597    97838294.99849
      2961.058  
  24332098.859   127866048.27847      1710.395    24332100.935    99635880.48549
      1332.773  
  20979179.005   110246328.58449     -1812.359    20979178.455    85906226.92946
     -1412.227  
  22520883.146   120048980.37206      2604.937    22520889.169    93371456.52506
      2026.059  
  20735477.293   111037542.06207     -2751.887    20735480.332    86362538.25106
     -2140.362  
  19377797.868   103585433.30009       617.851    19377801.721    80566466.40208
       480.551  
  19914777.360   106493262.29705     -1666.289    19914783.229    82828115.84008
     -1296.008  
  21410816.579   114573616.93908      2942.137    21410821.137    89112822.73707
      2288.328  
 20 10 01 05 59 25.0000000  0 13G15G18G20G29G 5G24G27G13R14R 4R 5R20
                                R21
  19986902.002   105031876.86249       239.992    19986901.136    81843021.27649
       187.007  
  20411841.933   107264952.36749       530.656    20411842.100    83583080.08148
       413.496  
  21831680.696   114726255.26948      2676.168    21831680.863    89397084.46546
      2085.324  
  24487629.088   128683364.83947     -3695.487    24487633.531   100272763.46548
     -2879.604  
  23595224.490   123993734.55248     -3215.237    23595224.085    96618498.21547
     -2505.383  
  23889492.446   125540128.38046      3798.578    23889495.713    97823492.43149
      2959.929  
  24330473.186   127857505.71547      1707.371    24330475.336    99629223.92748
      1330.413  
  20980904.873   110255397.92449     -1815.023    20980904.259    85913293.93147
     -1414.309  
  22518441.596   120035965.29105      2600.945    22518447.500    93361333.69503
      2022.937  
  20738047.956   111051307.78308     -2753.500    20738051.020    86373244.91707
     -2141.612  
  19377221.580   103582352.64809       614.847    19377225.376    80564070.33808
       478.214  
  19916337.961   106501607.16105     -1671.609    19916343.837    82834606.29508
     -1300.141  
  21408069.627   114558917.19308      2938.246    21408074.009    89101389.62607
      2285.304  
 20 10 01 05 59 30.0000000  0 13G15G18G20G29G 5G24G27G13R14R 4R 5R20
                                R21
  19986675.241   105030685.41349       236.538    19986674.449    81842092.87349
       184.315  
  20411338.550   107262307.07349       527.464    20411338.760    83581018.83448
       411.012  
  21829135.127   114712878.02648      2674.836    21829135.344    89386660.64547
      2084.288  
  24491146.012   128701845.39747     -3696.270    24491150.211   100287163.90048
     -2880.211  
  23598283.741   124009810.96146     -3216.008    23598283.125    96631025.34644
     -2505.973  
  23885878.189   125521135.27046      3797.909    23885881.490    97808692.60449
      2959.410  
  24328850.520   127848978.79947      1703.362    24328852.570    99622579.59748
      1327.301  
  20982633.412   110264481.36449     -1818.116    20982632.783    85920371.91847
     -1416.719  
  22516002.971   120022966.67303      2598.211    22516008.713    93351223.75103
      2020.719  
  20740620.087   111065081.49108     -2755.609    20740623.237    86383957.80108
     -2143.250  
  19376647.916   103579286.20709       611.750    19376651.741    80561685.32508
       475.800  
  19917902.751   106509974.64005     -1675.848    19917908.660    82841114.34308
     -1303.437  
  21405325.854   114544234.80508      2934.683    21405330.313    89089970.01807
      2282.530  
 20 10 01 05 59 35.0000000  0 13G15G18G20G29G 5G24G27G13R14R 4R 5R20
                                R21
  19986451.437   105029509.34649       233.812    19986450.689    81841176.45849
       182.187  
  20410838.042   107259676.85449       524.878    20410838.280    83578969.29348
       408.991  
  21826590.639   114699506.24748      2673.863    21826590.770    89376241.07146
      2083.530  
  24494663.148   128720327.19647     -3696.343    24494667.155   100301565.29148
     -2880.273  
  23601343.382   124025890.10748     -3215.956    23601342.922    96643554.48747
     -2505.953  
  23882264.478   125502144.62246      3797.773    23882267.811    97793894.75649
      2959.308  
  24327230.661   127840466.25947      1701.461    24327232.578    99615946.50048
      1325.820  
  20984364.422   110273577.69949     -1820.406    20984363.809    85927459.98947
     -1418.500  
  22513567.299   120009983.26405      2594.964    22513573.023    93341125.46004
      2018.292  
  20743193.457   111078862.01708     -2756.504    20743196.656    86394676.00107
     -2143.948  
  19376076.718   103576232.92509       609.531    19376080.585    80559310.55108
       474.074  
  19919471.496   106518363.57605     -1679.984    19919477.511    82847639.05108
     -1306.659  
  21402585.154   114529568.61008      2931.757    21402589.572    89078562.96107
      2280.249  
 20 10 01 05 59 40.0000000  0 13G15G18G20G29G 5G24G27G13R14R 4R 5R20
                                R21
  19986230.630   105028348.96949       230.270    19986229.902    81840272.27849
       179.429  
  20410340.447   107257062.00549       521.257    20410340.737    83576931.75248
       406.172  
  21824047.259   114686140.22648      2672.503    21824047.278    89365825.99146
      2082.464  
  24498180.582   128738810.52847     -3696.757    24498184.431   100315967.88449
     -2880.593  
  23604403.658   124041972.37647     -3216.851    23604403.404    96656086.15046
     -2506.637  
  23878651.096   125483156.73146      3797.137    23878654.666    97779098.99949
      2958.809  
  24325613.612   127831968.54347      1697.804    24325615.656    99609324.91348
      1322.964  
  20986097.908   110282687.19549     -1823.414    20986097.268    85934558.31147
     -1420.844  
  22511134.614   119997015.58706      2592.305    22511140.388    93331039.48906
      2016.234  
  20745768.141   111092649.83308     -2758.476    20745771.455    86405399.85107
     -2145.483  
  19375508.054   103573193.14909       606.495    19375511.926    80556946.28708
       471.719  
  19921044.410   106526774.37605     -1684.815    19921050.416    82854180.77508
     -1310.417  
  21399847.527   114514918.98408      2928.168    21399851.950    89067168.78607
      2277.457  
 20 10 01 05 59 45.0000000  0 14G15G18G20G29G 5G24G27G13R14R 4R 6R 5
                                R20R21
  19986013.147   105027206.05649       227.167    19986012.428    81839381.69649
       177.011  
  20409846.110   107254464.34249       518.043    20409846.472    83574907.59848
       403.664  
  21821505.252   114672781.82748      2671.199    21821505.359    89355416.85346
      2081.452  
  24501698.644   128757297.26147     -3697.628    24501702.276   100330373.09348
     -2881.276  
  23607464.961   124058059.56647     -3217.554    23607464.738    96668621.64347
     -2507.184  
  23875038.667   125464173.56946      3796.434    23875042.314    97764306.93049
      2958.262  
  24323999.698   127823487.36747      1694.629    24324001.848    99602716.20247
      1320.487  
  20987834.249   110291811.70049     -1826.109    20987833.576    85941668.32547
     -1422.941  
  22508705.152   119984065.49906      2588.547    22508711.135    93320967.19706
      2013.308  
  20748344.468   111106446.60808     -2759.727    20748347.798    86416130.66607
     -2146.457  
  22937761.477   122400290.28814      3511.246           0.000           0.0000 
         0.000  
  19374942.238   103570168.57209       603.668    19374946.119    80554593.85208
       469.520  
  19922621.655   106535208.67705     -1688.644    19922627.696    82860740.79208
     -1313.394  
  21397113.301   114500287.67908      2924.988    21397117.838    89055788.88007
      2274.987  
 20 10 01 05 59 50.0000000  0 14G15G18G20G29G 5G24G27G13R14R 4R 6R 5
                                R20R21
  19985798.431   105026077.74649       224.184    19985797.717    81838502.49249
       174.688  
  20409354.521   107251880.96049       515.202    20409354.909    83572894.57648
       401.453  
  21818964.124   114659428.07748      2670.250    21818964.237    89345011.34946
      2080.714  
  24505216.826   128775784.46147     -3697.280    24505220.238   100344778.68349
     -2881.008  
  23610526.670   124074148.77048     -3218.000    23610526.423    96681158.66947
     -2507.535  
  23871426.578   125445192.13546      3795.758    23871430.237    97749516.20249
      2957.729  
  24322388.376   127815019.97347      1692.081    24322390.841    99596118.27148
      1318.504  
  20989572.906   110300948.28049     -1828.538    20989572.193    85948787.73447
     -1424.840  
         0.000           0.0000          0.000    22506284.681    93310903.26116
      2010.987  
  20750921.985   111120249.43408     -2761.202    20750925.358    86426866.17607
     -2147.609  
  22934472.696   122382738.59905      3509.883           0.000           0.0000 
         0.000  
  19374378.701   103567156.26709       601.156    19374382.604    80552250.94208
       467.562  
  19924202.765   106543663.55005     -1692.761    19924208.790    82867316.79408
     -1316.597  
  21394382.018   114485671.91008      2921.637    21394386.459    89044421.07107
      2272.383  
 20 10 01 05 59 55.0000000  0 13G15G18G20G29G 5G24G27G13R 4R 6R 5R20
                                R21
  19985586.511   105024964.16449       220.930    19985585.834    81837634.77149
       172.151  
  20408865.703   107249312.01949       511.867    20408866.046    83570892.79348
       398.855  
  21816423.883   114646079.14548      2669.016    21816424.022    89334609.59646
      2079.754  
  24508735.079   128794272.22647     -3697.922    24508738.396   100359184.70448
     -2881.504  
  23613588.729   124090240.00148     -3218.905    23613588.563    96693697.27647
     -2508.241  
  23867814.915   125426212.68546      3795.254    23867818.617    97734727.03549
      2957.339  
  24320779.761   127806566.32947      1688.780    24320782.277    99589531.00348
      1315.929  
  20991313.871   110310097.05049     -1831.289    20991313.106    85955916.63847
     -1426.980  
  20753500.671   111134058.37108     -2762.819    20753504.108    86437606.48407
     -2148.854  
  22931184.946   122365190.31604      3509.284           0.000           0.0000 
         0.000  
  19373817.542   103564156.42809       598.508    19373821.454    80549917.74208
       465.504  
  19925787.769   106552139.28005     -1697.801    19925793.756    82873909.02408
     -1320.516  
  21391653.649   114471071.73208      2918.104    21391658.107    89033065.35407
      2269.632  
 20 10 01 06 00  0.0000000  0 14G15G18G20G29G 5G24G27G13R14R 4R 6R 5
                                R20R21
  19985377.724   105023866.91549       217.566    19985377.040    81836779.76549
       169.531  
  20408379.939   107246759.12349       508.769    20408380.270    83568903.52948
       396.444  
  21813884.897   114632736.71548      2667.539    21813885.045    89324212.91047
      2078.601  
  24512253.745   128812762.15648     -3698.065    24512256.849   100373592.42948
     -2881.613  
  23616651.460   124106335.07248     -3219.336    23616651.460    96706238.88847
     -2508.578  
  23864203.848   125407236.68347      3794.151    23864207.620    97719940.60849
      2956.488  
  24319173.933   127798128.14747      1686.062    24319176.468    99582955.79747
      1313.815  
  20993057.481   110319259.72049     -1834.184    20993056.720    85963056.38547
     -1429.233  
  22501433.522   119945302.84215      2579.113    22501440.118    93290818.08116
      2006.164  
  20756080.782   111147874.99808     -2764.320    20756084.264    86448352.74507
     -2150.031  
  22927896.566   122347647.26605      3507.832           0.000           0.0000 
         0.000  
  19373258.992   103561170.65609       595.565    19373262.911    80547595.47508
       463.215  
  19927377.040   106560637.35405     -1702.191    19927382.947    82880518.64208
     -1323.926  
  21388928.507   114456488.72608      2914.854    21388933.012    89021723.04207
      2267.112  
 20 10 01 06 00  5.0000000  0 14G15G18G20G29G 5G24G27G13R14R 4R 6R 5
                                R20R21
  19985172.251   105022787.27749       214.546    19985171.592    81835938.48849
       167.176  
  20407897.454   107244223.58649       505.805    20407897.711    83566927.78048
       394.129  
  21811347.446   114619402.04048      2666.652    21811347.532    89313822.24946
      2077.909  
  24515773.149   128831255.62548     -3698.477    24515776.054   100388002.89048
     -2881.938  
  23619715.126   124122435.15347     -3220.171    23619715.266    96718784.38347
     -2509.230  
  23860593.690   125388265.36245      3794.565    23860597.459    97705157.72749
      2956.800  
  24317571.299   127789706.74747      1683.367    24317573.948    99576393.68148
      1311.711  
  20994803.986   110328437.47749     -1836.612    20994803.225    85970207.87447
     -1431.133  
  22499016.014   119932416.25405      2576.344    22499022.511    93280795.22906
      2003.836  
  20758662.679   111161700.84608     -2765.632    20758666.081    86459106.17107
     -2151.050  
  22924609.787   122330110.94505      3507.098           0.000           0.0000 
         0.000  
  19372703.319   103558200.42209       592.859    19372707.334    80545285.28708
       461.108  
  19928970.603   106569159.25905     -1706.117    19928976.616    82887146.78808
     -1326.983  
  21386206.841   114441924.38508      2911.351    21386211.334    89010395.22707
      2264.378  
 20 10 01 06 00 10.0000000  0 14G15G18G20G29G 5G24G27G13R14R 4R 6R 5
                                R20R21
  19984969.466   105021721.75749       211.792    19984968.833    81835108.22349
       165.035  
  20407417.606   107241701.93449       503.124    20407417.827    83564962.85948
       392.043  
  21808810.802   114606071.66948      2665.905    21808810.776    89303434.93746
      2077.324  
  24519292.454   128849749.03947     -3698.308    24519295.160   100402413.35548
     -2881.801  
  23622779.064   124138536.81947     -3220.870    23622779.334    96731331.13547
     -2509.772  
  23856983.762   125369295.46546      3793.484    23856987.556    97690375.99449
      2955.956  
  24315971.353   127781298.60147      1680.358    24315974.061    99569841.85148
      1309.366  
  20996552.693   110337626.80949     -1838.945    20996551.943    85977368.39447
     -1432.948  
  22496601.231   119919543.85606      2573.382    22496607.669    93270783.34006
      2001.515  
  20761245.549   111175532.12008     -2766.702    20761248.918    86469863.84507
     -2151.875  
  22921324.027   122312577.53204      3507.297           0.000           0.0000 
         0.000  
  19372149.834   103555241.85009       590.582    19372153.879    80542984.17308
       459.335  
  19930567.982   106577701.25505     -1710.288    19930574.002    82893790.55208
     -1330.230  
  21383488.009   114427375.15008      2908.522    21383492.374    88999079.13607
      2262.176  
 20 10 01 06 00 15.0000000  0 14G15G18G20G29G 5G24G27G13R14R 4R 6R 5
                                R20R21
  19984769.926   105020673.13949       207.824    19984769.323    81834291.10949
       161.937  
  20406940.902   107239196.86849       499.202    20406941.146    83563010.86848
       388.988  
  21806275.507   114592748.31948      2663.871    21806275.330    89293053.11846
      2075.742  
  24522812.322   128868245.16647     -3699.656    24522814.845   100416825.87548
     -2882.855  
  23625843.797   124154642.66247     -3221.878    23625844.140    96743881.12847
     -2510.559  
  23853374.658   125350329.71546      3792.523    23853378.502    97675597.49049
      2955.210  
  24314374.360   127772906.50147      1676.733    24314377.140    99563302.56748
      1306.542  
  20998304.135   110346830.38649     -1842.390    20998303.343    85984539.99147
     -1435.632  
  22494189.730   119906688.41705      2569.469    22494196.005    93260784.69106
      1998.477  
  20763829.985   111189371.78108     -2768.796    20763833.331    86480627.98907
     -2153.515  
  22918039.152   122295049.96205      3504.604           0.000           0.0000 
         0.000  
  19371599.106   103552297.99109       587.042    19371603.221    80540694.50408
       456.585  
  19932169.744   106586266.16105     -1715.085    19932175.667    82900452.14208
     -1333.960  
  21380772.572   114412843.79708      2904.366    21380776.758    88987776.99207
      2258.952  
 20 10 01 06 00 20.0000000  0 15G15G18G20G29G 5G30G24G27G13R14R 4R 6
                                R 5R20R21
  19984573.529   105019641.06249       204.897    19984572.975    81833486.90749
       159.660  
  20406467.334   107236708.16149       496.164    20406467.532    83561071.62448
       386.620  
  21803741.497   114579431.63148      2662.858    21803741.180    89282676.47746
      2074.957  
  24526332.523   128886743.66547     -3699.691    24526334.950   100431240.27349
     -2882.882  
  23628909.323   124170752.51347     -3222.344    23628909.718    96756434.28147
     -2510.918  
  24521894.487   128863426.03414     -2135.304           0.000           0.0000 
         0.000  
  23849766.352   125331367.81545      3792.296    23849770.095    97660821.94849
      2955.027  
  24312780.387   127764530.17746      1673.487    24312783.173    99556775.57148
      1304.016  
  21000058.243   110356048.03449     -1844.804    21000057.413    85991722.58147
     -1437.516  
  22491781.254   119893849.82206      2566.141    22491787.440    93250799.14105
      1995.886  
  20766415.912   111203219.42808     -2770.281    20766419.207    86491398.38607
     -2154.667  
  22914755.605   122277527.89205      3504.516           0.000           0.0000 
         0.000  
  19371051.090   103549368.53009       584.499    19371055.229    80538416.04208
       454.608  
  19933775.631   106594853.71705     -1719.718    19933781.539    82907131.35308
     -1337.559  
  21378060.368   114398330.05408      2901.086    21378064.344    88976488.52007
      2256.395  
 20 10 01 06 00 25.0000000  0 15G15G18G20G29G 5G30G24G27G13R14R 4R 6
                                R 5R20R21
  19984379.657   105018622.22749       202.477    19984379.118    81832693.00349
       157.769  
  20405996.260   107234232.43349       493.792    20405996.383    83559142.47448
       384.770  
  21801208.106   114566118.41648      2662.147    21801207.698    89272302.54246
      2074.398  
  24529852.617   128905241.13747     -3699.152    24529854.887   100445653.85748
     -2882.465  
  23631975.037   124186863.01047     -3222.016    23631975.491    96768987.92147
     -2510.664  
  24523925.897   128874106.35705     -2137.219           0.000           0.0000 
         0.000  
  23846158.154   125312406.32645      3791.609    23846161.803    97646046.78549
      2954.500  
  24311188.798   127756166.22746      1671.585    24311191.603    99550258.20248
      1302.530  
  21001814.411   110365276.35149     -1846.813    21001813.496    85998913.48147
     -1439.077  
  22489375.157   119881024.40505      2564.164    22489381.329    93240823.79805
      1994.347  
  20769002.756   111217071.67408     -2770.770    20769006.086    86502172.36307
     -2155.047  
  22911472.142   122260007.83004      3504.308           0.000           0.0000 
         0.000  
  19370505.049   103546449.94009       582.651    19370509.244    80536146.01608
       453.172  
  19935385.075   106603460.44905     -1723.691    19935391.026    82913825.47908
     -1340.651  
  21375350.840   114383830.54108      2898.308    21375354.592    88965211.12407
      2254.234  
 20 10 01 06 00 30.0000000  0 15G15G18G20G29G 5G30G24G27G13R14R 4R 6
                                R 5R20R21
  19984188.625   105017618.43949       199.102    19984188.127    81831910.83149
       155.140  
  20405527.972   107231771.52749       490.589    20405528.105    83557224.89148
       382.277  
  21798675.731   114552810.47748      2660.867    21798675.226    89261932.70947
      2073.397  
  24533372.884   128923739.51247     -3699.891    24533374.894   100460068.16748
     -2883.038  
  23635041.181   124202975.99047     -3223.116    23635041.826    96781543.45947
     -2511.522  
  24525959.255   128884798.25744     -2139.875    24525954.329   100429706.72654
     -1667.434  
  23842550.374   125293447.18946      3791.242    23842554.016    97631273.46648
      2954.215  
  24309599.890   127747816.58646      1668.379    24309602.649    99543751.98348
      1300.026  
  21003572.920   110374517.16249     -1849.538    21003571.979    86006114.11247
     -1441.202  
  22486971.944   119868214.36805      2560.598    22486977.985    93230860.45504
      1991.418  
  20771590.802   111230930.38609     -2772.594    20771594.125    86512951.39207
     -2156.456  
  22908189.732   122242492.04005      3502.171           0.000           0.0000 
         0.000  
  19369961.437   103543544.17909       579.644    19369965.679    80533885.99108
       450.835  
  19936998.609   106612088.36505     -1727.968    19937004.496    82920536.07408
     -1343.979  
  21372644.262   114369347.09808      2894.812    21372647.909    88953946.22407
      2251.520  
 20 10 01 06 00 35.0000000  0 14G15G18G20G29G 5G24G27G13R14R 4R 6R 5
                                R20R21
  19984001.113   105016633.15049       195.050    19984000.647    81831143.06949
       151.984  
  20405063.157   107229328.94049       486.438    20405063.272    83555321.57048
       379.038  
  21796144.996   114539511.18648      2658.835    21796144.370    89251569.65546
      2071.820  
  24536894.005   128942242.18948     -3701.233    24536895.683   100474485.80448
     -2884.093  
  23638108.519   124219094.89847     -3224.522    23638109.145    96794103.64846
     -2512.616  
  23838943.661   125274493.94145      3790.093    23838947.365    97616504.67949
      2953.316  
  24308014.352   127739484.62347      1664.801    24308017.119    99537259.53347
      1297.242  
  21005334.474   110383773.91149     -1853.116    21005333.504    86013327.16647
     -1443.991  
  22484572.254   119855423.20005      2556.394    22484578.005    93220911.78105
      1988.305  
  20774180.765   111244799.11608     -2775.031    20774184.033    86523738.17207
     -2158.363  
  22904908.487   122224983.75205      3500.343           0.000           0.0000 
         0.000  
  19369420.898   103540654.68809       576.124    19369425.147    80531638.60508
       448.094  
  19938616.638   106620740.81905     -1733.371    19938622.568    82927265.75008
     -1348.180  
  21369941.308   114354883.32608      2890.616    21369944.965    88942696.60507
      2248.254  
 20 10 01 06 00 40.0000000  0 14G15G18G20G29G 5G24G27G13R14R 4R 6R 5
                                R20R21
  19983816.702   105015664.03449       192.300    19983816.254    81830387.92049
       149.843  
  20404601.387   107226902.38849       483.835    20404601.503    83553430.76448
       377.016  
  21793615.491   114526218.36248      2658.163    21793614.782    89241211.60146
      2071.296  
  24540415.418   128960746.80947     -3700.948    24540416.917   100488905.01148
     -2883.855  
  23641176.475   124235217.39647     -3224.449    23641177.204    96806666.64947
     -2512.558  
  23835337.702   125255544.15546      3789.730    23835341.379    97601738.70548
      2953.046  
  24306431.691   127731168.08946      1662.093    24306434.422    99530779.15348
      1295.145  
  21007098.594   110393044.32649     -1855.218    21007097.594    86020550.85247
     -1445.629  
  22482175.655   119842648.38706      2553.734    22482181.270    93210975.83905
      1986.242  
  20776772.163   111258675.49608     -2775.804    20776775.260    86534530.91607
     -2158.961  
  22901628.405   122207480.63704      3500.551           0.000           0.0000 
         0.000  
  19368882.969   103537779.27109       573.769    19368887.271    80529402.17408
       446.266  
  19940238.870   106629415.55905     -1736.968    19940244.788    82934012.76808
     -1350.979  
  21367241.676   114340436.86208      2887.687    21367245.347    88931460.48007
      2245.977  
 20 10 01 06 00 45.0000000  0 15G15G18G20G29G 5G30G24G27G13R14R 4R 6
                                R 5R20R21
  19983635.296   105014710.70849       188.820    19983634.874    81829645.07349
       147.132  
  20404142.531   107224491.33449       480.448    20404142.647    83551552.01648
       374.371  
  21791087.160   114512931.54948      2656.530    21791086.357    89230858.24946
      2070.019  
  24543937.112   128979252.97047     -3701.832    24543938.313   100503325.35448
     -2884.551  
  23644245.067   124251343.11047     -3225.433    23644245.851    96819232.11946
     -2513.327  
  24532075.933   128916929.55215     -2147.324           0.000           0.0000 
         0.000  
  23831732.365   125236597.47846      3788.491    23831735.921    97586975.05149
      2952.069  
  24304851.888   127722866.60446      1658.675    24304854.535    99524310.46948
      1292.472  
  21008865.220   110402327.85449     -1858.233    21008864.186    86027784.78247
     -1447.976  
  22479782.205   119829889.60305      2549.930    22479787.467    93201052.36505
      1983.276  
  20779364.824   111272558.92208     -2777.663    20779367.799    86545329.12707
     -2160.410  
  22898349.215   122189982.00205      3499.453           0.000           0.0000 
         0.000  
  19368347.584   103534917.36709       570.917    19368351.909    80527176.25308
       444.047  
  19941865.178   106638112.03405     -1741.495    19941871.132    82940776.68908
     -1354.500  
  21364545.187   114326007.31408      2884.035    21364548.873    88920237.50707
      2243.137  
 20 10 01 06 00 50.0000000  0 15G15G18G20G29G 5G30G24G27G13R14R 4R 6
                                R 5R20R21
  19983456.957   105013773.68849       185.882    19983456.573    81828914.92949
       144.839  
  20403686.751   107222096.34949       477.496    20403686.842    83549685.78948
       372.070  
  21788560.002   114499651.12048      2655.526    21788559.126    89220509.87946
      2069.242  
  24547459.171   128997761.10947     -3702.078    24547460.269   100517747.23848
     -2884.742  
  23647314.368   124267472.46047     -3226.526    23647315.172    96831800.44547
     -2514.176  
  24534120.268   128927673.57445     -2150.159    24534123.877   100463135.38051
     -1675.448  
  23828127.690   125217654.44446      3788.512    23828131.232    97572214.23649
      2952.086  
  24303274.863   127714580.47046      1656.059    24303277.774    99517853.73948
      1290.433  
  21010634.435   110411625.05049     -1860.785    21010633.399    86035029.35047
     -1449.964  
  22477391.761   119817147.35106      2546.679    22477396.863    93191141.69105
      1980.745  
  20781958.928   111286450.07708     -2778.996    20781961.780    86556133.36907
     -2161.441  
  22895071.172   122172488.82704      3498.355           0.000           0.0000 
         0.000  
  19367814.851   103532069.44809       568.281    19367819.169    80524961.20408
       441.995  
  19943495.699   106646830.69406     -1745.836    19943501.598    82947557.88308
     -1357.854  
  21361851.926   114311595.09608      2880.711    21361855.730    88909028.02407
      2240.555  
 20 10 01 06 00 55.0000000  0 15G15G18G20G29G 5G30G24G27G13R14R 4R 6
                                R 5R20R21
  19983281.411   105012851.18649       183.073    19983281.057    81828196.09349
       142.651  
  20403233.689   107219715.64549       474.792    20403233.748    83547830.69348
       369.964  
  21786033.740   114486375.45948      2654.867    21786032.832    89210165.22246
      2068.727  
  24550981.275   129016269.51247     -3701.733    24550982.204   100532169.34848
     -2884.477  
  23650384.001   124283603.70747     -3226.238    23650384.838    96844370.24546
     -2513.960  
  24536166.939   128938428.30845     -2152.000    24536169.977   100471515.75541
     -1676.848  
  23824523.322   125198713.17546      3787.929    23824526.841    97557454.85749
      2951.636  
  24301700.429   127706308.04746      1652.980    24301703.616    99511407.79445
      1288.046  
  21012405.914   110420934.10949     -1863.038    21012404.850    86042283.14947
     -1451.723  
  22475004.021   119804419.88305      2543.394    22475009.289    93181242.51305
      1978.190  
  20784554.087   111300347.03508     -2779.793    20784556.970    86566942.08807
     -2162.065  
  22891793.740   122154998.98005      3497.934           0.000           0.0000 
         0.000  
  19367284.388   103529233.82009       566.019    19367288.751    80522755.71108
       440.233  
  19945130.130   106655569.94905     -1749.487    19945135.943    82954355.07908
     -1360.714  
  21359161.611   114297198.52408      2877.620    21359165.512    88897830.67907
      2238.145  
 20 10 01 06 01  0.0000000  0 15G15G18G20G29G 5G30G24G27G13R14R 4R 6
                                R 5R20R21
  19983108.922   105011944.69149       179.604    19983108.580    81827489.73949
       139.949  
  20402783.646   107217350.74749       471.207    20402783.722    83545987.91148
       367.171  
  21783508.643   114473106.04648      2653.184    21783507.690    89199825.40546
      2067.410  
  24554503.647   129034779.58047     -3702.125    24554504.548   100546592.75748
     -2884.780  
  23653454.291   124299738.28347     -3227.269    23653455.160    96856942.60846
     -2514.761  
  24538215.978   128949195.39305     -2155.011           0.000           0.0000 
         0.000  
  23820919.625   125179775.24246      3787.421    23820923.136    97542698.03449
      2951.238  
  24300128.952   127698051.00446      1649.761    24300132.310    99504973.74647
      1285.526  
  21014179.950   110430256.57549     -1865.999    21014178.860    86049547.42347
     -1454.026  
  22472619.016   119791708.56105      2540.875    22472624.935    93171355.96305
      1976.237  
  20787150.605   111314251.39708     -2781.727    20787153.497    86577756.59407
     -2163.569  
  22888517.348   122137514.30605      3495.745           0.000           0.0000 
         0.000  
  19366756.486   103526411.84709       562.804    19366760.889    80520560.85108
       437.737  
  19946768.546   106664331.13905     -1754.539    19946774.401    82961169.32208
     -1364.644  
  21356474.542   114282819.12908      2873.937    21356478.450    88886646.72407
      2235.285  
 20 10 01 06 01  5.0000000  0 15G15G18G20G29G 5G30G24G27G13R14R 4R 6
                                R 5R20R21
  19982939.656   105011055.06749       176.378    19982939.338    81826796.53049
       137.437  
  20402336.753   107215002.52749       468.058    20402336.864    83544158.13548
       364.719  
  21780984.850   114459843.67748      2651.938    21780983.991    89189491.09446
      2066.445  
  24558026.496   129053292.27547     -3702.559    24558027.436   100561018.20748
     -2885.116  
  23656525.418   124315877.16747     -3227.944    23656526.267    96869518.40246
     -2515.276  
  24540267.742   128959975.73705     -2157.449           0.000           0.0000 
         0.000  
  23817316.779   125160841.62546      3786.679    23817320.204    97527944.56849
      2950.660  
  24298560.681   127689810.05946      1646.831    24298564.119    99498552.20446
      1283.246  
  21015956.712   110439593.30049     -1868.554    21015955.593    86056822.78347
     -1456.019  
  22470237.309   119779014.62804      2537.218    22470243.661    93161482.90405
      1973.390  
  20789748.693   111328163.94408     -2783.250    20789751.620    86588577.46807
     -2164.750  
  22885241.899   122120035.50405      3495.479           0.000           0.0000 
         0.000  
  19366231.318   103523604.49409       560.145    19366235.769    80518377.35708
       435.668  
  19948411.143   106673115.28305     -1759.179    19948417.083    82968001.44608
     -1368.249  
  21353790.796   114268457.83208      2870.788    21353794.691    88875476.82607
      2232.831  
 20 10 01 06 01 10.0000000  0 15G15G18G20G29G 5G30G24G27G13R14R 4R 6
                                R 5R20R21
  19982773.078   105010179.53549       173.565    19982772.753    81826114.29949
       135.245  
  20401892.507   107212668.21949       465.425    20401892.628    83542339.18748
       362.664  
  21778461.931   114446585.65048      2651.188    21778461.073    89179160.16446
      2065.854  
  24561549.307   129071804.70947     -3702.565    24561550.407   100575443.46548
     -2885.121  
  23659596.875   124332017.50047     -3227.968    23659597.627    96882095.26646
     -2515.305  
  24542321.274   128970766.37205     -2158.515           0.000           0.0000 
         0.000  
  23813714.265   125141909.41346      3786.738    23813717.519    97513192.20748
      2950.706  
  24296994.974   127681582.43046      1644.457    24296998.087    99492141.03446
      1281.391  
  21017735.627   110448941.46949     -1870.809    21017734.453    86064107.07447
     -1457.777  
  22467858.220   119766335.11904      2533.977    22467865.180    93151621.05005
      1970.999  
  20792347.754   111342081.92108     -2784.066    20792350.715    86599402.54307
     -2165.394  
  22881966.872   122102559.68005      3495.214           0.000           0.0000 
         0.000  
  19365708.378   103520808.98409       558.003    19365712.870    80516203.06908
       433.999  
  19950057.453   106681919.28105     -1762.973    19950063.427    82974848.98908
     -1371.203  
  21351109.934   114254111.83908      2867.523    21351113.653    88864318.84907
      2230.296  
 20 10 01 06 01 15.0000000  0 15G15G18G20G29G 5G30G24G27G13R14R 4R 6
                                R 5R20R21
  19982609.539   105009320.13449       170.210    19982609.228    81825444.62849
       132.628  
  20401451.296   107210349.83049       461.979    20401451.409    83540532.65848
       359.983  
  21775940.242   114433333.95748      2649.832    21775939.432    89168834.15646
      2064.801  
  24565072.482   129090318.96047     -3703.148    24565073.700   100589870.13649
     -2885.586  
  23662668.957   124348161.27346     -3229.188    23662669.751    96894674.81846
     -2516.253  
  24544377.165   128981569.52645     -2162.339    24544383.944   100505148.51354
     -1684.940  
  23810112.390   125122980.89946      3785.449    23810115.642    97498442.71949
      2949.694  
  24295432.239   127673370.20446      1640.297    24295435.145    99485741.92146
      1278.151  
  21019517.087   110458303.10649     -1873.765    21019515.944    86071401.85947
     -1460.077  
  22465482.280   119753671.95705      2531.015    22465489.767    93141771.98106
      1968.574  
  20794948.249   111356007.36108     -2786.137    20794951.189    86610233.42507
     -2167.000  
  22878692.790   122085088.95805      3493.632           0.000           0.0000 
         0.000  
  19365188.006   103518027.32809       555.027    19365192.489    80514039.56008
       431.684  
  19951708.083   106690745.41005     -1767.031    19951713.861    82981713.76008
     -1374.362  
  21348432.358   114239783.12108      2863.855    21348435.904    88853174.27607
      2227.437  
 20 10 01 06 01 20.0000000  0 15G15G18G20G29G 5G30G24G27G13R14R 4R 6
                                R 5R20R21
  19982449.051   105008476.85549       167.230    19982448.743    81824787.53449
       130.304  
  20401013.134   107208047.42949       459.093    20401013.268    83538738.57248
       357.730  
  21773419.772   114420088.73548      2648.762    21773418.997    89158513.23846
      2063.968  
  24568596.038   129108834.93448     -3703.102    24568597.316   100604298.16048
     -2885.538  
  23665741.731   124364308.59447     -3229.585    23665742.663    96907257.13046
     -2516.562  
  24546435.240   128992385.00205     -2164.180           0.000           0.0000 
         0.000  
  23806511.050   125104055.76446      3784.448    23806514.269    97483695.88549
      2948.922  
  24293872.461   127665173.45446      1638.202    24293874.954    99479354.85747
      1276.522  
  21021301.103   110467678.20649     -1876.129    21021299.967    86078707.13447
     -1461.922  
  22463109.825   119741025.41005      2527.667    22463117.433    93131935.76805
      1965.961  
  20797550.219   111369940.32708     -2787.253    20797553.110    86621070.17807
     -2167.866  
  22875419.690   122067623.44105      3492.457           0.000           0.0000 
         0.000  
  19364670.262   103515259.56609       552.445    19364674.746    80511886.86108
       429.680  
  19953362.620   106699593.55305     -1771.289    19953368.411    82988595.65108
     -1377.671  
  21345758.005   114225471.80708      2860.723    21345761.363    88842043.27607
      2225.008  
 20 10 01 06 01 25.0000000  0 15G15G18G20G29G 5G30G24G27G13R14R 4R 6
                                R 5R20R21
  19982291.914   105007651.15649       163.741    19982291.597    81824144.14149
       127.589  
  20400578.267   107205762.40549       455.659    20400578.387    83536958.02848
       355.054  
  21770900.803   114406851.34148      2646.914    21770900.020    89148198.38846
      2062.527  
  24572120.219   129127354.13248     -3703.659    24572121.562   100618728.70348
     -2885.972  
  23668815.411   124380460.82747     -3230.719    23668816.356    96919843.26146
     -2517.444  
  24548496.027   129003216.38415     -2166.351           0.000           0.0000 
         0.000  
  23802910.758   125085135.72646      3783.980    23802913.832    97468953.01148
      2948.555  
  24292315.845   127656993.50646      1634.546    24292318.412    99472980.85847
      1273.664  
  21023087.948   110477068.23049     -1879.151    21023086.805    86086024.02947
     -1464.277  
  22460740.752   119728396.78805      2524.503    22460748.248    93122113.55105
      1963.578  
  20800153.790   111383882.14208     -2788.690    20800156.596    86631913.82707
     -2168.979  
  22872147.895   122050164.42204      3491.081           0.000           0.0000 
         0.000  
  19364155.362   103512507.10109       549.375    19364159.796    80509746.05908
       427.293  
  19955021.620   106708465.38205     -1776.261    19955027.448    82995495.95208
     -1381.538  
  21343087.170   114211179.34808      2856.836    21343090.412    88830926.90407
      2221.980  
 20 10 01 06 01 30.0000000  0 15G15G18G20G29G 5G30G24G27G13R14R 4R 6
                                R 5R20R21
  19982136.990   105006837.09049       161.624    19982136.653    81823509.79749
       125.938  
  20400145.621   107203488.86549       453.636    20400145.748    83535186.44448
       353.479  
  21768382.187   114393615.89448      2646.816    21768381.355    89137885.02946
      2062.449  
  24575643.827   129145870.62948     -3703.073    24575645.156   100633157.10648
     -2885.519  
  23671888.921   124396612.07347     -3230.277    23671889.902    96932428.63746
     -2517.101  
  24550558.323   129014053.79104     -2168.945           0.000           0.0000 
         0.000  
  23799310.273   125066214.86446      3784.309    23799313.262    97454209.49749
      2948.812  
  24290761.327   127648824.42746      1632.261    24290763.834    99466615.34145
      1271.895  
  21024876.510   110486467.22149     -1880.645    21024875.378    86093347.90648
     -1465.441  
  22458373.980   119715780.27905      2522.116    22458381.324    93112300.70505
      1961.651  
  20802757.811   111397826.83908     -2789.261    20802760.600    86642759.72107
     -2169.425  
  22868876.031   122032706.09705      3491.366           0.000           0.0000 
         0.000  
  19363642.220   103509764.02809       547.629    19363646.563    80507612.55008
       425.930  
  19956683.931   106717354.63105     -1779.589    19956689.792    83002409.82008
     -1384.125  
  21340418.658   114196899.66108      2854.448    21340421.904    88819820.51407
      2220.132  
 20 10 01 06 01 35.0000000  0 15G15G18G20G29G 5G30G24G27G13R14R 4R 6
                                R 5R20R21
  19981984.794   105006037.32349       158.108    19981984.417    81822886.60349
       123.199  
  20399715.668   107201229.44849       450.164    20399715.766    83533425.86348
       350.776  
  21765864.448   114380384.99148      2645.406    21765863.582    89127575.23346
      2061.352  
  24579167.414   129164387.01948     -3703.577    24579168.874   100647585.45449
     -2885.910  
  23674962.636   124412764.96547     -3230.983    23674963.790    96945015.28946
     -2517.652  
  24552622.767   129024901.61304     -2170.937           0.000           0.0000 
         0.000  
  23795710.115   125047295.80846      3783.328    23795713.002    97439467.41049
      2948.050  
  24289209.413   127640669.06446      1628.719    24289211.850    99460260.53747
      1269.125  
  21026667.270   110495877.78749     -1883.554    21026666.156    86100680.81048
     -1467.703  
  22456009.943   119703178.38705      2518.055    22456017.296    93102499.21105
      1958.487  
  20805362.940   111411777.12008     -2790.910    20805365.658    86653609.91607
     -2170.714  
  22865604.973   122015251.01405      3489.683           0.000           0.0000 
         0.000  
  19363131.320   103507032.88009       544.550    19363135.559    80505488.33808
       423.539  
  19958350.091   106726264.11705     -1784.526    19958355.969    83009339.41408
     -1387.964  
  21337753.056   114182635.61308      2850.863    21337756.330    88808726.24107
      2217.335  
 20 10 01 06 01 40.0000000  0 15G15G18G20G29G 5G30G24G27G13R14R 4R 6
                                R 5R20R21
  19981836.335   105005257.29349       154.261    19981835.925    81822278.80149
       120.203  
  20399289.423   107198989.63849       446.210    20399289.535    83531680.55148
       347.690  
  21763348.573   114367164.13248      2643.597    21763347.668    89117273.29946
      2059.945  
  24582692.033   129182908.76648     -3704.530    24582693.581   100662017.97949
     -2886.652  
  23678037.793   124428924.93047     -3232.710    23678039.133    96957607.46046
     -2519.004  
  24554690.023   129035765.42704     -2174.359           0.000           0.0000 
         0.000  
  23792111.340   125028383.87147      3781.578    23792114.118    97424730.82849
      2946.684  
  24287661.207   127632532.68647      1625.660    24287663.564    99453920.47346
      1266.745  
  21028461.270   110505305.41949     -1887.000    21028460.203    86108027.04048
     -1470.391  
  22453649.809   119690596.76205      2514.500    22453656.928    93092713.51905
      1955.722  
  20807970.140   111425738.59309     -2793.116    20807972.822    86664468.81507
     -2172.430  
  22862335.481   121997804.75105      3488.765           0.000           0.0000 
         0.000  
  19362623.724   103504319.45909       541.026    19362627.881    80503377.89608
       420.800  
  19960021.181   106735199.24705     -1789.355    19960026.939    83016288.97208
     -1391.831  
  21335091.412   114168392.65208      2846.550    21335094.721    88797648.41007
      2213.987  
 20 10 01 06 01 45.0000000  0 15G15G18G20G29G 5G30G24G27G13R14R 4R 6
                                R 5R20R21
  19981690.907   105004493.09649       151.097    19981690.447    81821683.31349
       117.733  
  20398866.127   107196765.51549       443.141    20398866.290    83529947.46348
       345.301  
  21760833.832   114353949.39348      2642.195    21760832.908    89106976.12146
      2058.851  
  24586216.883   129201431.91448     -3704.905    24586218.613   100676451.55149
     -2886.948  
  23681113.600   124445088.12047     -3233.145    23681114.984    96970202.15247
     -2519.340  
  24556759.578   129046641.29244     -2177.187    24556760.532   100555822.00954
     -1696.507  
  23788513.180   125009475.25846      3781.035    23788515.962    97409996.91949
      2946.273  
  24286115.929   127624411.50646      1622.308    24286118.139    99447592.30946
      1264.136  
  21030257.790   110514746.22549     -1889.714    21030256.810    86115383.50448
     -1472.507  
  22451292.684   119678031.52305      2511.112    22451299.630    93082940.52005
      1953.081  
  20810578.699   111439707.15008     -2794.559    20810581.304    86675333.27007
     -2173.547  
  22859066.915   121980363.30805      3487.203           0.000           0.0000 
         0.000  
  19362118.662   103501619.48709       538.558    19362122.745    80501277.92408
       418.878  
  19961696.109   106744156.12205     -1793.577    19961701.993    83023255.42108
     -1395.008  
  21332433.050   114154166.96808      2843.457    21332436.425    88786584.02207
      2211.578  
 20 10 01 06 01 50.0000000  0 15G15G18G20G29G 5G30G24G27G13R14R 4R 6
                                R 5R20R21
  19981548.550   105003744.97249       147.863    19981548.024    81821100.36349
       115.215  
  20398445.920   107194557.37449       439.976    20398446.096    83528226.84248
       342.839  
  21758320.383   114340741.07048      2641.030    21758319.371    89096683.92046
      2057.941  
  24589742.068   129219956.76147     -3705.109    24589743.858   100690886.49749
     -2887.194  
  23684190.068   124461254.72647     -3233.827    23684191.428    96982799.48546
     -2519.874  
  24558831.483   129057529.63604     -2179.019           0.000           0.0000 
         0.000  
  23784915.733   124990570.51446      3780.527    23784918.555    97395265.95349
      2945.866  
  24284573.547   127616305.79746      1619.707    24284575.762    99441276.12648
      1262.101  
  21032056.847   110524200.39349     -1892.315    21032055.930    86122750.37748
     -1474.535  
  22448938.697   119665482.85105      2508.172    22448945.564    93073180.45205
      1950.800  
  20813188.640   111453683.10808     -2795.984    20813191.260    86686203.45707
     -2174.656  
  22855799.348   121962927.00804      3486.570           0.000           0.0000 
         0.000  
  19361616.179   103498933.33409       535.742    19361620.186    80499188.70108
       416.683  
  19963375.288   106753135.10205     -1798.418    19963381.211    83030239.06808
     -1398.754  
  21329777.917   114139958.75108      2839.710    21329781.325    88775533.15307
      2208.656  
 20 10 01 06 01 55.0000000  0 15G15G18G20G29G 5G30G24G27G13R14R 4R 6
                                R 5R20R21
  19981409.845   105003016.01249       144.242    19981409.216    81820532.34349
       112.398  
  20398029.323   107192368.23849       436.354    20398029.525    83526521.02248
       340.011  
  21755808.720   114327542.25048      2639.215    21755807.646    89086399.10646
      2056.526  
  24593268.118   129238486.34447     -3706.237    24593269.958   100705325.12949
     -2887.980  
  23687267.751   124477427.84147     -3234.831    23687269.129    96995401.93846
     -2520.648  
  24560906.340   129068433.26704     -2181.851           0.000           0.0000 
         0.000  
  23781319.545   124971672.41847      3779.601    23781322.354    97380540.14349
      2945.140  
  24283034.645   127608218.49845      1616.164    24283036.969    99434974.36948
      1259.351  
  21033859.042   110533671.02649     -1895.417    21033858.194    86130130.09748
     -1476.953  
  22446588.348   119652953.88605      2504.097    22446595.185    93063435.73505
      1947.637  
  20815800.495   111467669.50308     -2798.108    20815803.202    86697081.76007
     -2176.313  
  22852533.444   121945499.11305      3485.109           0.000           0.0000 
         0.000  
  19361116.864   103496264.11909       532.488    19361120.766    80497112.62208
       414.152  
  19965059.144   106762139.18705     -1803.043    19965065.065    83037242.24008
     -1402.370  
  21327126.567   114125771.09008      2835.612    21327129.813    88764498.28307
      2205.469  
 20 10 01 06 02  0.0000000  0 14G15G18G20G29G 5G24G27G13R14R 4R 6R 5
                                R20R21
  19981273.569   105002299.90449       142.434    19981272.846    81819974.33849
       110.987  
  20397615.198   107190191.87149       434.558    20397615.405    83524825.14448
       338.613  
  21753297.639   114314346.58948      2639.265    21753296.538    89076116.78846
      2056.566  
  24596793.863   129257014.32047     -3705.190    24596795.722   100719762.48149
     -2887.171  
  23690345.502   124493601.34247     -3234.151    23690346.914    97008004.64346
     -2520.121  
  23777723.418   124952774.73446      3779.925    23777726.242    97365814.69649
      2945.398  
  24281497.993   127600143.49746      1614.366    24281500.345    99428682.15047
      1257.945  
  21035663.167   110543151.82849     -1896.772    21035662.387    86137517.71948
     -1478.008  
  22444240.273   119640438.26305      2502.473    22444247.328    93053701.41005
      1946.374  
  20818413.145   111481660.03208     -2798.160    20818415.891    86707963.29807
     -2176.347  
  22849267.832   121928072.96105      3485.977           0.000           0.0000 
         0.000  
  19360619.550   103493605.59309       531.147    19360623.376    80495044.89208
       413.116  
  19966746.475   106771161.85805     -1806.222    19966752.380    83044259.87308
     -1404.843  
  21324477.800   114111597.60108      2833.983    21324481.249    88753474.46107
      2204.206  
 20 10 01 06 02  5.0000000  0 14G15G18G20G29G 5G24G27G13R14R 4R 6R 5
                                R20R21
  19981138.739   105001591.49449       140.387    19981138.017    81819422.33149
       109.390  
  20397202.477   107188023.07249       432.504    20397202.695    83523135.16548
       337.012  
  21750786.163   114301148.94148      2639.132    21750785.049    89065832.91146
      2056.468  
  24600318.371   129275535.61148     -3704.238    24600320.239   100734194.63548
     -2886.425  
  23693422.295   124509769.84647     -3233.668    23693423.710    97020603.45346
     -2519.745  
  23774126.416   124933872.30346      3780.522    23774129.101    97351085.53548
      2945.863  
  24279962.831   127592075.53846      1612.070    24279965.173    99422395.47147
      1256.167  
  21037468.223   110552637.58849     -1898.066    21037467.493    86144909.23047
     -1479.011  
  22441893.937   119627930.87805      2499.897    22441901.082    93043973.39206
      1944.265  
  20821025.560   111495649.36608     -2798.308    20821028.379    86718843.87608
     -2176.464  
  22846001.486   121910643.39205      3485.574           0.000           0.0000 
         0.000  
  19360123.218   103490952.29109       529.668    19360126.987    80492981.22508
       411.964  
  19968436.214   106780197.93305     -1809.574    19968442.224    83051287.93208
     -1407.448  
  21321830.819   114097433.16108      2831.270    21321834.340    88742457.68707
      2202.097  
 20 10 01 06 02 10.0000000  0 14G15G18G20G29G 5G24G27G13R14R 4R 6R 5
                                R20R21
  19981008.029   105000904.60849       134.280    19981007.262    81818887.09849
       104.632  
  20396793.838   107185875.68949       426.430    20396794.077    83521461.88048
       332.277  
  21748276.989   114287963.17848      2634.960    21748275.854    89055558.30046
      2053.215  
  24603844.155   129294063.91547     -3707.335    24603846.116   100748632.29249
     -2888.835  
  23696500.821   124525947.14147     -3237.285    23696502.120    97033209.15247
     -2522.558  
  23770531.036   124914978.89146      3777.198    23770533.717    97336363.38449
      2943.272  
  24278431.677   127584028.46147      1606.526    24278433.958    99416125.03048
      1251.839  
  21039276.857   110562142.14749     -1903.804    21039276.116    86152315.36547
     -1483.487  
  22439551.721   119615445.52105      2494.144    22439558.912    93034262.55006
      1939.891  
  20823640.399   111509651.55609     -2802.788    20823643.276    86729734.45708
     -2179.949  
  22842737.128   121893224.59104      3481.198           0.000           0.0000 
         0.000  
  19359630.504   103488318.32709       523.983    19359634.261    80490932.57208
       407.539  
  19970131.200   106789261.62505     -1816.097    19970137.231    83058337.46408
     -1412.522  
  21319188.171   114083291.69408      2825.069    21319191.648    88731458.80807
      2197.281  
 20 10 01 06 02 15.0000000  0 14G15G18G20G29G 5G24G27G13R14R 4R 6R 5
                                R20R21
  19980881.243   105000238.62449       132.065    19980880.491    81818368.14949
       102.905  
  20396389.135   107183749.11849       424.257    20396389.433    83519804.80648
       330.585  
  21745769.959   114274788.73948      2634.683    21745768.786    89045292.49546
      2052.995  
  24607371.139   129312598.68547     -3706.559    24607373.140   100763074.89848
     -2888.237  
  23699580.916   124542132.67847     -3236.843    23699582.140    97045821.28646
     -2522.210  
  23766937.239   124896094.01346      3777.245    23766939.998    97321647.95348
      2943.315  
  24276904.282   127576001.72345      1604.315    24276906.640    99409870.47748
      1250.120  
  21041088.940   110571664.86349     -1905.285    21041088.222    86159735.66647
     -1484.640  
  22437213.699   119602981.82905      2491.680    22437220.721    93024568.58406
      1937.972  
  20826257.532   111523665.99408     -2803.000    20826260.378    86740634.59307
     -2180.109  
  22839474.664   121875815.89505      3482.145           0.000           0.0000 
         0.000  
  19359141.253   103485703.06209       522.315    19359145.090    80488898.47908
       406.245  
  19971831.288   106798352.10705     -1819.288    19971837.218    83065407.83108
     -1415.007  
  21316549.719   114069172.70908      2822.659    21316553.285    88720477.38307
      2195.401  
 20 10 01 06 02 20.0000000  0 15G15G18G20G29G 5G24G27G10G13R14R 4R 6
                                R 5R20R21
  19980756.696   104999584.28349       129.535    19980755.920    81817858.26849
       100.933  
  20395986.645   107181634.07749       421.648    20395986.949    83518156.73048
       328.559  
  21743263.243   114261616.26248      2634.206    21743262.154    89035028.22646
      2052.625  
  24610897.707   129331130.61447     -3706.320    24610899.544   100777515.33648
     -2888.051  
  23702660.858   124558317.25647     -3237.065    23702661.776    97058432.62946
     -2522.395  
  23763343.363   124877208.37946      3777.035    23763346.159    97306931.81748
      2943.136  
  24275379.021   127567985.95646      1602.020    24275381.410    99403624.38548
      1248.323  
  24965568.970   131194948.74155      3233.472    24965567.542   102229827.06156
      2519.589  
  21042902.741   110581196.51349     -1907.340    21042901.987    86167162.91847
     -1486.242  
  22434877.940   119590530.38406      2488.671    22434884.621    93014884.06405
      1935.621  
  20828875.171   111537683.26908     -2803.999    20828877.954    86751536.92107
     -2180.890  
  22836212.369   121858407.91505      3480.780           0.000           0.0000 
         0.000  
  19358653.717   103483097.12109       520.051    19358657.693    80486871.64008
       404.484  
  19973534.498   106807460.12405     -1823.792    19973540.397    83072491.85008
     -1418.280  
  21313913.684   114055066.90908      2819.710    21313917.326    88709506.17807
      2193.104  
 20 10 01 06 02 25.0000000  0 15G15G18G20G29G 5G24G27G10G13R14R 4R 6
                                R 5R20R21
  19980634.990   104998944.77449       126.449    19980634.165    81817359.95449
        98.527  
  20395586.977   107179533.78149       418.765    20395587.284    83516520.13848
       326.312  
  21740757.528   114248448.98448      2633.284    21740756.531    89024768.02547
      2051.909  
  24614424.381   129349662.88147     -3706.456    24614426.025   100791956.06148
     -2888.151  
  23705741.171   124574504.03547     -3237.632    23705741.909    97071045.69646
     -2522.835  
  23759749.888   124858325.20046      3776.370    23759752.786    97292217.67749
      2942.629  
  24273856.494   127559984.52446      1599.551    24273858.927    99397389.51148
      1246.398  
  24962492.010   131178779.71045      3233.730    24962492.567   102217227.83447
      2519.793  
  21044718.872   110590740.22349     -1909.930    21044718.004    86174599.58247
     -1488.257  
  22432545.111   119578094.34705      2485.527    22432551.277    93005211.63006
      1933.191  
  20831493.897   111551706.61408     -2805.136    20831496.690    86762443.95907
     -2181.776  
  22832950.938   121841003.76304      3480.120           0.000           0.0000 
         0.000  
  19358168.541   103480503.80009       517.621    19358172.649    80484854.61308
       402.594  
  19975241.422   106816588.65605     -1827.800    19975247.413    83079591.82808
     -1421.621  
  21311280.693   114040977.37208      2816.375    21311284.396    88698547.61807
      2190.508  
 20 10 01 06 02 30.0000000  0 15G15G18G20G29G 5G24G27G10G13R14R 4R 6
                                R 5R20R21
  19980516.385   104998321.56549       122.948    19980515.543    81816874.34049
        95.804  
  20395190.404   107177449.74549       415.077    20395190.688    83514896.20648
       323.433  
  21738253.055   114235288.39048      2631.233    21738252.220    89014513.01146
      2050.308  
  24617951.301   129368196.97047     -3707.292    24617952.954   100806398.18348
     -2888.808  
  23708822.104   124590694.47846     -3238.437    23708822.844    97083661.61047
     -2523.461  
  23756157.277   124839446.12047      3775.398    23756160.278    97277506.67948
      2941.862  
  24272336.991   127551998.82645      1595.382    24272339.279    99391166.89846
      1243.151  
  24959414.573   131162611.91846      3233.784    24959416.916   102204629.65247
      2519.844  
  21046537.593   110600297.51049     -1912.957    21046536.602    86182046.81047
     -1490.621  
  22430215.450   119565675.25206      2482.151    22430221.355    92995552.35206
      1930.563  
  20834114.029   111565737.49408     -2807.105    20834116.896    86773356.87007
     -2183.305  
  22829690.354   121823605.13104      3478.559           0.000           0.0000 
         0.000  
  19357686.036   103477924.62409       514.328    19357690.163    80482848.59408
       400.027  
  19976952.593   106825739.49005     -1832.383    19976958.718    83086709.11408
     -1425.194  
  21308651.059   114026905.69908      2812.331    21308654.923    88687603.00507
      2187.371  
 20 10 01 06 02 35.0000000  0 15G15G18G20G29G 5G24G27G10G13R14R 4R 6
                                R 5R20R21
  19980401.204   104997716.31449       119.429    19980400.361    81816402.72149
        93.062  
  20394797.246   107175383.59149       411.645    20394797.484    83513286.22648
       320.758  
  21735750.189   114222136.17748      2629.815    21735749.464    89004264.54846
      2049.206  
  24621478.830   129386734.44547     -3707.378    24621480.493   100820842.96148
     -2888.866  
  23711904.088   124606890.19947     -3239.625    23711904.753    97096281.64046
     -2524.386  
  23752565.712   124820572.75746      3774.249    23752568.689    97262800.22048
      2940.976  
  24270820.741   127544030.53146      1592.496    24270822.884    99384957.79846
      1240.897  
  24956338.830   131146447.18543      3233.522    24956341.139   102192033.67448
      2519.613  
  21048359.176   110609869.96149     -1915.780    21048358.122    86189505.87947
     -1492.815  
  22427889.346   119553274.87505      2478.035    22427895.054    92985907.64805
      1927.363  
  20836735.922   111579777.58008     -2808.906    20836738.851    86784276.93507
     -2184.703  
  22826430.954   121806213.50504      3479.300           0.000           0.0000 
         0.000  
  19357206.483   103475361.17209       511.335    19357210.622    80480854.79408
       397.702  
  19978668.192   106834914.22905     -1836.883    19978674.524    83093845.02808
     -1428.691  
  21306025.010   114012853.46208      2808.684    21306029.035    88676673.50007
      2184.531  
 20 10 01 06 02 40.0000000  0 15G15G18G20G29G 5G24G27G10G13R14R 4R 6
                                R 5R20R21
  19980288.867   104997125.91749       116.585    19980288.006    81815942.67849
        90.848  
  20394406.913   107173332.25249       408.914    20394407.089    83511687.78348
       318.632  
  21733248.320   114208989.23748      2629.015    21733247.750    88994020.19546
      2048.582  
  24625006.440   129405272.22746     -3707.277    24625008.151   100835287.97748
     -2888.796  
  23714986.460   124623088.11047     -3239.554    23714987.094    97108903.37345
     -2524.331  
  23748974.657   124801701.91646      3774.011    23748977.675    97248095.64948
      2940.785  
  24269307.263   127536076.52546      1589.391    24269309.257    99378759.87147
      1238.477  
  24953262.269   131130282.15446      3232.601    24953264.834   102179437.59247
      2518.913  
  21050183.085   110619454.54249     -1918.047    21050181.954    86196974.38847
     -1494.581  
  22425566.151   119540890.15605      2475.171    22425571.695    92976275.14406
      1925.137  
  20839358.962   111593823.77608     -2809.863    20839361.984    86795201.75608
     -2185.452  
  22823172.269   121788825.90905      3477.616           0.000           0.0000 
         0.000  
  19356729.307   103472810.29609       508.917    19356733.377    80478870.78508
       395.824  
  19980387.800   106844109.55705     -1841.050    19980394.161    83100996.93408
     -1431.933  
  21303402.095   113998817.71108      2805.507    21303406.092    88665756.81407
      2182.063  
 20 10 01 06 02 45.0000000  0 15G15G18G20G29G 5G24G27G10G13R14R 4R 6
                                R 5R20R21
  19980179.236   104996549.74249       113.401    19980178.401    81815493.70649
        88.366  
  20394019.249   107171295.09549       405.632    20394019.355    83510100.38948
       316.078  
  21730747.342   114195846.94848      2627.597    21730746.864    88983779.45547
      2047.480  
  24628534.120   129423809.84147     -3707.960    24628535.777   100849732.82748
     -2889.328  
  23718069.177   124639287.61546     -3240.839    23718069.653    97121526.34046
     -2525.331  
  23745383.949   124782832.92846      3773.273    23745387.038    97233392.53049
      2940.215  
  24267796.241   127528136.21245      1586.456    24267798.217    99372572.66747
      1236.206  
  24950186.139   131114116.38845      3232.714    24950187.957   102166840.85746
      2518.992  
  21052009.157   110629050.55349     -1920.777    21052007.964    86204451.80947
     -1496.710  
  22423245.608   119528520.29005      2471.754    22423251.323    92966654.11506
      1922.476  
  20841982.985   111607875.42508     -2811.284    20841986.147    86806130.80107
     -2186.559  
  22819914.294   121771441.63704      3475.804           0.000           0.0000 
         0.000  
  19356254.356   103470271.41209       506.242    19356258.373    80476896.09408
       393.741  
  19982111.203   106853324.93005     -1845.140    19982117.489    83108164.47508
     -1435.108  
  21300782.106   113984797.71808      2801.953    21300786.082    88654852.37107
      2179.297  
 20 10 01 06 02 50.0000000  0 15G15G18G20G29G 5G24G27G10G13R14R 4R 6
                                R 5R20R21
  19980072.854   104995990.70149       109.891    19980072.010    81815058.08349
        85.625  
  20393634.849   107169274.99449       402.148    20393634.911    83508526.27948
       313.358  
  21728247.829   114182712.16748      2625.977    21728247.412    88973544.55647
      2046.215  
  24632062.084   129442349.91746     -3708.315    24632063.797   100864179.63549
     -2889.602  
  23721152.774   124655491.55746     -3241.456    23721153.187    97134152.80747
     -2525.819  
  23741794.147   124763968.89446      3771.976    23741797.389    97218693.26649
      2939.194  
  24266288.392   127520212.40846      1583.003    24266290.483    99366398.27847
      1233.507  
  24947110.520   131097952.65146      3232.229    24947112.459   102154245.80247
      2518.628  
  21053837.910   110638660.90349     -1923.655    21053836.687    86211940.37647
     -1498.956  
  22420928.499   119516168.20205      2468.426    22420934.253    92957046.96507
      1919.887  
  20844608.558   111621935.37308     -2813.012    20844611.796    86817066.32007
     -2187.902  
  22816657.666   121754063.64505      3474.987           0.000           0.0000 
         0.000  
  19355782.151   103467747.36409       503.038    19355786.148    80474932.96008
       391.253  
  19983838.833   106862563.25205     -1850.531    19983845.054    83115349.82608
     -1439.304  
  21298165.707   113970796.61808      2798.089    21298169.611    88643962.62107
      2176.288  
 20 10 01 06 02 55.0000000  0 15G15G18G20G29G 5G24G27G10G13R14R 4R 6
                                R 5R20R21
  19979969.080   104995445.42549       107.656    19979968.256    81814633.19749
        83.882  
  20393253.096   107167268.61849       399.980    20393253.111    83506962.87448
       311.668  
  21725749.135   114169581.59948      2625.726    21725748.738    88963312.96547
      2046.020  
  24635589.988   129460889.26847     -3707.605    24635591.677   100878625.83949
     -2889.050  
  23724236.523   124671696.55045     -3241.433    23724236.865    97146780.10547
     -2525.789  
  23738204.657   124745106.30946      3772.082    23738207.944    97203995.21549
      2939.292  
  24264783.097   127512301.90346      1580.785    24264785.180    99360234.19048
      1231.772  
  24944034.407   131081787.69746      3233.270    24944036.300   102141649.69446
      2519.422  
  21055668.732   110648282.22149     -1925.413    21055667.525    86219437.50747
     -1500.324  
  22418614.168   119503830.73305      2465.835    22418619.974    92947451.13907
      1917.866  
  20847235.104   111636000.34408     -2813.507    20847238.437    86828005.71807
     -2188.292  
  22813401.471   121736688.71704      3474.456           0.000           0.0000 
         0.000  
  19355312.101   103465234.83309       501.382    19355316.091    80472978.77208
       389.964  
  19985570.110   106871821.04105     -1853.418    19985576.307    83122550.32608
     -1441.550  
  21295552.147   113956810.77408      2795.452    21295556.118    88633084.76907
      2174.242  
 20 10 01 06 03  0.0000000  0 15G15G18G20G29G 5G24G27G10G13R14R 4R 6
                                R 5R20R21
  19979868.319   104994915.92349       103.952    19979867.510    81814220.59549
        80.999  
  20392874.337   107165278.00749       396.210    20392874.334    83505411.75048
       308.730  
  21723251.632   114156457.25748      2623.890    21723251.227    88953086.20046
      2044.586  
  24639118.132   129479429.79247     -3708.586    24639119.853   100893072.97348
     -2889.815  
  23727320.902   124687904.63447     -3242.137    23727321.161    97159409.72146
     -2526.347  
  23734615.928   124726247.31746      3770.836    23734619.197    97189299.89449
      2938.316  
  24263280.577   127504406.70545      1576.852    24263282.917    99354082.17148
      1228.715  
  24940958.517   131065623.46845      3232.395    24940960.809   102129054.26146
      2518.762  
  21057502.025   110657916.49149     -1928.425    21057500.820    86226944.73247
     -1502.667  
  22416302.913   119491509.82006      2462.293    22416308.791    92937868.20606
      1915.176  
  20849862.959   111650072.23608     -2815.468    20849866.327    86838950.53407
     -2189.813  
  22810146.008   121719318.60004      3472.351           0.000           0.0000 
         0.000  
  19354844.593   103462735.86109       498.160    19354848.666    80471035.12508
       387.452  
  19987305.463   106881100.53505     -1858.430    19987311.633    83129767.70608
     -1445.448  
  21292941.812   113942842.31408      2791.609    21292945.785    88622220.41107
      2171.250  
 20 10 01 06 03  5.0000000  0 15G15G18G20G29G 5G24G27G10G13R14R 4R 6
                                R 5R20R21
  19979771.131   104994405.16749       100.487    19979770.307    81813822.60049
        78.297  
  20392499.121   107163306.07849       392.659    20392499.142    83503875.18248
       305.969  
  21720755.893   114143342.09148      2622.203    21720755.485    88942866.58347
      2043.269  
  24642647.144   129497974.50047     -3709.495    24642648.881   100907523.38049
     -2890.520  
  23730406.360   124704118.82246     -3243.487    23730406.549    97172044.12146
     -2527.397  
  23731028.426   124707394.80146      3770.090    23731031.686    97174609.60648
      2937.727  
  24261781.573   127496529.54045      1573.629    24261784.186    99347944.14948
      1226.215  
  24937883.266   131049463.04345      3231.762    24937885.345   102116461.72147
      2518.257  
  21059338.368   110667566.69249     -1931.504    21059337.135    86234464.35147
     -1505.069  
  22413995.186   119479208.43006      2458.882    22414001.207    92928300.48007
      1912.465  
  20852492.695   111664154.06908     -2817.397    20852495.991    86849903.05807
     -2191.312  
  22806892.216   121701956.33503      3472.695           0.000           0.0000 
         0.000  
  19354380.143   103460253.35809       494.972    19354384.307    80469104.29008
       384.977  
  19989045.380   106890404.65205     -1863.015    19989051.546    83137004.22508
     -1449.016  
  21290335.359   113928894.34608      2787.816    21290339.361    88611371.97808
      2168.297  
 20 10 01 06 03 10.0000000  0 15G15G18G20G29G 5G24G27G10G13R14R 4R 6
                                R 5R20R21
  19979676.832   104993909.52749        97.612    19979675.976    81813436.39249
        76.062  
  20392126.768   107161349.25649       389.688    20392126.870    83502350.38748
       303.652  
  21718261.173   114130232.46648      2621.289    21718260.861    88932651.30046
      2042.563  
  24646176.193   129516519.68347     -3708.875    24646177.887   100921974.13249
     -2890.038  
  23733492.291   124720335.40746     -3243.781    23733492.514    97184680.44146
     -2527.625  
  23727441.470   124688545.13146      3769.500    23727444.773    97159921.57948
      2937.273  
  24260285.391   127488667.20545      1570.476    24260288.176    99341817.64748
      1223.745  
  24934808.290   131033302.59145      3232.511    24934810.220   102103869.12746
      2518.832  
  21061177.033   110677229.19549     -1933.820    21061175.818    86241993.57947
     -1506.871  
  22411690.589   119466923.10106      2455.562    22411696.646    92918745.19206
      1909.874  
  20855123.533   111678242.24308     -2818.425    20855126.816    86860860.53807
     -2192.108  
  22803639.320   121684598.44504      3471.573           0.000           0.0000 
         0.000  
  19353918.125   103457783.76009       492.594    19353922.411    80467183.50108
       383.129  
  19990789.156   106899729.56205     -1867.055    19990795.345    83144256.94008
     -1452.151  
  21287732.036   113914963.15408      2784.628    21287736.058    88600536.63207
      2165.823  
 20 10 01 06 03 15.0000000  0 15G15G18G20G29G 5G24G27G10G13R14R 4R 6
                                R 5R20R21
  19979585.653   104993430.28849        94.297    19979584.764    81813062.95449
        73.473  
  20391757.552   107159408.82749       386.484    20391757.711    83500838.36448
       301.152  
  21715767.806   114117129.73349      2619.839    21715767.487    88922441.37847
      2041.434  
  24649705.687   129535066.70447     -3709.647    24649707.309   100936426.36849
     -2890.565  
  23736578.993   124736555.70047     -3244.434    23736579.140    97197319.59946
     -2528.133  
  23723855.320   124669699.65946      3769.195    23723858.754    97145236.77348
      2937.031  
  24258792.349   127480820.75246      1567.327    24258795.050    99335703.48148
      1221.284  
  24931733.526   131017143.62946      3231.434    24931735.816   102091277.77047
      2518.000  
  21063018.327   110686905.29049     -1936.418    21063017.086    86249533.38847
     -1508.901  
  22409388.987   119454654.86305      2452.022    22409395.280    92909203.27607
      1907.129  
  20857755.830   111692338.01108     -2819.753    20857758.965    86871823.90707
     -2193.144  
  22800387.522   121667246.23004      3470.547           0.000           0.0000 
         0.000  
  19353458.778   103455328.28809       489.741    19353463.182    80465273.68408
       380.906  
  19992537.054   106909076.67205     -1871.772    19992543.287    83151526.91308
     -1455.827  
  21285132.105   113901050.11608      2780.835    21285136.037    88589715.38007
      2162.870  
 20 10 01 06 03 20.0000000  0 14G15G18G20G29G 5G24G27G10G13R14R 4R 5
                                R20R21
  19979497.654   104992967.72149        91.093    19979496.747    81812702.51149
        70.977  
  20391391.477   107157485.06149       383.316    20391391.674    83499339.31948
       298.683  
  21713275.803   114104034.10948      2618.640    21713275.430    88912237.01246
      2040.500  
  24653235.428   129553615.74547     -3709.566    24653237.160   100950880.11048
     -2890.577  
  23739666.388   124752780.06847     -3244.875    23739666.534    97209961.96046
     -2528.480  
  23720269.964   124650858.63945      3767.902    23720273.543    97130555.49648
      2936.030  
  24257302.260   127472990.49844      1564.477    24257304.963    99329601.95148
      1219.063  
  24928659.084   131000986.35845      3231.895    24928661.206   102078687.72546
      2518.354  
  21064862.223   110696595.18449     -1939.137    21064860.980    86257083.95247
     -1511.020  
  22407090.699   119442404.19304      2448.722    22407097.170    92899674.98107
      1904.563  
  20860389.570   111706441.63408     -2821.171    20860392.593    86882793.40807
     -2194.246  
  19353002.156   103452887.28709       487.035    19353006.636    80463375.14008
       378.804  
  19994289.121   106918446.23105     -1875.605    19994295.433    83158814.34608
     -1458.808  
  21282535.600   113887155.47908      2777.180    21282539.381    88578908.44907
      2160.027  
 20 10 01 06 03 25.0000000  0 14G15G18G20G29G 5G24G27G10G13R14R 4R 5
                                R20R21
  19979412.416   104992519.73349        88.070    19979411.491    81812353.43349
        68.625  
  20391028.169   107155575.86349       380.198    20391028.435    83497851.63448
       296.253  
  21710784.771   114090943.58448      2617.351    21710784.426    88902036.60747
      2039.495  
  24656765.172   129572164.86146     -3709.999    24656766.984   100965333.96149
     -2890.918  
  23742754.252   124769006.27747     -3245.452    23742754.229    97222605.74345
     -2528.929  
  23716685.014   124632020.16445      3767.773    23716688.669    97115876.19448
      2935.929  
  24255814.836   127465174.24945      1561.840    24255817.541    99323511.45647
      1217.027  
  24925584.323   130984828.65946      3231.315    24925586.778   102066097.26844
      2517.901  
  21066708.338   110706296.80149     -1941.644    21066707.100    86264643.69247
     -1512.965  
  22404795.256   119430169.06505      2445.354    22404801.966    92890158.80106
      1901.941  
  20863024.409   111720551.01508     -2822.722    20863027.383    86893767.36807
     -2195.453  
  19352547.836   103450458.62609       484.352    19352552.349    80461486.17808
       376.715  
  19996045.015   106927836.12705     -1880.472    19996051.371    83166117.57608
     -1462.594  
  21279942.070   113873277.09808      2773.969    21279945.829    88568114.15307
      2157.526  
 20 10 01 06 03 30.0000000  0 14G15G18G20G29G 5G24G27G10G13R14R 4R 5
                                R20R21
  19979330.056   104992086.74149        85.094    19979329.098    81812016.04849
        66.308  
  20390667.715   107153681.66549       377.456    20390668.011    83496375.63348
       294.117  
  21708294.773   114077858.55548      2616.507    21708294.397    88891840.48146
      2038.836  
  24660294.972   129590714.21446     -3709.823    24660296.958   100979787.95949
     -2890.781  
  23745842.524   124785234.78946     -3246.257    23745842.320    97235251.33444
     -2529.550  
  23713100.599   124613184.65446      3766.620    23713104.415    97101199.21048
      2935.035  
  24254330.269   127457372.70646      1558.362    24254332.845    99317432.28047
      1214.300  
  24922509.587   130968670.96846      3231.683    24922512.225   102053506.86145
      2518.194  
  21068556.784   110716010.61149     -1943.910    21068555.532    86272212.86747
     -1514.737  
  22402502.840   119417949.63505      2442.648    22402509.676    92880654.76106
      1899.831  
  20865660.425   111734666.50908     -2823.698    20865663.291    86904746.08407
     -2196.214  
  19352095.885   103448042.62509       481.870    19352100.475    80459607.06208
       374.785  
  19997804.955   106937246.69205     -1884.117    19997811.188    83173436.91108
     -1465.277  
  21277351.663   113859415.53008      2770.828    21277355.485    88557332.96107
      2155.089  
 20 10 01 06 03 35.0000000  0 14G15G18G20G29G 5G24G27G10G13R14R 4R 5
                                R20R21
  19979250.747   104991669.87449        81.675    19979249.809    81811691.21649
        63.644  
  20390310.337   107151803.60149       373.897    20390310.682    83494912.21148
       291.347  
  21705806.045   114064780.14148      2614.956    21705805.618    88881649.50446
      2037.629  
  24663825.085   129609265.08246     -3710.144    24663827.167   100994243.13549
     -2891.030  
  23748931.359   124801466.69747     -3246.917    23748931.089    97247899.57545
     -2530.065  
  23709517.050   124594353.07246      3765.753    23709520.803    97086525.26148
      2934.354  
  24252848.777   127449586.72746      1555.476    24252851.090    99311365.27547
      1212.050  
  24919434.881   130952514.50146      3230.831    24919438.022   102040917.42046
      2517.530  
  21070407.763   110725737.66449     -1946.890    21070406.529    86279792.39047
     -1517.058  
  22400213.507   119405747.41804      2438.866    22400220.542    92871164.18506
      1896.902  
  20868297.756   111748789.23508     -2825.444    20868300.619    86915730.43107
     -2197.569  
  19351646.545   103445640.55609       478.895    19351651.147    80457738.78108
       372.468  
  19999568.873   106946679.22005     -1888.949    19999575.143    83180773.32908
     -1469.183  
  21274764.641   113845571.87908      2766.949    21274768.507    88546565.68207
      2152.070  
 20 10 01 06 03 40.0000000  0 14G15G18G20G29G 5G24G27G10G13R14R 4R 5
                                R20R21
  19979174.500   104991269.06649        78.647    19979173.587    81811378.91349
        61.285  
  20389956.020   107149941.61849       370.968    20389956.420    83493461.31748
       289.063  
  21703318.553   114051708.31449      2613.816    21703318.110    88871463.66946
      2036.738  
  24667355.456   129627817.37047     -3710.690    24667357.656   101008699.49549
     -2891.449  
  23752020.914   124817702.04046     -3247.211    23752020.463    97260550.48445
     -2530.296  
  23705934.293   124575525.40146      3765.195    23705937.993    97071854.34848
      2933.918  
  24251370.235   127441816.34345      1552.515    24251372.466    99305310.49447
      1209.766  
  24916360.227   130936359.05445      3231.331    24916363.817   102028328.78347
      2517.918  
  21072261.253   110735477.91049     -1949.363    21072260.062    86287382.20347
     -1518.984  
  22397927.533   119393562.23805      2435.257    22397934.477    92861686.83206
      1894.090  
  20870936.418   111762919.18408     -2826.625    20870939.359    86926720.37707
     -2198.487  
  19351199.804   103443252.34009       476.441    19351204.436    80455881.28308
       370.562  
  20001336.886   106956133.51505     -1892.813    20001343.158    83188126.66608
     -1472.188  
  21272180.896   113831746.08308      2763.460    21272184.861    88535812.30307
      2149.359  
 20 10 01 06 03 45.0000000  0 14G15G18G20G29G 5G24G27G10G13R14R 4R 5
                                R20R21
  19979101.143   104990883.47949        75.632    19979100.233    81811078.44349
        58.929  
  20389604.629   107148094.85749       367.840    20389605.031    83492022.28048
       286.624  
  21700832.163   114038642.24449      2612.656    21700831.686    88861282.33446
      2035.836  
  24670885.968   129646370.14947     -3710.137    24670888.170   101023156.14049
     -2891.102  
  23755110.885   124833939.88747     -3247.765    23755110.394    97273203.36144
     -2530.729  
  23702352.125   124556700.91947      3764.695    23702355.725    97057185.96448
      2933.531  
  24249894.458   127434060.86045      1549.543    24249896.482    99299267.24248
      1207.433  
  24913285.829   130920203.76345      3231.507    24913289.506   102015740.24347
      2518.058  
  21074117.060   110745230.49349     -1951.851    21074115.943    86294981.63347
     -1520.918  
  22395644.773   119381393.05905      2432.508    22395651.414    92852221.89206
      1891.940  
  20873576.300   111777055.47408     -2827.878    20873579.273    86937715.27607
     -2199.461  
  19350755.445   103440877.05209       473.809    19350760.127    80454033.84008
       368.520  
  20003108.843   106965608.81205     -1897.769    20003115.114    83195496.33308
     -1476.046  
  21269600.323   113817937.35508      2759.882    21269604.428    88525072.17207
      2146.573  
 20 10 01 06 03 50.0000000  0 14G15G18G20G29G 5G24G27G10G13R14R 4R 5
                                R20R21
  19979031.003   104990514.73849        71.605    19979030.072    81810791.11449
        55.796  
  20389256.454   107146265.03449       363.820    20389256.834    83490596.44348
       283.492  
  21698347.197   114025583.56548      2610.496    21698346.664    88851106.74046
      2034.151  
  24674416.855   129664925.14547     -3711.520    24674419.222   101037614.58148
     -2892.097  
  23758201.658   124850182.03746     -3249.039    23758201.021    97285859.58446
     -2531.722  
  23698770.911   124537881.29046      3762.976    23698774.451    97042521.30848
      2932.187  
  24248421.798   127426321.70145      1545.491    24248423.772    99293236.70948
      1204.277  
  24910211.706   130904050.57545      3230.464    24910215.660   102003153.32947
      2517.237  
  21075975.527   110754997.08749     -1955.098    21075974.505    86302591.94747
     -1523.456  
  22393365.274   119369241.89206      2428.401    22393371.853    92842771.00406
      1888.758  
  20876217.731   111791199.84208     -2830.046    20876220.659    86948716.42907
     -2201.151  
  19350313.845   103438516.47809       470.332    19350318.535    80452197.84508
       365.808  
  20004884.903   106975106.67205     -1902.472    20004891.201    83202883.55508
     -1479.702  
  21267023.285   113804147.32208      2755.820    21267027.443    88514346.58107
      2143.410  
 20 10 01 06 03 55.0000000  0 14G15G18G20G29G 5G24G27G10G13R14R 4R 5
                                R20R21
  19978964.026   104990162.70949        69.078    19978963.108    81810516.81549
        53.828  
  20388911.460   107144451.92049       361.141    20388911.793    83489183.61848
       281.406  
  21695863.599   114012532.10749      2609.961    21695863.032    88840936.77746
      2033.733  
  24677948.030   129683482.12646     -3711.496    24677950.644   101052074.54149
     -2892.081  
  23761293.161   124866428.09147     -3249.391    23761292.431    97298518.83045
     -2532.000  
  23695190.490   124519066.08445      3762.773    23695193.961    97027860.11548
      2932.031  
  24246952.306   127418598.84246      1543.601    24246954.029    99287218.88747
      1202.808  
  24907138.003   130887899.00144      3230.792    24907142.339   101990567.74748
      2517.504  
  21077836.628   110764777.49049     -1957.207    21077835.718    86310213.05147
     -1525.098  
  22391089.248   119357108.39406      2425.191    22391095.544    92833333.84906
      1886.261  
  20878860.606   111805352.03408     -2831.141    20878863.486    86959723.68007
     -2202.004  
  19349874.930   103436170.22509       468.109    19349879.595    80450372.97408
       364.082  
  20006665.285   106984626.92305     -1906.401    20006671.511    83210288.18708
     -1482.762  
  21264449.723   113790375.89008      2752.647    21264453.799    88503635.48507
      2140.948  
 20 10 01 06 04  0.0000000  0 14G15G18G20G29G 5G24G27G10G13R14R 4R 5
                                R20R21
  19978899.686   104989824.53749        65.815    19978898.785    81810253.29949
        51.281  
  20388569.119   107142652.71549       357.980    20388569.411    83487781.65448
       278.944  
  21693380.861   113999485.07948      2608.477    21693380.230    88830770.27446
      2032.578  
  24681478.956   129702038.20446     -3711.616    24681481.807   101066533.81349
     -2892.172  
  23764384.896   124882675.33246     -3250.027    23764384.117    97311179.01945
     -2532.488  
  23691610.322   124500252.76645      3761.976    23691613.841    97013200.40348
      2931.410  
  24245485.155   127410889.56745      1540.292    24245486.924    99281211.71448
      1200.226  
  24904064.144   130871746.45145      3230.401    24904068.561   101977981.32846
      2517.191  
  21079699.816   110774568.85449     -1959.690    21079699.029    86317842.68447
     -1527.034  
  22388815.911   119344989.66206      2421.680    22388822.062    92823908.19406
      1883.531  
  20881504.407   111819509.12608     -2832.363    20881507.279    86970734.73307
     -2202.953  
  19349438.188   103433835.74409       465.202    19349442.840    80448557.27808
       361.824  
  20008449.278   106994166.76405     -1910.847    20008455.458    83217708.06708
     -1486.218  
  21261879.122   113776620.24308      2749.050    21261883.098    88492936.64307
      2138.148  
 20 10 01 06 04  5.0000000  0 14G15G18G20G29G 5G24G27G10G13R14R 4R 5
                                R20R21
  19978838.761   104989504.46749        62.272    19978837.893    81810003.89449
        48.519  
  20388230.238   107140871.69749       354.464    20388230.488    83486393.85148
       276.206  
  21690899.733   113986446.69448      2606.836    21690899.083    88820610.48547
      2031.300  
  24685010.495   129720597.75746     -3711.801    24685013.655   101080995.76349
     -2892.324  
  23767477.571   124898927.94745     -3250.827    23767476.856    97323843.42245
     -2533.109  
  23688031.383   124481445.59946      3761.425    23688034.939    96998545.49048
      2930.980  
  24244021.452   127403197.94644      1536.367    24244023.200    99275218.22848
      1197.163  
  24900990.876   130855596.97546      3229.546    24900995.349   101965397.32046
      2516.535  
  21081565.862   110784375.43449     -1962.766    21081565.203    86325484.16847
     -1529.433  
  22386546.193   119332890.07206      2418.163    22386552.176    92814497.42206
      1880.793  
  20884149.914   111833675.53808     -2834.117    20884152.803    86981753.06007
     -2204.316  
  19349004.434   103431517.01909       462.352    19349009.006    80446753.82108
       359.605  
  20010237.675   107003730.44305     -1915.226    20010243.825    83225146.48808
     -1489.621  
  21259312.284   113762884.63708      2745.285    21259316.172    88482253.38607
      2135.222  
 20 10 01 06 04 10.0000000  0 15G15G18G20G29G 5G24G27G10G13R14R 4R 6
                                R 5R20R21
  19978780.690   104989199.30049        59.854    19978779.845    81809766.10249
        46.636  
  20387894.196   107139105.62949       351.957    20387894.430    83485017.69048
       274.253  
  21688419.668   113973413.79848      2606.336    21688419.037    88810454.98746
      2030.909  
  24688542.090   129739157.41345     -3711.820    24688545.480   101095457.81049
     -2892.332  
  23770570.699   124915182.91046     -3251.171    23770570.048    97336509.58846
     -2533.386  
  23684453.051   124462641.36946      3760.910    23684456.574    96983892.83948
      2930.578  
  24242560.489   127395520.87644      1533.699    24242562.291    99269236.08048
      1195.086  
  24897917.628   130839447.57346      3230.612    24897922.206   101952813.37646
      2517.354  
  21083434.197   110794193.97549     -1964.547    21083433.600    86333134.97447
     -1530.816  
  22384279.512   119320806.57306      2415.090    22384285.327    92805099.14106
      1878.397  
  20886796.541   111847847.95408     -2834.758    20886799.336    86992776.05707
     -2204.812  
  22764677.908   121476684.41714      3458.602           0.000           0.0000 
         0.000  
  19348573.054   103429211.01609       460.116    19348577.582    80444960.26008
       357.863  
  20012030.081   107013314.80605     -1918.675    20012036.129    83232601.00008
     -1492.305  
  21256748.560   113749165.81808      2742.270    21256752.406    88471583.18407
      2132.870  
 20 10 01 06 04 15.0000000  0 15G15G18G20G29G 5G24G27G10G13R14R 4R 6
                                R 5R20R21
  19978725.316   104988908.37449        56.656    19978724.492    81809539.41249
        44.144  
  20387560.857   107137353.89249       348.866    20387561.102    83483652.70248
       271.839  
  21685940.481   113960385.73848      2605.233    21685939.877    88800303.27046
      2030.055  
  24692073.590   129757716.66445     -3711.648    24692077.196   101109919.56549
     -2892.198  
  23773664.075   124931439.43045     -3251.727    23773663.569    97349176.91646
     -2533.827  
  23680875.084   124443839.42946      3760.324    23680878.622    96969241.97348
      2930.120  
  24241102.304   127387857.68845      1531.554    24241104.062    99263264.78048
      1193.414  
  24894844.327   130823297.48446      3230.003    24894848.578   101940228.91546
      2516.886  
  21085304.714   110804023.85649     -1966.918    21085304.197    86340794.62947
     -1532.663  
  22382015.625   119308738.31406      2412.276    22382021.417    92795712.73606
      1876.219  
  20889444.172   111862025.70908     -2835.921    20889446.819    87003803.20007
     -2205.718  
  22761437.085   121459391.07704      3458.199           0.000           0.0000 
         0.000  
  19348143.875   103426916.93309       457.734    19348148.403    80443175.97108
       356.011  
  20013826.066   107022919.05305     -1922.789    20013832.153    83240070.95708
     -1495.508  
  21254187.866   113735463.18208      2738.874    21254191.627    88460925.60607
      2130.234  
 20 10 01 06 04 20.0000000  0 15G15G18G20G29G 5G24G27G10G13R14R 4R 6
                                R 5R20R21
  19978672.653   104988631.68749        53.655    19978671.822    81809323.79749
        41.804  
  20387230.282   107135616.48649       345.831    20387230.498    83482298.87348
       269.477  
  21683462.199   113947362.47148      2604.030    21683461.695    88790155.27946
      2029.116  
  24695604.986   129776275.34045     -3712.093    24695608.866   101124380.81749
     -2892.550  
  23776757.717   124947697.38045     -3251.128    23776757.371    97361845.42444
     -2533.352  
  23677297.513   124425039.75945      3759.383    23677301.099    96954592.92849
      2929.394  
  24239646.724   127380208.34545      1528.257    24239648.426    99257304.25948
      1190.848  
  24891770.967   130807146.68346      3230.086    24891775.032   101927643.91347
      2516.957  
  21087177.404   110813865.06649     -1969.577    21087176.970    86348463.10647
     -1534.734  
  22379754.528   119296685.45806      2408.762    22379760.513    92786338.32506
      1873.483  
  20892092.816   111876208.76408     -2837.367    20892095.233    87014834.47007
     -2206.839  
  22758196.861   121442101.05704      3456.808           0.000           0.0000 
         0.000  
  19347716.952   103424634.90809       454.933    19347721.470    80441401.05108
       353.832  
  20015625.831   107032543.14305     -1926.785    20015631.965    83247556.35308
     -1498.612  
  21251630.186   113721776.70608      2735.327    21251633.785    88450280.56107
      2127.473  
 20 10 01 06 04 25.0000000  0 15G15G18G20G29G 5G24G27G10G13R14R 4R 6
                                R 5R20R21
  19978623.385   104988372.65749        49.995    19978622.495    81809121.96949
        38.957  
  20386903.057   107133896.81649       342.098    20386903.266    83480958.88248
       266.569  
  21680985.507   113934347.46049      2602.082    21680985.013    88780013.71146
      2027.593  
  24699137.066   129794836.94845     -3712.925    24699141.051   101138844.40249
     -2893.190  
  23779852.283   124963960.43344     -3253.948    23779851.923    97374517.94145
     -2535.546  
  23673720.753   124406245.85644      3758.323    23673724.867    96939948.26549
      2928.555  
  24238194.384   127372576.43045      1524.965    24238196.101    99251357.32348
      1188.285  
  24888697.974   130790998.71246      3229.374    24888702.232   101915061.06245
      2516.391  
  21089052.914   110823721.02949     -1972.671    21089052.555    86356143.06347
     -1537.152  
  22377497.042   119284651.44007      2404.999    22377503.210    92776978.49806
      1870.550  
  20894743.057   111890400.62208     -2839.386    20894745.355    87025872.57407
     -2208.413  
  22754958.154   121424818.35205      3455.641           0.000           0.0000 
         0.000  
  19347292.928   103422368.31909       451.769    19347297.423    80439638.15908
       351.371  
  20017429.930   107042190.63005     -1931.480    20017436.220    83255059.94708
     -1502.266  
  21249076.123   113708109.96108      2731.323    21249079.622    88439650.86207
      2124.358  
 20 10 01 06 04 30.0000000  0 14G15G18G20G29G24G27G10G13R14R 4R 6R 5
                                R20R21
  19978577.447   104988130.97249        46.391    19978576.488    81808933.64049
        36.144  
  20386579.129   107132194.56449       338.496    20386579.371    83479632.45848
       263.762  
  21678510.364   113921340.37049      2600.469    21678509.804    88769878.30046
      2026.335  
  24702669.663   129813401.08946     -3713.398    24702673.636   101153309.93649
     -2893.566  
  23670145.275   124387457.27746      3757.007    23670149.518    96925307.90048
      2927.546  
  24236745.087   127364961.38645      1521.098    24236747.126    99245423.51348
      1185.266  
  24885625.489   130774853.10046      3229.112    24885629.706   101902480.04947
      2516.188  
  21090931.205   110833591.39349     -1975.726    21090930.825    86363834.26547
     -1539.531  
  22375242.993   119272635.87306      2401.402    22375249.243    92767633.06706
      1867.757  
  20897394.885   111904600.98008     -2841.198    20897397.111    87036917.26007
     -2209.828  
  22751720.635   121407542.17605      3453.688           0.000           0.0000 
         0.000  
  19346871.718   103420116.80209       448.499    19346876.223    80437886.98108
       348.831  
  20019238.318   107051861.14105     -1936.242    20019244.773    83262581.45108
     -1505.933  
  21246525.728   113694462.53708      2727.233    21246529.092    88429036.22107
      2121.183  
 20 10 01 06 04 35.0000000  0 14G15G18G20G29G24G27G10G13R14R 4R 6R 5
                                R20R21
  19978534.881   104987907.03449        43.519    19978533.890    81808759.14749
        33.909  
  20386258.581   107130510.16649       335.647    20386258.837    83478319.92748
       261.538  
  21676036.787   113908341.63548      2599.487    21676036.239    88759749.43547
      2025.574  
  24706202.814   129831968.23744     -3713.644    24706206.881   101167777.79649
     -2893.754  
  23666571.078   124368674.52946      3756.593    23666575.179    96910672.01848
      2927.218  
  24235299.367   127357363.83046      1518.453    24235301.540    99239503.36249
      1183.211  
  24882553.516   130758710.37246      3228.949    24882557.474   101889901.36847
      2516.074  
  21092812.299   110843476.57549     -1977.823    21092811.882    86371537.00447
     -1541.160  
  22372992.392   119260639.27707      2397.937    22372998.644    92758302.38105
      1865.059  
  20900048.388   111918810.08308     -2842.125    20900050.549    87047968.79707
     -2210.543  
  22748484.544   121390273.02705      3453.593           0.000           0.0000 
         0.000  
  19346453.450   103417880.95409       446.183    19346457.918    80436147.99508
       347.031  
  20021051.182   107061555.09005     -1940.664    20021057.617    83270121.17408
     -1509.409  
  21243979.059   113680835.01608      2724.027    21243982.545    88418437.00007
      2118.679  
 20 10 01 06 04 40.0000000  0 15G15G18G20G29G 5G24G27G10G13R14R 4R 6
                                R 5R20R21
  19978494.635   104987695.41449        41.324    19978493.667    81808594.25349
        32.198  
  20385940.415   107128838.16049       333.456    20385940.664    83477017.06048
       259.832  
  21673563.766   113895345.82348      2599.171    21673563.200    88749622.81847
      2025.323  
  24709735.373   129850532.86644     -3712.563    24709739.656   101182243.69849
     -2892.914  
  23789140.181   125012764.23055     -3253.843    23789142.369    97412542.88955
     -2535.464  
  23662997.039   124349892.32647      3756.762    23663001.033    96896036.55048
      2927.347  
  24233855.901   127349778.26845      1516.468    24233858.061    99233592.52548
      1181.663  
  24879481.200   130742565.05347      3229.230    24879484.957   101877320.61046
      2516.285  
  21094695.163   110853371.09249     -1979.438    21094694.734    86379247.02947
     -1542.418  
  22370744.421   119248655.98406      2395.749    22370750.526    92748982.04205
      1863.358  
  20902702.536   111933022.61108     -2842.538    20902704.441    87059023.00906
     -2210.863  
  22745248.782   121373005.44205      3453.749           0.000           0.0000 
         0.000  
  19346037.065   103415655.07609       444.418    19346041.408    80434416.75208
       345.655  
  20022867.298   107071266.99305     -1943.625    20022873.775    83277674.87008
     -1511.710  
  21241435.092   113667221.69808      2721.465    21241438.602    88407848.89707
      2116.695  
 20 10 01 06 04 45.0000000  0 15G15G18G20G29G 5G24G27G10G13R14R 4R 6
                                R 5R20R21
  19978457.223   104987498.59549        37.938    19978456.236    81808440.88449
        29.559  
  20385625.061   107127181.05749       329.977    20385625.318    83475725.80348
       257.120  
  21671091.814   113882355.40548      2597.582    21671091.239    88739500.42646
      2024.089  
  24713268.016   129869097.49945     -3713.086    24713272.406   101196709.65549
     -2893.319  
  23792237.590   125029038.66246     -3255.366    23792236.279    97425224.21545
     -2536.660  
  23659423.552   124331113.02746      3755.777    23659427.417    96881403.34348
      2926.582  
  24232415.129   127342207.21245      1512.655    24232417.408    99227693.01148
      1178.688  
  24876408.819   130726419.51746      3228.992    24876412.601   101864739.63845
      2516.102  
  21096580.284   110863277.44149     -1982.390    21096579.855    86386966.25347
     -1544.723  
  22368499.383   119236688.73106      2391.758    22368505.272    92739674.14205
      1860.250  
  20905357.726   111947240.94408     -2844.465    20905359.463    87070081.70607
     -2212.367  
  22742013.633   121355741.94005      3452.223           0.000           0.0000 
         0.000  
  19345623.013   103413441.70009       441.383    19345627.270    80432695.25008
       343.296  
  20024687.303   107080999.25205     -1948.710    20024693.724    83285244.42408
     -1515.663  
  21238894.204   113653625.30108      2717.605    21238897.841    88397273.91207
      2113.687  
 20 10 01 06 04 50.0000000  0 15G15G18G20G29G 5G24G27G10G13R14R 4R 6
                                R 5R20R21
  19978422.809   104987317.59349        34.410    19978421.784    81808299.84349
        26.808  
  20385312.720   107125539.88149       326.476    20385313.016    83474446.97848
       254.398  
  21668621.118   113869371.52949      2596.055    21668620.491    88729383.12747
      2022.897  
  24716800.933   129887663.04045     -3712.972    24716805.383   101211176.35849
     -2893.222  
  23795334.558   125045316.12245     -3256.269    23795335.247    97437907.90745
     -2537.358  
  23655850.745   124312337.64446      3754.636    23655854.688    96866773.14949
      2925.690  
  24230977.166   127334651.63146      1508.902    24230979.775    99221805.51948
      1175.765  
  24873336.606   130710275.05647      3228.581    24873340.860   101852159.62447
      2515.780  
  21098467.888   110873196.61649     -1985.410    21098467.402    86394695.47347
     -1547.078  
  22366257.526   119224738.46406      2388.066    22366263.354    92730379.53806
      1857.391  
  20908014.207   111961466.15408     -2845.757    20908015.868    87081145.76007
     -2213.366  
  22738779.664   121338483.61304      3450.941           0.000           0.0000 
         0.000  
  19345211.499   103411241.88809       438.312    19345215.757    80430984.28408
       340.906  
  20026511.388   107090753.07805     -1952.972    20026517.712    83292830.74708
     -1518.980  
  21236356.761   113640046.77808      2713.645    21236360.531    88386712.85807
      2110.613  
 20 10 01 06 04 55.0000000  0 14G15G18G20G29G24G27G10G13R14R 4R 6R 5
                                R20R21
  19978391.322   104987152.12949        30.789    19978390.320    81808170.90849
        23.988  
  20385003.399   107123914.35649       322.718    20385003.641    83473180.32848
       251.464  
  21666151.607   113856393.75649      2594.074    21666150.930    88719270.59146
      2021.355  
  24720333.932   129906231.32755     -3714.800    24720338.497   101225653.55559
     -2894.647  
  23652278.722   124293565.84747      3753.070    23652282.531    96852145.73349
      2924.456  
  24229542.312   127327111.26646      1505.332    24229544.815    99215929.94048
      1172.988  
  24870264.567   130694131.22647      3228.066    24870268.781   101839580.00646
      2515.367  
  21100357.831   110883128.33249     -1988.516    21100357.376    86402434.47547
     -1549.495  
  22364018.931   119212805.02506      2383.938    22364024.721    92721097.96205
      1854.167  
  20910671.902   111975697.92408     -2847.895    20910673.665    87092214.95207
     -2215.026  
  22735546.386   121321230.19105      3449.062           0.000           0.0000 
         0.000  
  19344802.485   103409055.44509       435.241    19344806.753    80429283.71808
       338.523  
  20028339.292   107100527.95205     -1957.905    20028345.626    83300433.40308
     -1522.819  
  21233822.597   113626485.92308      2709.437    21233826.411    88376165.51507
      2107.335  
 20 10 01 06 05  0.0000000  0 14G15G18G20G29G24G27G10G13R14R 4R 6R 5
                                R20R21
  19978363.818   104987007.53249        27.558    19978362.775    81808058.24049
        21.473  
  20384698.086   107122309.83249       319.577    20384698.273    83471930.05148
       249.023  
  21663684.282   113843427.53449      2592.875    21663683.571    88709167.04347
      2020.421  
  24723868.207   129924803.69246     -3714.343    24723872.724   101240125.46848
     -2894.300  
  23648708.349   124274802.97447      3752.438    23648712.038    96837525.34849
      2923.977  
  24228111.405   127319591.51745      1502.968    24228113.812    99210070.41248
      1171.145  
  24867193.644   130677993.41447      3227.703    24867197.762   101827005.06946
      2515.090  
  21102251.199   110893077.92249     -1990.875    21102250.730    86410187.41547
     -1551.332  
  22361784.448   119200893.78705      2380.824    22361790.028    92711833.69304
      1851.757  
  20913331.811   111989941.67908     -2849.129    20913333.688    87103293.38607
     -2215.992  
  22732315.200   121303987.08704      3448.125           0.000           0.0000 
         0.000  
  19344396.932   103406887.68609       432.371    19344401.260    80427597.68808
       336.284  
  20030172.253   107110329.43405     -1962.379    20030178.385    83308056.79708
     -1526.293  
  21231292.763   113612948.11408      2706.188    21231296.595    88365636.11707
      2104.813  
 20 10 01 06 05  5.0000000  0 14G15G18G20G29G24G27G10G13R14R 4R 6R 5
                                R20R21
  19978338.796   104986876.06849        25.082    19978337.729    81807955.80849
        19.542  
  20384395.305   107120718.58249       317.008    20384395.438    83470690.11948
       247.019  
  21661217.663   113830465.11148      2592.269    21661216.849    88699066.44947
      2019.945  
  24727402.050   129943374.28845     -3713.695    24727406.604   101254596.05249
     -2893.792  
  23645138.277   124256041.49346      3752.335    23645141.819    96822906.08348
      2923.901  
  24226682.905   127312084.67346      1500.219    24226685.243    99204220.91148
      1168.995  
  24864122.366   130661853.83346      3228.015    24864126.457   101814428.77645
      2515.336  
  21104146.481   110903037.63849     -1992.785    21104146.041    86417948.24047
     -1552.819  
  22359552.571   119188996.87506      2378.101    22359557.971    92702580.56605
      1849.640  
  20915992.482   112004189.67108     -2849.922    20915994.489    87114375.15107
     -2216.608  
  22729084.217   121286746.12904      3447.827           0.000           0.0000 
         0.000  
  19343993.390   103404730.73909       430.425    19343997.773    80425920.06108
       334.773  
  20032008.667   107120149.56005     -1966.012    20032014.726    83315694.65608
     -1529.124  
  21228765.724   113599425.51108      2702.891    21228769.699    88355118.56007
      2102.253  
 20 10 01 06 05 10.0000000  0 14G15G18G20G29G24G27G10G13R14R 4R 6R 5
                                R20R21
  19978316.133   104986756.97749        22.270    19978315.067    81807863.01049
        17.351  
  20384094.907   107119139.82249       314.194    20384094.986    83469459.91448
       244.823  
  21658751.586   113817505.69849      2591.305    21658750.692    88688968.19846
      2019.198  
  24730935.466   129961942.54646     -3713.465    24730940.063   101269064.82349
     -2893.612  
  23641568.263   124237280.65946      3751.762    23641571.676    96808287.25849
      2923.448  
  24225256.727   127304589.99345      1497.179    24225259.090    99198380.86649
      1166.621  
  24861050.611   130645711.77946      3228.074    24861054.989   101801850.56946
      2515.382  
  21106043.539   110913006.74449     -1995.140    21106043.151    86425716.37047
     -1554.659  
  22357323.201   119177113.58006      2374.973    22357328.359    92693337.98305
      1847.194  
  20918653.763   112018440.89708     -2850.792    20918655.839    87125459.42407
     -2217.288  
  22725853.745   121269507.08705      3447.492           0.000           0.0000 
         0.000  
  19343591.799   103402583.94309       428.062    19343596.171    80424250.33308
       332.933  
  20033848.541   107129987.63505     -1970.054    20033854.455    83323346.48008
     -1532.270  
  21226241.369   113585917.33508      2699.972    21226245.454    88344612.22207
      2099.979  
 20 10 01 06 05 15.0000000  0 14G15G18G20G29G24G27G10G13R14R 4R 6R 5
                                R20R21
  19978297.374   104986658.61449        17.944    19978296.343    81807786.36749
        13.980  
  20383798.458   107117581.94349       309.855    20383798.471    83468245.98448
       241.444  
  21656287.655   113804557.68348      2588.894    21656286.739    88678878.84946
      2017.320  
  24734470.031   129980516.59145     -3714.960    24734474.600   101283538.09848
     -2894.772  
  23638000.070   124218528.86646      3750.003    23638003.291    96793675.47549
      2922.077  
  24223834.231   127297115.72645      1493.538    24223836.807    99192556.75849
      1163.793  
  24857979.980   130629575.66146      3227.004    24857984.355   101789276.99045
      2514.546  
  21107943.944   110922993.56549     -1998.636    21107943.594    86433498.30047
     -1557.378  
  22355098.043   119165252.48505      2370.199    22355102.944    92684112.68005
      1843.488  
  20921317.286   112032704.06808     -2853.547    20921319.393    87136553.03207
     -2219.426  
  22722625.184   121252278.08505      3445.562           0.000           0.0000 
         0.000  
  19343193.672   103400455.72909       424.305    19343198.036    80422595.05108
       330.012  
  20035693.246   107139852.13205     -1975.313    20035699.159    83331018.86908
     -1536.354  
  21223721.326   113572432.19708      2695.090    21223725.408    88334123.76907
      2096.179  
 20 10 01 06 05 20.0000000  0 14G15G18G20G29G24G27G10G13R14R 4R 6R 5
                                R20R21
  19978281.556   104986575.61549        15.382    19978280.549    81807721.69649
        11.984  
  20383504.983   107116039.59949       307.082    20383504.928    83467044.16248
       239.284  
  21653824.881   113791615.74849      2587.987    21653823.946    88668794.24746
      2016.613  
  24738004.623   129999091.15145     -3714.723    24738009.177   101298011.75449
     -2894.601  
  23634432.479   124199780.67345      3749.266    23634435.662    96779066.53849
      2921.507  
  24222414.590   127289656.52645      1490.675    24222417.468    99186744.49249
      1161.578  
  24854909.235   130613439.97545      3227.742    24854913.603   101776703.71146
      2515.121  
  21109846.711   110932992.76349     -2000.690    21109846.358    86441289.89947
     -1558.980  
  22352875.838   119153408.06905      2367.480    22352881.064    92674900.37305
      1841.374  
  20923982.036   112046973.58608     -2854.371    20923984.170    87147651.54707
     -2220.066  
  22719397.436   121235053.86305      3444.457           0.000           0.0000 
         0.000  
  19342797.983   103398340.57309       421.878    19342802.345    80420949.92808
       328.124  
  20037541.929   107149737.55705     -1979.152    20037547.762    83338707.53808
     -1539.340  
  21221204.561   113558964.63508      2692.012    21221208.668    88323649.01107
      2093.784  
 20 10 01 06 05 25.0000000  0 14G15G18G20G29G24G27G10G13R14R 4R 6R 5
                                R20R21
  19978268.307   104986506.17849        12.551    19978267.342    81807667.58349
         9.781  
  20383214.083   107114511.00449       304.468    20383213.955    83465853.05148
       237.250  
  21651362.933   113778678.09448      2587.117    21651362.067    88658712.95346
      2015.934  
  24741538.900   130017664.37344     -3714.429    24741543.597   101312484.33149
     -2894.367  
  23630865.162   124181034.23445      3749.203    23630868.296    96764458.92449
      2921.457  
  24220997.716   127282210.79945      1487.882    24221000.632    99180942.56749
      1159.382  
  24851838.378   130597303.07546      3227.328    24851842.695   101764129.54446
      2514.809  
  21111751.488   110943002.56349     -2003.020    21111751.167    86449089.74047
     -1560.796  
  22350656.294   119141578.52605      2364.503    22350661.772    92665699.54805
      1839.051  
  20926647.591   112061247.60908     -2855.156    20926649.749    87158753.55907
     -2220.679  
  22716170.146   121217832.67305      3443.492           0.000           0.0000 
         0.000  
  19342404.397   103396236.75409       419.629    19342408.752    80419313.62508
       326.375  
  20039394.160   107159642.11205     -1982.882    20039399.873    83346411.07908
     -1542.241  
  21218690.733   113545512.91508      2688.780    21218694.919    88313186.57707
      2091.272  
 20 10 01 06 05 30.0000000  0 14G15G18G20G29G24G27G10G13R14R 4R 6R 5
                                R20R21
  19978257.842   104986451.31149         9.206    19978256.923    81807624.82649
         7.172  
  20382926.014   107112997.12649       300.933    20382925.810    83464673.39648
       234.488  
  21648901.983   113765745.71249      2585.647    21648901.084    88648635.76446
      2014.785  
  24745073.149   130036237.16644     -3714.171    24745077.964   101326956.63149
     -2894.164  
  23627298.444   124162290.62946      3748.249    23627301.500    96749853.52249
      2920.714  
  24219583.322   127274779.42545      1484.308    24219586.463    99175151.84249
      1156.593  
  24848767.647   130581165.95946      3227.378    24848771.804   101751555.19844
      2514.840  
  21113658.512   110953023.85049     -2005.745    21113658.157    86456898.51347
     -1562.922  
  22348439.975   119129764.86205      2360.605    22348445.557    92656511.19705
      1836.027  
  20929314.122   112075527.26108     -2857.046    20929316.366    87169859.95407
     -2222.151  
  22712943.747   121200615.39705      3442.870           0.000           0.0000 
         0.000  
  19342013.144   103394145.25509       416.683    19342017.504    80417686.91608
       324.085  
  20041250.159   107169566.81705     -1987.124    20041255.793    83354130.30308
     -1545.543  
  21216180.052   113532077.97508      2685.077    21216184.319    88302737.19107
      2088.394  
 20 10 01 06 05 35.0000000  0 14G15G18G20G29G24G27G10G13R14R 4R 6R 5
                                R20R21
  19978250.771   104986414.30749         5.543    19978249.915    81807596.00249
         4.320  
  20382641.388   107111501.31049       297.472    20382641.128    83463507.82848
       231.792  
  21646442.699   113752821.93248      2583.984    21646441.776    88638565.30747
      2013.495  
  24748607.924   130054812.93745     -3714.780    24748612.798   101341431.24949
     -2894.633  
  23623732.890   124143553.36246      3746.848    23623735.957    96735253.06449
      2919.620  
  24218172.443   127267365.67045      1481.289    24218175.682    99169374.86949
      1154.241  
  24845697.413   130565031.83746      3226.559    24845701.537   101738983.12447
      2514.202  
  21115568.385   110963059.98849     -2008.734    21115567.961    86464718.90547
     -1565.246  
  22346227.083   119117970.30905      2357.031    22346232.932    92647337.66905
      1833.245  
  20931982.370   112089815.85808     -2858.515    20931984.649    87180973.29107
     -2223.292  
  22709718.644   121183405.34505      3441.293           0.000           0.0000 
         0.000  
  19341624.825   103392069.43509       413.637    19341629.176    80416072.37808
       321.715  
  20043110.499   107179515.01405     -1991.910    20043116.164    83361867.79208
     -1549.262  
  21213673.209   113518663.25708      2681.218    21213677.471    88292303.51007
      2085.391  
 20 10 01 06 05 40.0000000  0 14G15G18G20G29G24G27G10G13R14R 4R 6R 5
                                R20R21
  19978246.455   104986391.65649         3.269    19978245.619    81807578.35049
         2.543  
  20382359.529   107110020.03949       294.910    20382359.189    83462353.58448
       229.797  
  21643984.382   113739903.26748      2583.288    21643983.398    88628498.81747
      2012.952  
  24752142.571   130073388.16344     -3715.569    24752147.497   101355905.43648
     -2895.257  
  23620167.843   124124818.60146      3746.605    23620170.865    96720654.54549
      2919.429  
  24216764.289   127259966.14946      1478.542    24216767.509    99163608.94849
      1152.102  
  24842627.112   130548897.32746      3227.081    24842631.516   101726410.80646
      2514.608  
  21117480.419   110973107.45449     -2010.577    21117479.913    86472548.09247
     -1566.683  
  22344017.401   119106191.67605      2355.042    22344023.345    92638176.54906
      1831.703  
  20934651.557   112104109.73308     -2858.965    20934653.981    87192090.74607
     -2223.644  
  22706494.149   121166199.10805      3440.667           0.000           0.0000 
         0.000  
  19341238.774   103390005.77309       411.582    19341243.122    80414467.32308
       320.120  
  20044974.642   107189483.11305     -1995.374    20044980.291    83369620.74808
     -1551.812  
  21211169.473   113505265.16708      2678.125    21211173.729    88281882.79107
      2082.983  
 20 10 01 06 05 45.0000000  0 13G15G18G20G24G27G10G13R14R 4R 6R 5R20
                                R21
  19978244.259   104986380.05849         1.063    19978243.421    81807569.31949
         0.827  
  20382079.772   107108549.97049       292.816    20382079.431    83461208.08448
       228.167  
  21641526.393   113726986.35348      2583.121    21641525.381    88618433.68147
      2012.815  
  23616602.649   124106083.13045      3747.125    23616605.689    96706055.49749
      2919.836  
  24215358.288   127252577.37645      1476.668    24215361.420    99157851.49749
      1150.652  
  24839556.016   130532758.94846      3228.058    24839560.474   101713835.49747
      2515.375  
  21119393.962   110983162.87549     -2011.871    21119393.425    86480383.47747
     -1567.694  
  22341810.098   119094425.51106      2351.754    22341816.060    92629025.09806
      1829.140  
  20937321.166   112118405.52508     -2859.401    20937323.544    87203209.66407
     -2223.987  
  22703269.826   121148993.12504      3441.351           0.000           0.0000 
         0.000  
  19340854.328   103387950.78209       410.003    19340858.671    80412868.99708
       318.890  
  20046841.755   107199467.56505     -1998.831    20046847.461    83377386.42108
     -1554.651  
  21208668.240   113491880.28208      2675.527    21208672.422    88271472.29807
      2080.960  
 20 10 01 06 05 50.0000000  0 14G15G18G20G 5G24G27G10G13R14R 4R 6R 5
                                R20R21
  19978245.235   104986385.18449        -3.319    19978244.373    81807573.30849
        -2.590  
  20381803.257   107107096.84149       288.293    20381802.887    83460075.77648
       224.641  
  21639069.828   113714076.88948      2580.636    21639068.839    88608374.36447
      2010.883  
  23832552.034   125240913.37254     -3263.008    23832552.084    97590344.63655
     -2542.605  
  23613038.324   124087352.63045      3745.085    23613041.436    96691460.34949
      2918.257  
  24213955.436   127245205.15146      1472.199    24213958.466    99152106.91649
      1147.168  
  24836485.294   130516622.50746      3226.616    24836489.713   101701261.67947
      2514.253  
  21121310.077   110993231.97049     -2015.831    21121309.522    86488229.51347
     -1570.781  
  22339606.173   119082677.63106      2346.827    22339612.275    92619887.78506
      1825.300  
  20939992.253   112132709.04108     -2862.199    20939994.663    87214334.62507
     -2226.159  
  22700046.438   121131793.22705      3439.101           0.000           0.0000 
         0.000  
  19340472.672   103385910.32709       405.961    19340476.941    80411281.98308
       315.746  
  20048713.086   107209474.47306     -2004.281    20048718.873    83385169.57808
     -1558.886  
  21206170.584   113478514.44308      2670.465    21206174.604    88261076.60807
      2077.019  
 20 10 01 06 05 55.0000000  0 14G15G18G20G 5G24G27G10G13R14R 4R 6R 5
                                R20R21
  19978250.704   104986413.80049        -7.422    19978249.819    81807595.61049
        -5.788  
  20381531.225   107105667.36449       284.141    20381530.873    83458961.89248
       221.406  
  21636615.933   113701181.64649      2578.265    21636615.011    88598326.12947
      2009.039  
  23835657.407   125257227.08955     -3263.684    23835657.721    97603033.88855
     -2543.128  
  23609476.226   124068633.99346      3743.395    23609479.473    96676874.39649
      2916.929  
  24212557.080   127237856.20947      1467.925    24212560.053    99146380.49148
      1143.839  
  24833416.198   130500494.83545      3225.336    24833420.703   101688694.62747
      2513.238  
  21123230.060   111003321.45949     -2019.102    21123229.473    86496091.45247
     -1573.328  
  22337406.992   119070954.66605      2342.496    22337413.216    92610769.90405
      1821.937  
  20942666.029   112147027.17708     -2864.542    20942668.518    87225470.97907
     -2227.976  
  22696825.657   121114606.46304      3436.465           0.000           0.0000 
         0.000  
  19340094.933   103383891.19309       402.347    19340099.243    80409711.54808
       312.938  
  20050589.868   107219510.40605     -2009.535    20050595.711    83392975.30408
     -1562.976  
  21203677.747   113465174.55108      2665.753    21203681.686    88250701.15507
      2073.363  
 20 10 01 06 06  0.0000000  0 14G15G18G20G 5G24G27G10G13R14R 4R 6R 5
                                R20R21
  19978259.118   104986458.04449        -9.315    19978258.225    81807630.09249
        -7.258  
  20381262.212   107104253.75749       282.289    20381261.827    83457860.38348
       219.961  
  21634163.278   113688292.82648      2578.348    21634162.363    88588282.91347
      2009.102  
  23838765.748   125273551.87646     -3264.608    23838765.064    97615754.53146
     -2543.843  
  23605915.015   124049919.67146      3743.249    23605918.302    96662291.77549
      2916.809  
  24211161.628   127230522.87047      1466.065    24211164.602    99140666.19649
      1142.391  
  24830347.296   130484367.95446      3226.093    24830352.126   101676128.22446
      2513.839  
  21125152.445   111013423.53349     -2020.417    21125151.776    86503963.18247
     -1574.355  
  22335211.009   119059248.83806      2340.550    22335217.211    92601665.41006
      1820.433  
  20945341.067   112161351.91508     -2864.344    20945343.589    87236612.39907
     -2227.827  
  22693605.932   121097424.82805      3436.206           0.000           0.0000 
         0.000  
  19339719.735   103381885.54209       400.914    19339724.069    80408151.60508
       311.819  
  20052470.603   107229567.63705     -2012.309    20052476.491    83400797.58608
     -1565.133  
  21201188.267   113451852.71608      2663.836    21201192.207    88240339.73607
      2071.867  
 20 10 01 06 06  5.0000000  0 14G15G18G20G 5G24G27G10G13R14R 4R 6R 5
                                R20R21
  19978269.199   104986511.08549       -12.387    19978268.272    81807671.42249
        -9.655  
  20380994.901   107102849.15149       279.234    20380994.526    83456765.88948
       217.585  
  21631710.554   113675403.61348      2576.890    21631709.658    88578239.37046
      2007.960  
  23841870.927   125289872.67045     -3264.539    23841870.842    97628471.98345
     -2543.804  
  23602353.147   124031202.27545      3742.848    23602356.571    96647706.80149
      2916.504  
  24209767.879   127223198.01347      1463.565    24209770.794    99134958.53848
      1140.441  
  24827277.122   130468235.02045      3226.550    24827282.136   101663557.12846
      2514.195  
  21127075.891   111023531.27849     -2022.555    21127075.194    86511839.38347
     -1576.011  
  22333017.028   119047553.15506      2337.238    22333023.217    92592568.74806
      1817.848  
  20948016.001   112175676.34908     -2865.574    20948018.642    87247753.65107
     -2228.781  
  22690385.485   121080241.12305      3436.472           0.000           0.0000 
         0.000  
  19339345.737   103379886.27709       398.340    19339350.100    80406596.60908
       309.815  
  20054353.985   107239639.02205     -2016.703    20054359.867    83408630.88008
     -1568.550  
  21198700.796   113438541.91508      2660.249    21198704.865    88229986.90107
      2069.081  
 20 10 01 06 06 10.0000000  0 14G15G18G20G 5G24G27G10G13R14R 4R 6R 5
                                R20R21
  19978282.537   104986581.20649       -14.851    19978281.586    81807726.06749
       -11.573  
  20380730.900   107101461.84849       276.667    20380730.569    83455684.87648
       215.586  
  21629259.331   113662522.22349      2576.379    21629258.386    88568201.91546
      2007.563  
  23844978.201   125306197.66246     -3264.440    23844977.251    97641192.73946
     -2543.718  
  23598792.330   124012490.49045      3742.901    23598795.800    96633126.22649
      2916.550  
  24208377.348   127215890.25747      1460.890    24208380.180    99129264.17648
      1138.351  
  24824207.482   130452104.48344      3226.335    24824212.862   101650987.90347
      2514.027  
  21129002.025   111033653.05549     -2025.043    21129001.281    86519726.47947
     -1577.961  
  22330826.477   119035876.22506      2334.628    22330832.693    92583486.72607
      1815.823  
  20950692.465   112190008.81908     -2866.387    20950695.138    87258901.12707
     -2229.410  
  22687166.544   121063064.08505      3435.706           0.000           0.0000 
         0.000  
  19338974.537   103377901.97109       396.207    19338978.888    80405053.26608
       308.155  
  20056241.611   107249733.00305     -2019.796    20056247.473    83416481.76508
     -1570.952  
  21196217.009   113425250.66708      2657.207    21196221.078    88219649.26407
      2066.714  
 20 10 01 06 06 15.0000000  0 14G15G18G20G 5G24G27G10G13R14R 4R 6R 5
                                R20R21
  19978298.083   104986662.96749       -18.272    19978297.120    81807789.76749
       -14.242  
  20380469.120   107100086.43849       273.253    20380468.878    83454613.13748
       212.925  
  21626808.567   113649643.31248      2574.679    21626807.666    88558166.40947
      2006.241  
  23848085.156   125322521.66444     -3265.659    23848082.975    97653912.72545
     -2544.679  
  23595231.436   123993778.80546      3741.223    23595235.045    96618545.68649
      2915.233  
  24206989.015   127208593.95447      1457.102    24206991.686    99123578.74249
      1135.398  
  24821137.310   130435970.77745      3226.140    24821142.824   101638416.14347
      2513.871  
  21130929.788   111043783.33049     -2027.769    21130929.040    86527620.20447
     -1580.081  
  22328638.382   119024212.44606      2330.245    22328644.703    92574414.89807
      1812.410  
  20953369.452   112204343.86808     -2868.004    20953372.107    87270050.57908
     -2230.675  
  22683947.823   121045888.02805      3434.640           0.000           0.0000 
         0.000  
  19338605.072   103375926.93909       393.203    19338609.405    80403517.13908
       305.823  
  20058132.474   107259843.95705     -2024.652    20058138.278    83424345.83308
     -1574.733  
  21193735.835   113411973.43708      2653.140    21193739.950    88209322.53707
      2063.554  
 20 10 01 06 06 20.0000000  0 14G15G18G20G 5G24G27G10G13R14R 4R 6R 5
                                R20R21
  19978317.402   104986764.54849       -21.948    19978316.420    81807868.92349
       -17.104  
  20380211.163   107098731.08349       269.191    20380211.038    83453557.01548
       209.757  
  21624359.809   113636775.03049      2572.828    21624358.958    88548139.20247
      2004.801  
  23851192.702   125338852.68143     -3267.249    23851190.704    97666638.23046
     -2545.897  
  23591672.118   123975075.30545      3740.210    23591675.911    96603971.53549
      2914.444  
  24205604.359   127201317.32147      1453.980    24205607.029    99117908.64749
      1132.968  
  24818067.918   130419842.23544      3225.820    24818073.808   101625848.53345
      2513.629  
  21132860.737   111053930.35149     -2030.815    21132860.006    86535526.96747
     -1582.452  
  22326454.340   119012570.15007      2326.719    22326460.718    92565359.76506
      1809.667  
  20956048.499   112218689.72808     -2870.108    20956051.159    87281208.45507
     -2232.313  
  22680730.847   121028721.37605      3432.316           0.000           0.0000 
         0.000  
  19338238.913   103373969.66909       390.030    19338243.278    80401994.81208
       303.355  
  20060028.022   107269980.39605     -2029.215    20060033.826    83432229.72208
     -1578.281  
  21191258.811   113398718.50408      2648.862    21191262.898    88199013.15107
      2060.227  
 20 10 01 06 06 25.0000000  0 14G15G18G20G 5G24G27G10G13R14R 4R 6R 5
                                R20R21
  19978340.236   104986884.60349       -25.288    19978339.249    81807962.46649
       -19.711  
  20379956.779   107097394.40949       265.983    20379956.761    83452515.44948
       207.262  
  21621912.796   113623915.98448      2571.332    21621911.986    88538119.13847
      2003.632  
  23854301.446   125355189.36245     -3267.508    23854299.770    97679368.11545
     -2546.112  
  23588114.213   123956378.60846      3738.914    23588118.093    96589402.67849
      2913.440  
  24204223.202   127194059.06946      1450.473    24204225.791    99112252.89749
      1130.242  
  24814999.289   130403717.25945      3225.516    24815005.478   101613283.58247
      2513.390  
  21134794.586   111064092.70049     -2033.301    21134793.848    86543445.66647
     -1584.394  
  22324274.055   119000947.78206      2323.020    22324280.562    92556320.16906
      1806.793  
  20958729.253   112233045.01408     -2871.233    20958731.930    87292373.67708
     -2233.188  
  22677515.479   121011562.55505      3431.870           0.000           0.0000 
         0.000  
  19337875.800   103372028.62109       387.077    19337880.166    80400485.11208
       301.062  
  20061928.008   107280140.81705     -2034.054    20061933.905    83440132.26808
     -1582.046  
  21188785.713   113385484.58208      2645.206    21188789.822    88188720.09507
      2057.379  
 20 10 01 06 06 30.0000000  0 14G15G18G20G 5G24G27G10G13R14R 4R 6R 5
                                R20R21
  19978366.062   104987020.44549       -28.910    19978365.093    81808068.32649
       -22.527  
  20379705.444   107096073.82249       262.140    20379705.522    83451486.41548
       204.261  
  21619467.049   113611063.59448      2569.733    21619466.268    88528104.29847
      2002.391  
  23857410.971   125371529.18547     -3268.270    23857409.761    97692100.41644
     -2546.707  
  23584557.199   123937686.25046      3737.847    23584561.081    96574837.21649
      2912.608  
  24202844.922   127186816.53846      1446.605    24202847.535    99106609.38749
      1127.227  
  24811931.012   130387593.41646      3225.031    24811937.411   101600719.51447
      2513.007  
  21136730.837   111074267.76749     -2036.483    21136730.095    86551374.30547
     -1586.870  
  22322097.106   118989342.92007      2318.940    22322103.596    92547294.16807
      1803.620  
  20961411.268   112247407.08408     -2873.160    20961413.999    87303544.21507
     -2234.680  
  22674300.980   120994409.18605      3429.582           0.000           0.0000 
         0.000  
  19337515.229   103370101.16309       383.977    19337519.512    80398985.97708
       298.645  
  20063832.114   107290322.49105     -2038.905    20063837.994    83448051.33508
     -1585.820  
  21186316.093   113372268.96208      2640.960    21186320.122    88178441.27907
      2054.078  
 20 10 01 06 06 35.0000000  0 14G15G18G20G 5G24G27G10G13R14R 4R 6R 5
                                R20R21
  19978394.967   104987172.50049       -32.370    19978394.014    81808186.81549
       -25.223  
  20379457.209   107094769.68249       258.793    20379457.427    83450470.19748
       201.652  
  21617022.618   113598218.20849      2567.983    21617021.813    88518094.91246
      2001.027  
  23860521.065   125387872.40245     -3269.168    23860520.028    97704835.47144
     -2547.395  
  23581001.029   123918998.54346      3736.965    23581004.990    96560275.36649
      2911.921  
  24201469.689   127179590.14047      1443.292    24201472.386    99100978.41149
      1124.640  
  24808862.982   130371471.06045      3223.941    24808869.432   101588156.62247
      2512.152  
  21138669.581   111084455.93949     -2039.461    21138668.817    86559313.14047
     -1589.190  
  22319923.508   118977755.92207      2315.184    22319930.015    92538282.07707
      1800.699  
  20964094.596   112261776.24308     -2875.030    20964097.241    87314720.22807
     -2236.136  
  22671087.540   120977261.40705      3428.418           0.000           0.0000 
         0.000  
  19337157.285   103368187.65409       380.992    19337161.476    80397497.69508
       296.323  
  20065740.302   107300525.74205     -2043.097    20065746.106    83455987.19708
     -1589.078  
  21183849.956   113359072.10108      2637.007    21183853.908    88168177.06407
      2051.008  
 20 10 01 06 06 40.0000000  0 14G15G18G20G 5G24G27G10G13R14R 4R 6R 5
                                R20R21
  19978426.907   104987340.56349       -34.777    19978425.980    81808317.77349
       -27.098  
  20379212.098   107093481.80449       256.375    20379212.399    83449466.65848
       199.772  
  21614579.473   113585379.67649      2567.512    21614578.730    88508090.86646
      2000.655  
  23863631.863   125404218.97545     -3268.902    23863630.427    97717573.06643
     -2547.198  
  23577445.717   123900315.43846      3736.836    23577449.772    96545717.15449
      2911.824  
  24200097.611   127172379.63347      1441.223    24200100.431    99095359.86149
      1123.034  
  24805795.228   130355349.96945      3224.023    24805801.492   101575594.76647
      2512.227  
  21140610.762   111094656.94649     -2041.108    21140609.987    86567261.97347
     -1590.479  
  22317753.243   118966186.49806      2312.515    22317759.680    92529283.63607
      1798.624  
  20966779.212   112276152.39708     -2875.612    20966781.797    87325901.68407
     -2236.590  
  22667874.890   120960119.18505      3428.038           0.000           0.0000 
         0.000  
  19336801.901   103366287.92209       378.973    19336806.062    80396020.12408
       294.753  
  20067652.395   107310750.59206     -2046.940    20067658.192    83463939.87008
     -1592.066  
  21181387.217   113345893.76708      2634.265    21181391.258    88157927.24707
      2048.870  
 20 10 01 06 06 45.0000000  0 14G15G18G20G 5G24G27G10G13R14R 4R 6R 5
                                R20R21
  19978461.377   104987521.82949       -37.601    19978460.498    81808459.02449
       -29.300  
  20378969.551   107092207.36349       253.570    20378969.919    83448473.58748
       197.585  
  21612137.126   113572545.18048      2566.504    21612136.399    88498089.96047
      1999.874  
  23866742.632   125420566.05046     -3269.512    23866740.903    97730311.03844
     -2547.676  
  23573890.788   123881634.06646      3736.624    23573894.811    96531160.21749
      2911.651  
  24198727.908   127165182.23247      1438.300    24198730.819    99089751.46548
      1120.750  
  24802727.147   130339227.31043      3225.621    24802733.484   101563031.72348
      2513.480  
  21142553.862   111104867.97249     -2043.121    21142553.072    86575218.58047
     -1592.051  
  22315585.680   118954631.92107      2309.331    22315592.080    92520296.74806
      1796.280  
  20969464.631   112290532.60308     -2876.516    20969467.204    87337086.24707
     -2237.296  
  22664662.925   120942979.58505      3427.453           0.000           0.0000 
         0.000  
  19336448.562   103364399.09009       376.772    19336452.745    80394551.02708
       293.043  
  20069567.959   107320994.04106     -2050.473    20069573.742    83471906.97908
     -1594.815  
  21178927.445   113332731.09308      2631.137    21178931.482    88147689.60807
      2046.438  
 20 10 01 06 06 50.0000000  0 14G15G18G20G 5G24G27G10G13R14R 4R 6R 5
                                R20R21
  19978498.474   104987716.83949       -40.749    19978497.622    81808610.98049
       -31.758  
  20378729.683   107090946.97449       250.262    20378730.059    83447491.46348
       195.003  
  21609695.665   113559715.30749      2565.184    21609694.916    88488092.65047
      1998.840  
  23869853.534   125436914.07346     -3270.148    23869852.072    97743049.72443
     -2548.179  
  23570336.270   123862954.94846      3734.858    23570340.285    96516605.02748
      2910.276  
  24197360.845   127157998.58047      1434.847    24197363.773    99084153.82949
      1118.058  
  24799658.793   130323085.41153      3224.976    24799665.374   101550482.60658
      2512.968  
  21144498.993   111115089.64149     -2045.832    21144498.169    86583183.55047
     -1594.155  
  22313420.986   118943092.75706      2306.187    22313427.278    92511321.83906
      1793.702  
  20972150.918   112304917.51408     -2877.640    20972153.537    87348274.47807
     -2238.171  
  22661451.498   120925843.29505      3426.819           0.000           0.0000 
         0.000  
  19336097.361   103362521.78509       373.957    19336101.597    80393090.91208
       290.855  
  20071487.202   107331256.62705     -2054.809    20071492.904    83479888.98408
     -1598.187  
  21176470.724   113319584.71108      2627.129    21176474.803    88137464.64007
      2043.320  
 20 10 01 06 06 55.0000000  0 14G15G18G20G 5G24G27G10G13R14R 4R 6R 5
                                R20R21
  19978539.200   104987930.82749       -44.398    19978538.364    81808777.71749
       -34.602  
  20378493.486   107089705.84749       246.577    20378493.849    83446524.34848
       192.137  
  21607256.077   113546895.31549      2563.305    21607255.332    88478103.05747
      1997.379  
  23872965.719   125453268.31346     -3271.339    23872964.433    97755793.35644
     -2549.090  
  23566783.147   123844283.44245      3733.602    23566787.170    96502055.80049
      2909.300  
  24195997.355   127150833.86347      1431.324    24196000.255    99078570.95249
      1115.315  
  24796591.492   130306966.25746      3224.164    24796597.842   101537922.20247
      2512.323  
  21146447.130   111125327.14049     -2049.035    21146446.337    86591160.81647
     -1596.652  
  22311260.184   118931574.37006      2302.093    22311266.443    92502363.12206
      1790.520  
  20974839.124   112319312.29608     -2879.780    20974841.635    87359470.46907
     -2239.823  
  22658241.828   120908715.44206      3425.257           0.000           0.0000 
         0.000  
  19335749.311   103360661.31909       370.496    19335753.548    80391643.87308
       288.159  
  20073411.023   107341543.72205     -2059.331    20073416.609    83487890.07508
     -1601.703  
  21174018.132   113306459.96008      2623.062    21174022.157    88127256.52107
      2040.160  
 20 10 01 06 07  0.0000000  0 14G15G18G20G 5G24G27G10G13R14R 4R 6R 5
                                R20R21
  19978582.185   104988156.74449       -45.831    19978581.379    81808953.76149
       -35.714  
  20378259.627   107088476.93849       245.137    20378259.996    83445566.76248
       191.016  
  21604817.008   113534078.10648      2563.828    21604816.294    88468115.63747
      1997.792  
  23876077.703   125469621.74045     -3269.940    23876076.251    97768536.22846
     -2548.016  
  23563230.169   123825612.57246      3734.788    23563234.204    96487507.06349
      2910.223  
  24194636.141   127143680.94647      1430.171    24194638.987    99072997.25348
      1114.418  
  24793523.584   130290844.04546      3225.629    24793529.700   101525359.42246
      2513.469  
  21148396.930   111135573.40749     -2049.440    21148396.156    86599144.93647
     -1596.964  
  22309101.971   118920069.56807      2300.297    22309108.101    92493414.96406
      1789.074  
  20977527.812   112333709.88108     -2879.085    20977530.304    87370668.58508
     -2239.288  
  22655032.404   120891589.03205      3425.582           0.000           0.0000 
         0.000  
  19335403.104   103358810.61209       369.827    19335407.339    80390204.45008
       287.645  
  20075337.952   107351848.00306     -2061.883    20075343.551    83495904.50408
     -1603.690  
  21171568.186   113293349.68108      2621.058    21171572.229    88117059.62007
      2038.597  
 20 10 01 06 07  5.0000000  0 13G15G18G20G 5G24G27G13R14R 4R 6R 5R20
                                R21
  19978628.042   104988397.63249       -50.520    19978627.234    81809141.46749
       -39.367  
  20378028.709   107087263.33249       240.277    20378029.045    83444621.08448
       187.226  
  21602379.067   113521266.82948      2560.819    21602378.404    88458132.82047
      1995.440  
  23879189.985   125485977.45746     -3272.718    23879188.603    97781281.01144
     -2550.167  
  23559677.845   123806945.26646      3732.655    23559681.926    96472961.16949
      2908.569  
  24193277.795   127136543.09946      1424.902    24193280.546    99067435.28949
      1110.313  
  21150349.006   111145831.57449     -2053.616    21150348.203    86607138.27347
     -1600.230  
  22306946.902   118908581.52907      2294.964    22306952.955    92484479.80706
      1784.972  
  20980217.528   112348113.37508     -2882.456    20980220.053    87381871.29607
     -2241.913  
  22651823.774   120874467.13205      3422.593           0.000           0.0000 
         0.000  
  19335059.252   103356972.52909       365.465    19335063.509    80388774.82508
       284.250  
  20077268.734   107362172.79306     -2068.011    20077274.397    83503934.88908
     -1608.457  
  21169121.590   113280257.04608      2615.578    21169125.568    88106876.47107
      2034.339  
 20 10 01 06 07 10.0000000  0 14G15G18G20G 5G24G27G10G13R14R 4R 6R 5
                                R20R21
  19978677.776   104988658.95249       -53.793    19978676.948    81809345.10149
       -41.918  
  20377801.702   107086070.46349       237.093    20377802.005    83443691.58248
       184.749  
  21599943.297   113508466.89349      2559.406    21599942.697    88448158.85147
      1994.339  
  23882303.765   125502340.91946     -3272.578    23882302.498    97794031.73145
     -2550.065  
  23556127.284   123788286.94046      3731.366    23556131.266    96458422.21649
      2907.562  
  24191923.326   127129425.63045      1421.815    24191925.984    99061889.18149
      1107.905  
  24787388.964   130258620.11455      3223.011    24787394.412   101500217.94457
      2511.453  
  21152304.358   111156106.95449     -2056.147    21152303.545    86615145.10447
     -1602.195  
  22304795.905   118897115.75307      2291.237    22304802.095    92475562.01306
      1782.070  
  20982909.422   112362528.22208     -2883.511    20982912.004    87393082.86407
     -2242.730  
  22648617.140   120857355.23206      3421.898           0.000           0.0000 
         0.000  
  19334718.884   103355152.81409       362.813    19334723.118    80387359.49908
       282.188  
  20079204.557   107372523.47905     -2072.043    20079209.992    83511985.43008
     -1611.852  
  21166679.247   113267187.51008      2612.050    21166683.308    88096711.26707
      2031.589  
 20 10 01 06 07 15.0000000  0 15G15G18G20G 5G30G24G27G10G13R14R 4R 6
                                R 5R20R21
  19978731.084   104988939.02749       -58.081    19978730.236    81809563.33949
       -45.257  
  20377578.363   107084896.62249       232.738    20377578.616    83442776.90248
       181.354  
  21597509.376   113495676.58348      2556.765    21597508.734    88438192.36947
      1992.284  
  23885418.748   125518710.39247     -3274.612    23885417.769    97806787.15445
     -2551.655  
  24698351.332   129790707.10955     -2332.824    24698350.710   101135613.52653
     -1817.773  
  23552578.162   123769635.93245      3728.867    23552582.072    96443888.92549
      2905.601  
  24190572.385   127122326.85746      1417.901    24190575.068    99056357.68448
      1104.858  
  24784322.769   130242508.05945      3221.840    24784327.715   101487663.17647
      2510.522  
  21154262.674   111166397.91149     -2059.980    21154261.850    86623164.03547
     -1605.180  
  22302648.776   118885670.50407      2286.945    22302655.121    92466660.14306
      1778.664  
  20985603.126   112376952.85508     -2886.297    20985605.773    87404302.03407
     -2244.897  
  22645412.015   120840251.75905      3420.022           0.000           0.0000 
         0.000  
  19334381.560   103353349.65609       358.852    19334385.829    80385957.03808
       279.102  
  20081144.663   107382898.31605     -2077.125    20081150.116    83520054.75008
     -1615.547  
  21164240.917   113254139.48208      2607.370    21164244.966    88086562.80707
      2027.957  
 20 10 01 06 07 20.0000000  0 15G15G18G20G 5G30G24G27G10G13R14R 4R 6
                                R 5R20R21
  19978786.197   104989228.58649       -59.007    19978785.345    81809788.97049
       -45.983  
  20377356.870   107083732.57849       231.754    20377357.059    83441869.85248
       180.585  
  21595075.542   113482886.64049      2557.870    21595074.820    88428226.17846
      1993.141  
  23888532.876   125535076.58747     -3273.042    23888532.536    97819539.97844
     -2550.433  
  24700570.224   129802369.43545     -2333.195    24700571.585   101144701.01241
     -1818.082  
  23549028.548   123750983.04946      3730.438    23549032.538    96429354.23849
      2906.836  
  24189223.302   127115237.65946      1416.604    24189225.978    99050833.63748
      1103.847  
  24781256.126   130226390.74445      3223.375    24781260.909   101475104.18047
      2511.710  
  21156222.215   111176695.15149     -2060.020    21156221.376    86631187.84347
     -1605.214  
  22300503.866   118874236.42607      2285.651    22300510.079    92457767.00006
      1777.734  
  20988296.853   112391377.66808     -2885.086    20988299.529    87415521.34007
     -2243.957  
  22642206.621   120823147.10105      3420.555           0.000           0.0000 
         0.000  
  19334045.532   103351553.58109       358.480    19334049.919    80384560.09108
       278.813  
  20083087.723   107393287.95105     -2079.770    20083093.015    83528135.57408
     -1617.598  
  21161804.892   113241103.50708      2605.992    21161808.770    88076423.71807
      2026.879  
 20 10 01 06 07 25.0000000  0 15G15G18G20G 5G30G24G27G10G13R14R 4R 6
                                R 5R20R21
  19978844.968   104989537.42649       -62.992    19978844.106    81810029.61849
       -49.089  
  20377139.143   107082588.16149       227.598    20377139.286    83440978.10948
       177.347  
  21592643.652   113470106.97048      2555.487    21592642.845    88418267.98946
      1991.285  
  23891648.417   125551449.27247     -3274.742    23891648.120    97832297.96244
     -2551.746  
  24702792.325   129814047.06145     -2336.285    24702794.152   101153800.39441
     -1820.492  
  23545480.598   123732338.22945      3728.593    23545484.624    96414825.78148
      2905.395  
  24187877.906   127108167.71346      1412.875    24187880.549    99045324.55048
      1100.933  
  24778190.770   130210278.06345      3222.691    24778194.065   101462548.90347
      2511.191  
  21158184.782   111187008.51249     -2063.644    21158183.973    86639224.22647
     -1608.038  
  22298362.858   118862823.61807      2280.777    22298368.921    92448890.36806
      1773.937  
  20990992.526   112405812.78108     -2887.390    20990995.093    87426748.61107
     -2245.758  
  22639002.897   120806051.63605      3418.843           0.000           0.0000 
         0.000  
  19333712.769   103349774.80709       354.597    19333717.220    80383176.59008
       275.793  
  20085035.214   107403702.40105     -2084.871    20085040.552    83536235.69008
     -1621.570  
  21159372.978   113228089.59708      2601.254    21159376.739    88066301.80307
      2023.198  
 20 10 01 06 07 30.0000000  0 15G15G18G20G 5G30G24G27G10G13R14R 4R 6
                                R 5R20R21
  19978905.879   104989857.54849       -65.285    19978905.024    81810279.06649
       -50.874  
  20376923.586   107081455.37149       225.097    20376923.701    83440095.41748
       175.402  
  21590212.163   113457329.50448      2555.059    21590211.274    88408311.55146
      1990.953  
  23894763.739   125567820.49347     -3274.808    23894763.387    97845054.67645
     -2551.812  
  24705016.046   129825731.51045     -2337.488    24705018.164   101162905.19845
     -1821.417  
  23541932.623   123713693.30845      3728.280    23541936.616    96400297.24949
      2905.144  
  24186534.637   127101109.12746      1410.461    24186537.307    99039824.32348
      1099.050  
  24775124.673   130194162.05144      3223.015    24775127.284   101449990.94848
      2511.440  
  21160148.894   111197329.92749     -2065.347    21160148.136    86647266.89447
     -1609.366  
  22296224.351   118851423.76507      2278.108    22296230.289    92440023.83206
      1771.866  
  20993688.563   112420249.90708     -2887.679    20993691.155    87437977.49107
     -2245.976  
  22635799.274   120788956.73804      3418.754           0.000           0.0000 
         0.000  
  19333381.647   103348004.83109       352.758    19333386.136    80381799.95708
       274.367  
  20086985.799   107414133.40305     -2088.315    20086991.221    83544348.71008
     -1624.245  
  21156943.700   113215089.63108      2598.531    21156947.336    88056190.70407
      2021.073  
 20 10 01 06 07 35.0000000  0 15G15G18G20G 5G30G24G27G10G13R14R 4R 6
                                R 5R20R21
  19978969.903   104990193.99549       -69.316    19978969.035    81810541.24349
       -54.015  
  20376711.219   107080339.21949       221.171    20376711.302    83439225.68048
       172.336  
  21587782.104   113444559.26948      2552.918    21587781.095    88398360.68846
      1989.280  
  23897879.725   125584195.32647     -3275.609    23897879.484    97857814.29344
     -2552.425  
  24707241.923   129837428.16805     -2341.335           0.000           0.0000 
         0.000  
  23538385.627   123695053.47045      3726.733    23538389.699    96385772.71749
      2903.944  
  24185194.360   127094066.73746      1406.789    24185197.141    99034336.78648
      1096.203  
  24772058.189   130178047.75946      3222.046    24772061.155   101437434.31948
      2510.679  
  21162115.474   111207664.40849     -2068.647    21162114.766    86655319.72947
     -1611.938  
  22294089.215   118840042.10007      2274.058    22294095.182    92431171.44106
      1768.612  
  20996385.983   112434694.18508     -2890.176    20996388.581    87449211.95507
     -2247.914  
  22632596.849   120771867.73705      3416.672           0.000           0.0000 
         0.000  
  19333053.145   103346249.08108       349.249    19333057.673    80380434.38308
       271.641  
  20088940.470   107424586.12405     -2093.281    20088945.962    83552478.59908
     -1628.113  
  21154517.967   113202108.73308      2593.793    21154521.469    88046094.44907
      2017.390  
 20 10 01 06 07 40.0000000  0 15G15G18G20G 5G30G24G27G10G13R14R 4R 6
                                R 5R20R21
  19979037.763   104990550.57149       -72.938    19979036.896    81810819.08949
       -56.835  
  20376502.752   107079243.53049       217.437    20376502.790    83438371.89048
       169.430  
  21585354.184   113431800.14948      2551.042    21585353.110    88388418.55547
      1987.828  
  23900997.143   125600577.62647     -3276.761    23900996.932    97870579.75044
     -2553.319  
  24709470.690   129849140.57345     -2343.703    24709473.689   101181166.13854
     -1826.195  
  23534840.244   123676422.35646      3725.812    23534844.299    96371254.96149
      2903.226  
  24183858.000   127087044.65046      1402.793    24183860.892    99028865.00548
      1093.078  
  24768992.182   130161938.68745      3221.410    24768995.827   101424881.87448
      2510.202  
  21164085.302   111218015.79649     -2071.602    21164084.629    86663385.73947
     -1614.237  
  22291958.173   118828682.51107      2270.183    22291964.166    92422336.23206
      1765.703  
  20999085.411   112449149.59508     -2891.792    20999088.008    87460455.03607
     -2249.175  
  22629396.129   120754788.51905      3415.347           0.000           0.0000 
         0.000  
  19332727.994   103344511.27209       346.133    19332732.586    80379082.74508
       269.214  
  20090899.856   107435064.30805     -2097.957    20090905.495    83560628.29608
     -1631.749  
  21152096.468   113189150.83308      2589.835    21152099.964    88036016.09407
      2014.316  
 20 10 01 06 07 45.0000000  0 15G15G18G20G 5G30G24G27G10G13R14R 4R 6
                                R 5R20R21
  19979108.303   104990921.20049       -75.613    19979107.411    81811107.89949
       -58.921  
  20376296.977   107078162.23949       214.582    20376297.075    83437529.33548
       167.206  
  21582927.183   113419046.01949      2550.141    21582926.109    88378480.23846
      1987.117  
  23904114.800   125616961.14847     -3276.776    23904114.568    97883346.10845
     -2553.336  
  24711701.468   129860862.86005     -2345.944           0.000           0.0000 
         0.000  
  23531295.498   123657794.12247      3725.477    23531299.440    96356739.44749
      2902.964  
  24182524.299   127080036.56947      1400.434    24182527.274    99023404.22248
      1091.254  
  24765926.521   130145829.27845      3221.688    24765930.394   101412329.12947
      2510.417  
  21166057.181   111228377.99749     -2073.602    21166056.466    86671460.17247
     -1615.796  
  22289830.199   118817338.83507      2266.914    22289836.150    92413513.33606
      1763.148  
  21001785.737   112463609.81308     -2892.723    21001788.419    87471701.84107
     -2249.901  
  22626196.096   120737712.96505      3414.632           0.000           0.0000 
         0.000  
  19332405.088   103342785.31209       343.957    19332409.690    80377740.34708
       267.523  
  20092862.885   107445561.91205     -2101.304    20092868.678    83568793.08108
     -1634.352  
  21149678.123   113176209.75108      2586.464    21149681.706    88025950.78707
      2011.691  
 20 10 01 06 07 50.0000000  0 15G15G18G20G 5G30G24G27G10G13R14R 4R 6
                                R 5R20R21
  19979181.518   104991305.97949       -78.136    19979180.658    81811407.73949
       -60.887  
  20376093.974   107077095.48049       212.269    20376094.117    83436698.10048
       165.405  
  21580501.150   113406297.06749      2549.508    21580500.033    88368546.01746
      1986.628  
  23907232.708   125633346.11847     -3276.918    23907232.555    97896113.61845
     -2553.448  
  24713934.171   129872595.01245     -2347.104    24713933.937   101199432.29851
     -1828.886  
  23527751.271   123639168.76646      3725.007    23527755.108    96342226.18948
      2902.598  
  24181193.448   127073042.80346      1397.702    24181196.461    99017954.48347
      1089.117  
  24762860.750   130129719.26445      3222.729    24762864.648   101399775.84948
      2511.218  
  21168031.149   111238751.17549     -2075.351    21168030.407    86679543.16547
     -1617.160  
  22287705.206   118806011.33307      2264.120    22287711.122    92404703.08106
      1760.987  
  21004487.071   112478075.05008     -2893.081    21004489.753    87482952.55207
     -2250.179  
  22622996.726   120720641.04604      3414.055           0.000           0.0000 
         0.000  
  19332084.454   103341071.28009       341.859    19332089.038    80376407.21208
       265.891  
  20094829.676   107456079.16505     -2105.348    20094835.443    83576973.17308
     -1637.491  
  21147262.958   113163285.58708      2583.465    21147266.559    88015898.71007
      2009.366  
 20 10 01 06 07 55.0000000  0 15G15G18G20G 5G30G24G27G10G13R14R 4R 6
                                R 5R20R21
  19979257.299   104991704.24249       -81.293    19979256.459    81811718.07149
       -63.343  
  20375893.566   107076042.55149       208.758    20375893.774    83435877.63248
       162.663  
  21578075.972   113393552.57848      2548.003    21578074.818    88358615.23146
      1985.452  
  23910350.741   125649731.74347     -3277.645    23910350.663    97908881.62145
     -2554.012  
  24716168.257   129884336.39944     -2350.910    24716165.967   101208581.36743
     -1831.890  
  23524207.456   123620545.77046      3723.979    23524211.089    96327714.74049
      2901.801  
  24179865.106   127066062.50947      1394.039    24179868.131    99012515.25548
      1086.257  
  24759794.992   130113608.22245      3221.827    24759798.803   101387221.75548
      2510.511  
  21170007.066   111249134.56249     -2078.128    21170006.345    86687634.11347
     -1619.323  
  22285583.066   118794699.22907      2260.508    22285588.946    92395904.80306
      1758.175  
  21007189.146   112492544.60408     -2894.984    21007191.776    87494206.69207
     -2251.656  
  22619797.912   120703572.28205      3412.422           0.000           0.0000 
         0.000  
  19331765.881   103339368.38309       339.038    19331770.563    80375082.72608
       263.691  
  20096799.853   107466614.96205     -2109.132    20096805.730    83585167.68808
     -1640.437  
  21144850.834   113150377.73108      2579.570    21144854.370    88005859.25407
      2006.327  
 20 10 01 06 08  0.0000000  0 15G15G18G20G 5G30G24G27G10G13R14R 4R 6
                                R 5R20R21
  19979336.364   104992119.79349       -83.816    19979335.544    81812041.87949
       -65.313  
  20375696.547   107075007.27049       206.344    20375696.743    83435070.91748
       160.788  
  21575652.344   113380816.35549      2547.598    21575651.251    88348690.91047
      1985.141  
  23913469.814   125666121.86348     -3277.406    23913469.496    97921653.06645
     -2553.839  
  24718404.840   129896090.72245     -2351.354    24718404.530   101217740.53442
     -1832.246  
  23520664.816   123601928.82347      3724.125    23520668.413    96313208.04549
      2901.914  
  24178540.194   127059099.63947      1391.827    24178543.128    99007089.68448
      1084.546  
  24756729.757   130097499.61746      3222.968    24756733.414   101374669.65548
      2511.410  
  21171985.629   111259531.91949     -2079.676    21171984.922    86695735.96147
     -1620.527  
  22283464.553   118783406.26807      2257.714    22283470.491    92387121.38906
      1755.995  
  21009892.723   112507022.26108     -2895.168    21009895.286    87505467.09107
     -2251.797  
  22616600.241   120686510.51705      3412.831           0.000           0.0000 
         0.000  
  19331450.187   103337680.60009       337.160    19331454.926    80373770.00608
       262.234  
  20098774.346   107477173.49705     -2112.762    20098780.287    83593379.87408
     -1643.257  
  21142442.479   113137490.04608      2576.655    21142445.890    87995835.48907
      2004.062  
 20 10 01 06 08  5.0000000  0 15G15G18G20G 5G30G24G27G10G13R14R 4R 6
                                R 5R20R21
  19979416.908   104992543.05749       -86.707    19979416.089    81812371.69749
       -67.563  
  20375501.070   107073980.06449       203.491    20375501.211    83434270.49848
       158.563  
  21573228.489   113368078.84949      2546.593    21573227.402    88338765.59247
      1984.359  
  23916587.898   125682506.91048     -3277.707    23916587.451    97934420.66645
     -2554.058  
  24720642.331   129907848.44345     -2353.319    24720642.176   101226902.38143
     -1833.761  
  23517121.589   123583308.38446      3723.723    23517125.081    96298698.59849
      2901.598  
  24177216.709   127052144.49246      1389.241    24177219.642    99001670.10748
      1082.530  
  24753662.818   130081384.24145      3222.168    24753666.779   101362112.17247
      2510.784  
  21173965.042   111269933.74549     -2081.934    21173964.373    86703841.29247
     -1622.285  
  22281347.903   118772122.89507      2254.597    22281353.858    92378345.40606
      1753.570  
  21012595.956   112521498.35908     -2896.117    21012598.504    87516726.27607
     -2252.538  
  22613402.277   120669445.69605      3412.417           0.000           0.0000 
         0.000  
  19331135.487   103335998.19609       334.789    19331140.250    80372461.46708
       260.387  
  20100751.256   107487744.92105     -2116.714    20100757.258    83601602.09608
     -1646.332  
  21140036.078   113124612.65908      2573.180    21140039.365    87985819.73307
      2001.358  
 20 10 01 06 08 10.0000000  0 15G15G18G20G 5G30G24G27G10G13R14R 4R 6
                                R 5R20R21
  19979501.783   104992989.23549       -91.234    19979501.002    81812719.37149
       -71.090  
  20375310.041   107072976.16949       198.749    20375310.093    83433488.24548
       154.870  
  21570807.283   113355355.29649      2543.515    21570806.180    88328851.12246
      1981.957  
  23919707.923   125698902.15848     -3279.854    23919707.396    97947196.16046
     -2555.733  
  24722883.252   129919624.93944     -2357.348    24722882.123   101236078.87341
     -1836.594  
  23513580.526   123564699.75346      3720.901    23513584.026    96284198.38549
      2899.406  
  24175897.651   127045212.35847      1384.230    24175900.537    98996268.43648
      1078.616  
  24750597.542   130065277.13945      3220.370    24750601.858   101349561.27348
      2509.387  
  21175948.195   111280355.28449     -2086.069    21175947.553    86711961.95847
     -1625.511  
  22279235.898   118760864.56407      2249.347    22279241.810    92369588.93206
      1749.487  
  21015301.839   112535988.33208     -2899.105    21015304.399    87527996.26207
     -2254.858  
  22610206.848   120652393.77505      3409.347           0.000           0.0000 
         0.000  
  19330824.677   103334336.64309       330.483    19330829.483    80371169.15308
       257.043  
  20102733.468   107498344.70305     -2122.511    20102739.551    83609846.36208
     -1650.847  
  21137634.522   113111761.35008      2567.976    21137637.726    87975824.28107
      1997.313  
 20 10 01 06 08 15.0000000  0 15G15G18G20G 5G30G24G27G10G13R14R 4R 6
                                R 5R20R21
  19979590.770   104993456.92649       -95.441    19979589.972    81813083.81449
       -74.370  
  20375123.171   107071994.16149       194.539    20375123.154    83432723.04048
       151.585  
  21568388.454   113342644.23249      2541.262    21568387.324    88318946.40347
      1980.198  
  23922829.568   125715306.13848     -3281.437    23922828.945    97959978.44545
     -2556.973  
  24725127.489   129931418.42244     -2358.468    24725127.310   101245259.57056
     -1837.894  
  23510041.388   123546101.32946      3719.218    23510044.858    96269706.11149
      2898.093  
  24174582.703   127038301.91647      1380.104    24174585.546    98990883.67047
      1075.402  
  24747533.684   130049176.95845      3219.664    24747537.987   101337015.63948
      2508.823  
  21177934.820   111290795.00649     -2089.511    21177934.211    86720096.80447
     -1628.194  
  22277128.416   118749629.87407      2244.741    22277134.220    92360850.84706
      1745.910  
  21018010.016   112550490.74408     -2901.405    21018012.615    87539275.91807
     -2256.651  
  22607013.521   120635353.06905      3407.562           0.000           0.0000 
         0.000  
  19330517.448   103332694.38809       326.874    19330522.299    80369891.85508
       254.234  
  20104720.585   107508971.42705     -2127.727    20104726.861    83618111.58808
     -1654.902  
  21135237.563   113098934.49208      2563.188    21135240.707    87965847.84307
      1993.589  
 20 10 01 06 08 20.0000000  0 15G15G18G20G 5G30G24G27G10G13R14R 4R 6
                                R 5R20R21
  19979682.613   104993939.56149       -97.624    19979681.768    81813459.88949
       -76.074  
  20374939.246   107071027.50249       192.198    20374939.159    83431969.80048
       149.762  
  21565970.752   113329939.15248      2540.874    21565969.687    88309046.33747
      1979.901  
  23925951.629   125731712.30448     -3281.062    23925950.914    97972762.44945
     -2556.675  
  24727373.367   129943222.68345     -2361.203    24727373.758   101254457.86942
     -1839.898  
  23506502.995   123527506.76046      3719.198    23506506.449    96255216.85849
      2898.078  
  24173270.624   127031406.45647      1377.956    24173273.322    98985510.58448
      1073.729  
  24744470.043   130033077.00745      3220.113    24744473.819   101324470.25748
      2509.180  
  21179923.662   111301246.41249     -2091.000    21179923.034    86728240.76547
     -1629.354  
  22275023.985   118738412.13207      2242.348    22275029.738    92352125.92806
      1744.042  
  21020719.304   112564998.95108     -2902.008    21020721.925    87550560.06908
     -2257.120  
  22603820.930   120618316.72804      3406.964           0.000           0.0000 
         0.000  
  19330212.650   103331064.94609       325.039    19330217.484    80368624.50508
       252.804  
  20106711.635   107519618.37505     -2131.034    20106717.908    83626392.54408
     -1657.472  
  21132843.893   113086125.53908      2560.132    21132847.006    87955885.33707
      1991.215  
