     2.11           OBSERVATION DATA    M                   RINEX VERSION / TYPE
LEICA GEO OFFICE 8.4                    2-10-20 22:41       PGM / RUN BY / DATE
                                                            OBSERVER / AGENCY
KUH1                                                        MARKER NAME
KUH1                                                        MARKER NUMBER
352348              LEICA GX1220GG      4.10                REC # / TYPE / VERS
                    LEIAX1202GG                             ANT # / TYPE
 -1265372.6094  3799785.9150  4948586.1595                  APPROX POSITION XYZ
        1.7430        0.0000        0.0000                  ANTENNA: DELTA H/E/N
L1PhaOff:   0.0644  L2PhaOff:   0.0640                      COMMENT
     1     1                                                WAVELENGTH FACT L1/2
     6    C1    L1    D1    P2    L2    D2                  # / TYPES OF OBSERV
  2020    10     2     6    38   50.0000000     GPS         TIME OF FIRST OBS
  2020    10     2     8    12   40.0000000     GPS         TIME OF LAST OBS
    18                                                      LEAP SECONDS
    21                                                      # OF SATELLITES
          C1    L1    D1    P2    L2    D2                  COMMENT
   G 1     0     0     0     0     0     0                  PRN / # OF OBS
   G 2     0     0     0     0     0     0                  PRN / # OF OBS
   G 3     0     0     0     0     0     0                  PRN / # OF OBS
   G 4     0     0     0     0     0     0                  PRN / # OF OBS
   G 5     0     0     0     0     0     0                  PRN / # OF OBS
   G 6     0     0     0     0     0     0                  PRN / # OF OBS
   G 7     0     0     0     0     0     0                  PRN / # OF OBS
   G 8   252   252   252   249   249   249                  PRN / # OF OBS
   G 9     0     0     0     0     0     0                  PRN / # OF OBS
   G10  1127  1127  1127  1127  1127  1127                  PRN / # OF OBS
   G11     0     0     0     0     0     0                  PRN / # OF OBS
   G12     0     0     0     0     0     0                  PRN / # OF OBS
   G13   631   631   631   612   612   612                  PRN / # OF OBS
   G14     0     0     0     0     0     0                  PRN / # OF OBS
   G15  1127  1127  1127  1127  1127  1127                  PRN / # OF OBS
   G16     0     0     0     0     0     0                  PRN / # OF OBS
   G17     0     0     0     0     0     0                  PRN / # OF OBS
   G18  1120  1120  1120  1120  1120  1120                  PRN / # OF OBS
   G19     0     0     0     0     0     0                  PRN / # OF OBS
   G20  1127  1127  1127  1127  1127  1127                  PRN / # OF OBS
   G21   567   567   567   566   566   566                  PRN / # OF OBS
   G22     0     0     0     0     0     0                  PRN / # OF OBS
   G23  1127  1127  1127  1127  1127  1127                  PRN / # OF OBS
   G24  1127  1127  1127  1127  1127  1127                  PRN / # OF OBS
   G25     0     0     0     0     0     0                  PRN / # OF OBS
   G26     0     0     0     0     0     0                  PRN / # OF OBS
   G27   692   692   692   692   692   692                  PRN / # OF OBS
   G28     0     0     0     0     0     0                  PRN / # OF OBS
   G29     0     0     0     0     0     0                  PRN / # OF OBS
   G30     0     0     0     0     0     0                  PRN / # OF OBS
   G31     0     0     0     0     0     0                  PRN / # OF OBS
   G32   492   492   492   492   492   492                  PRN / # OF OBS
   R 1     0     0     0     0     0     0                  PRN / # OF OBS
   R 2     0     0     0     0     0     0                  PRN / # OF OBS
   R 3     0     0     0     0     0     0                  PRN / # OF OBS
   R 4     0     0     0     0     0     0                  PRN / # OF OBS
   R 5   373   373   373   347   347   347                  PRN / # OF OBS
   R 6  1127  1127  1127     0     0     0                  PRN / # OF OBS
   R 7  1127  1127  1127  1127  1127  1127                  PRN / # OF OBS
   R 8   225   225   225   221   221   221                  PRN / # OF OBS
   R 9     0     0     0     0     0     0                  PRN / # OF OBS
   R10     0     0     0     0     0     0                  PRN / # OF OBS
   R11     0     0     0     0     0     0                  PRN / # OF OBS
   R12     0     0     0     0     0     0                  PRN / # OF OBS
   R13     0     0     0     0     0     0                  PRN / # OF OBS
   R14     0     0     0     0     0     0                  PRN / # OF OBS
   R15   857   857   857   831   831   831                  PRN / # OF OBS
   R16  1127  1127  1127  1127  1127  1127                  PRN / # OF OBS
   R17     0     0     0     0     0     0                  PRN / # OF OBS
   R18     0     0     0     0     0     0                  PRN / # OF OBS
   R19     0     0     0     0     0     0                  PRN / # OF OBS
   R20     0     0     0     0     0     0                  PRN / # OF OBS
   R21   688   688   688   688   688   688                  PRN / # OF OBS
   R22  1127  1127  1127  1127  1127  1127                  PRN / # OF OBS
   R23   881   881   881   880   880   880                  PRN / # OF OBS
   R24    28    28    28    28    28    28                  PRN / # OF OBS
                                                            END OF HEADER
 20 10 02 06 38 50.0000000  0 15G15G27G18G23G20G24G10G13R15R22R 6R 7
                                R16R 5R21
  20261627.265   106475577.96149     -1304.015    20261626.619    82967985.89049
     -1016.121  
  23897716.640   125583348.68746         4.284    23897718.183    97857161.76048
         3.339  
  20564582.833   108067613.21349     -1154.245    20564582.723    84208533.93248
      -899.414  
  21026763.579   110496403.80349      1956.577    21026763.985    86101105.25148
      1524.601  
  20686170.953   108706582.69149      1870.844    20686170.241    84706445.42948
      1457.800  
  22142495.865   116359626.69548      3099.457    22142498.770    90669870.61549
      2415.159  
  23498132.454   123483522.99347      3063.840    23498136.327    96220924.92048
      2387.410  
  22181861.637   116566470.16148     -2926.780    22181860.122    90831012.64744
     -2280.604  
  21704574.504   115982645.34107       500.882    21704579.503    90208760.83706
       389.566  
  20373976.325   108757674.61407       540.781    20373980.326    84589339.78504
       420.605  
  19274777.712   102853917.85607      -245.882           0.000           0.0000 
         0.000  
  21289304.750   113963331.36408      2765.874    21289309.151    88638171.16508
      2151.229  
  22584725.369   120643548.49614      3780.351    22584732.933    93833902.96513
      2940.270  
  22321364.368   119320509.61706     -3336.792    22321369.188    92804836.79104
     -2595.281  
  20976225.184   112248009.34708     -3390.047    20976230.001    87304023.59507
     -2636.706  
 20 10 02 06 38 55.0000000  0 15G15G27G18G23G20G24G10G13R15R22R 6R 7
                                R16R 5R21
  20262870.105   106482108.50349     -1307.440    20262869.393    82973074.62649
     -1018.785  
  23897715.425   125583342.20544        -0.223    23897717.007    97857156.69349
        -0.176  
  20565683.232   108073396.41548     -1158.332    20565683.298    84213040.31948
      -902.601  
  21024903.670   110486629.66449      1953.918    21024904.091    86093489.04348
      1522.534  
  20684392.667   108697237.32849      1868.066    20684391.901    84699163.33248
      1455.633  
  22139548.783   116344139.95448      3096.328    22139551.849    90657803.03249
      2412.722  
  23495218.553   123468209.77747      3062.055    23495222.136    96208992.54448
      2386.016  
  22184647.931   116581112.29748     -2929.387    22184646.611    90842422.04244
     -2282.647  
  21704108.786   115980156.99607       495.410    21704113.818    90206825.44806
       385.316  
  20373472.633   108754985.21607       535.355    20373476.663    84587248.03504
       416.387  
  19275010.258   102855158.88907      -249.534           0.000           0.0000 
         0.000  
  21286722.882   113949510.08008      2763.203    21286727.342    88627421.28608
      2149.156  
  22581188.680   120624654.60804      3777.363    22581196.108    93819207.78303
      2937.956  
  22324486.654   119337199.68207     -3338.491    22324491.290    92817817.89505
     -2596.608  
  20979394.929   112264971.10408     -3394.015    20979399.919    87317216.06407
     -2639.792  
 20 10 02 06 39  0.0000000  0 14G15G18G23G20G24G10G13R15R22R 6R 7R16
                                R 5R21
  20264115.581   106488653.05549     -1310.323    20264114.842    82978174.28049
     -1021.035  
  20566786.873   108079196.33549     -1161.733    20566786.840    84217559.73248
      -905.249  
  21023045.452   110476864.85249      1952.077    21023045.880    86085880.10448
      1521.101  
  20682616.293   108687902.23349      1865.926    20682615.522    84691889.23148
      1453.964  
  22136604.035   116328664.32648      3093.737    22136606.940    90645744.12049
      2410.808  
  23492305.492   123452900.16247      3061.699    23492308.641    96197062.98848
      2385.737  
  22187435.707   116595762.93948     -2930.859    22187434.658    90853838.15945
     -2283.784  
  21703647.430   115977691.86807       490.647    21703652.575    90204908.08206
       381.608  
  20372973.354   108752320.28207       530.430    20372977.392    84585175.30204
       412.554  
  19275245.388   102856413.12107      -252.094           0.000           0.0000 
         0.000  
  21284142.470   113935697.21508      2761.520    21284146.932    88616677.95408
      2147.847  
  22577653.763   120605770.90404      3775.253    22577661.217    93804520.53804
      2936.316  
  22327609.663   119353893.79706     -3339.198    22327614.384    92830802.24504
     -2597.160  
  20982567.668   112281949.22908     -3397.176    20982572.699    87330421.28707
     -2642.246  
 20 10 02 06 39  5.0000000  0 14G15G18G23G20G24G10G13R15R22R 6R 7R16
                                R 5R21
  20265363.131   106495209.57049     -1312.168    20265362.490    82983283.25149
     -1022.473  
  20567893.221   108085010.98349     -1164.085    20567893.367    84222090.62248
      -907.081  
  21021188.766   110467107.33849      1951.176    21021188.904    86078276.84848
      1520.397  
  20680841.410   108678575.37849      1865.008    20680840.568    84684621.55948
      1453.250  
  22133660.789   116313197.87248      3092.843    22133663.775    90633692.35149
      2410.008  
  23489392.479   123437592.23947      3061.750    23489395.607    96185134.72548
      2385.773  
  22190225.076   116610420.14348     -2932.012    22190223.799    90865259.38145
     -2284.683  
  21703190.119   115975247.97708       487.277    21703194.979    90203007.34506
       378.995  
  20372478.240   108749677.79807       526.582    20372482.486    84583120.07004
       409.566  
  19275482.385   102857678.19007      -253.827           0.000           0.0000 
         0.000  
  21281563.241   113921890.52508      2761.180    21281567.930    88605939.42207
      2147.585  
  22574120.425   120586895.69404      3773.886    22574127.580    93789839.78804
      2935.387  
  22330732.932   119370589.74006     -3338.848    22330737.491    92843787.99304
     -2596.878  
  20985742.997   112298941.71608     -3399.438    20985748.118    87343637.65307
     -2644.011  
 20 10 02 06 39 10.0000000  0 14G15G18G23G20G24G10G13R15R22R 6R 7R16
                                R 5R21
  20266612.553   106501775.82649     -1314.359    20266611.871    82988399.82149
     -1024.175  
  20569002.242   108090838.11649     -1166.832    20569002.347    84226631.24148
      -909.222  
  21019332.863   110457354.94249      1949.913    21019333.207    86070677.57948
      1519.410  
  20679067.647   108669254.60049      1863.348    20679066.858    84677358.60748
      1451.956  
  22130719.073   116297738.42448      3091.007    22130722.063    90621646.03249
      2408.578  
  23486479.237   123422283.57747      3061.839    23486482.405    96173205.93248
      2385.851  
  22193015.016   116625081.62548     -2932.758    22193013.726    90876683.91644
     -2285.284  
  21702736.383   115972822.88408       482.980    21702741.149    90201121.09906
       375.640  
  20371986.930   108747055.46407       522.167    20371991.086    84581080.45204
       406.121  
  19275721.111   102858952.13707      -255.761           0.000           0.0000 
         0.000  
  21278984.934   113908088.02108      2759.894    21278989.529    88595204.14507
      2146.582  
  22570588.110   120568026.45205      3773.050    22570595.159    93775163.74704
      2934.598  
  22333856.325   119387285.34507     -3339.304    22333860.786    92856773.36704
     -2597.258  
  20988920.742   112315946.28308     -3402.292    20988925.879    87356863.42207
     -2646.230  
 20 10 02 06 39 15.0000000  0 15G15G27G18G23G20G24G10G13R15R22R 6R 7
                                R16R 5R21
  20267864.458   106508354.50649     -1317.090    20267863.895    82993526.05549
     -1026.308  
  23897739.897   125583463.74756       -12.698    23897743.899    97857266.71859
        -9.897  
  20570113.943   108096680.42449     -1170.022    20570114.041    84231183.69048
      -911.711  
  21017478.668   110447610.30049      1948.172    21017478.971    86063084.35548
      1518.054  
  20677295.595   108659942.52849      1861.484    20677294.918    84670102.46448
      1450.507  
  22127779.054   116282288.61448      3089.222    22127782.122    90609607.21749
      2407.141  
  23483566.679   123406977.07547      3061.183    23483569.628    96161278.78248
      2385.335  
  22195806.532   116639750.14348     -2934.425    22195805.086    90888113.88145
     -2286.574  
  21702286.869   115970419.50608       478.554    21702291.079    90199251.83006
       372.210  
  20371499.849   108744455.98807       517.555    20371504.019    84579058.64004
       402.543  
  19275961.897   102860237.64608      -258.227           0.000           0.0000 
         0.000  
  21276407.796   113894292.14608      2758.472    21276412.383    88584474.02707
      2145.479  
  22567057.283   120549165.94205      3771.387    22567064.261    93760494.43904
      2933.296  
  22336980.004   119403983.13805     -3340.102    22336984.553    92869760.57704
     -2597.855  
  20992101.168   112332965.63308     -3405.233    20992106.124    87370100.68507
     -2648.520  
 20 10 02 06 39 20.0000000  0 15G15G27G18G23G20G24G10G13R15R22R 6R 7
                                R16R 5R21
  20269119.788   106514951.05749     -1321.280    20269119.134    82998666.23749
     -1029.569  
  23897754.952   125583541.29745       -18.171    23897758.326    97857327.13848
       -14.160  
  20571229.674   108102543.35049     -1174.819    20571229.872    84235752.20647
      -915.445  
  21015626.736   110437878.92149      1944.636    21015627.153    86055501.47048
      1515.301  
  20675526.232   108650644.65149      1857.813    20675525.676    84662857.37048
      1447.644  
  22124841.901   116266853.92548      3085.171    22124845.025    90597580.20149
      2404.031  
  23480655.413   123391678.17848      3058.647    23480657.935    96149357.54548
      2383.362  
  22198600.296   116654431.09348     -2937.453    22198598.813    90899553.63245
     -2288.926  
  21701842.285   115968043.28408       472.297    21701846.373    90197403.63207
       367.340  
  20371018.361   108741885.04907       511.148    20371022.585    84577059.02404
       397.555  
  19276206.087   102861540.34707      -262.507           0.000           0.0000 
         0.000  
  21273832.790   113880508.75208      2755.336    21273837.283    88573753.64507
      2143.042  
  22563529.582   120530319.84605      3767.163    22563536.216    93745836.36104
      2930.012  
  22340104.939   119420688.89706     -3342.660    22340109.568    92882753.97504
     -2599.847  
  20995285.489   112350005.20508     -3410.168    20995290.133    87383353.67907
     -2652.355  
 20 10 02 06 39 25.0000000  0 15G15G27G18G23G20G24G10G13R15R22R 6R 7
                                R16R 5R21
  20270376.067   106521553.37949     -1320.964    20270375.337    83003810.89949
     -1029.327  
  23897771.363   125583628.13544       -17.477    23897774.168    97857394.72849
       -13.629  
  20572346.904   108108414.81049     -1175.042    20572347.174    84240327.37048
      -915.617  
  21013775.132   110428148.70948      1946.043    21013775.579    86047919.49148
      1516.394  
  20673757.232   108641348.90049      1859.055    20673756.654    84655613.92748
      1448.608  
  22121905.515   116251422.30148      3086.168    22121908.326    90585555.56649
      2404.805  
  23477743.212   123376374.67448      3061.281    23477745.235    96137432.77447
      2385.414  
  22201394.033   116669112.41048     -2936.031    22201392.569    90910993.56745
     -2287.828  
  21701400.288   115965681.91807       470.984    21701404.710    90195567.05007
       366.320  
  20370539.674   108739330.19407       509.147    20370543.708    84575071.90304
       395.999  
  19276450.972   102862847.68907      -261.577           0.000           0.0000 
         0.000  
  21271258.037   113866725.33508      2756.777    21271262.490    88563033.20207
      2144.160  
  22560002.141   120511475.95005      3769.151    22560008.394    93731180.05103
      2931.565  
  22343229.536   119437390.25205     -3339.410    22343233.908    92895743.94604
     -2597.315  
  20998471.114   112367052.87808     -3410.276    20998475.688    87396612.98007
     -2652.440  
 20 10 02 06 39 30.0000000  0 15G15G27G18G23G20G24G10G13R15R22R 6R 7
                                R16R 5R21
  20271635.976   106528174.43549     -1325.965    20271635.474    83008970.16649
     -1033.223  
  23897792.002   125583737.43245       -24.308    23897794.965    97857479.92049
       -18.940  
  20573468.322   108114307.80549     -1180.675    20573468.606    84244919.32248
      -920.008  
  21011926.206   110418432.66149      1941.897    21011926.678    86040348.54948
      1513.167  
  20671991.264   108632068.26549      1854.766    20671990.786    84648382.27348
      1445.272  
  22118972.046   116236006.56648      3081.741    22118974.879    90573543.31149
      2401.394  
  23474832.663   123361079.66847      3058.198    23474834.294    96125514.58147
      2383.007  
  22204190.403   116683807.02348     -2940.059    22204188.676    90922443.90944
     -2290.956  
  21700963.712   115963348.64307       463.941    21700968.172    90193752.23907
       360.836  
  20370066.433   108736804.65707       502.324    20370070.606    84573107.60204
       390.695  
  19276699.482   102864173.03807      -266.644           0.000           0.0000 
         0.000  
  21268685.742   113852955.26408      2752.797    21268690.090    88552323.12307
      2141.054  
  22556477.622   120492647.22605      3764.167    22556483.174    93716535.45704
      2927.684  
  22346355.536   119454100.44806     -3342.695    22346359.854    92908740.74504
     -2599.878  
  21001660.807   112384121.62808     -3415.781    21001665.386    87409888.68007
     -2656.719  
 20 10 02 06 39 35.0000000  0 14G15G18G23G20G24G10G13R15R22R 6R 7R16
                                R 5R21
  20272897.618   106534804.03249     -1326.223    20272897.061    83014136.09249
     -1033.425  
  20574592.052   108120212.07949     -1181.487    20574592.226    84249520.04848
      -920.644  
  21010078.068   110408720.53749      1942.688    21010078.499    86032780.66148
      1513.781  
  20670226.079   108622792.53349      1855.266    20670225.651    84641154.43448
      1445.660  
  22116039.652   116220596.70148      3081.906    22116042.433    90561535.62049
      2401.480  
  23471921.744   123345782.93748      3059.910    23471923.161    96113595.04348
      2384.340  
  22206987.096   116698504.55648     -2939.160    22206985.718    90933896.54545
     -2290.257  
  21700530.512   115961033.06807       461.823    21700534.943    90191951.24007
       359.195  
  20369596.971   108734298.16807       500.120    20369601.131    84571158.10704
       388.979  
  19276949.256   102865506.12807      -266.866           0.000           0.0000 
         0.000  
  21266113.779   113839187.87608      2753.668    21266118.182    88541615.16007
      2141.737  
  22552953.901   120473823.54905      3764.914    22552959.266    93701894.84604
      2928.265  
  22349481.283   119470809.01605     -3341.281    22349485.637    92921736.37305
     -2598.762  
  21004852.619   112401201.13208     -3416.406    21004856.971    87423172.73607
     -2657.206  
 20 10 02 06 39 40.0000000  0 15G15G27G18G23G20G24G10G13R15R22R 6R 7
                                R16R 5R21
  20274161.747   106541447.20049     -1331.051    20274161.078    83019312.59249
     -1037.184  
  23897842.254   125584021.32456       -29.972    23897845.448    97857683.45059
       -23.354  
  20575718.629   108126132.68949     -1186.707    20575718.811    84254133.50648
      -924.710  
  21008231.659   110399017.43949      1938.749    21008232.022    86025219.80448
      1510.710  
  20668462.788   108613526.78349      1851.229    20668462.473    84633934.36148
      1442.511  
  22113109.363   116205197.73948      3077.796    22113112.171    90549536.43849
      2398.285  
  23469011.619   123330489.43748      3057.601    23469012.531    96101678.00047
      2382.539  
  22209785.483   116713210.21247     -2942.991    22209784.259    90945355.47945
     -2293.246  
  21700101.431   115958740.43607       455.190    21700106.055    90190168.10007
       354.039  
  20369131.797   108731815.82107       493.172    20369135.938    84569227.39204
       383.574  
  19277201.255   102866851.93907      -271.543           0.000           0.0000 
         0.000  
  21263543.440   113825428.55508      2750.093    21263547.709    88530913.48207
      2138.961  
  22549432.019   120455009.75405      3761.046    22549437.264    93687261.90604
      2925.262  
  22352607.486   119487521.01604     -3343.909    22352612.010    92934734.60305
     -2600.816  
  21008047.302   112418296.55708     -3421.555    21008051.764    87436469.17207
     -2661.215  
 20 10 02 06 39 45.0000000  0 15G15G27G18G23G20G24G10G13R15R22R 6R 7
                                R16R 5R21
  20275429.480   106548109.62049     -1332.891    20275429.017    83024504.08949
     -1038.617  
  23897872.442   125584182.77545       -33.304    23897876.426    97857809.30149
       -25.944  
  20576849.582   108132075.32349     -1189.292    20576849.739    84258764.12448
      -926.726  
  21006388.096   110389329.01449      1937.695    21006388.485    86017670.39148
      1509.891  
  20666702.570   108604276.71249      1849.886    20666702.174    84626726.51348
      1441.465  
  22110182.270   116189815.35948      3076.203    22110185.100    90537550.16649
      2397.038  
  23466102.909   123315204.94247      3057.152    23466104.015    96089767.98648
      2382.187  
  22212586.434   116727929.65448     -2943.766    22212585.466    90956825.17045
     -2293.848  
  21699677.808   115956476.50607       451.206    21699682.381    90188407.25507
       350.933  
  20368672.453   108729363.37407       488.641    20368676.302    84567319.93704
       380.055  
  19277457.027   102868216.35007      -273.206           0.000           0.0000 
         0.000  
  21260975.789   113811683.06508      2749.229    21260979.904    88520222.53807
      2138.285  
  22545913.361   120436212.12105      3759.789    22545918.330    93672641.49204
      2924.276  
  22355735.586   119504242.41205     -3343.456    22355740.405    92947740.11805
     -2600.464  
  21011246.060   112435413.60008     -3424.191    21011250.362    87449782.41807
     -2663.266  
 20 10 02 06 39 50.0000000  0 15G15G27G18G23G20G24G10G13R15R22R 6R 7
                                R16R 5R21
  20276698.722   106554779.40549     -1336.022    20276698.106    83029701.32949
     -1041.058  
  23897906.186   125584355.16546       -36.602    23897908.617    97857943.61948
       -28.523  
  20577982.435   108138028.06849     -1192.839    20577982.367    84263402.63748
      -929.484  
  21004544.943   110379643.39649      1935.460    21004545.421    86010123.16248
      1508.152  
  20664943.122   108595030.40749      1847.569    20664942.577    84619521.60148
      1439.659  
  22107255.979   116174437.81548      3073.819    22107258.737    90525567.66749
      2395.183  
  23463193.799   123299917.55647      3056.401    23463194.868    96077855.79848
      2381.621  
  22215387.774   116742650.98248     -2945.804    22215386.882    90968296.34545
     -2295.433  
  21699257.373   115954229.01707       446.206    21699261.911    90186659.22507
       347.050  
  20368216.310   108726928.60707       483.859    20368220.267    84565426.24604
       376.336  
  19277713.925   102869587.23907      -276.187           0.000           0.0000 
         0.000  
  21258408.269   113797939.27108      2747.347    21258412.277    88509532.92807
      2136.824  
  22542395.014   120417418.12205      3756.383    22542400.017    93658023.96804
      2921.636  
  22358863.030   119520960.95305     -3345.109    22358867.782    92960743.46505
     -2601.745  
  21014446.717   112452540.18108     -3427.644    21014450.962    87463103.08407
     -2665.949  
 20 10 02 06 39 55.0000000  0 15G15G27G18G23G20G24G10G13R15R22R 6R 7
                                R16R 5R21
  20277971.589   106561468.58949     -1338.737    20277970.878    83034913.68149
     -1043.176  
  23897943.512   125584550.65445       -40.476    23897945.409    97858095.89949
       -31.547  
  20579119.446   108144003.04049     -1196.141    20579119.394    84268058.44948
      -932.063  
  21002704.653   110369972.66949      1933.668    21002705.006    86002587.53248
      1506.750  
  20663186.522   108585799.97449      1845.538    20663186.147    84612329.06248
      1438.077  
  22104332.904   116159076.95048      3071.784    22104335.837    90513598.16149
      2393.598  
  23460286.466   123284639.38748      3055.668    23460287.580    96065950.72048
      2381.031  
  22218191.921   116757386.25048     -2947.355    22218190.783    90979778.34945
     -2296.645  
  21698842.179   115952010.43708       441.780    21698846.742    90184933.66507
       343.609  
  20367765.935   108724524.06907       479.011    20367769.828    84563556.03504
       372.562  
  19277974.263   102870976.70107      -278.625           0.000           0.0000 
         0.000  
  21255843.414   113784209.46308      2745.387    21255847.489    88498854.19907
      2135.301  
  22538879.780   120398640.30705      3755.324    22538885.079    93643419.00305
      2920.808  
  22361992.786   119537689.07506     -3345.839    22361997.026    92973754.22805
     -2602.324  
  21017651.250   112469688.59708     -3430.979    21017655.444    87476440.72507
     -2668.542  
 20 10 02 06 40  0.0000000  0 15G15G27G18G23G20G24G10G13R15R22R 6R 7
                                R16R 5R21
  20279246.354   106568167.89949     -1340.808    20279245.637    83040133.92049
     -1044.789  
  23897983.636   125584760.00746       -43.754    23897984.921    97858259.06949
       -34.094  
  20580258.750   108149990.96449     -1198.887    20580258.906    84272724.37148
      -934.199  
  21000865.494   110360307.63349      1932.484    21000865.796    85995056.33948
      1505.832  
  20661431.423   108576576.14849      1844.104    20661430.683    84605141.66648
      1436.964  
  22101411.314   116143723.83248      3069.729    22101414.242    90501634.68649
      2391.992  
  23457379.150   123269361.11848      3055.769    23457380.271    96054045.55847
      2381.113  
  22220996.876   116772126.26147     -2948.276    22220995.795    90991264.06144
     -2297.362  
  21698430.699   115949811.33008       437.827    21698435.267    90183223.23807
       340.526  
  20367319.326   108722140.22707       474.480    20367323.131    84561701.92704
       369.035  
  19278236.445   102872375.41208      -280.671           0.000           0.0000 
         0.000  
  21253279.440   113770484.27808      2744.590    21253283.471    88488179.05307
      2134.675  
  22535365.874   120379869.34104      3753.190    22535371.215    93628819.34105
      2919.145  
  22365122.354   119554417.22306     -3345.813    22365126.192    92986764.97905
     -2602.300  
  21020858.192   112486849.37008     -3433.296    21020862.342    87489787.98207
     -2670.352  
 20 10 02 06 40  5.0000000  0 15G15G27G18G23G20G24G10G13R15R22R 6R 7
                                R16R 5R21
  20280523.412   106574878.41149     -1343.426    20280522.592    83045362.89749
     -1046.824  
  23898026.344   125584984.22146       -46.440    23898027.354    97858433.76249
       -36.191  
  20581400.925   108155992.91449     -1201.921    20581401.136    84277401.20848
      -936.566  
  20999027.664   110350649.30549      1930.741    20999027.826    85987530.37648
      1504.473  
  20659677.664   108567360.01649      1842.289    20659676.906    84597960.27547
      1435.551  
  22098491.447   116128379.44748      3067.921    22098494.595    90489678.03149
      2390.590  
  23454471.877   123254083.89148      3055.301    23454473.111    96042141.28648
      2380.761  
  22223802.785   116786871.97548     -2949.917    22223801.654    91002754.24245
     -2298.640  
  21698022.938   115947632.78608       433.555    21698027.355    90181528.80707
       337.207  
  20366876.902   108719778.19507       470.137    20366880.763    84559864.78804
       365.656  
  19278500.471   102873784.65107      -282.914           0.000           0.0000 
         0.000  
  21250716.464   113756764.74908      2743.218    21250720.363    88477508.28807
      2133.609  
  22531853.263   120361106.32204      3751.300    22531858.719    93614225.92704
      2917.683  
  22368252.149   119571146.55106     -3346.144    22368255.912    92999776.69105
     -2602.563  
  21024067.642   112504023.60108     -3436.176    21024071.907    87503145.71507
     -2672.586  
 20 10 02 06 40 10.0000000  0 15G15G27G18G23G20G24G10G13R15R22R 6R 7
                                R16R 5R21
  20281802.763   106581601.82549     -1346.101    20281801.999    83050601.91849
     -1048.913  
  23898072.497   125585225.04146       -50.241    23898073.330    97858621.43549
       -39.148  
  20582546.134   108162010.56049     -1205.296    20582546.279    84282090.28448
      -939.194  
  20997191.382   110340999.39049      1929.098    20997191.315    85980010.95248
      1503.188  
  20657925.637   108558153.30449      1840.339    20657924.834    84590786.21048
      1434.027  
  22095573.468   116113045.39948      3065.547    22095576.586    90477729.42849
      2388.738  
  23451565.325   123238809.38948      3054.473    23451566.745    96030239.07848
      2380.108  
  22226610.419   116801625.10048     -2951.358    22226609.092    91014250.17045
     -2299.766  
  21697619.454   115945476.50408       428.637    21697623.686    90179851.70207
       333.382  
  20366438.794   108717439.57507       465.145    20366442.671    84558045.87504
       361.777  
  19278766.948   102875206.11808      -285.543           0.000           0.0000 
         0.000  
  21248154.956   113743052.61008      2741.574    21248158.626    88466843.32607
      2132.336  
  22528342.341   120342352.70004      3749.953    22528348.010    93599639.78004
      2916.624  
  22371382.509   119587878.74406     -3346.413    22371386.119    93012790.61804
     -2602.765  
  21027279.909   112521212.93208     -3439.647    21027284.307    87516515.21407
     -2675.281  
 20 10 02 06 40 15.0000000  0 15G15G27G18G23G20G24G10G13R15R22R 6R 7
                                R16R 5R21
  20283084.967   106588339.78649     -1349.102    20283084.356    83055852.26849
     -1051.249  
  23898121.634   125585483.97346       -53.440    23898123.099    97858823.19949
       -41.645  
  20583694.565   108168045.54549     -1208.828    20583694.614    84286792.86748
      -941.948  
  20995356.972   110331359.56349      1926.980    20995356.993    85972499.40048
      1501.538  
  20656175.728   108548957.62749      1838.051    20656174.787    84583620.74848
      1432.246  
  22092657.722   116097723.36448      3063.241    22092660.986    90465790.19249
      2386.940  
  23448659.574   123223539.28548      3053.542    23448661.170    96018340.26548
      2379.375  
  22229419.569   116816387.09448     -2953.390    22229418.283    91025753.02545
     -2301.347  
  21697220.496   115943344.12508       423.761    21697224.709    90178193.18607
       329.594  
  20366005.579   108715126.23107       460.012    20366009.321    84556246.58504
       357.781  
  19279035.870   102876641.14007      -288.507           0.000           0.0000 
         0.000  
  21245595.142   113729349.53708      2739.694    21245598.540    88456185.36307
      2130.867  
  22524833.771   120323610.42204      3747.098    22524839.367    93585062.46604
      2914.409  
  22374513.712   119604615.47406     -3348.019    22374517.191    93025808.10405
     -2604.011  
  21030495.474   112538419.07208     -3442.878    21030499.584    87529897.75307
     -2677.797  
 20 10 02 06 40 20.0000000  0 15G15G27G18G23G20G24G10G13R15R22R 6R 7
                                R16R 5R21
  20284369.254   106595088.07449     -1350.848    20284368.453    83061110.68149
     -1052.608  
  23898173.467   125585756.95246       -55.972    23898175.233    97859035.92848
       -43.612  
  20584845.460   108174093.66149     -1211.163    20584845.608    84291505.68348
      -943.770  
  20993523.715   110321725.60849      1925.953    20993523.673    85964992.41548
      1500.737  
  20654427.158   108539768.83249      1836.862    20654426.185    84576460.64048
      1431.315  
  22089743.515   116082409.13448      3061.886    22089746.806    90453857.01949
      2385.886  
  23445753.809   123208269.29248      3053.992    23445755.626    96006441.61348
      2379.737  
  22232229.475   116831153.99848     -2954.069    22232228.104    91037259.70945
     -2301.871  
  21696825.131   115941231.44708       420.429    21696829.177    90176549.99408
       326.995  
  20365576.036   108712833.70807       456.354    20365579.893    84554463.51404
       354.937  
  19279306.535   102878085.77407      -289.983           0.000           0.0000 
         0.000  
  21243036.296   113715651.24208      2739.026    21243039.422    88445531.15107
      2130.354  
  22521326.597   120304875.16905      3745.676    22521331.952    93570490.63104
      2913.309  
  22377644.891   119621352.42006     -3347.789    22377648.155    93038825.70704
     -2603.836  
  21033713.119   112555637.68108     -3445.066    21033717.281    87543289.98407
     -2679.500  
 20 10 02 06 40 25.0000000  0 15G15G27G18G23G20G24G10G13R15R22R 6R 7
                                R16R 5R21
  20285655.270   106601846.63549     -1352.836    20285654.749    83066377.09749
     -1054.156  
  23898228.434   125586043.96347       -58.871    23898230.457    97859259.59448
       -45.870  
  20585998.857   108180154.86649     -1213.757    20585999.045    84296228.68948
      -945.788  
  20991691.550   110312097.45449      1924.820    20991691.335    85957489.95648
      1499.858  
  20652679.932   108530586.81249      1835.530    20652678.823    84569305.82647
      1430.285  
  22086830.698   116067102.64548      3060.348    22086833.775    90441929.89449
      2384.688  
  23442848.073   123192999.45048      3053.926    23442850.246    95994543.00448
      2379.680  
  22235040.552   116845925.49448     -2955.069    22235038.821    91048769.96945
     -2302.652  
  21696433.452   115939138.40108       416.347    21696437.739    90174922.06208
       323.819  
  20365150.550   108710562.18407       451.827    20365154.391    84552696.77804
       351.421  
  19279579.051   102879539.84708      -291.832           0.000           0.0000 
         0.000  
  21240478.126   113701957.84108      2738.117    21240481.060    88434880.70707
      2129.645  
  22517820.367   120286147.01604      3744.473    22517826.094    93555924.29305
      2912.367  
  22380775.995   119638089.62206     -3347.941    22380779.404    93051843.55605
     -2603.953  
  21036933.221   112572868.78608     -3447.789    21036937.394    87556691.92907
     -2681.621  
 20 10 02 06 40 30.0000000  0 15G15G27G18G23G20G24G10G13R15R22R 6R 7
                                R16R 5R21
  20286944.319   106608620.57349     -1356.563    20286943.741    83071655.49349
     -1057.062  
  23898287.006   125586349.94847       -63.430    23898289.117    97859498.01548
       -49.426  
  20587155.863   108186234.22849     -1217.870    20587155.892    84300965.84848
      -948.995  
  20989861.486   110302480.24649      1922.038    20989861.503    85949996.03648
      1497.690  
  20650934.984   108521416.70849      1832.512    20650933.853    84562160.27948
      1427.925  
  22083920.604   116051809.09048      3057.011    22083923.432    90430012.83649
      2382.086  
  23439943.244   123177734.81448      3052.319    23439945.483    95982648.51548
      2378.429  
  22237853.269   116860706.92448     -2957.800    22237851.561    91060287.98145
     -2304.776  
  21696046.504   115937070.07308       410.910    21696050.714    90173313.34908
       319.593  
  20364729.824   108708316.69407       446.320    20364733.946    84550950.28604
       347.132  
  19279854.369   102881008.46308      -295.456           0.000           0.0000 
         0.000  
  21237921.997   113688274.37008      2735.272    21237924.990    88424238.02907
      2127.433  
  22514316.517   120267430.98404      3742.448    22514322.383    93541367.34704
      2910.784  
  22383908.164   119654832.20306     -3349.026    22383911.645    93064865.56505
     -2604.801  
  21040156.695   112590117.43208     -3451.897    21040160.829    87570107.54607
     -2684.813  
 20 10 02 06 40 35.0000000  0 15G15G27G18G23G20G24G10G13R15R22R 6R 7
                                R16R 5R21
  20288236.373   106615410.48649     -1358.988    20288235.917    83076946.33249
     -1058.953  
  23898349.212   125586675.68647       -67.015    23898350.888    97859751.83048
       -52.223  
  20588316.309   108192332.41149     -1220.913    20588316.408    84305717.68348
      -951.367  
  20988033.535   110292874.61149      1920.604    20988033.654    85942511.14448
      1496.573  
  20649192.529   108512259.13949      1831.004    20649191.120    84555024.51748
      1426.758  
  22081012.984   116036529.19248      3055.191    22081015.869    90418106.41749
      2380.664  
  23437039.816   123162476.07248      3051.772    23437042.064    95970758.59348
      2378.004  
  22240668.127   116875498.91348     -2958.996    22240666.556    91071814.19545
     -2305.714  
  21695664.215   115935027.33108       406.621    21695668.416    90171724.56608
       316.262  
  20364314.116   108706097.86807       441.839    20364318.339    84549224.53604
       343.651  
  19280132.492   102882492.39507      -297.675           0.000           0.0000 
         0.000  
  21235367.782   113674601.42908      2734.121    21235370.682    88413603.52707
      2126.539  
  22510815.229   120248727.73105      3740.297    22510820.994    93526820.42104
      2909.125  
  22387041.264   119671580.85907     -3349.918    22387045.045    93077892.29205
     -2605.496  
  21043383.478   112607384.32308     -3454.538    21043387.544    87583537.37907
     -2686.863  
 20 10 02 06 40 40.0000000  0 15G15G27G18G23G20G24G10G13R15R22R 6R 7
                                R16R 5R21
  20289530.930   106622213.21049     -1361.715    20289530.529    83082247.14449
     -1061.082  
  23898414.490   125587017.85047       -70.304    23898415.976    97860018.45048
       -54.785  
  20589479.797   108198446.14349     -1224.121    20589479.850    84310481.62848
      -953.863  
  20986207.324   110283277.33849      1918.766    20986207.302    85935032.75548
      1495.140  
  20647451.547   108503110.87149      1828.847    20647450.417    84547896.00248
      1425.073  
  22078107.234   116021259.59348      3053.184    22078110.259    90406208.02249
      2379.102  
  23434136.556   123147219.96548      3051.082    23434139.020    95958870.71048
      2377.460  
  22243484.539   116890298.23048     -2960.452    22243482.832    91083346.12645
     -2306.851  
  21695285.990   115933006.68208       401.979    21695290.203    90170152.94508
       312.651  
  20363902.873   108703902.46607       436.898    20363907.314    84547517.00104
       339.805  
  19280412.866   102883988.30407      -300.394           0.000           0.0000 
         0.000  
  21232814.915   113660935.82608      2732.589    21232817.861    88402974.71907
      2125.343  
  22507315.929   120230034.28705      3737.535    22507321.509    93512281.09305
      2906.972  
  22390175.138   119688332.05207     -3350.367    22390178.913    93090921.00204
     -2605.844  
  21046613.059   112624666.14808     -3457.655    21046617.040    87596978.78107
     -2689.292  
 20 10 02 06 40 45.0000000  0 15G15G27G18G23G20G24G10G13R15R22R 6R 7
                                R16R 5R21
  20290827.761   106629028.60349     -1364.690    20290827.373    83087557.84749
     -1063.394  
  23898482.721   125587376.31247       -73.848    23898483.953    97860297.80448
       -57.539  
  20590646.130   108204575.39249     -1227.831    20590646.208    84315257.66948
      -956.754  
  20984382.619   110273688.35449      1916.687    20984382.645    85927560.81048
      1493.522  
  20645712.433   108493971.86149      1826.473    20645711.138    84540774.69648
      1423.227  
  22075203.558   116006000.32748      3050.293    22075206.300    90394317.70049
      2376.851  
  23431233.981   123131966.42447      3050.198    23431236.434    95946984.82448
      2376.773  
  22246302.067   116905104.78048     -2962.331    22246300.309    91094883.72245
     -2308.313  
  21694912.128   115931008.12607       396.894    21694916.330    90168598.52008
       308.694  
  20363495.945   108701730.35507       431.823    20363500.403    84545827.57604
       335.859  
  19280695.435   102885496.08408      -302.940           0.000           0.0000 
         0.000  
  21230263.568   113647277.35808      2730.479    21230266.524    88392351.46507
      2123.706  
  22503818.155   120211350.34005      3735.351    22503823.734    93497749.15305
      2905.272  
  22393309.440   119705086.00507     -3351.257    22393312.808    93103951.78804
     -2606.547  
  21049845.289   112641962.77808     -3461.276    21049849.425    87610431.71107
     -2692.108  
 20 10 02 06 40 50.0000000  0 15G15G27G18G23G20G24G10G13R15R22R 6R 7
                                R16R 5R21
  20292127.636   106635859.05549     -1367.574    20292127.369    83092880.27049
     -1065.644  
  23898554.336   125587753.58947       -77.519    23898555.526    97860591.82048
       -60.401  
  20591815.874   108210722.52949     -1231.214    20591815.968    84320047.64248
      -959.390  
  20982559.994   110264110.05149      1914.698    20982560.108    85920097.20048
      1491.972  
  20643975.591   108484844.53549      1824.332    20643974.305    84533662.49848
      1421.558  
  22072302.150   115990753.76548      3047.934    22072305.039    90382437.27449
      2375.012  
  23428332.173   123116717.88347      3049.253    23428334.822    95935102.83148
      2376.035  
  22249121.468   116919920.89848     -2963.914    22249119.629    91106428.74145
     -2309.542  
  21694542.704   115929034.15908       392.555    21694547.045    90167063.22408
       305.316  
  20363093.871   108699584.18107       426.694    20363098.466    84544158.33204
       331.870  
  19280980.730   102887018.16007      -305.746           0.000           0.0000 
         0.000  
  21227713.830   113633628.75708      2729.004    21227716.849    88381735.91107
      2122.559  
  22500322.660   120192678.43904      3733.503    22500328.225    93483226.59804
      2903.839  
  22396444.683   119721845.05207     -3352.284    22396448.057    93116986.58304
     -2607.340  
  21053080.846   112659276.61208     -3464.405    21053085.176    87623898.02407
     -2694.543  
 20 10 02 06 40 55.0000000  0 15G15G27G18G23G20G24G10G13R15R22R 6R 7
                                R16R 5R21
  20293429.784   106642702.45149     -1369.640    20293429.570    83098212.78449
     -1067.257  
  23898629.164   125588147.59547       -80.039    23898629.923    97860898.81047
       -62.370  
  20592988.673   108216885.44349     -1234.035    20592988.616    84324849.90948
      -961.590  
  20980738.881   110254540.35349      1913.313    20980739.008    85912640.28648
      1490.891  
  20642240.471   108475726.79349      1822.827    20642239.202    84526557.76348
      1420.382  
  22069402.762   115975517.75148      3046.421    22069405.679    90370565.06749
      2373.835  
  23425431.174   123101472.15748      3049.241    23425433.858    95923223.05448
      2376.030  
  22251942.371   116934744.52947     -2965.491    22251940.413    91117979.63244
     -2310.772  
  21694177.364   115927082.61107       388.179    21694181.897    90165545.34508
       301.914  
  20362696.130   108697461.63907       422.499    20362700.807    84542507.47704
       328.608  
  19281268.217   102888552.59108      -307.887           0.000           0.0000 
         0.000  
  21225165.542   113619987.72408      2727.938    21225168.805    88371126.20807
      2121.726  
  22496829.108   120174016.44905      3731.940    22496834.705    93468711.70905
      2902.620  
  22399580.192   119738606.92706     -3352.645    22399583.644    93130023.56404
     -2607.624  
  21056319.218   112676605.60708     -3466.973    21056323.476    87637376.13207
     -2696.539  
 20 10 02 06 41  0.0000000  0 15G15G27G18G23G20G24G10G13R15R22R 6R 7
                                R16R 5R21
  20294734.404   106649558.99449     -1372.891    20294734.441    83103555.54249
     -1069.789  
  23898707.354   125588558.51847       -84.172    23898707.816    97861219.01747
       -65.589  
  20594164.508   108223064.37149     -1237.570    20594164.463    84329664.64748
      -964.344  
  20978919.462   110244979.46149      1911.093    20978919.610    85905190.25048
      1489.163  
  20640507.257   108466618.81949      1820.530    20640506.021    84519460.64348
      1418.594  
  22066505.471   115960292.57548      3043.687    22066508.354    90358701.31649
      2371.703  
  23422530.562   123086229.58848      3048.313    23422533.210    95911345.76148
      2375.309  
  22254764.526   116949575.80648     -2967.125    22254762.714    91129536.48345
     -2312.047  
  21693816.320   115925153.67908       383.191    21693821.052    90164045.06408
       298.035  
  20362302.948   108695362.95807       417.039    20362307.605    84540875.18504
       324.363  
  19281558.136   102890099.37308      -310.979           0.000           0.0000 
         0.000  
  21222618.741   113606354.25008      2725.714    21222622.011    88360522.39807
      2119.996  
  22493337.358   120155364.64605      3729.155    22493343.152    93454204.74404
      2900.449  
  22402716.322   119755371.93206     -3353.457    22402719.517    93143063.10503
     -2608.234  
  21059560.295   112693949.86008     -3470.707    21059564.661    87650866.12607
     -2699.437  
 20 10 02 06 41  5.0000000  0 15G15G27G18G23G20G24G10G13R15R22R 6R 7
                                R16R 5R21
  20296041.736   106656428.03849     -1375.043    20296041.706    83108908.04349
     -1071.465  
  23898788.544   125588985.58147       -87.168    23898788.456    97861551.78648
       -67.925  
  20595343.191   108229258.61449     -1240.429    20595343.192    84334491.34648
      -966.569  
  20977101.578   110235426.72549      1909.578    20977101.671    85897746.56247
      1487.983  
  20638775.746   108457519.97749      1818.891    20638774.587    84512370.64648
      1417.315  
  22063610.186   115945077.59448      3041.921    22063612.978    90346845.45649
      2370.323  
  23419630.459   123070989.50347      3047.921    23419633.145    95899470.32448
      2374.995  
  22257588.237   116964414.00648     -2968.605    22257586.356    91141098.73045
     -2313.198  
  21693459.457   115923246.77408       379.332    21693463.864    90162561.92607
       295.031  
  20361914.204   108693287.53707       412.796    20361918.523    84539260.93804
       321.055  
  19281850.077   102891657.81807      -312.621           0.000           0.0000 
         0.000  
  21220073.319   113592728.00208      2724.507    21220076.570    88349924.19407
      2119.058  
  22489847.434   120136722.35005      3727.313    22489853.296    93439705.20404
      2899.019  
  22405853.034   119772139.64306     -3353.469    22405855.708    93156104.65904
     -2608.249  
  21062804.211   112711308.71108     -3473.141    21062808.449    87664367.42007
     -2701.339  
 20 10 02 06 41 10.0000000  0 15G15G27G18G23G20G24G10G13R15R22R 6R 7
                                R16R 5R21
  20297351.138   106663309.64949     -1377.690    20297351.105    83114270.34749
     -1073.527  
  23898872.714   125589428.99047       -90.410    23898872.361    97861897.23747
       -70.461  
  20596524.958   108235468.24549     -1243.487    20596524.866    84339330.00848
      -968.956  
  20975285.397   110225882.22449      1907.930    20975285.452    85890309.29348
      1486.699  
  20637046.193   108448430.37049      1816.969    20637044.799    84505287.83347
      1415.820  
  22060716.762   115929872.86148      3040.004    22060719.564    90334997.62849
      2368.836  
  23416730.772   123055751.89048      3047.242    23416733.225    95887596.82648
      2374.465  
  22260413.107   116979259.26747     -2969.879    22260411.565    91152666.48744
     -2314.378  
  21693106.774   115921361.92208       374.796    21693111.036    90161095.90407
       291.503  
  20361529.784   108691235.38307       407.964    20361534.046    84537664.81104
       317.301  
  19282144.509   102893228.02508      -315.328           0.000           0.0000 
         0.000  
  21217528.981   113579108.83708      2723.288    21217532.262    88339331.48407
      2118.109  
  22486359.237   120118089.61805      3725.707    22486365.092    93425213.09104
      2897.772  
  22408990.327   119788909.74206     -3354.219    22408992.862    93169148.03104
     -2608.835  
  21066050.935   112728682.21408     -3476.171    21066055.181    87677880.12407
     -2703.690  
 20 10 02 06 41 15.0000000  0 15G15G27G18G23G20G24G10G13R15R22R 6R 7
                                R16R 5R21
  20298663.426   106670205.70349     -1380.737    20298663.201    83119643.87949
     -1075.901  
  23898960.487   125589890.49247       -94.327    23898959.870    97862256.85647
       -73.508  
  20597709.899   108241695.18249     -1247.272    20597709.767    84344182.16848
      -971.905  
  20973470.927   110216347.83949      1905.820    20973470.941    85882879.89148
      1485.051  
  20635318.543   108439351.85149      1814.417    20635317.292    84498213.66648
      1413.828  
  22057825.843   115914680.19448      3037.148    22057828.554    90323159.20549
      2366.609  
  23413832.006   123040518.67648      3045.953    23413834.258    95875726.85348
      2373.476  
  22263239.659   116994113.39747     -2971.479    22263238.481    91164241.11344
     -2315.444  
  21692758.752   115919501.01308       369.492    21692762.856    90159648.57407
       287.383  
  20361150.057   108689208.40507       403.183    20361154.433    84536088.28504
       313.582  
  19282441.178   102894811.98707      -318.038           0.000           0.0000 
         0.000  
  21214986.521   113565498.81708      2721.019    21214989.770    88328745.99407
      2116.354  
  22482873.459   120099468.50205      3722.754    22482878.737    93410729.97504
      2895.465  
  22412128.485   119805684.14806     -3355.511    22412130.915    93182194.82303
     -2609.844  
  21069300.600   112746072.23408     -3479.706    21069304.743    87691405.70007
     -2706.437  
 20 10 02 06 41 20.0000000  0 15G15G27G18G23G20G24G10G13R15R22R 6R 7
                                R16R 5R21
  20299978.165   106677114.67349     -1383.281    20299977.989    83125027.49749
     -1077.882  
  23899051.320   125590368.69646       -97.070    23899050.929    97862629.50648
       -75.641  
  20598897.693   108247937.89849     -1250.301    20598897.578    84349046.61848
      -974.265  
  20971658.320   110206822.12149      1904.069    20971658.381    85875457.26048
      1483.690  
  20633592.779   108430282.99249      1812.641    20633591.682    84491147.01948
      1412.440  
  22054936.757   115899498.29148      3035.070    22054939.560    90311329.13449
      2364.984  
  23410933.775   123025288.40448      3045.660    23410936.212    95863859.08748
      2373.238  
  22266067.654   117008975.01747     -2973.039    22266066.474    91175821.58345
     -2316.655  
  21692414.684   115917662.48108       365.613    21692418.793    90158218.57907
       284.367  
  20360774.795   108687205.22907       397.894    20360779.182    84534530.27404
       309.472  
  19282740.457   102896408.30907      -320.761           0.000           0.0000 
         0.000  
  21212445.598   113551896.58708      2719.573    21212448.984    88318166.45007
      2115.219  
  22479389.433   120080857.36705      3721.315    22479394.643    93396254.68603
      2894.354  
  22415267.124   119822461.75605     -3356.914    22415269.410    93195243.89403
     -2610.960  
  21072553.144   112763477.31508     -3482.940    21072557.331    87704942.96707
     -2708.956  
 20 10 02 06 41 25.0000000  0 15G15G27G18G23G20G24G10G13R15R22R 6R 7
                                R16R 5R21
  20301295.367   106684036.61849     -1385.277    20301295.228    83130421.21549
     -1079.441  
  23899145.301   125590863.69646      -100.499    23899145.106    97863015.20947
       -78.312  
  20600088.725   108254196.40649     -1252.968    20600088.587    84353923.38248
      -976.339  
  20969847.280   110197305.07149      1902.679    20969847.239    85868041.37747
      1482.609  
  20631868.938   108421223.80449      1811.116    20631867.591    84484087.90548
      1411.258  
  22052049.790   115884327.11148      3033.444    22052052.480    90299507.43049
      2363.719  
  23408036.093   123010061.13547      3045.417    23408038.473    95851993.70549
      2373.054  
  22268897.058   117023844.07447     -2974.418    22268895.911    91187407.84245
     -2317.729  
  21692074.880   115915846.54308       361.301    21692079.067    90156806.17107
       281.008  
  20360403.922   108685225.73407       393.781    20360408.172    84532990.65604
       306.269  
  19283041.771   102898016.96007      -322.563           0.000           0.0000 
         0.000  
  21209905.951   113538301.87908      2718.565    21209909.342    88307592.76107
      2114.433  
  22475907.166   120062256.37405      3719.555    22475912.606    93381787.26004
      2892.988  
  22418406.410   119839242.19406     -3356.496    22418408.388    93208295.38003
     -2610.621  
  21075808.517   112780897.31708     -3485.269    21075812.725    87718491.88007
     -2710.766  
 20 10 02 06 41 30.0000000  0 15G15G27G18G23G20G24G10G13R15R22R 6R 7
                                R16R 5R21
  20302614.859   106690970.78249     -1388.144    20302614.669    83135824.45049
     -1081.676  
  23899242.323   125591374.70347      -104.043    23899242.200    97863413.41847
       -81.074  
  20601282.627   108260470.05749     -1256.309    20601282.322    84358811.93548
      -978.945  
  20968037.744   110187796.02249      1900.847    20968037.622    85860631.73348
      1481.176  
  20630146.816   108412173.58449      1808.992    20630145.445    84477035.78748
      1409.604  
  22049164.546   115869165.99448      3031.257    22049167.311    90287693.58249
      2362.019  
  23405138.816   122994836.09248      3044.664    23405141.330    95840130.04848
      2372.469  
  22271727.613   117038719.76948     -2975.894    22271726.860    91198999.29345
     -2318.878  
  21691739.246   115914052.35908       356.472    21691743.235    90155410.72407
       277.258  
  20360037.508   108683269.35807       388.854    20360041.789    84531469.02804
       302.440  
  19283345.344   102899636.88108      -325.163           0.000           0.0000 
         0.000  
  21207367.804   113524714.07108      2716.633    21207371.103    88297024.47607
      2112.938  
  22472426.808   120043664.71105      3716.918    22472431.995    93367327.10104
      2890.941  
  22421545.885   119856024.73905     -3356.991    22421547.676    93221348.46403
     -2610.988  
  21079066.477   112798331.66308     -3488.344    21079070.709    87732051.94407
     -2713.156  
 20 10 02 06 41 35.0000000  0 15G15G27G18G23G20G24G10G13R15R22R 6R 7
                                R16R 5R21
  20303937.009   106697918.35149     -1390.652    20303936.828    83141238.15549
     -1083.625  
  23899342.721   125591902.86447      -106.941    23899342.550    97863824.92747
       -83.344  
  20602479.354   108266759.96549     -1259.336    20602479.504    84363713.16148
      -981.304  
  20966229.963   110178296.13148      1899.309    20966229.937    85853229.22147
      1479.976  
  20628426.564   108403133.50349      1807.191    20628425.245    84469991.57348
      1408.195  
  22046281.800   115854016.15548      3029.140    22046284.314    90275888.53349
      2360.371  
  23402242.115   122979614.48147      3044.488    23402244.500    95828269.04448
      2372.324  
  22274559.846   117053603.35048     -2977.211    22274559.034    91210596.91645
     -2319.905  
  21691407.854   115912281.22008       352.077    21691411.973    90154033.08807
       273.827  
  20359675.636   108681337.12507       384.309    20359679.779    84529966.17804
       298.906  
  19283651.330   102901269.36707      -327.504           0.000           0.0000 
         0.000  
  21204830.975   113511134.44408      2715.527    21204834.364    88286462.59307
      2112.082  
  22468948.467   120025083.63105      3715.016    22468953.335    93352875.17004
      2889.460  
  22424686.116   119872810.88705     -3357.097    22424687.562    93234404.44202
     -2611.066  
  21082327.434   112815781.51408     -3491.355    21082331.822    87745624.03607
     -2715.503  
 20 10 02 06 41 40.0000000  0 15G15G27G18G23G20G24G10G13R15R22R 6R 7
                                R16R 5R21
  20305261.441   106704878.66449     -1393.395    20305261.215    83146661.76849
     -1085.762  
  23899446.289   125592447.55347      -110.727    23899446.564    97864249.31847
       -86.292  
  20603679.303   108273065.52149     -1262.797    20603679.339    84368626.56948
      -984.000  
  20964423.700   110168804.81149      1897.315    20964423.735    85845833.37647
      1478.425  
  20626708.047   108394102.95149      1804.933    20626706.748    84462954.77048
      1406.437  
  22043400.950   115838877.09048      3026.468    22043403.414    90264091.85749
      2358.288  
  23399345.867   122964395.69147      3043.491    23399348.212    95816410.28948
      2371.550  
  22277393.435   117068494.15047     -2979.047    22277392.977    91222200.09545
     -2321.344  
  21691080.597   115910532.39808       347.507    21691084.650    90152672.91608
       270.284  
  20359317.991   108679428.46307       378.991    20359322.138    84528481.65804
       294.769  
  19283959.607   102902914.14308      -330.145           0.000           0.0000 
         0.000  
  21202295.593   113497562.25608      2713.469    21202299.061    88275906.44107
      2110.476  
  22465471.965   120006512.43805      3712.905    22465476.254    93338430.92904
      2887.823  
  22427826.722   119889599.59804     -3357.148    22427827.730    93247462.22004
     -2611.129  
  21085591.229   112833246.11408     -3494.628    21085595.384    87759207.59907
     -2718.047  
 20 10 02 06 41 45.0000000  0 15G15G27G18G23G20G24G10G13R15R22R 6R 7
                                R16R 5R21
  20306588.551   106711852.70649     -1396.218    20306588.536    83152096.08149
     -1087.965  
  23899553.086   125593009.77847      -114.323    23899553.891    97864687.42647
       -89.085  
  20604882.335   108279387.65149     -1266.227    20604882.378    84373552.90448
      -986.675  
  20962619.330   110159322.93748      1895.555    20962619.242    85838444.90648
      1477.050  
  20624991.640   108385082.85949      1802.910    20624990.415    84455926.14248
      1404.863  
  22040522.178   115823749.47748      3024.297    22040524.966    90252304.12349
      2356.594  
  23396450.458   122949180.71648      3042.487    23396452.643    95804554.48248
      2370.773  
  22280228.574   117083393.09347     -2980.934    22280228.096    91233809.65345
     -2322.809  
  21690757.588   115908806.90008       342.766    21690761.850    90151330.91507
       266.597  
  20358965.040   108677544.38907       374.198    20358969.256    84527016.26904
       291.042  
  19284270.161   102904571.82008      -332.851           0.000           0.0000 
         0.000  
  21199761.758   113483998.56108      2711.987    21199765.115    88265356.90607
      2109.323  
  22461997.619   119987952.41605      3710.926    22462001.797    93323995.36604
      2886.273  
  22430967.937   119906392.09704     -3357.940    22430969.116    93260523.09205
     -2611.726  
  21088857.768   112850726.52408     -3497.636    21088862.078    87772803.47907
     -2720.382  
 20 10 02 06 41 50.0000000  0 15G15G27G18G23G20G24G10G13R15R22R 6R 7
                                R16R 5R21
  20307918.147   106718839.90549     -1398.479    20307918.040    83157540.64849
     -1089.730  
  23899663.198   125593588.94646      -117.073    23899664.233    97865138.69648
       -91.234  
  20606088.405   108285725.81349     -1269.003    20606088.573    84378491.72948
      -988.839  
  20960816.872   110149850.01849      1893.940    20960816.761    85831063.42248
      1475.796  
  20623277.098   108376072.69049      1801.315    20623275.783    84448905.22947
      1403.620  
  22037645.515   115808632.95148      3022.305    22037648.515    90240525.00749
      2355.038  
  23393555.647   122933968.97148      3042.093    23393557.940    95792701.15848
      2370.457  
  22283065.148   117098299.70148     -2981.559    22283064.837    91245425.16346
     -2323.296  
  21690439.034   115907104.10908       338.707    21690443.228    90150006.53107
       263.438  
  20358616.619   108675684.27107       369.948    20358620.792    84525569.50604
       287.733  
  19284583.120   102906241.98507      -334.984           0.000           0.0000 
         0.000  
  21197229.411   113470442.77408      2710.741    21197232.744    88254813.52107
      2108.355  
  22458524.983   119969402.87605      3709.504    22458529.068    93309567.92504
      2885.159  
  22434109.394   119923187.83205     -3359.414    22434110.953    93273586.42904
     -2612.883  
  21092127.368   112868222.06408     -3500.159    21092131.511    87786411.10407
     -2722.351  
 20 10 02 06 41 55.0000000  0 15G15G27G18G23G20G24G10G13R15R22R 6R 7
                                R16R 5R21
  20309250.219   106725839.33249     -1401.141    20309249.994    83162994.74449
     -1091.801  
  23899776.516   125594184.00347      -120.620    23899777.788    97865602.40648
       -93.987  
  20607297.538   108292079.03849     -1272.285    20607297.649    84383442.28748
      -991.395  
  20959015.756   110140385.12249      1891.992    20959015.713    85823688.18148
      1474.281  
  20621564.255   108367071.51449      1799.253    20621562.854    84441891.32448
      1402.016  
  22034770.936   115793526.49648      3020.007    22034773.734    90228753.75849
      2353.254  
  23390661.399   122918759.50447      3041.559    23390663.601    95780849.63548
      2370.047  
  22285903.013   117113212.90948     -2983.214    22285902.527    91257045.87445
     -2324.581  
  21690124.397   115905423.16108       334.011    21690128.578    90148699.12407
       259.785  
  20358272.424   108673847.28207       364.895    20358276.714    84524140.73604
       283.805  
  19284898.340   102907923.68507      -337.477           0.000           0.0000 
         0.000  
  21194698.350   113456893.86808      2709.012    21194701.580    88244275.47507
      2107.004  
  22455054.238   119950862.68105      3707.109    22455058.429    93295147.79004
      2883.309  
  22437251.638   119939985.67504     -3360.320    22437253.278    93286651.42204
     -2613.582  
  21095399.383   112885731.84308     -3503.593    21095403.382    87800029.81407
     -2725.020  
 20 10 02 06 42  0.0000000  0 15G15G27G18G23G20G24G10G13R15R22R 6R 7
                                R16R 5R21
  20310584.370   106732850.69249     -1403.616    20310584.402    83168458.14249
     -1093.726  
  23899892.528   125594794.83647      -123.727    23899894.226    97866078.41748
       -96.405  
  20608509.343   108298447.08249     -1275.250    20608509.356    84388404.39848
      -993.703  
  20957215.998   110130927.95249      1890.527    20957215.847    85816318.96747
      1473.137  
  20619853.127   108358079.10049      1797.405    20619851.617    84434884.25148
      1400.573  
  22031898.026   115778429.91148      3018.246    22031901.069    90216990.17549
      2351.874  
  23387767.591   122903552.09647      3041.327    23387769.805    95768999.71249
      2369.862  
  22288742.227   117128132.57648     -2984.777    22288741.617    91268671.59645
     -2325.801  
  21689813.721   115903763.81707       329.628    21689817.820    90147408.54807
       256.378  
  20357932.505   108672033.02007       360.522    20357936.985    84522729.64504
       280.401  
  19285215.545   102909616.66207      -339.930           0.000           0.0000 
         0.000  
  21192168.621   113443351.68508      2707.508    21192171.749    88233742.66707
      2105.839  
  22451585.058   119932331.72904      3705.206    22451589.368    93280734.86704
      2881.832  
  22440394.039   119956785.55005     -3360.257    22440395.945    93299717.96605
     -2613.543  
  21098674.184   112903255.49608     -3506.191    21098678.169    87813659.31407
     -2727.042  
 20 10 02 06 42  5.0000000  0 15G15G27G18G23G20G24G10G13R15R22R 6R 7
                                R16R 5R21
  20311921.001   106739874.17149     -1405.633    20311920.753    83173930.99349
     -1095.297  
  23900011.760   125595421.65647      -126.694    23900013.555    97866566.83348
       -98.727  
  20609724.009   108304830.13649     -1277.980    20609724.028    84393378.21448
      -995.828  
  20955417.925   110121478.76949      1889.167    20955417.743    85808955.97148
      1472.078  
  20618143.520   108349095.65249      1795.999    20618142.130    84427884.15448
      1399.477  
  22029027.251   115763343.38548      3016.769    22029030.079    90205234.45449
      2350.729  
  23384873.883   122888346.86947      3041.230    23384876.402    95757151.49149
      2369.788  
  22291582.564   117143058.77448     -2985.882    22291582.012    91280302.41645
     -2326.656  
  21689507.312   115902126.17608       325.523    21689511.276    90146134.80007
       253.179  
  20357596.730   108670241.78907       356.089    20357601.549    84521336.47104
       276.952  
  19285535.019   102911321.00108      -341.897           0.000           0.0000 
         0.000  
  21189640.213   113429816.23108      2706.496    21189643.364    88223215.09607
      2105.051  
  22448117.823   119913810.32004      3703.723    22448122.254    93266329.34404
      2880.675  
  22443536.893   119973587.56203     -3360.719    22443539.273    93312786.19305
     -2613.891  
  21101951.602   112920793.18408     -3508.741    21101955.466    87827299.73007
     -2729.027  
 20 10 02 06 42 10.0000000  0 15G15G27G18G23G20G24G10G13R15R22R 6R 7
                                R16R 5R21
  20313259.906   106746910.69649     -1409.039    20313259.789    83179413.99849
     -1097.957  
  23900134.260   125596065.24248      -130.879    23900136.205    97867068.34448
      -101.984  
  20610941.724   108311229.11249     -1281.871    20610941.652    84398364.43448
      -998.858  
  20953621.547   110112038.45649      1886.784    20953621.332    85801599.87548
      1470.219  
  20616436.028   108340122.06349      1793.280    20616434.280    84420891.76448
      1397.363  
  22026158.368   115748267.77348      3013.815    22026161.305    90193487.23749
      2348.429  
  23381981.007   122873144.92347      3039.441    23381983.533    95745305.79949
      2368.391  
  22294424.374   117157992.43148     -2988.188    22294423.847    91291939.03545
     -2328.461  
  21689205.038   115900511.10208       320.198    21689209.052    90144878.66207
       249.047  
  20357265.692   108668474.40107       350.672    20357270.382    84519961.83304
       272.742  
  19285856.617   102913037.67308      -345.121           0.000           0.0000 
         0.000  
  21187113.068   113416288.63308      2704.375    21187116.142    88212693.65007
      2103.401  
  22444652.508   119895299.41604      3700.948    22444656.840    93251931.98304
      2878.515  
  22446680.629   119990392.60104     -3362.062    22446682.864    93325856.76305
     -2614.941  
  21105231.600   112938345.89408     -3512.598    21105235.667    87840951.82707
     -2732.023  
 20 10 02 06 42 15.0000000  0 15G15G27G18G23G20G24G10G13R15R22R 6R 7
                                R16R 5R21
  20314601.654   106753961.84749     -1411.413    20314601.710    83184908.40849
     -1099.809  
  23900260.283   125596727.30948      -133.801    23900262.387    97867584.22348
      -104.265  
  20612162.689   108317645.60949     -1284.843    20612162.777    84403364.29948
     -1001.175  
  20951827.123   110102608.63349      1885.297    20951826.859    85794251.96547
      1469.063  
  20614730.437   108331159.96349      1791.645    20614728.918    84413908.31048
      1396.086  
  22023292.024   115733205.00048      3011.663    22023294.914    90181750.00349
      2346.746  
  23379089.066   122857947.60747      3039.292    23379091.594    95733463.76349
      2368.285  
  22297268.008   117172935.14048     -2989.363    22297267.209    91303582.68845
     -2329.378  
  21688907.196   115898920.40107       316.101    21688911.471    90143641.44907
       245.852  
  20356939.360   108666732.63807       345.995    20356944.292    84518607.11904
       269.105  
  19286181.043   102914768.43507      -347.074           0.000           0.0000 
         0.000  
  21184587.766   113402770.49808      2703.043    21184590.880    88202179.55107
      2102.366  
  22441189.348   119876800.52305      3699.280    22441193.826    93237543.93405
      2877.215  
  22449825.114   120007202.20805     -3361.671    22449827.690    93338930.90605
     -2614.633  
  21108514.934   112955915.24108     -3515.258    21108518.783    87854616.87007
     -2734.094  
 20 10 02 06 42 20.0000000  0 15G15G27G18G23G20G24G10G13R15R22R 6R 7
                                R16R 5R21
  20315945.868   106761025.42749     -1414.022    20315945.810    83190412.49249
     -1101.839  
  23900389.373   125597405.61548      -137.394    23900391.496    97868112.78048
      -107.065  
  20613386.679   108324077.44149     -1287.922    20613386.819    84408376.10648
     -1003.578  
  20950034.406   110093187.12249      1883.421    20950034.058    85786910.52648
      1467.598  
  20613026.920   108322207.17149      1789.706    20613025.251    84406932.10848
      1394.577  
  22020427.728   115718152.64948      3009.641    22020430.197    90170020.90249
      2345.120  
  23376197.435   122842752.92047      3038.672    23376200.090    95721623.78649
      2367.801  
  22300112.781   117187884.74148     -2990.835    22300112.009    91315231.73145
     -2330.526  
  21688613.508   115897351.73808       311.472    21688617.825    90142421.36706
       242.253  
  20356617.560   108665014.19407       341.058    20356622.267    84517270.56104
       265.269  
  19286507.492   102916510.89707      -349.698           0.000           0.0000 
         0.000  
  21182063.768   113389259.52508      2701.281    21182066.769    88191670.99607
      2100.992  
  22437728.182   119858311.63005      3696.612    22437732.887    93223163.66305
      2875.140  
  22452969.869   120024014.16203     -3363.190    22452972.863    93352006.77003
     -2615.827  
  21111800.793   112973498.94108     -3518.206    21111804.822    87868293.08107
     -2736.387  
 20 10 02 06 42 25.0000000  0 14G15G27G18G23G20G24G10G13R15R22R 6R 7
                                R16R21
  20317292.355   106768101.16849     -1416.098    20317292.369    83195926.04949
     -1103.456  
  23900521.565   125598099.88748      -140.229    23900523.694    97868653.79448
      -109.270  
  20614613.515   108330524.31849     -1290.726    20614613.527    84413399.64848
     -1005.761  
  20948243.000   110083773.65549      1882.218    20948242.757    85779575.35248
      1466.660  
  20611324.921   108313263.45049      1788.074    20611323.103    84399962.97348
      1393.300  
  22017565.371   115703110.45448      3007.742    22017567.725    90158299.71649
      2343.694  
  23373306.459   122827560.58547      3038.507    23373309.053    95709785.56749
      2367.664  
  22302958.924   117202840.88648     -2991.570    22302958.068    91326885.86745
     -2331.094  
  21688323.916   115895804.93407       307.374    21688328.144    90141218.30206
       239.069  
  20356299.901   108663318.87907       337.027    20356304.496    84515951.98304
       262.128  
  19286836.235   102918264.82108      -351.570           0.000           0.0000 
         0.000  
  21179541.048   113375755.64308      2700.382    21179544.048    88181167.97707
      2100.293  
  22434268.801   119839832.29605      3695.081    22434273.645    93208790.84605
      2873.953  
  21115089.390   112991096.73208     -3520.741    21115093.413    87881980.25307
     -2738.355  
 20 10 02 06 42 30.0000000  0 15G15G27G18G23G20G24G10G13R15R22R 6R 7
                                R16R 5R21
  20318641.154   106775189.21949     -1419.069    20318641.140    83201449.19849
     -1105.773  
  23900656.986   125598810.34248      -143.977    23900658.989    97869207.39948
      -112.190  
  20615843.193   108336986.44549     -1294.179    20615843.406    84418435.07548
     -1008.452  
  20946453.308   110074368.45149      1879.996    20946452.932    85772246.63047
      1464.930  
  20609624.668   108304328.96949      1785.808    20609623.154    84393001.02848
      1391.534  
  22014704.900   115688078.58048      3005.113    22014707.228    90146586.58449
      2341.648  
  23370415.810   122812370.81247      3037.141    23370418.364    95697949.39748
      2366.601  
  22305806.381   117217803.84348     -2993.526    22305805.597    91338545.30445
     -2332.621  
  21688038.684   115894280.20908       302.546    21688042.672    90140032.41307
       235.313  
  20355986.712   108661646.74607       331.766    20355991.357    84514651.44204
       258.039  
  19287167.219   102920030.38707      -354.507           0.000           0.0000 
         0.000  
  21177019.606   113362258.94607      2698.199    21177022.831    88170670.53207
      2098.593  
  22430811.148   119821362.69905      3693.168    22430816.349    93194425.64805
      2872.468  
  22459260.771   120057621.10414     -3363.612    22459264.544    93378164.24315
     -2616.140  
  21118380.592   113008708.77708     -3524.062    21118384.641    87895678.49507
     -2740.941  
 20 10 02 06 42 35.0000000  0 15G15G27G18G23G20G24G10G13R15R22R 6R 7
                                R16R 5R21
  20319992.637   106782291.65249     -1421.754    20319992.598    83206983.57049
     -1107.858  
  23900795.789   125599539.00347      -147.194    23900797.766    97869775.20149
      -114.699  
  20617076.074   108343465.87149     -1297.441    20617076.239    84423483.97948
     -1010.995  
  20944665.514   110064973.53049      1878.160    20944665.092    85764925.91448
      1463.496  
  20607926.667   108295405.78949      1783.715    20607924.963    84386047.90648
      1389.901  
  22011846.891   115673059.20148      3002.940    22011849.225    90134883.16549
      2339.949  
  23367526.111   122797185.59047      3036.992    23367528.566    95686116.75248
      2366.487  
  22308655.511   117232775.62448     -2995.086    22308654.615    91350211.65246
     -2333.831  
  21687757.754   115892779.53908       297.972    21687761.822    90138865.20506
       231.754  
  20355678.399   108660000.01007       327.198    20355682.819    84513370.63404
       254.483  
  19287500.635   102921809.71508      -357.199           0.000           0.0000 
         0.000  
  21174499.997   113348771.40708      2696.832    21174503.378    88160180.24507
      2097.535  
  22427355.922   119802905.21905      3690.801    22427361.162    93180069.84005
      2870.621  
  22462407.586   120074442.23004     -3364.917    22462411.547    93391247.34205
     -2617.159  
  21121674.919   113026337.16808     -3527.261    21121678.871    87909389.48207
     -2743.425  
 20 10 02 06 42 40.0000000  0 14G15G27G18G23G20G24G10G13R15R22R 6R 7
                                R16R21
  20321346.758   106789407.60549     -1424.315    20321346.736    83212528.47449
     -1109.855  
  23900937.621   125600284.99548      -150.754    23900939.662    97870356.52048
      -117.469  
  20618312.229   108349961.69049     -1300.664    20618312.464    84428545.64548
     -1013.507  
  20942879.632   110055588.02849      1876.362    20942879.182    85757612.53348
      1462.097  
  20606230.584   108286493.00049      1781.722    20606228.978    84379102.88348
      1388.355  
  22008990.962   115658051.47548      3000.551    22008993.128    90123188.82949
      2338.085  
  23364637.198   122782004.03047      3036.117    23364639.561    95674286.94948
      2365.797  
  22311506.125   117247755.32548     -2996.690    22311505.345    91361884.13346
     -2335.090  
  21687481.287   115891302.05608       293.277    21687485.297    90137716.03306
       228.101  
  20355374.403   108658377.66907       322.171    20355378.735    84512108.81604
       250.574  
  19287836.518   102923601.89408      -359.836           0.000           0.0000 
         0.000  
  21171981.882   113335292.24208      2695.339    21171985.407    88149696.47508
      2096.379  
  22423902.597   119784458.68005      3688.090    22423908.173    93165722.56805
      2868.520  
  21124971.823   113043980.97108     -3530.112    21124976.071    87923112.42307
     -2745.648  
 20 10 02 06 42 45.0000000  0 15G15G27G18G23G20G24G10G13R15R22R 6R 7
                                R16R 5R21
  20322703.194   106796535.31849     -1426.749    20322703.080    83218082.53949
     -1111.753  
  23901082.706   125601046.60848      -153.745    23901084.417    97870949.98748
      -119.801  
  20619551.228   108356472.20749     -1303.691    20619551.375    84433618.77748
     -1015.867  
  20941095.087   110046210.27449      1874.742    20941094.745    85750305.19047
      1460.836  
  20604536.221   108277588.93449      1779.988    20604534.712    84372164.64748
      1387.000  
  22006136.955   115643053.56648      2999.020    22006139.245    90111502.15749
      2336.897  
  23361748.520   122766824.48547      3035.577    23361751.089    95662458.73248
      2365.382  
  22314357.897   117262741.20548     -2997.847    22314357.068    91373561.43145
     -2335.984  
  21687208.809   115889846.04608       288.956    21687212.528    90136583.59706
       224.746  
  20355074.876   108656778.05407       317.559    20355079.059    84510864.67404
       246.988  
  19288174.593   102925405.18007      -361.789           0.000           0.0000 
         0.000  
  21169464.979   113321819.72208      2693.456    21169468.564    88139217.83307
      2094.906  
  22420451.183   119766021.49805      3686.023    22420456.912    93151382.50405
      2866.902  
  22468702.373   120108090.97414     -3366.659    22468707.014    93417422.17815
     -2618.511  
  21128271.599   113061638.39808     -3532.944    21128275.677    87936845.97307
     -2747.852  
 20 10 02 06 42 50.0000000  0 15G15G27G18G23G20G24G10G13R15R22R 6R 7
                                R16R 5R21
  20324062.088   106803676.48349     -1429.483    20324062.104    83223647.07949
     -1113.887  
  23901231.060   125601825.52448      -157.289    23901232.667    97871556.95248
      -122.558  
  20620793.324   108362999.06049     -1306.941    20620793.400    84438704.62948
     -1018.397  
  20939312.233   110036841.88049      1872.812    20939312.009    85743005.15148
      1459.335  
  20602843.936   108268695.29349      1777.730    20602842.402    84365234.54448
      1385.245  
  22003285.221   115628067.04348      2996.163    22003287.367    90099824.35049
      2334.671  
  23358860.563   122751648.57647      3034.605    23358863.393    95650633.38149
      2364.632  
  22317211.016   117277734.98048     -2999.395    22317210.267    91385244.89745
     -2337.195  
  21686940.592   115888413.21808       284.499    21686944.427    90135469.18807
       221.277  
  20354779.673   108655202.89407       312.679    20354783.990    84509639.53404
       243.191  
  19288514.900   102927221.30808      -364.551           0.000           0.0000 
         0.000  
  21166949.745   113308355.57208      2691.854    21166953.408    88128745.72007
      2093.663  
  22417001.837   119747595.43005      3684.207    22417007.799    93137051.14905
      2865.496  
  22471850.630   120124920.83804     -3365.940    22471855.603    93430512.06005
     -2617.956  
  21131574.199   113079311.12108     -3536.023    21131578.426    87950591.41807
     -2750.246  
 20 10 02 06 42 55.0000000  0 15G15G27G18G23G20G24G10G13R15R22R 6R 7
                                R16R 5R21
  20325423.262   106810829.71749     -1431.948    20325423.340    83229221.01949
     -1115.808  
  23901382.401   125602620.32948      -160.820    23901384.118    97872176.27549
      -125.319  
  20622038.053   108369540.87249     -1309.930    20622038.387    84443802.14348
     -1020.726  
  20937531.109   110027481.50749      1871.101    20937530.749    85735711.34647
      1457.995  
  20601153.151   108259810.65649      1776.007    20601151.782    84358311.45748
      1383.897  
  22000435.208   115613090.81048      2994.344    22000437.395    90088154.59649
      2333.257  
  23355973.036   122736474.96047      3034.378    23355976.022    95638809.79549
      2364.452  
  22320065.572   117292735.24247     -3001.418    22320064.916    91396933.39746
     -2338.770  
  21686676.550   115887002.13108       280.050    21686680.275    90134371.66207
       217.812  
  20354488.899   108653650.69007       308.281    20354493.233    84508432.27104
       239.773  
  19288857.312   102929048.76808      -366.558           0.000           0.0000 
         0.000  
  21164435.801   113294898.20108      2690.789    21164439.375    88118278.87207
      2092.832  
  22413554.214   119729178.97105      3682.348    22413560.342    93122727.23605
      2864.047  
  22474999.264   120141752.77504     -3366.464    22475004.557    93443603.55205
     -2618.367  
  21134879.247   113096997.72708     -3538.727    21134883.448    87964347.66307
     -2752.348  
 20 10 02 06 43  0.0000000  0 14G15G27G18G23G20G24G10G13R15R22R 6R 7
                                R16R21
  20326787.114   106817996.77749     -1434.440    20326787.009    83234805.73349
     -1117.750  
  23901537.006   125603432.84348      -163.992    23901538.803    97872809.40648
      -127.788  
  20623286.228   108376099.45149     -1313.077    20623286.336    84448912.72548
     -1023.184  
  20935751.677   110018130.96749      1869.402    20935751.461    85728425.20747
      1456.672  
  20599464.437   108250936.87649      1773.878    20599463.135    84351396.82248
      1382.241  
  21997587.671   115598126.71548      2991.866    21997589.846    90076494.26849
      2331.324  
  23353086.463   122721305.47847      3033.921    23353089.653    95626989.41248
      2364.090  
  22322921.463   117307743.52047     -3002.179    22322921.005    91408628.13445
     -2339.367  
  21686416.888   115885614.73008       275.300    21686420.700    90133292.56707
       214.121  
  20354202.821   108652123.30807       303.339    20354207.115    84507244.32604
       235.929  
  19289202.335   102930889.37808      -369.007           0.000           0.0000 
         0.000  
  21161923.411   113281449.64608      2689.371    21161927.066    88107818.89107
      2091.734  
  22410108.973   119710774.27005      3679.675    22410115.099    93108412.48705
      2861.973  
  21138187.480   113114700.02708     -3541.730    21138191.607    87978116.12107
     -2754.683  
 20 10 02 06 43  5.0000000  0 14G15G27G18G23G20G24G10G13R15R22R 6R 7
                                R16R21
  20328153.441   106825176.15549     -1437.289    20328153.337    83240400.05449
     -1119.965  
  23901694.826   125604261.53647      -167.512    23901696.555    97873455.15248
      -130.526  
  20624537.255   108382673.29949     -1316.382    20624537.450    84454035.20448
     -1025.757  
  20933973.966   110008788.75549      1867.590    20933973.611    85721145.55447
      1455.261  
  20597777.651   108242072.44049      1771.832    20597776.393    84344489.46248
      1380.644  
  21994742.204   115583173.12248      2989.539    21994744.309    90064842.11249
      2329.507  
  23350200.415   122706138.56548      3032.780    23350203.799    95615171.04048
      2363.207  
  22325778.693   117322758.58147     -3004.129    22325778.416    91420328.19045
     -2340.882  
  21686161.463   115884249.32008       270.831    21686165.218    90132230.60207
       210.648  
  20353921.073   108650619.34807       298.070    20353925.350    84506074.57704
       231.832  
  19289549.378   102932741.95408      -371.953           0.000           0.0000 
         0.000  
  21159412.536   113268008.29708      2687.480    21159416.208    88097364.51508
      2090.262  
  22406665.568   119692379.34405      3677.718    22406671.733    93094105.32205
      2860.449  
  21141498.100   113132416.51208     -3544.961    21141502.323    87991895.60107
     -2757.195  
 20 10 02 06 43 10.0000000  0 14G15G27G18G23G20G24G10G13R15R22R 6R 7
                                R16R21
  20329522.049   106832368.14749     -1439.504    20329521.914    83246004.21149
     -1121.690  
  23901855.686   125605106.70647      -170.469    23901857.254    97874113.71849
      -132.835  
  20625791.139   108389262.65849     -1319.219    20625791.238    84459169.75448
     -1027.965  
  20932197.966   109999455.15549      1865.930    20932197.481    85713872.62847
      1453.973  
  20596092.556   108233217.61649      1770.206    20596091.385    84337589.60448
      1379.379  
  21991898.608   115568230.45848      2987.601    21991900.709    90053198.48349
      2327.999  
  23347314.910   122690974.57448      3032.625    23347318.164    95603354.97049
      2363.086  
  22328637.197   117337780.65647     -3005.094    22328636.982    91432033.73046
     -2341.628  
  21685910.187   115882906.35908       266.469    21685914.186    90131186.07307
       207.249  
  20353643.618   108649138.92907       293.952    20353648.071    84504923.11304
       228.625  
  19289898.854   102934606.38408      -374.046           0.000           0.0000 
         0.000  
  21156903.014   113254574.44408      2686.081    21156906.609    88086915.97208
      2089.175  
  22403223.970   119673994.85206      3675.983    22403230.247    93079806.28105
      2859.093  
  21144811.591   113150147.45108     -3547.382    21144815.924    88005686.30307
     -2759.077  
 20 10 02 06 43 15.0000000  0 14G15G27G18G23G20G24G10G13R15R22R 6R 7
                                R16R21
  20330892.916   106839572.79049     -1442.448    20330892.919    83251618.21549
     -1123.992  
  23902019.714   125605968.43347      -174.543    23902021.329    97874785.20548
      -136.007  
  20627048.056   108395867.64649     -1322.718    20627048.179    84464316.50048
     -1030.695  
  20930423.468   109990130.26049      1863.875    20930423.021    85706606.48247
      1452.371  
  20594409.361   108224372.49249      1767.944    20594408.343    84330697.29648
      1377.617  
  21989057.054   115553298.67648      2984.926    21989059.297    90041563.34449
      2325.918  
  23344430.019   122675813.55448      3031.766    23344433.489    95591541.17948
      2362.409  
  22331497.007   117352809.89847     -3006.526    22331496.998    91443744.82945
     -2342.749  
  21685663.035   115881585.84008       261.723    21685667.189    90130159.00307
       203.563  
  20353370.825   108647682.24607       288.870    20353375.152    84503790.15604
       224.675  
  19290250.401   102936482.84108      -376.772           0.000           0.0000 
         0.000  
  21154394.909   113241148.20708      2684.456    21154398.771    88076473.35707
      2087.909  
  22399784.440   119655620.84206      3673.019    22399790.546    93065515.37305
      2856.789  
  21148127.710   113167892.83108     -3550.690    21148132.206    88019488.25907
     -2761.652  
 20 10 02 06 43 20.0000000  0 15G15G27G18G23G20G24G10G13R15R22R 6R 7
                                R16R 5R21
  20332266.815   106846792.33049     -1445.297    20332266.598    83257243.82749
     -1126.211  
  23902187.130   125606848.92747      -177.762    23902188.896    97875471.30048
      -138.520  
  20628308.403   108402490.43749     -1326.160    20628308.566    84469477.10348
     -1033.375  
  20928651.047   109980816.27849      1861.659    20928650.485    85699348.83847
      1450.644  
  20592728.477   108215539.29449      1765.554    20592727.493    84323814.27648
      1375.753  
  21986218.174   115538380.01148      2982.444    21986220.381    90029938.39649
      2323.980  
  23341546.056   122660657.66648      3030.723    23341549.494    95579731.42048
      2361.602  
  22334358.717   117367848.47847     -3008.667    22334359.073    91455463.17145
     -2344.421  
  21685420.671   115880290.03107       256.617    21685424.775    90129151.16806
       199.589  
  20353102.717   108646251.50307       283.656    20353107.054    84502677.36804
       220.621  
  19290604.790   102938373.67508      -379.706           0.000           0.0000 
         0.000  
  21151888.476   113227731.88808      2682.362    21151892.584    88066038.45908
      2086.280  
  22396347.323   119637259.63106      3670.694    22396353.257    93051234.42205
      2854.980  
  22490751.343   120225955.13414     -3370.113    22490757.338    93509101.29315
     -2621.211  
  21151446.986   113185654.97908     -3553.930    21151451.523    88033303.25207
     -2764.172  
 20 10 02 06 43 25.0000000  0 15G15G27G18G23G20G24G10G13R15R22R 6R 7
                                R16R 5R21
  20333643.375   106854026.13949     -1447.754    20333643.205    83262880.55549
     -1128.124  
  23902358.115   125607747.55447      -181.207    23902359.853    97876171.52749
      -141.203  
  20629571.985   108409130.42049     -1329.254    20629572.113    84474651.11948
     -1035.784  
  20926880.500   109971512.61949      1860.144    20926880.119    85692099.23547
      1449.461  
  20591049.709   108206717.43249      1763.727    20591048.839    84316940.09648
      1374.328  
  21983381.601   115523474.00248      2980.347    21983383.924    90018323.32849
      2322.344  
  23338663.016   122645506.40948      3030.183    23338666.431    95567925.25848
      2361.183  
  22337221.933   117382895.74847     -3009.804    22337222.554    91467188.33646
     -2345.300  
  21685182.538   115879018.33207       252.523    21685186.890    90128162.06207
       196.401  
  20352839.525   108644846.09507       278.906    20352843.855    84501584.27004
       216.922  
  19290961.789   102940278.06607      -381.664           0.000           0.0000 
         0.000  
  21149383.884   113214324.73208      2680.844    21149388.060    88055610.67108
      2085.102  
  22392912.348   119618910.42405      3669.020    22392917.990    93036962.81505
      2853.684  
  22493903.976   120242807.86104     -3370.628    22493909.734    93522208.97004
     -2621.605  
  21154769.522   113203433.16708     -3556.800    21154773.771    88047130.72607
     -2766.406  
 20 10 02 06 43 30.0000000  0 15G15G27G18G23G20G24G10G13R15R22R 6R 7
                                R16R 5R21
  20335021.666   106861269.73349     -1450.121    20335021.479    83268524.91949
     -1129.969  
  23902531.485   125608659.89946      -184.253    23902533.510    97876882.43649
      -143.577  
  20630838.030   108415783.12449     -1332.167    20630838.089    84479835.04648
     -1038.054  
  20925111.119   109962214.80249      1858.617    20925110.765    85684854.18247
      1448.270  
  20589372.253   108197902.46549      1761.887    20589371.400    84310071.29548
      1372.895  
  21980546.563   115508576.02448      2978.504    21980548.941    90006714.51749
      2320.886  
  23335779.905   122630355.27548      3030.034    23335783.360    95556119.19248
      2361.066  
  22340086.203   117397947.24347     -3010.836    22340086.858    91478916.74345
     -2346.112  
  21684948.161   115877766.17707       248.312    21684952.599    90127188.17507
       193.132  
  20352580.022   108643461.47807       274.410    20352584.478    84500507.34904
       213.430  
  19291320.259   102942191.52507      -383.917           0.000           0.0000 
         0.000  
  21146880.343   113200922.33108      2679.550    21146884.468    88045186.58008
      2084.094  
  22389478.679   119600568.88205      3667.141    22389484.477    93022697.20805
      2852.222  
  22497056.639   120259660.43205     -3370.855    22497062.336    93535316.53704
     -2621.780  
  21158093.926   113221222.81608     -3559.546    21158098.379    88060967.11907
     -2768.538  
 20 10 02 06 43 35.0000000  0 15G15G27G18G23G20G24G10G13R15R22R 6R 7
                                R16R 5R21
  20336402.823   106868527.23149     -1453.011    20336402.674    83274180.11849
     -1132.219  
  23902708.018   125609589.99145      -187.757    23902710.523    97877607.18349
      -146.305  
  20632107.086   108422452.71749     -1335.671    20632107.232    84485032.13248
     -1040.784  
  20923343.805   109952927.00649      1856.429    20923343.159    85677616.94247
      1446.569  
  20587696.904   108189098.47849      1759.522    20587696.142    84303211.04948
      1371.058  
  21977713.837   115493690.35648      2975.870    21977716.429    89995115.28949
      2318.855  
  23332897.519   122615208.42348      3028.734    23332901.039    95544316.44448
      2360.055  
  22342952.026   117413007.05747     -3012.961    22342952.770    91490651.64446
     -2347.765  
  21684718.167   115876537.75008       243.156    21684722.594    90126232.72607
       189.117  
  20352325.217   108642101.90707       269.254    20352329.653    84499449.92004
       209.418  
  19291681.319   102944118.46107      -386.672           0.000           0.0000 
         0.000  
  21144378.293   113187528.88108      2677.664    21144382.505    88034769.45308
      2082.628  
  22386047.467   119582239.08505      3664.511    22386052.951    93008440.70305
      2850.175  
  22500209.958   120276516.88605     -3372.171    22500215.404    93548427.07103
     -2622.809  
  21161421.468   113239028.20008     -3562.878    21161425.565    88074815.73807
     -2771.133  
 20 10 02 06 43 40.0000000  0 15G15G27G18G23G20G24G10G13R15R22R 6R 7
                                R16R 5R21
  20337786.649   106875799.19549     -1455.684    20337786.331    83279846.58549
     -1134.301  
  23902888.224   125610538.54246      -191.223    23902890.938    97878346.29449
      -149.007  
  20633379.564   108429139.69449     -1338.890    20633379.568    84490242.75948
     -1043.296  
  20921578.200   109943649.74748      1854.656    20921577.734    85670387.91447
      1445.187  
  20586023.608   108180305.96749      1757.496    20586022.856    84296359.75248
      1369.476  
  21974883.567   115478817.47148      2973.378    21974886.356    89983526.05149
      2316.917  
  23330016.140   122600066.36048      3028.184    23330019.672    95532517.44448
      2359.624  
  22345819.304   117428075.64447     -3014.675    22345820.340    91502393.42444
     -2349.098  
  21684492.796   115875333.65507       238.483    21684497.431    90125296.21207
       185.487  
  20352075.284   108640767.84107       264.394    20352079.887    84498412.30804
       205.637  
  19292045.035   102946059.31807      -389.441           0.000           0.0000 
         0.000  
  21141878.067   113174144.85008      2676.112    21141882.227    88024359.65908
      2081.422  
  22382618.338   119563921.76206      3662.203    22382623.862    92994193.91605
      2848.378  
  22503364.272   120293377.78106     -3372.312    22503369.189    93561541.02403
     -2622.926  
  21164751.781   113256849.81208     -3565.671    21164755.847    88088676.99407
     -2773.304  
 20 10 02 06 43 45.0000000  0 15G15G27G18G23G20G24G10G13R15R22R 6R 7
                                R16R 5R21
  20339172.568   106883082.31149     -1458.026    20339172.223    83285521.74049
     -1136.125  
  23903071.448   125611502.14146      -194.645    23903074.276    97879097.12949
      -151.676  
  20634654.700   108435840.79849     -1341.827    20634654.815    84495464.40148
     -1045.585  
  20919814.123   109934379.77648      1853.102    20919813.777    85663164.55948
      1443.976  
  20584352.039   108171521.68949      1755.926    20584351.268    84289514.85048
      1368.250  
  21972055.258   115463954.07548      2971.323    21972057.915    89971944.18449
      2315.315  
  23327134.947   122584925.87048      3027.519    23327138.635    95520719.67349
      2359.105  
  22348687.722   117443149.84247     -3015.645    22348688.867    91514139.56646
     -2349.854  
  21684271.394   115874150.54907       234.280    21684276.234    90124376.03107
       182.218  
  20351829.695   108639456.02207       259.953    20351833.984    84497391.98704
       202.183  
  19292410.606   102948010.67007      -391.695           0.000           0.0000 
         0.000  
  21139378.932   113160766.94208      2674.680    21139383.143    88013954.61607
      2080.300  
  22379190.967   119545613.45805      3660.464    22379196.646    92979954.13105
      2847.027  
  22506518.864   120310240.00705     -3372.729    22506523.401    93574656.09604
     -2623.237  
  21168084.652   113274684.30308     -3568.359    21168088.713    88102548.28507
     -2775.391  
 20 10 02 06 43 50.0000000  0 15G15G27G18G23G20G24G10G13R15R22R 6R 7
                                R16R 5R21
  20340560.778   106890377.71449     -1460.480    20340560.577    83291206.47149
     -1138.039  
  23903257.584   125612481.85546      -197.203    23903260.607    97879860.52749
      -153.667  
  20635932.863   108442557.18549     -1345.011    20635932.764    84500697.95348
     -1048.065  
  20918051.782   109925118.23349      1851.332    20918051.264    85655947.76647
      1442.594  
  20582682.177   108162746.90849      1753.808    20582681.602    84282677.37548
      1366.605  
  21969228.854   115449101.50248      2969.249    21969231.437    89960370.75849
      2313.702  
  23324254.528   122569788.07247      3027.151    23324257.987    95508923.99549
      2358.820  
  22351557.524   117458230.72447     -3016.871    22351558.577    91525890.89046
     -2350.812  
  21684054.106   115872989.64508       229.750    21684059.123    90123473.07807
       178.687  
  20351588.195   108638167.59907       255.242    20351592.590    84496389.88404
       198.520  
  19292778.457   102949973.71507      -393.902           0.000           0.0000 
         0.000  
  21136881.329   113147396.35708      2673.245    21136885.458    88003555.27307
      2079.190  
  22375765.541   119527315.47605      3658.090    22375771.067    92965722.39705
      2845.183  
  22509673.710   120327104.59505     -3373.476    22509678.294    93587772.97003
     -2623.823  
  21171419.920   113292532.84308     -3571.395    21171423.963    88116430.46807
     -2777.754  
 20 10 02 06 43 55.0000000  0 15G15G27G18G23G20G24G10G13R15R22R 6R 7
                                R16R 5R21
  20341951.480   106897685.56049     -1462.890    20341951.108    83296900.90149
     -1139.914  
  23903447.074   125613478.00945      -201.058    23903449.948    97880636.75649
      -156.671  
  20637213.674   108449288.92349     -1347.977    20637213.884    84505943.45348
     -1050.374  
  20916290.945   109915865.25449      1849.707    20916290.497    85648737.65947
      1441.332  
  20581014.221   108153981.74149      1751.987    20581013.645    84275847.37248
      1365.184  
  21966404.548   115434259.83148      2967.184    21966407.117    89948805.79649
      2312.086  
  23321374.504   122554653.09947      3026.652    23321377.953    95497130.51849
      2358.430  
  22354428.583   117473318.39347     -3018.250    22354429.851    91537647.52746
     -2351.883  
  21683840.983   115871850.96808       225.520    21683845.994    90122587.45607
       175.401  
  20351351.272   108636902.73507       250.796    20351355.788    84495406.09604
       195.059  
  19293148.511   102951948.45607      -396.160           0.000           0.0000 
         0.000  
  21134384.990   113134033.10608      2671.999    21134389.017    87993161.64108
      2078.223  
  22372341.998   119509027.89905      3656.452    22372347.521    92951498.73505
      2843.905  
  22512829.237   120343971.53706     -3373.745    22512833.738    93600891.69503
     -2624.031  
  21174757.996   113310395.52708     -3574.016    21174761.832    88130323.64507
     -2779.796  
 20 10 02 06 44  0.0000000  0 15G15G27G18G23G20G24G10G13R15R22R 6R 7
                                R16R 5R21
  20343344.840   106905007.55749     -1465.648    20343344.574    83302606.34949
     -1142.065  
  23903639.775   125614492.18745      -204.190    23903643.024    97881427.02649
      -159.109  
  20638497.904   108456037.78649     -1351.250    20638498.158    84511202.31048
     -1052.922  
  20914532.001   109906622.56749      1847.659    20914531.687    85641535.56347
      1439.734  
  20579348.364   108145227.88549      1749.956    20579347.910    84269026.18348
      1363.598  
  21963582.774   115419430.61848      2964.695    21963585.273    89937250.56949
      2310.148  
  23318495.170   122539522.72147      3025.871    23318498.693    95485340.58749
      2357.816  
  22357301.126   117488414.61647     -3019.930    22357302.521    91549410.81746
     -2353.191  
  21683632.602   115870736.38408       220.710    21683637.406    90121720.55407
       171.659  
  20351119.169   108635663.12607       245.633    20351123.323    84494441.94204
       191.042  
  19293521.049   102953936.82907      -398.729           0.000           0.0000 
         0.000  
  21131890.301   113120679.15008      2670.051    21131894.476    87982775.23107
      2076.706  
  22368920.778   119490752.57805      3653.737    22368926.427    92937284.60205
      2841.792  
  22515985.491   120360842.80705     -3374.718    22515990.103    93614013.75003
     -2624.788  
  21178099.098   113328274.12608     -3577.101    21178102.860    88144229.21907
     -2782.195  
 20 10 02 06 44  5.0000000  0 15G15G27G18G23G20G24G10G13R15R22R 6R 7
                                R16R 5R21
  20344740.472   106912341.34149     -1467.804    20344739.956    83308320.98749
     -1143.746  
  23903835.572   125615522.11047      -207.792    23903838.776    97882229.62849
      -161.914  
  20639785.016   108462801.44649     -1354.156    20639785.131    84516472.68848
     -1055.190  
  20912774.611   109897387.88949      1846.109    20912774.341    85634339.71447
      1438.527  
  20577684.418   108136483.03949      1748.125    20577683.892    84262212.02648
      1362.175  
  21960762.883   115404611.65048      2962.578    21960765.353    89925703.31149
      2308.499  
  23315616.404   122524394.61348      3025.405    23315619.880    95473552.45449
      2357.457  
  22360175.053   117503517.01747     -3020.851    22360176.374    91561178.92145
     -2353.913  
  21683428.131   115869643.47308       216.401    21683432.829    90120870.50607
       168.308  
  20350891.181   108634446.45207       240.965    20350895.425    84493495.65204
       187.418  
  19293895.810   102955936.50407      -400.922           0.000           0.0000 
         0.000  
  21129396.968   113107332.01908      2668.870    21129401.032    87972394.13607
      2075.789  
  22365501.476   119472487.02905      3652.210    22365507.275    92923078.07005
      2840.609  
  22519142.155   120377715.88806     -3374.918    22519147.078    93627137.24903
     -2624.945  
  21181442.616   113346166.18508     -3579.843    21181446.227    88158145.27807
     -2784.323  
 20 10 02 06 44 10.0000000  0 15G15G27G18G23G20G24G10G13R15R22R 6R 7
                                R16R 5R21
  20346138.399   106919687.15249     -1470.570    20346137.770    83314044.99149
     -1145.902  
  23904034.619   125616568.04646      -211.401    23904037.813    97883044.61949
      -164.729  
  20641074.987   108469580.10349     -1357.477    20641075.057    84521754.75148
     -1057.777  
  20911018.938   109888161.39149      1844.266    20911018.734    85627150.23348
      1437.085  
  20576022.016   108127747.46449      1745.979    20576021.580    84255405.07548
      1360.499  
  21957945.064   115389803.25448      2960.245    21957947.358    89914164.30949
      2306.683  
  23312737.974   122509268.92147      3024.546    23312741.513    95461766.20949
      2356.788  
  22363049.919   117518625.82347     -3022.707    22363051.699    91572952.02546
     -2355.206  
  21683227.848   115868572.43808       211.757    21683232.303    90120037.48607
       164.699  
  20350667.521   108633252.94707       235.890    20350671.839    84492567.36404
       183.465  
  19294272.641   102957947.62507      -403.440           0.000           0.0000 
         0.000  
  21126904.672   113093991.93808      2667.250    21126908.924    87962018.51308
      2074.527  
  22362083.902   119454231.61806      3649.608    22362089.793    92908879.44405
      2838.589  
  22522299.182   120394590.97805     -3375.753    22522304.106    93640262.37003
     -2625.578  
  21184788.553   113364071.94108     -3582.594    21184792.174    88172071.95007
     -2786.465  
 20 10 02 06 44 15.0000000  0 15G15G27G18G23G20G24G10G13R15R22R 6R 7
                                R16R 5R21
  20347538.996   106927047.18449     -1473.098    20347538.498    83319780.08149
     -1147.870  
  23904236.878   125617632.14346      -214.456    23904240.194    97883873.74449
      -167.117  
  20642367.987   108476375.92849     -1360.516    20642368.427    84527050.19848
     -1060.145  
  20909265.170   109878945.30849      1842.413    20909264.797    85619968.87147
      1435.645  
  20574361.928   108119023.30049      1744.054    20574361.455    84248607.01848
      1359.000  
  21955129.476   115375007.58048      2958.301    21955131.819    89902635.21049
      2305.163  
  23309860.396   122494147.74047      3023.937    23309863.857    95449983.47149
      2356.313  
  22365926.715   117533743.14448     -3023.983    22365928.164    91584731.76045
     -2356.352  
  21683031.980   115867525.65108       207.503    21683036.425    90119223.34407
       161.394  
  20350448.693   108632084.73307       231.609    20350452.819    84491658.78004
       180.141  
  19294652.098   102959972.38508      -406.008           0.000           0.0000 
         0.000  
  21124414.443   113080661.11008      2665.644    21124418.733    87951650.09008
      2073.277  
  22358668.764   119435988.53005      3648.046    22358674.753    92894690.40406
      2837.374  
  22525456.948   120411470.42105     -3375.969    22525461.056    93653390.92301
     -2625.738  
  21188137.655   113381993.66008     -3585.558    21188141.438    88186011.05607
     -2788.773  
 20 10 02 06 44 20.0000000  0 15G15G27G18G23G20G24G10G13R15R22R 6R 7
                                R16R 5R21
  20348941.876   106934419.92949     -1475.800    20348941.434    83325525.08649
     -1149.977  
  23904442.313   125618712.86846      -217.995    23904445.833    97884715.83249
      -169.875  
  20643664.222   108483187.43649     -1363.741    20643664.424    84532357.87148
     -1062.655  
  20907513.087   109869738.14448      1840.629    20907512.792    85612794.45648
      1434.254  
  20572703.729   108110309.09149      1741.801    20572703.053    84241816.73248
      1357.246  
  21952316.131   115360223.04348      2955.858    21952318.286    89891114.79449
      2303.266  
  23306983.290   122479029.91747      3023.359    23306986.965    95438203.36149
      2355.862  
  22368804.734   117548867.61148     -3025.520    22368806.336    91596517.08045
     -2357.546  
  21682840.423   115866501.44008       202.578    21682844.633    90118426.71507
       157.554  
  20350234.407   108630940.48607       226.308    20350238.370    84490768.79704
       176.015  
  19295033.839   102962009.33508      -408.663           0.000           0.0000 
         0.000  
  21121925.573   113067338.27508      2663.777    21121929.695    87941287.90508
      2071.828  
  22355255.684   119417756.31506      3645.059    22355261.655    92880509.74305
      2835.038  
  22528614.948   120428352.73905     -3376.558    22528619.117    93666521.56003
     -2626.222  
  21191489.425   113399929.72508     -3588.563    21191493.211    88199961.32107
     -2791.108  
 20 10 02 06 44 25.0000000  0 15G15G27G18G23G20G24G10G13R15R22R 6R 7
                                R16R 5R21
  20350347.598   106941806.04949     -1478.171    20350346.873    83331280.50049
     -1151.823  
  23904651.280   125619810.87047      -221.098    23904654.841    97885571.46549
      -172.285  
  20644963.512   108490015.28549     -1366.980    20644963.843    84537678.27448
     -1065.184  
  20905762.704   109860540.54048      1838.805    20905762.578    85605627.49748
      1432.836  
  20571047.408   108101605.44449      1739.977    20571046.818    84235034.66248
      1355.819  
  21949504.902   115345450.40348      2953.479    21949507.177    89879603.64849
      2301.413  
  23304106.871   122463915.95047      3022.793    23304110.718    95426426.23549
      2355.417  
  22371684.316   117563999.69848     -3026.839    22371685.763    91608308.29045
     -2358.581  
  21682653.171   115865500.50808       197.961    21682657.472    90117648.21007
       153.965  
  20350024.711   108629820.86407       221.507    20350028.526    84489897.96804
       172.280  
  19295418.004   102964059.06507      -411.065           0.000           0.0000 
         0.000  
  21119438.172   113054023.74108      2662.488    21119442.533    87930932.15508
      2070.824  
  22351844.818   119399535.73606      3643.081    22351850.880    92866338.20605
      2833.508  
  22531773.808   120445238.37504     -3377.440    22531777.888    93679654.74404
     -2626.910  
  21194843.992   113417880.75308     -3591.492    21194847.968    88213923.25307
     -2793.383  
 20 10 02 06 44 30.0000000  0 15G15G27G18G23G20G24G10G13R15R22R 6R 7
                                R16R 5R21
  20351755.213   106949203.33649     -1480.480    20351754.491    83337044.61649
     -1153.620  
  23904863.345   125620924.00247      -223.581    23904866.559    97886438.85349
      -174.218  
  20646265.463   108496857.30349     -1369.715    20646265.733    84543009.70048
     -1067.313  
  20904013.880   109851350.37549      1837.409    20904013.856    85598466.33448
      1431.750  
  20569392.781   108092910.25849      1738.348    20569392.281    84228259.20548
      1354.554  
  21946695.599   115330687.57348      2951.581    21946697.978    89868100.16649
      2299.934  
  23301231.025   122448803.59247      3022.362    23301234.756    95414650.40249
      2355.093  
  22374565.018   117579137.29447     -3027.949    22374566.238    91620103.82246
     -2359.444  
  21682469.849   115864520.63908       193.812    21682474.170    90116886.09007
       150.741  
  20349819.283   108628723.46707       217.348    20349822.913    84489044.42404
       169.042  
  19295804.125   102966119.51108      -412.819           0.000           0.0000 
         0.000  
  21116952.128   113040715.50408      2661.007    21116956.424    87920581.32108
      2069.672  
  22348435.713   119381324.28406      3641.077    22348441.562    92852173.75005
      2831.949  
  22534933.020   120462125.36305     -3377.175    22534937.127    93692789.12104
     -2626.687  
  21198201.042   113435844.63008     -3593.933    21198205.105    88227895.15707
     -2795.281  
 20 10 02 06 44 35.0000000  0 15G15G27G18G23G20G24G10G13R15R22R 6R 7
                                R16R 5R21
  20353165.107   106956612.15849     -1483.108    20353164.280    83342817.71849
     -1155.671  
  23905078.114   125622052.67847      -227.652    23905081.507    97887318.33949
      -177.394  
  20647570.121   108503713.82549     -1373.026    20647570.522    84548352.43748
     -1069.895  
  20902266.407   109842167.96848      1835.452    20902266.588    85591311.21948
      1430.223  
  20567739.719   108084223.89049      1736.293    20567739.222    84221490.60848
      1352.952  
  21943888.201   115315934.75148      2949.383    21943890.498    89856604.47449
      2298.218  
  23298355.533   122433693.40347      3021.543    23298359.105    95402876.21849
      2354.440  
  22377446.603   117594280.84447     -3029.640    22377447.933    91631903.97745
     -2360.761  
  21682290.609   115863562.24108       189.570    21682294.708    90116140.64307
       147.440  
  20349617.962   108627648.77107       212.305    20349621.462    84488208.56304
       165.125  
  19296192.261   102968190.83308      -415.641           0.000           0.0000 
         0.000  
  21114467.154   113027413.80908      2659.414    21114471.487    87910235.55208
      2068.429  
  22345028.321   119363122.67406      3639.473    22345034.124    92838016.94705
      2830.699  
  22538092.176   120479013.86004     -3377.793    22538096.352    93705924.59904
     -2627.175  
  21201560.485   113453821.59108     -3597.031    21201564.630    88241877.21507
     -2797.695  
 20 10 02 06 44 40.0000000  0 15G15G27G18G23G20G24G10G13R15R22R 6R 7
                                R16R 5R21
  20354577.870   106964036.43449     -1486.215    20354576.997    83348602.87149
     -1158.090  
  23905296.714   125623200.64947      -231.456    23905299.860    97888212.80549
      -180.366  
  20648878.383   108510588.69449     -1376.515    20648878.728    84553709.47948
     -1072.612  
  20900521.389   109832997.17749      1833.218    20900521.534    85584165.13948
      1428.477  
  20566089.319   108075550.13549      1733.710    20566088.586    84214731.84548
      1350.944  
  21941083.612   115301196.00648      2946.663    21941085.678    89845119.73549
      2296.097  
  23295481.229   122418589.02347      3020.507    23295484.680    95391106.58449
      2353.641  
  22380330.246   117609434.14947     -3031.438    22380331.523    91643711.73145
     -2362.163  
  21682116.013   115862629.25507       184.395    21682120.027    90115414.97907
       143.414  
  20349421.755   108626600.62207       207.007    20349425.214    84487393.33504
       161.007  
  19296583.188   102970276.89608      -418.406           0.000           0.0000 
         0.000  
  21111984.344   113014122.75308      2657.559    21111988.772    87899898.06908
      2066.988  
  22341623.561   119344934.80706      3636.706    22341629.177    92823870.84205
      2828.551  
  22541252.352   120495907.84804     -3378.910    22541256.995    93719064.31804
     -2628.050  
  21204923.091   113471815.57408     -3600.441    21204927.319    88255872.54007
     -2800.343  
 20 10 02 06 44 45.0000000  0 15G15G27G18G23G20G24G10G13R15R22R 6R 7
                                R16R 5R21
  20355993.097   106971473.19149     -1488.543    20355992.134    83354397.74549
     -1159.902  
  23905518.590   125624365.05648      -234.323    23905521.576    97889120.12949
      -182.598  
  20650189.712   108517479.02649     -1379.515    20650189.831    84559078.57148
     -1074.949  
  20898777.937   109823835.15249      1831.625    20898777.915    85577025.90648
      1427.238  
  20564440.609   108066886.13849      1731.957    20564439.919    84207980.67348
      1349.573  
  21938280.864   115286468.43648      2944.327    21938283.004    89833643.69149
      2294.276  
  23292607.311   122403487.69947      3019.964    23292611.077    95379339.31549
      2353.214  
  22383214.991   117624594.27047     -3032.645    22383216.290    91655524.81045
     -2363.104  
  21681945.464   115861718.64007       180.219    21681949.664    90114706.72607
       140.171  
  20349229.971   108625576.24107       202.315    20349233.284    84486596.60304
       157.355  
  19296976.557   102972375.24008      -420.820           0.000           0.0000 
         0.000  
  21109502.988   113000839.30108      2656.116    21109507.277    87889566.50808
      2065.867  
  22338220.827   119326757.76306      3634.687    22338226.471    92809733.13605
      2826.977  
  22544413.332   120512804.44205     -3379.609    22544418.167    93732206.10804
     -2628.590  
  21208288.342   113489823.71208     -3603.042    21208292.683    88269878.83907
     -2802.375  
 20 10 02 06 44 50.0000000  0 15G15G27G18G23G20G24G10G13R15R22R 6R 7
                                R16R 5R21
  20357410.429   106978921.98049     -1491.136    20357409.447    83360201.99649
     -1161.929  
  23905743.258   125625545.50647      -237.878    23905745.891    97890039.94449
      -185.367  
  20651503.731   108524384.42849     -1382.835    20651503.877    84564459.40248
     -1077.539  
  20897036.010   109814681.48249      1829.617    20897036.223    85569893.15848
      1425.672  
  20562793.653   108058231.54149      1729.750    20562792.959    84201236.83248
      1347.852  
  21935480.290   115271751.50848      2942.034    21935482.368    89822175.96449
      2292.492  
  23289734.076   122388388.96747      3019.171    23289737.946    95367574.04449
      2352.593  
  22386100.933   117639760.81247     -3034.097    22386102.303    91667342.89445
     -2364.233  
  21681779.170   115860830.11307       175.254    21681783.391    90114015.66107
       136.309  
  20349042.478   108624575.14207       197.590    20349045.690    84485817.96304
       153.675  
  19297371.759   102974484.92307      -423.386           0.000           0.0000 
         0.000  
  21107022.969   112987563.18708      2654.261    21107027.129    87879240.61507
      2064.422  
  22334820.019   119308590.91206      3632.382    22334825.489    92795603.37905
      2825.188  
  22547575.021   120529703.16505     -3379.910    22547579.672    93745349.53304
     -2628.828  
  21211656.175   113507845.48408     -3605.749    21211660.689    88283895.76107
     -2804.476  
 20 10 02 06 44 55.0000000  0 15G15G27G18G23G20G24G10G13R15R22R 6R 7
                                R16R 5R21
  20358830.395   106986383.13649     -1493.464    20358829.191    83366015.89549
     -1163.738  
  23905971.190   125626742.29447      -240.945    23905973.626    97890972.51349
      -187.753  
  20652820.771   108531305.21049     -1385.762    20652820.875    84569852.22348
     -1079.812  
  20895295.813   109805536.50149      1828.086    20895295.979    85562767.21148
      1424.483  
  20561148.616   108049586.66049      1727.906    20561147.908    84194500.56148
      1346.418  
  21932681.781   115257045.46248      2939.999    21932683.927    89810716.72249
      2290.910  
  23286861.607   122373293.16547      3018.992    23286865.273    95355811.08349
      2352.456  
  22388988.465   117654934.08147     -3035.445    22388989.800    91679166.21146
     -2365.281  
  21681616.877   115859963.95807       171.039    21681621.161    90113341.99307
       133.030  
  20348859.277   108623597.70007       193.128    20348862.649    84485057.72504
       150.207  
  19297769.425   102976606.54107      -425.676           0.000           0.0000 
         0.000  
  21104544.214   112974294.40808      2653.004    21104548.481    87868920.47207
      2063.449  
  22331421.240   119290434.96206      3630.175    22331426.582    92781482.08605
      2823.469  
  22550737.073   120546604.30206     -3380.687    22550741.485    93758494.80004
     -2629.434  
  21215026.709   113525881.17308     -3608.479    21215031.305    88297923.51407
     -2806.601  
 20 10 02 06 45  0.0000000  0 15G15G27G18G23G20G24G10G13R15R22R 6R 7
                                R16R 5R21
  20360252.659   106993857.12249     -1496.027    20360251.379    83371839.79849
     -1165.733  
  23906202.126   125627955.93547      -244.558    23906204.541    97891918.22949
      -190.565  
  20654140.669   108538241.84949     -1388.832    20654140.833    84575257.38848
     -1082.210  
  20893557.301   109796400.68049      1826.335    20893557.430    85555648.39548
      1423.117  
  20559505.467   108040951.94749      1725.987    20559504.804    84187772.23248
      1344.925  
  21929885.576   115242351.15148      2937.824    21929887.746    89799266.60749
      2289.211  
  23283989.567   122358200.80547      3018.176    23283993.112    95344050.84549
      2351.828  
  22391877.163   117670114.54347     -3036.594    22391878.485    91690995.14445
     -2366.176  
  21681459.087   115859120.65107       166.382    21681463.604    90112686.09207
       129.406  
  20348680.746   108622644.25407       188.250    20348684.211    84484316.16004
       146.418  
  19298169.343   102978740.51907      -428.000           0.000           0.0000 
         0.000  
  21102066.925   112961033.78608      2651.437    21102071.278    87858606.65407
      2062.227  
  22328024.717   119272290.15906      3627.448    22328029.633    92767369.45805
      2821.344  
  22553899.706   120563508.35706     -3381.444    22553903.815    93771642.47003
     -2630.008  
  21218399.821   113543931.28308     -3611.336    21218404.440    88311962.49907
     -2808.815  
 20 10 02 06 45  5.0000000  0 15G15G27G18G23G20G24G10G13R15R22R 6R 7
                                R16R 5R21
  20361677.032   107001342.34549     -1498.332    20361675.760    83377672.42849
     -1167.535  
  23906436.171   125629184.84747      -247.324    23906438.212    97892875.78949
      -192.727  
  20655463.438   108545192.73949     -1391.784    20655463.452    84580673.66748
     -1084.512  
  20891820.352   109787272.45049      1824.683    20891820.374    85548535.50047
      1421.831  
  20557864.039   108032325.86949      1724.160    20557863.160    84181050.59748
      1343.495  
  21927091.085   115227666.80948      2935.445    21927093.489    89787824.28249
      2287.358  
  23281118.172   122343110.33448      3017.680    23281121.703    95332292.00048
      2351.430  
  22394766.964   117685300.64147     -3038.043    22394768.140    91702828.51745
     -2367.305  
  21681305.269   115858298.66307       162.132    21681309.637    90112046.79707
       126.101  
  20348506.399   108621713.38607       183.645    20348509.935    84483592.16004
       142.836  
  19298571.289   102980885.22207      -430.203           0.000           0.0000 
         0.000  
  21099590.989   112947779.49808      2649.879    21099595.249    87848297.75708
      2061.012  
  22324629.789   119254155.00205      3625.757    22324634.535    92753264.30105
      2820.027  
  22557062.399   120580413.70004     -3382.128    22557066.048    93784791.04904
     -2630.550  
  21221775.382   113561994.21708     -3614.191    21221779.956    88326011.42807
     -2811.042  
 20 10 02 06 45 10.0000000  0 14G15G27G18G23G20G24G10G13R15R22R 6R 7
                                R16R21
  20363103.851   107008840.08349     -1501.070    20363102.341    83383514.82249
     -1169.668  
  23906673.443   125630430.19247      -251.188    23906675.266    97893846.20449
      -195.730  
  20656789.255   108552159.13949     -1395.133    20656789.273    84586102.02548
     -1087.121  
  20890085.061   109778153.06249      1822.749    20890085.057    85541429.48148
      1420.319  
  20556224.509   108023709.64649      1722.054    20556223.474    84174336.67348
      1341.859  
  21924298.902   115212993.69948      2933.219    21924301.226    89776390.71349
      2285.632  
  23278247.170   122328022.93247      3017.097    23278250.553    95320535.61949
      2350.984  
  22397658.138   117700493.61748     -3039.566    22397659.210    91714667.15245
     -2368.496  
  21681155.768   115857499.15107       157.797    21681160.097    90111424.93307
       122.723  
  20348336.486   108620806.22307       178.801    20348339.879    84482886.58604
       139.066  
  19298975.312   102983041.94807      -432.831           0.000           0.0000 
         0.000  
  21097116.378   112934532.87208      2648.526    21097120.721    87837994.82607
      2059.964  
  22321236.604   119236030.93205      3623.246    22321241.636    92739167.81405
      2818.077  
  21225153.521   113580071.13208     -3617.117    21225158.174    88340071.25607
     -2813.312  
 20 10 02 06 45 15.0000000  0 14G15G27G18G23G20G24G10G13R15R22R 6R 7
                                R16R21
  20364533.144   107016351.47349     -1503.543    20364531.651    83389367.85749
     -1171.594  
  23906913.886   125631693.28847      -254.414    23906915.550    97894830.44149
      -198.245  
  20658118.104   108559142.25649     -1398.249    20658118.033    84591543.42148
     -1089.546  
  20888351.432   109769043.75148      1820.977    20888351.665    85534331.31148
      1418.938  
  20554587.074   108015104.55349      1719.918    20554586.054    84167631.40048
      1340.190  
  21921509.240   115198333.08348      2930.961    21921511.363    89764966.84549
      2283.867  
  23275377.066   122312939.84148      3016.206    23275380.364    95308782.58249
      2350.293  
  22400550.893   117715694.67448     -3041.012    22400551.696    91726512.14845
     -2369.620  
  21681010.550   115856723.36808       152.620    21681015.094    90110821.52107
       118.702  
  20348171.261   108619924.02207       174.133    20348174.666    84482200.43004
       135.434  
  19299382.002   102985211.77807      -435.328           0.000           0.0000 
         0.000  
  21094643.618   112921295.27408      2646.574    21094647.892    87827698.94108
      2058.444  
  22317845.806   119217918.89805      3621.164    22317850.953    92725080.68805
      2816.456  
  21228534.477   113598163.34108     -3619.934    21228538.989    88354142.95907
     -2815.507  
 20 10 02 06 45 20.0000000  0 14G15G27G18G23G20G24G10G13R15R22R 6R 7
                                R16R21
  20365964.881   107023875.67549     -1506.141    20365963.445    83395230.87849
     -1173.617  
  23907157.561   125632973.18747      -257.617    23907158.971    97895827.77249
      -200.742  
  20659449.992   108566141.15549     -1401.241    20659449.955    84596997.10548
     -1091.882  
  20886619.705   109759943.61849      1819.215    20886619.983    85527240.30048
      1417.566  
  20552951.539   108006509.63349      1717.996    20552950.604    84160934.06548
      1338.698  
  21918721.636   115183684.00148      2928.858    21918723.751    89753551.97749
      2282.226  
  23272507.767   122297860.16348      3015.668    23272510.946    95297032.17149
      2349.867  
  22403444.997   117730902.89147     -3042.234    22403445.513    91738362.68845
     -2370.574  
  21680869.584   115855970.40407       148.109    21680873.976    90110235.94107
       115.198  
  20348010.288   108619065.89507       169.339    20348014.069    84481533.00204
       131.706  
  19299790.913   102987393.93007      -437.465           0.000           0.0000 
         0.000  
  21092172.111   112908065.66708      2645.027    21092176.672    87817409.25408
      2057.241  
  22314457.505   119199818.17506      3618.897    22314462.488    92711002.37205
      2814.703  
  21231918.006   113616269.82108     -3622.800    21231922.572    88368225.77507
     -2817.737  
 20 10 02 06 45 25.0000000  0 15G15G27G18G23G20G24G10G13R15R22R 6R 7
                                R16R 5R21
  20367398.924   107031411.37349     -1508.098    20367397.523    83401102.84249
     -1175.145  
  23907404.095   125634268.51247      -260.683    23907405.568    97896837.10949
      -203.129  
  20660784.548   108573154.60749     -1403.957    20660784.525    84602462.13548
     -1093.995  
  20884889.553   109750851.35749      1817.804    20884889.790    85520155.41948
      1416.472  
  20551317.730   107997923.63049      1716.515    20551316.569    84154243.68348
      1337.543  
  21915935.948   115169045.23648      2926.918    21915938.333    89742145.15649
      2280.715  
  23269638.614   122282782.66347      3015.327    23269641.794    95285283.47049
      2349.605  
  22406340.152   117746116.87447     -3043.120    22406340.501    91750217.74545
     -2371.261  
  21680732.699   115855239.02607       143.949    21680737.239    90109667.10207
       111.960  
  20347853.794   108618230.52007       164.941    20347857.511    84480883.25104
       128.284  
  19300202.045   102989587.12307      -439.741           0.000           0.0000 
         0.000  
  21089701.897   112894842.73108      2644.331    21089706.405    87807124.75108
      2056.698  
  22311070.824   119181727.50606      3617.671    22311075.699    92696931.86405
      2813.746  
  22569720.965   120648074.33415     -3382.976           0.000           0.0000 
         0.000  
  21235304.215   113634389.29508     -3625.144    21235308.510    88382318.70507
     -2819.558  
 20 10 02 06 45 30.0000000  0 15G15G27G18G23G20G24G10G13R15R22R 6R 7
                                R16R 5R21
  20368835.103   107038958.26449     -1510.793    20368833.792    83406983.53149
     -1177.245  
  23907653.598   125635579.16047      -264.172    23907654.906    97897858.41648
      -205.847  
  20662121.929   108580182.28049     -1407.117    20662121.801    84607938.24348
     -1096.452  
  20883160.730   109741766.73749      1815.847    20883161.130    85513076.50148
      1414.945  
  20549685.634   107989346.28349      1714.402    20549684.495    84147560.02248
      1335.894  
  21913152.193   115154416.47248      2924.487    21913154.637    89730746.13849
      2278.819  
  23266770.012   122267707.02948      3014.508    23266773.042    95273536.22649
      2348.968  
  22409236.522   117761336.43747     -3044.836    22409236.625    91762077.16944
     -2372.598  
  21680599.504   115854528.83208       139.886    21680604.071    90109114.69207
       108.793  
  20347701.433   108617417.70707       159.944    20347705.258    84480251.05704
       124.398  
  19300615.103   102991791.06208      -441.957           0.000           0.0000 
         0.000  
  21087232.957   112881626.27008      2642.437    21087237.493    87796845.29807
      2055.230  
  22307686.083   119163646.45005      3615.219    22307690.771    92682868.83705
      2811.839  
  22572885.967   120664991.86704     -3383.280    22572885.269    93850550.36614
     -2631.441  
  21238692.610   113652521.49808     -3627.918    21238696.886    88396421.52906
     -2821.719  
 20 10 02 06 45 35.0000000  0 15G15G27G18G23G20G24G10G13R15R22R 6R 7
                                R16R 5R21
  20370273.923   107046519.84349     -1513.757    20370272.738    83412875.68149
     -1179.551  
  23907906.569   125636908.53047      -267.827    23907907.862    97898894.26148
      -208.698  
  20663462.552   108587227.67549     -1410.875    20663462.511    84613428.16448
     -1099.382  
  20881434.185   109732693.21449      1813.608    20881434.671    85506006.22148
      1413.198  
  20548055.814   107980781.08049      1711.859    20548054.333    84140885.84148
      1333.917  
  21910371.096   115139801.33548      2921.527    21910373.380    89719357.72849
      2276.515  
  23263902.082   122252636.73648      3013.511    23263905.296    95261793.15849
      2348.191  
  22412134.364   117776564.94747     -3046.640    22412134.312    91773943.52345
     -2374.008  
  21680471.219   115853843.53608       134.608    21680475.755    90108581.69407
       104.695  
  20347554.011   108616630.91207       154.668    20347557.854    84479639.12604
       120.297  
  19301030.781   102994009.16708      -444.878           0.000           0.0000 
         0.000  
  21084765.782   112868419.81608      2640.070    21084770.259    87786573.61407
      2053.387  
  22304303.664   119145578.83005      3612.120    22304308.627    92668816.25205
      2809.425  
  22576050.602   120681914.18704     -3384.219    22576052.926    93863712.15004
     -2632.171  
  21242083.999   113670669.85208     -3631.227    21242088.095    88410536.92806
     -2824.289  
 20 10 02 06 45 40.0000000  0 15G15G27G18G23G20G24G10G13R15R22R 6R 7
                                R16R 5R21
  20371715.397   107054094.90549     -1516.163    20371714.357    83418778.33749
     -1181.425  
  23908162.982   125638255.36447      -271.202    23908163.994    97899943.76849
      -211.327  
  20664806.412   108594289.58149     -1413.858    20664806.162    84618930.94048
     -1101.711  
  20879709.350   109723629.61549      1811.809    20879709.868    85498943.69148
      1411.801  
  20546427.900   107972226.83749      1709.938    20546426.612    84134220.19248
      1332.414  
  21907592.299   115125198.52948      2919.391    21907594.547    89707978.93549
      2274.852  
  23261035.090   122237570.68147      3012.980    23261038.318    95250053.39349
      2347.773  
  22415033.799   117791801.23747     -3047.828    22415033.452    91785815.98844
     -2374.926  
  21680347.287   115853181.78207       129.933    21680352.020    90108067.05106
       101.063  
  20347411.231   108615868.96507       149.953    20347415.086    84479046.50304
       116.628  
  19301448.886   102996240.09807      -447.375           0.000           0.0000 
         0.000  
  21082300.449   112855222.16808      2639.077    21082304.748    87776308.75507
      2052.613  
  22300923.709   119127523.25005      3610.078    22300928.631    92654773.05905
      2807.844  
  22579216.817   120698840.26404     -3386.328    22579218.563    93876876.84703
     -2633.819  
  21245478.369   113688833.24908     -3634.003    21245482.457    88424664.01206
     -2826.448  
 20 10 02 06 45 45.0000000  0 14G15G27G18G23G20G24G10G13R15R22R 6R 7
                                R16R21
  20373159.348   107061682.76449     -1518.882    20373158.169    83424690.94449
     -1183.550  
  23908422.628   125639619.03547      -274.750    23908423.628    97901006.39249
      -214.089  
  20666153.289   108601367.34549     -1417.188    20666153.259    84624446.07948
     -1104.300  
  20877986.408   109714575.27349      1809.839    20877986.960    85491888.36148
      1410.262  
  20544802.076   107963682.88349      1707.702    20544800.580    84127562.58147
      1330.680  
  21904815.767   115110607.44448      2917.199    21904818.129    89696609.25049
      2273.137  
  23258168.834   122222508.09647      3012.168    23258172.141    95238316.31849
      2347.144  
  22417934.415   117807044.70247     -3049.522    22417934.423    91797694.01144
     -2376.254  
  21680227.666   115852542.96808       125.270    21680232.453    90107570.17007
        97.430  
  20347273.154   108615131.05607       145.124    20347276.906    84478472.55204
       112.866  
  19301869.225   102998483.51507      -450.043           0.000           0.0000 
         0.000  
  21079836.382   112842032.57408      2637.082    21079840.929    87766050.19808
      2051.062  
  22297545.851   119109479.27905      3607.733    22297550.465    92640738.87605
      2806.015  
  21248875.201   113707010.91308     -3637.074    21248879.235    88438802.18506
     -2828.839  
 20 10 02 06 45 50.0000000  0 14G15G27G18G23G20G24G10G13R15R22R 6R 7
                                R16R21
  20374605.538   107069282.16749     -1520.862    20374604.467    83430612.54349
     -1185.093  
  23908685.155   125640998.27848      -277.280    23908686.219    97902081.12649
      -216.062  
  20667502.821   108608459.68449     -1419.820    20667502.846    84629972.56548
     -1106.355  
  20876264.795   109705528.91749      1808.659    20876265.506    85484839.26247
      1409.344  
  20543177.966   107955147.97149      1706.237    20543176.294    84120911.99348
      1329.531  
  21902041.134   115096026.74348      2915.183    21902043.431    89685247.67049
      2271.569  
  23255302.823   122207447.82648      3011.815    23255306.394    95226581.06149
      2346.870  
  22420836.383   117822294.08248     -3050.331    22420836.202    91809576.59144
     -2376.890  
  21680112.208   115851925.71608       121.608    21680117.066    90107090.09807
        94.586  
  20347139.182   108614416.12407       140.910    20347143.038    84477916.50204
       109.593  
  19302291.830   103000738.11708      -451.757           0.000           0.0000 
         0.000  
  21077373.719   112828849.74408      2635.827    21077378.121    87755796.87508
      2050.086  
  22294169.811   119091445.45105      3606.207    22294174.418    92626712.52705
      2804.820  
  21252274.621   113725201.55108     -3639.227    21252278.381    88452950.46107
     -2830.511  
 20 10 02 06 45 55.0000000  0 14G15G27G18G23G20G24G10G13R15R22R 6R 7
                                R16R21
  20376054.028   107076894.28349     -1523.546    20376053.181    83436544.06649
     -1187.180  
  23908950.846   125642394.27548      -280.647    23908951.759    97903168.90949
      -218.690  
  20668855.400   108615567.72449     -1423.147    20668855.607    84635511.30248
     -1108.944  
  20874545.111   109696491.72949      1806.507    20874545.707    85477797.28548
      1407.663  
  20541555.887   107946623.26849      1704.054    20541554.187    84114269.36448
      1327.835  
  21899268.738   115081457.61048      2912.823    21899271.127    89673895.11149
      2269.733  
  23252437.517   122192390.91647      3011.207    23252441.184    95214848.41349
      2346.398  
  22423739.509   117837550.42447     -3051.905    22423739.367    91821464.62644
     -2378.116  
  21680001.099   115851331.29608       116.840    21680005.720    90106627.78707
        90.871  
  20347009.704   108613725.17707       135.809    20347013.731    84477379.11304
       105.629  
  19302716.477   103003004.80407      -454.401           0.000           0.0000 
         0.000  
  21074912.558   112815674.92808      2634.121    21074917.100    87745549.80907
      2048.762  
  22290795.764   119073422.96405      3602.832    22290800.588    92612695.04705
      2802.202  
  21255676.617   113743406.35308     -3642.242    21255680.203    88467109.72106
     -2832.862  
 20 10 02 06 46  0.0000000  0 14G15G27G18G23G20G24G10G13R15R22R 6R 7
                                R16R21
  20377504.631   107084517.65849     -1526.026    20377503.860    83442484.35249
     -1189.116  
  23909219.392   125643805.58647      -284.124    23909220.414    97904268.66049
      -221.395  
  20670210.818   108622690.08349     -1426.035    20670211.051    84641061.18248
     -1111.199  
  20872826.916   109687462.30449      1804.858    20872827.421    85470761.37848
      1406.382  
  20539935.359   107938107.36449      1702.065    20539933.575    84107633.60148
      1326.285  
  21896498.290   115066898.65048      2910.563    21896500.550    89662550.46649
      2267.969  
  23249572.769   122177336.06147      3010.641    23249576.420    95203117.37049
      2345.952  
  22426643.776   117852812.26347     -3052.843    22426643.669    91833357.03945
     -2378.836  
  21679893.979   115850758.28108       112.257    21679898.671    90106182.08907
        87.309  
  20346884.321   108613056.81107       131.480    20346888.411    84476859.24104
       102.257  
  19303143.346   103005282.34607      -456.765           0.000           0.0000 
         0.000  
  21072452.722   112802506.69808      2632.832    21072457.199    87735307.84107
      2047.754  
  22287423.777   119055410.50405      3601.265    22287428.575    92598685.33505
      2800.980  
  21259080.904   113761623.81808     -3644.944    21259084.412    88481278.88306
     -2834.957  
 20 10 02 06 46  5.0000000  0 14G15G27G18G23G20G24G10G13R15R22R 6R 7
                                R16R21
  20378958.303   107092156.82149     -1529.203    20378957.454    83448436.95249
     -1191.586  
  23909491.741   125645236.66547      -288.167    23909492.712    97905383.76849
      -224.550  
  20671569.657   108629831.23849     -1429.917    20671569.937    84646625.71648
     -1114.226  
  20871111.018   109678445.13649      1802.352    20871111.585    85463735.00348
      1404.426  
  20538317.287   107929604.74349      1699.297    20538315.688    84101008.18648
      1324.129  
  21893730.664   115052354.42648      2907.613    21893732.873    89651217.32349
      2265.672  
  23246708.855   122162287.68747      3009.101    23246712.766    95191391.34049
      2344.746  
  22429549.972   117868084.24348     -3054.983    22429549.682    91845257.27244
     -2380.473  
  21679791.724   115850211.17908       106.858    21679796.171    90105756.54607
        83.109  
  20346764.203   108612415.67807       125.637    20346768.233    84476360.59404
        97.719  
  19303573.034   103007575.24207      -460.234           0.000           0.0000 
         0.000  
  21069994.989   112789349.51308      2630.565    21069999.465    87725074.48808
      2045.995  
  22284054.385   119037412.63305      3598.164    22284059.401    92584687.01005
      2798.570  
  21262488.562   113779858.44408     -3648.484    21262492.004    88495461.34307
     -2837.718  
 20 10 02 06 46 10.0000000  0 14G15G27G18G23G20G24G10G13R15R22R 6R 7
                                R16R21
  20380414.432   107099808.29949     -1531.473    20380413.740    83454399.13949
     -1193.358  
  23909767.260   125646684.09047      -291.262    23909768.190    97906511.64849
      -226.960  
  20672931.384   108636987.69249     -1432.895    20672931.948    84652202.17548
     -1116.543  
  20869396.675   109669436.73649      1800.844    20869397.176    85456715.47548
      1403.253  
  20536701.107   107921111.94649      1697.516    20536699.530    84094390.41748
      1322.733  
  21890965.134   115037821.37548      2905.476    21890967.216    89639892.88849
      2264.008  
  23243845.785   122147242.33947      3008.835    23243849.635    95179667.70549
      2344.547  
  22432457.366   117883362.82248     -3056.629    22432456.974    91857162.68045
     -2381.710  
  21679693.585   115849686.43908       102.702    21679698.018    90105348.44607
        79.882  
  20346648.590   108611798.24507       121.280    20346652.641    84475880.36404
        94.324  
  19304004.750   103009879.86707      -461.977           0.000           0.0000 
         0.000  
  21067538.733   112776200.01508      2629.348    21067543.136    87714847.11307
      2045.047  
  22280687.021   119019425.77705      3595.957    22280692.216    92570697.26705
      2796.858  
  21265898.659   113798106.78308     -3651.039    21265902.112    88509654.49306
     -2839.698  
 20 10 02 06 46 15.0000000  0 14G15G27G18G23G20G24G10G13R15R22R 6R 7
                                R16R21
  20381872.651   107107471.91549     -1534.160    20381871.964    83460370.79249
     -1195.453  
  23910045.603   125648147.73247      -294.507    23910046.816    97907652.13749
      -229.491  
  20674296.169   108644159.37249     -1436.141    20674296.628    84657790.49948
     -1119.074  
  20867684.273   109660437.03449      1798.937    20867684.516    85449702.72748
      1401.770  
  20535086.837   107912628.86849      1695.464    20535085.345    84087780.22348
      1321.136  
  21888201.710   115023299.54748      2903.113    21888203.934    89628577.17949
      2262.167  
  23240983.076   122132199.98547      3008.039    23240987.152    95167946.37749
      2343.922  
  22435366.085   117898647.90147     -3057.823    22435365.715    91869073.11145
     -2382.722  
  21679599.735   115849184.02508        98.202    21679604.003    90104957.67107
        76.378  
  20346537.243   108611204.24107       115.960    20346541.344    84475418.37204
        90.190  
  19304438.921   103012196.28007      -464.718           0.000           0.0000 
         0.000  
  21065083.723   112763058.05808      2627.508    21065087.974    87704625.59407
      2043.617  
  22277321.889   119001449.91005      3594.461    22277327.225    92556716.00705
      2795.687  
  21269311.380   113816368.69008     -3653.913    21269314.854    88523858.20306
     -2841.934  
 20 10 02 06 46 20.0000000  0 15G15G27G18G23G20G24G10G13R15R22R 6R 7
                                R16R 5R21
  20383333.542   107115148.66949     -1536.483    20383332.890    83466352.66349
     -1197.265  
  23910327.281   125649628.58146      -297.879    23910328.546    97908806.05849
      -232.116  
  20675664.026   108651347.26449     -1438.980    20675664.477    84663391.45748
     -1121.288  
  20865973.550   109651447.03149      1797.316    20865973.854    85442697.54248
      1400.507  
  20533474.681   107904156.55449      1693.625    20533473.136    84081178.43648
      1319.707  
  21885440.577   115008789.97548      2900.883    21885442.901    89617271.02249
      2260.430  
  23238121.330   122117161.56247      3007.226    23238125.434    95156228.18349
      2343.301  
  22438276.241   117913940.50047     -3059.125    22438275.703    91880989.39945
     -2383.738  
  21679510.206   115848705.01508        93.729    21679514.503    90104585.09506
        72.898  
  20346430.393   108610634.86907       111.613    20346434.683    84474975.50204
        86.801  
  19304875.372   103014525.39408      -467.046           0.000           0.0000 
         0.000  
  21062630.241   112749924.62808      2626.065    21062634.366    87694410.70407
      2042.495  
  22273959.148   118983486.06406      3591.847    22273964.356    92542744.13205
      2793.660  
  22604562.140   120834360.76014     -3389.621    22604567.555    93982290.97614
     -2636.374  
  21272726.892   113834645.16108     -3656.500    21272730.224    88538073.22507
     -2843.948  
 20 10 02 06 46 25.0000000  0 15G15G27G18G23G20G24G10G13R15R22R 6R 7
                                R16R 5R21
  20384796.494   107122836.69049     -1538.801    20384796.002    83472343.33249
     -1199.065  
  23910611.712   125651124.80945      -300.644    23910613.001    97909971.94849
      -234.277  
  20677034.537   108658549.47349     -1441.918    20677034.988    84669003.56248
     -1123.577  
  20864264.161   109642464.84649      1795.647    20864264.646    85435698.43248
      1399.203  
  20531864.256   107895693.09049      1691.831    20531862.652    84074583.52248
      1318.309  
  21882681.526   114994290.78648      2898.897    21882683.500    89605972.95549
      2258.883  
  23235260.099   122102125.25548      3006.844    23235264.046    95144511.55849
      2342.991  
  22441187.528   117929238.50948     -3060.358    22441186.684    91892909.94345
     -2384.694  
  21679424.484   115848247.35307        89.434    21679428.726    90104229.11706
        69.550  
  20346328.078   108610088.11307       107.051    20346332.435    84474550.26904
        83.262  
  19305313.886   103016865.38507      -469.003           0.000           0.0000 
         0.000  
  21060177.982   112736797.61708      2624.710    21060181.963    87684200.80007
      2041.438  
  22270598.061   118965532.26905      3589.777    22270603.367    92528780.09405
      2792.051  
  22607735.020   120851310.43104     -3390.108    22607738.840    93995474.03405
     -2636.757  
  21276144.563   113852934.15408     -3658.914    21276147.740    88552297.98707
     -2845.823  
 20 10 02 06 46 30.0000000  0 15G15G27G18G23G20G24G10G13R15R22R 6R 7
                                R16R 5R21
  20386261.722   107130536.57949     -1541.569    20386261.273    83478343.24449
     -1201.227  
  23910899.476   125652637.02046      -304.464    23910900.976    97911150.28249
      -237.250  
  20678407.892   108665766.62649     -1445.409    20678408.405    84674627.31948
     -1126.292  
  20862556.716   109633491.13249      1793.512    20862556.867    85428705.92748
      1397.538  
  20530255.533   107887239.12849      1689.460    20530254.077    84067996.01848
      1316.460  
  21879924.571   114979802.54848      2896.141    21879926.617    89594683.41849
      2256.757  
  23232399.297   122087091.60648      3005.965    23232403.345    95132797.02849
      2342.304  
  22444099.943   117944542.79148     -3061.694    22444099.160    91904835.32745
     -2385.742  
  21679342.787   115847811.82007        84.495    21679347.043    90103890.44106
        65.723  
  20346229.898   108609564.70707       101.995    20346234.460    84474143.17904
        79.332  
  19305754.447   103019216.74307      -471.647           0.000           0.0000 
         0.000  
  21057727.236   112723678.08408      2622.684    21057731.085    87673996.74207
      2039.862  
  22267239.141   118947589.30605      3586.492    22267244.324    92514824.45905
      2789.492  
  22610905.406   120868262.43205     -3390.819    22610909.925    94008659.01205
     -2637.301  
  21279564.736   113871236.44008     -3662.175    21279568.150    88566533.08007
     -2848.363  
 20 10 02 06 46 35.0000000  0 15G15G27G18G23G20G24G10G13R15R22R 6R 7
                                R16R 5R21
  20387729.825   107138251.10249     -1543.831    20387729.242    83484354.55349
     -1202.987  
  23911190.538   125654167.84246      -307.554    23911192.358    97912343.15949
      -239.648  
  20679784.716   108673001.47849     -1448.203    20679785.005    84680264.86148
     -1128.472  
  20860851.169   109624528.64049      1791.757    20860851.562    85421722.17348
      1396.176  
  20528649.076   107878797.42349      1687.598    20528647.668    84061418.07448
      1315.011  
  21877170.299   114965328.05848      2894.050    21877172.187    89583404.61149
      2255.104  
  23229539.665   122072063.45148      3005.770    23229543.376    95121086.77949
      2342.155  
  22447014.049   117959855.99147     -3063.016    22447013.057    91916767.71645
     -2386.761  
  21679266.022   115847401.14308        80.019    21679270.174    90103571.01907
        62.238  
  20346136.759   108609067.40307        97.050    20346141.229    84473756.38204
        75.479  
  19306197.877   103021582.50407      -474.062           0.000           0.0000 
         0.000  
  21055278.157   112710568.53608      2621.273    21055282.057    87663800.41907
      2038.769  
  22263882.713   118929659.93206      3585.206    22263887.987    92500879.40606
      2788.495  
  22614076.879   120885219.11303     -3390.992    22614081.407    94021847.50904
     -2637.765  
  21282987.836   113889554.76508     -3664.484    21282991.255    88580780.66906
     -2850.160  
 20 10 02 06 46 40.0000000  0 15G15G27G18G23G20G24G10G13R15R22R 6R 7
                                R16R 5R21
  20389200.020   107145977.06149     -1546.309    20389199.357    83490374.80249
     -1204.913  
  23911484.809   125655714.24447      -310.934    23911486.684    97913548.12749
      -242.289  
  20681164.178   108680250.82049     -1451.343    20681164.525    84685913.70148
     -1130.922  
  20859147.321   109615574.17149      1790.065    20859147.475    85414744.66248
      1394.851  
  20527044.326   107870364.74849      1685.624    20527042.954    84054847.16348
      1313.472  
  21874417.901   114950864.14548      2891.621    21874419.988    89572134.03549
      2253.211  
  23226680.403   122057037.61548      3004.938    23226684.073    95109378.35049
      2341.508  
  22449929.269   117975174.92048     -3064.354    22449928.155    91928704.49245
     -2387.815  
  21679193.235   115847012.00307        75.688    21679197.222    90103268.34507
        58.867  
  20346047.814   108608592.92007        92.726    20346052.328    84473387.34104
        72.117  
  19306643.311   103023959.04608      -476.500           0.000           0.0000 
         0.000  
  21052830.384   112697465.85008      2619.749    21052834.233    87653609.45407
      2037.581  
  22260528.269   118911740.96606      3582.961    22260533.518    92486942.46105
      2786.749  
  22617247.560   120902177.38005     -3392.160    22617253.987    94035037.29603
     -2638.344  
  21286413.414   113907885.81908     -3667.504    21286417.047    88595038.15807
     -2852.508  
 20 10 02 06 46 45.0000000  0 15G15G27G18G23G20G24G10G13R15R22R 6R 7
                                R16R 5R21
  20390672.312   107153714.66749     -1548.663    20390671.901    83496404.09349
     -1206.754  
  23911781.986   125657276.42446      -313.789    23911783.927    97914765.41149
      -244.515  
  20682546.493   108687514.86849     -1454.167    20682546.996    84691574.00248
     -1133.121  
  20857444.839   109606627.94349      1788.679    20857445.101    85407773.56848
      1393.773  
  20525441.439   107861941.39349      1683.891    20525439.959    84048283.51348
      1312.121  
  21871667.399   114936410.78348      2889.601    21871669.476    89560871.68349
      2251.636  
  23223821.794   122042014.21147      3004.375    23223825.038    95097671.82749
      2341.069  
  22452845.622   117990499.79948     -3065.647    22452844.223    91940645.99244
     -2388.815  
  21679124.382   115846644.72608        71.332    21679128.368    90102982.67507
        55.472  
  20345963.351   108608141.48607        87.988    20345967.817    84473036.21704
        68.429  
  19307090.593   103026346.86308      -478.565           0.000           0.0000 
         0.000  
  21050384.123   112684370.32508      2618.414    21050387.764    87643424.03607
      2036.539  
  22257175.854   118893832.46905      3580.222    22257181.023    92473013.65405
      2784.616  
  22620420.199   120919137.26505     -3392.222    22620425.690    94048228.40005
     -2638.383  
  21289841.376   113926229.81608     -3669.983    21289844.973    88609305.72107
     -2854.433  
 20 10 02 06 46 50.0000000  0 15G15G27G18G23G20G24G10G13R15R22R 6R 7
                                R16R 5R21
  20392147.225   107161465.88549     -1551.437    20392146.978    83502444.00449
     -1208.913  
  23912082.637   125658856.26047      -317.812    23912084.555    97915996.46349
      -247.645  
  20683932.052   108694795.59649     -1457.617    20683932.404    84697247.29948
     -1135.804  
  20855744.588   109597692.00049      1786.281    20855744.720    85400810.51248
      1391.906  
  20523840.658   107853529.39149      1681.405    20523839.184    84041728.70148
      1310.188  
  21868919.567   114921970.45548      2886.785    21868921.623    89549619.46649
      2249.438  
  23220963.707   122026995.39547      3003.679    23220966.941    95085968.83749
      2340.527  
  22455763.445   118005832.56747     -3067.141    22455762.168    91952593.64745
     -2389.973  
  21679060.204   115846301.34408        66.452    21679064.231    90102715.60707
        51.684  
  20345883.591   108607715.03707        82.780    20345887.794    84472704.53904
        64.387  
  19307540.560   103028747.90907      -481.531           0.000           0.0000 
         0.000  
  21047939.362   112671283.76208      2616.546    21047942.838    87633245.60407
      2035.094  
  22253825.593   118875936.82005      3578.277    22253830.843    92459094.80605
      2783.102  
  22623593.021   120936101.19405     -3393.543    22623599.230    94061422.61304
     -2639.413  
  21293272.153   113944588.78708     -3673.148    21293275.786    88623584.89107
     -2856.897  
 20 10 02 06 46 55.0000000  0 15G15G27G18G23G20G24G10G13R15R22R 6R 7
                                R16R 5R21
  20393624.822   107169230.08449     -1553.953    20393624.454    83508494.02149
     -1210.874  
  23912386.531   125660453.01647      -321.078    23912388.352    97917240.68149
      -250.194  
  20685320.640   108702092.29849     -1460.711    20685320.953    84702933.04948
     -1138.214  
  20854045.856   109588765.54549      1784.559    20854046.006    85393854.84248
      1390.565  
  20522241.783   107845127.96349      1679.421    20522240.583    84035182.13148
      1308.637  
  21866174.036   114907542.09148      2884.675    21866175.972    89538376.60749
      2247.805  
  23218106.362   122011980.28848      3002.867    23218109.630    95074268.78049
      2339.901  
  22458682.485   118021172.56847     -3068.394    22458681.273    91964546.86145
     -2390.961  
  21679000.366   115845981.02308        61.769    21679004.320    90102466.45106
        48.038  
  20345808.223   108607313.08907        77.999    20345812.390    84472391.91104
        60.664  
  19307992.930   103031161.40407      -483.742           0.000           0.0000 
         0.000  
  21045496.261   112658205.62408      2614.940    21045499.666    87623073.72507
      2033.844  
  22250477.673   118858052.92705      3575.679    22250483.037    92445185.10605
      2781.081  
  22626766.674   120953068.09505     -3393.901    22626773.275    94074618.92805
     -2639.723  
  21296705.595   113962961.95408     -3675.733    21296709.575    88637875.13507
     -2858.910  
 20 10 02 06 47  0.0000000  0 15G15G27G18G23G20G24G10G13R15R22R 6R 7
                                R16R 5R21
  20395104.738   107177007.34849     -1556.652    20395104.378    83514554.22249
     -1212.976  
  23912693.627   125662067.09947      -324.257    23912695.560    97918498.39649
      -252.671  
  20686712.272   108709405.21549     -1464.086    20686712.448    84708631.42648
     -1140.852  
  20852349.003   109579848.89449      1782.535    20852349.238    85386906.79648
      1388.983  
  20520645.208   107836737.37549      1677.164    20520643.929    84028644.00748
      1306.878  
  21863430.744   114893126.05748      2882.058    21863432.759    89527143.32749
      2245.741  
  23215249.844   121996969.24648      3001.879    23215253.095    95062571.87349
      2339.125  
  22461602.854   118036519.99346     -3070.015    22461601.822    91976505.86545
     -2392.227  
  21678944.823   115845684.09508        57.210    21678948.670    90102235.56106
        44.504  
  20345737.447   108606935.69207        73.043    20345741.832    84472098.37204
        56.808  
  19308447.532   103033587.59107      -486.379           0.000           0.0000 
         0.000  
  21043054.830   112645136.04308      2613.332    21043058.213    87612908.47207
      2032.585  
  22247132.179   118840181.33605      3573.413    22247137.184    92431284.99005
      2779.316  
  22629941.443   120970038.14905     -3394.229    22629947.636    94087817.89905
     -2639.965  
  21300141.924   113981349.47508     -3678.550    21300145.793    88652176.55007
     -2861.093  
 20 10 02 06 47  5.0000000  0 15G15G27G18G23G20G24G10G13R15R22R 6R 7
                                R16R 5R21
  20396586.928   107184796.33649     -1559.116    20396586.564    83520623.58549
     -1214.898  
  23913003.617   125663696.97947      -327.555    23913005.785    97919768.43449
      -255.237  
  20688106.537   108716732.93949     -1467.250    20688106.934    84714341.33048
     -1143.315  
  20850653.889   109570940.66849      1780.656    20850654.150    85379965.31948
      1387.519  
  20519050.318   107828356.23449      1675.124    20519048.969    84022113.25548
      1305.292  
  21860689.386   114878720.99848      2879.780    21860691.460    89515918.60449
      2243.979  
  23212393.897   121981960.89348      3001.379    23212397.301    95050877.06249
      2338.738  
  22464524.558   118051873.43247     -3071.637    22464523.580    91988469.60145
     -2393.483  
  21678893.395   115845409.25008        52.683    21678897.126    90102021.77307
        40.968  
  20345671.149   108606581.53507        68.277    20345675.353    84471822.92404
        53.105  
  19308904.383   103036025.27907      -488.762           0.000           0.0000 
         0.000  
  21040614.517   112632073.63808      2611.601    21040617.894    87602748.85107
      2031.242  
  22243788.435   118822320.55806      3570.941    22243793.795    92417393.29405
      2777.398  
  22633117.107   120987010.01504     -3394.695    22633123.140    94101018.30805
     -2640.315  
  21303580.659   113999750.02608     -3681.629    21303584.504    88666488.09307
     -2863.492  
 20 10 02 06 47 10.0000000  0 15G15G27G18G23G20G24G10G13R15R22R 6R 7
                                R16R 5R21
  20398071.251   107192596.29149     -1561.147    20398070.919    83526701.46149
     -1216.484  
  23913316.642   125665341.94047      -330.460    23913318.906    97921050.23849
      -257.503  
  20689503.663   108724074.73149     -1469.840    20689504.099    84720062.20648
     -1145.332  
  20848960.280   109562040.09949      1779.301    20848960.292    85373029.81948
      1386.469  
  20517456.956   107819983.80949      1673.554    20517455.719    84015589.29148
      1304.069  
  21857950.303   114864326.26948      2877.762    21857952.122    89504701.94349
      2242.409  
  23209538.514   121966954.47748      3001.081    23209541.404    95039183.73649
      2338.499  
  22467447.160   118067232.18447     -3072.440    22467446.319    92000437.44645
     -2394.113  
  21678845.948   115845155.51708        48.707    21678849.601    90101824.43507
        37.882  
  20345608.945   108606249.86607        63.890    20345613.268    84471564.97204
        49.690  
  19309363.192   103038473.41807      -490.823           0.000           0.0000 
         0.000  
  21038175.499   112619017.57408      2610.323    21038179.111    87592594.15007
      2030.254  
  22240446.784   118804469.96505      3569.113    22240452.140    92403509.49505
      2775.972  
  22636292.102   121003983.18505     -3394.644    22636298.860    94114219.64605
     -2640.320  
  21307021.381   114018162.83808     -3684.034    21307025.449    88680809.15107
     -2865.362  
 20 10 02 06 47 15.0000000  0 15G15G27G18G23G20G24G10G13R15R22R 6R 7
                                R16R 5R21
  20399558.013   107200409.05749     -1563.895    20399557.678    83532789.33149
     -1218.621  
  23913632.972   125667003.94847      -334.344    23913635.185    97922345.28349
      -260.535  
  20690903.866   108731432.44549     -1473.152    20690904.217    84725795.48848
     -1147.913  
  20847268.409   109553149.07049      1777.187    20847268.362    85366101.74248
      1384.815  
  20515865.895   107811622.01149      1671.223    20515864.402    84009073.61448
      1302.249  
  21855213.315   114849943.54848      2875.245    21855215.219    89493494.62449
      2240.453  
  23206683.705   121951951.76048      3000.266    23206686.527    95027493.33549
      2337.871  
  22470371.086   118082597.98547     -3074.229    22470370.276    92012410.81045
     -2395.504  
  21678802.743   115844924.98708        43.852    21678806.543    90101645.13507
        34.105  
  20345551.482   108605942.46807        58.983    20345555.698    84471325.88704
        45.875  
  19309824.398   103040934.15708      -493.672           0.000           0.0000 
         0.000  
  21035737.999   112605969.91408      2608.664    21035741.594    87582445.94207
      2028.957  
  22237107.609   118786631.28706      3566.757    22237112.572    92389634.95805
      2774.141  
  22639467.971   121020959.08405     -3394.788    22639475.096    94127423.06705
     -2640.394  
  21310464.935   114036589.74108     -3686.813    21310469.053    88695141.18507
     -2867.523  
 20 10 02 06 47 20.0000000  0 15G15G27G18G23G20G24G10G13R15R22R 6R 7
                                R16R 5R21
  20401047.272   107208235.51249     -1566.551    20401046.856    83538887.86349
     -1220.691  
  23913952.631   125668683.64547      -337.668    23913954.850    97923654.13449
      -263.121  
  20692307.101   108738806.90049     -1476.401    20692307.503    84731541.80348
     -1150.448  
  20845578.417   109544268.41249      1775.184    20845578.429    85359181.74748
      1383.258  
  20514276.731   107803271.61549      1669.191    20514275.294    84002566.79348
      1300.663  
  21852478.707   114835573.68248      2872.878    21852480.740    89482297.32749
      2238.604  
  23203829.814   121936953.70848      2999.520    23203832.308    95015806.53649
      2337.288  
  22473296.757   118097971.77348     -3075.555    22473295.920    92024390.36744
     -2396.539  
  21678764.143   115844718.40808        39.133    21678767.813    90101484.44707
        30.434  
  20345498.673   108605660.34707        54.144    20345502.956    84471106.44204
        42.109  
  19310288.014   103043408.16207      -495.827           0.000           0.0000 
         0.000  
  21033302.387   112592931.48308      2606.874    21033306.006    87572304.95207
      2027.569  
  22233770.598   118768805.54406      3563.835    22233775.695    92375770.50604
      2771.871  
  22642644.402   121037939.08404     -3396.089    22642651.693    94140629.77405
     -2641.402  
  21313911.312   114055031.59108     -3689.667    21313915.345    88709484.84107
     -2869.741  
 20 10 02 06 47 25.0000000  0 15G15G27G18G23G20G24G10G13R15R22R 6R 7
                                R16R 5R21
  20402539.001   107216074.12949     -1568.594    20402538.466    83544995.87949
     -1222.284  
  23914275.348   125670379.62947      -340.679    23914277.477    97924975.67649
      -265.468  
  20693713.389   108746196.61649     -1479.218    20693713.962    84737300.01748
     -1152.640  
  20843890.145   109535396.64249      1773.797    20843890.194    85352268.67848
      1382.176  
  20512689.683   107794931.15249      1667.304    20512688.134    83996067.73348
      1299.194  
  21849746.371   114821215.28248      2870.648    21849748.206    89471108.96649
      2236.862  
  23200976.460   121921958.82948      2998.698    23200978.889    95004122.19649
      2336.641  
  22476223.760   118113352.06148     -3076.612    22476222.483    92036374.99645
     -2397.359  
  21678729.747   115844534.29207        34.695    21678733.438    90101341.26407
        26.984  
  20345450.107   108605401.85107        49.687    20345454.515    84470905.38804
        38.640  
  19310753.714   103045893.82307      -498.065           0.000           0.0000 
         0.000  
  21030868.099   112579900.70708      2605.597    21030871.875    87562169.93507
      2026.577  
  22230435.754   118750991.21606      3562.261    22230440.590    92361914.88705
      2770.644  
  22645821.155   121054921.34005     -3396.233    22645828.780    94153838.10905
     -2641.531  
  21317360.082   114073486.78408     -3691.905    21317364.290    88723838.88207
     -2871.488  
 20 10 02 06 47 30.0000000  0 15G15G27G18G23G20G24G10G13R15R22R 6R 7
                                R16R 5R21
  20404032.804   107223924.74249     -1571.180    20404032.497    83551113.25049
     -1224.297  
  23914601.057   125672091.80547      -344.004    23914603.306    97926309.86049
      -268.055  
  20695122.519   108753601.45949     -1482.409    20695123.027    84743070.02948
     -1155.128  
  20842203.578   109526533.67249      1771.777    20842203.718    85345362.46548
      1380.602  
  20511104.339   107786600.54949      1665.203    20511102.982    83989576.36148
      1297.559  
  21847016.180   114806868.37648      2868.269    21847018.155    89459929.58049
      2235.016  
  23198123.691   121906966.98948      2998.042    23198125.952    94992440.27249
      2336.136  
  22479151.680   118128738.69547     -3078.077    22479150.487    92048364.62244
     -2398.503  
  21678699.454   115844372.35708        30.179    21678703.135    90101215.31907
        23.469  
  20345406.001   108605166.97407        44.780    20345410.385    84470722.72804
        34.827  
  19311221.838   103048391.28707      -500.688           0.000           0.0000 
         0.000  
  21028435.289   112566877.50008      2604.078    21028439.045    87552040.77007
      2025.390  
  22227103.001   118733188.08906      3559.320    22227107.999    92348068.05905
      2768.358  
  22648998.194   121071905.74705     -3396.315    22649005.960    94167048.26706
     -2641.577  
  21320811.465   114091955.23708     -3694.874    21320815.765    88738203.23607
     -2873.797  
 20 10 02 06 47 35.0000000  0 15G15G27G18G23G20G24G10G13R15R22R 6R 7
                                R16R 5R21
  20405529.283   107231788.57749     -1574.293    20405528.691    83557240.91649
     -1226.727  
  23914930.144   125673821.35346      -348.120    23914932.510    97927657.58249
      -271.261  
  20696534.701   108761022.61649     -1486.089    20696535.026    84748852.74048
     -1157.995  
  20840518.941   109517680.65849      1769.409    20840519.154    85338464.01748
      1378.757  
  20509521.062   107778280.97049      1662.476    20509519.789    83983093.57548
      1295.438  
  21844288.282   114792533.95948      2865.445    21844290.358    89448759.89749
      2232.832  
  23195271.880   121891979.30648      2997.117    23195273.801    94980761.56849
      2335.414  
  22482081.132   118144132.66147     -3079.601    22482079.814    92060359.87945
     -2399.694  
  21678673.617   115844234.07107        25.180    21678677.271    90101107.72807
        19.578  
  20345366.723   108604956.80207        39.105    20345371.186    84470559.26304
        30.413  
  19311692.186   103050901.40507      -503.499           0.000           0.0000 
         0.000  
  21026004.134   112553863.08208      2601.781    21026007.875    87541918.42607
      2023.605  
  22223772.492   118715397.48605      3556.461    22223777.226    92334230.93805
      2766.136  
  22652176.036   121088893.54105     -3398.444    22652183.744    94180260.97106
     -2643.233  
  21324265.486   114110438.09208     -3698.129    21324269.611    88752578.77207
     -2876.328  
 20 10 02 06 47 40.0000000  0 15G15G27G18G23G20G24G10G13R15R22R 6R 7
                                R16R 5R21
  20407028.201   107239665.69249     -1576.512    20407027.596    83563378.93049
     -1228.452  
  23915262.577   125675568.30147      -351.062    23915264.906    97929018.81349
      -273.558  
  20697950.143   108768460.16249     -1489.000    20697950.466    84754648.23048
     -1160.261  
  20838836.193   109508837.69349      1767.835    20838836.254    85331573.38648
      1377.530  
  20507940.095   107769972.49549      1660.858    20507938.792    83976619.44048
      1294.171  
  21841563.031   114778212.19848      2863.238    21841565.257    89437600.09449
      2231.094  
  23192420.647   121876995.94448      2996.323    23192422.640    94969086.19549
      2334.793  
  22485012.108   118159534.20048     -3080.793    22485010.939    92072361.09744
     -2400.612  
  21678652.022   115844119.36107        20.922    21678655.927    90101018.51507
        16.270  
  20345332.075   108604771.44607        34.772    20345336.474    84470415.11104
        27.047  
  19312164.976   103053424.55407      -505.816           0.000           0.0000 
         0.000  
  21023574.475   112540857.58808      2600.496    21023578.385    87531803.04507
      2022.608  
  22220444.434   118697619.66005      3554.483    22220449.331    92320403.77405
      2764.602  
  22655354.592   121105884.83805     -3398.680    22655362.562    94193476.44105
     -2643.413  
  21327722.061   114128935.51608     -3700.726    21327726.390    88766965.67007
     -2878.343  
 20 10 02 06 47 45.0000000  0 15G15G27G18G23G20G24G10G13R15R22R 6R 7
                                R16R 5R21
  20408529.023   107247552.69149     -1578.452    20408528.451    83569524.64949
     -1229.964  
  23915597.724   125677329.29247      -353.660    23915600.292    97930391.00549
      -275.582  
  20699367.875   108775910.73449     -1491.507    20699368.094    84760453.86748
     -1162.218  
  20837154.743   109500001.45649      1766.604    20837154.820    85324688.00848
      1376.569  
  20506360.500   107761671.82049      1659.300    20506359.249    83970151.38248
      1292.961  
  21838839.343   114763899.81048      2861.394    21838841.601    89426447.58349
      2229.624  
  23189569.813   121862013.55848      2996.456    23189571.513    94957411.62049
      2334.901  
  22487943.837   118174940.01047     -3081.765    22487942.547    92084365.60345
     -2401.382  
  21678634.265   115844024.91207        16.766    21678638.302    90100945.04607
        13.034  
  20345301.357   108604607.65707        30.464    20345305.674    84470287.70704
        23.691  
  19312639.687   103055957.29707      -507.793           0.000           0.0000 
         0.000  
  21021145.987   112527857.38708      2599.438    21021149.578    87521691.78908
      2021.784  
  22217117.963   118679850.96605      3552.538    22217122.976    92306583.66805
      2763.081  
  22658533.013   121122876.19305     -3398.187    22658540.963    94206691.95705
     -2643.031  
  21331180.992   114147444.04708     -3702.948    21331185.311    88781361.17307
     -2880.078  
 20 10 02 06 47 50.0000000  0 15G15G27G18G23G20G24G10G13R15R22R 6R 7
                                R16R 5R21
  20410032.304   107255452.20649     -1581.214    20410031.746    83575680.11149
     -1232.120  
  23915935.925   125679106.95847      -357.460    23915938.639    97931776.19849
      -278.543  
  20700788.614   108783376.89549     -1494.851    20700788.881    84766271.66048
     -1164.820  
  20835475.030   109491174.50649      1764.460    20835474.843    85317809.87748
      1374.905  
  20504782.985   107753381.48749      1657.015    20504781.637    83963691.38748
      1291.180  
  21836118.142   114749599.29948      2858.934    21836120.367    89415304.33549
      2227.742  
  23186719.558   121847034.70948      2995.527    23186721.069    94945739.77849
      2334.172  
  22490876.766   118190352.53047     -3083.190    22490875.567    92096375.36344
     -2402.492  
  21678621.014   115843953.29008        12.038    21678624.730    90100889.32607
         9.358  
  20345275.122   108604467.79807        25.527    20345279.420    84470178.92004
        19.851  
  19313116.636   103058502.19807      -510.108           0.000           0.0000 
         0.000  
  21018718.951   112514865.30408      2597.676    21018722.488    87511586.83608
      2020.413  
  22213793.960   118662094.14806      3549.800    22213798.882    92292772.79704
      2760.952  
  22661711.944   121139870.15105     -3398.440    22661720.119    94219909.42606
     -2643.237  
  21334642.278   114165966.11708     -3705.882    21334646.639    88795767.22307
     -2882.355  
 20 10 02 06 47 55.0000000  0 15G15G27G18G23G20G24G10G13R15R22R 6R 7
                                R16R 5R21
  20411537.859   107263364.16849     -1583.827    20411537.229    83581845.27949
     -1234.152  
  23916277.483   125680901.16947      -360.586    23916280.155    97933174.30649
      -280.977  
  20702212.369   108790858.62049     -1498.070    20702212.606    84772101.57448
     -1167.328  
  20833797.031   109482356.81349      1762.379    20833796.845    85310938.94348
      1373.276  
  20503207.337   107745101.42949      1654.784    20503205.980    83957239.39848
      1289.441  
  21833398.997   114735310.63048      2856.426    21833401.381    89404170.32449
      2225.784  
  23183870.061   121832059.37748      2994.492    23183871.352    94934070.69449
      2333.371  
  22493810.995   118205771.75647     -3084.562    22493809.774    92108390.32645
     -2403.559  
  21678611.860   115843904.46508         7.535    21678615.537    90100851.33507
         5.746  
  20345253.585   108604352.05007        20.430    20345257.774    84470088.89304
        15.887  
  19313595.820   103061059.12407      -512.891           0.000           0.0000 
         0.000  
  21016293.388   112501881.26508      2595.808    21016297.109    87501488.13008
      2018.956  
  22210471.916   118644348.97805      3547.562    22210477.027    92278971.00804
      2759.215  
  22664891.498   121156866.75206     -3399.901    22664899.799    94233129.04106
     -2644.366  
  21338105.959   114184501.85108     -3708.597    21338110.314    88810183.91507
     -2884.469  
 20 10 02 06 48  0.0000000  0 15G15G27G18G23G20G24G10G13R15R22R 6R 7
                                R16R 5R21
  20413045.921   107271289.11749     -1586.011    20413045.174    83588020.56049
     -1235.855  
  23916622.151   125682712.66147      -363.812    23916624.763    97934585.82549
      -283.500  
  20703639.150   108798356.46649     -1500.991    20703639.474    84777944.04748
     -1169.608  
  20832120.929   109473548.93149      1760.926    20832120.816    85304075.66748
      1372.147  
  20501633.770   107736832.31449      1653.055    20501632.276    83950795.93648
      1288.093  
  21830682.356   114721034.46048      2854.367    21830684.846    89393046.03449
      2224.183  
  23181021.243   121817088.11248      2994.145    23181022.423    94922404.80549
      2333.101  
  22496746.666   118221198.28347     -3085.827    22496745.389    92120411.02245
     -2404.542  
  21678607.201   115843879.00608         3.109    21678610.657    90100831.55207
         2.418  
  20345236.352   108604260.87407        16.098    20345240.645    84470017.96404
        12.515  
  19314077.286   103063628.84808      -514.948           0.000           0.0000 
         0.000  
  21013869.325   112488905.78108      2594.586    21013873.127    87491396.08907
      2018.007  
  22207152.333   118626616.39205      3545.741    22207157.330    92265179.03205
      2757.804  
  22668071.802   121173866.48807     -3399.921    22668079.801    94246351.02706
     -2644.390  
  21341572.466   114203051.67308     -3711.249    21341576.803    88824611.54107
     -2886.531  
 20 10 02 06 48  5.0000000  0 15G15G27G18G23G20G24G10G13R15R22R 6R 7
                                R16R 5R21
  20414555.882   107279224.89049     -1588.430    20414555.370    83594204.28249
     -1237.742  
  23916969.844   125684539.11347      -367.250    23916972.471    97936009.03849
      -286.171  
  20705068.639   108805868.26249     -1503.991    20705068.775    84783797.39348
     -1171.945  
  20830446.362   109464748.76949      1759.054    20830446.209    85297218.39948
      1370.688  
  20500061.727   107728571.95249      1651.000    20500060.564    83944359.28948
      1286.488  
  21827967.618   114706768.63148      2852.144    21827969.996    89381929.80249
      2222.444  
  23178172.568   121802118.81848      2993.476    23178173.984    94910740.42649
      2332.578  
  22499683.106   118236629.90948     -3087.152    22499681.798    92132435.62543
     -2405.582  
  21678606.311   115843874.72108        -1.729    21678609.847    90100828.21807
        -1.351  
  20345223.663   108604192.20207        11.207    20345227.737    84469964.56004
         8.714  
  19314561.011   103066209.00708      -517.190           0.000           0.0000 
         0.000  
  21011446.623   112475936.84008      2592.953    21011450.431    87481309.14707
      2016.742  
  22203834.671   118608894.00406      3543.534    22203839.393    92251394.96104
      2756.082  
  22671252.316   121190867.31306     -3400.410    22671259.937    94259573.91605
     -2644.762  
  21345041.200   114221613.50708     -3713.813    21345045.481    88839048.52607
     -2888.520  
 20 10 02 06 48 10.0000000  0 15G15G27G18G23G20G24G10G13R15R22R 6R 7
                                R16R 5R21
  20416068.897   107287175.40049     -1591.488    20416068.264    83600399.48349
     -1240.125  
  23917320.939   125686384.40947      -370.812    23917323.451    97937446.93049
      -288.949  
  20706501.353   108813397.91649     -1507.694    20706501.514    84789664.65548
     -1174.831  
  20828774.086   109455960.15349      1756.671    20828773.845    85290370.13048
      1368.836  
  20498492.321   107720324.23249      1648.379    20498490.991    83937932.49448
      1284.449  
  21825255.519   114692516.92448      2848.930    21825258.123    89370824.57549
      2219.941  
  23175325.199   121787155.29348      2992.293    23175326.396    94899080.52849
      2331.652  
  22502621.456   118252070.48048     -3088.800    22502620.115    92144467.23144
     -2406.910  
  21678610.194   115843895.56307        -6.776    21678613.747    90100844.42807
        -5.270  
  20345215.574   108604149.77407         5.750    20345219.733    84469931.55104
         4.468  
  19315047.122   103068803.61408      -520.191           0.000           0.0000 
         0.000  
  21009025.969   112462978.16908      2590.828    21009029.648    87471230.17308
      2015.085  
  22200519.697   118591186.04005      3540.304    22200524.666    92237622.09904
      2753.569  
  22674433.770   121207873.03907     -3401.707    22674441.140    94272800.55305
     -2645.780  
  21348512.978   114240191.22408     -3717.039    21348517.052    88853497.86007
     -2891.030  
 20 10 02 06 48 15.0000000  0 15G15G27G18G23G20G24G10G13R15R22R 6R 7
                                R16R 5R21
  20417584.218   107295138.74849     -1593.824    20417583.624    83606604.69249
     -1241.940  
  23917675.240   125688246.74447      -374.141    23917678.011    97938898.10649
      -291.538  
  20707937.307   108820943.49749     -1510.534    20707937.459    84795544.33048
     -1177.038  
  20827103.510   109447181.27949      1754.937    20827103.110    85283529.43847
      1367.480  
  20496924.877   107712087.28549      1646.448    20496923.622    83931514.09848
      1282.945  
  21822545.861   114678277.54748      2846.659    21822548.425    89359728.96949
      2218.257  
  23172478.372   121772195.73848      2991.687    23172479.547    94887423.75149
      2331.183  
  22505561.148   118267518.16448     -3090.102    22505559.607    92156504.42644
     -2407.871  
  21678618.454   115843939.66907       -11.030    21678622.110    90100878.74908
        -8.577  
  20345212.200   108604131.88607         1.206    20345216.221    84469917.62304
         0.933  
  19315535.692   103071410.68208      -522.351           0.000           0.0000 
         0.000  
  21006606.796   112450028.05408      2589.375    21006610.320    87461157.88508
      2013.957  
  22197206.859   118573490.30005      3538.144    22197211.862    92223858.76004
      2751.890  
  22677615.649   121224881.69207     -3401.965    22677622.948    94286029.48506
     -2645.976  
  21351987.093   114258782.85208     -3719.660    21351991.368    88867957.99907
     -2893.073  
 20 10 02 06 48 20.0000000  0 15G15G27G18G23G20G24G10G13R15R22R 6R 7
                                R16R 5R21
  20419101.833   107303113.37149     -1596.141    20419101.160    83612818.68849
     -1243.746  
  23918032.663   125690124.51648      -377.155    23918035.298    97940361.29549
      -293.891  
  20709375.905   108828503.47449     -1513.418    20709376.075    84801435.22148
     -1179.289  
  20825434.447   109438410.51349      1753.160    20825434.152    85276695.08148
      1366.097  
  20495359.131   107703859.54749      1644.573    20495357.709    83925102.88248
      1281.487  
  21819838.137   114664048.95348      2844.563    21819840.871    89348641.77249
      2216.542  
  23169632.077   121757238.60747      2991.152    23169633.193    94875768.84449
      2330.766  
  22508501.785   118282971.35048     -3091.410    22508500.044    92168545.86944
     -2408.891  
  21678630.762   115844005.44107       -15.737    21678634.658    90100929.89908
       -12.241  
  20345213.196   108604136.79607        -3.398    20345217.145    84469921.46104
        -2.644  
  19316026.317   103074028.59607      -524.886           0.000           0.0000 
         0.000  
  21004188.799   112437084.73408      2587.840    21004192.425    87451090.87107
      2012.766  
  22193896.164   118555805.56805      3535.656    22193901.481    92210104.02004
      2749.956  
  22680797.936   121241891.84207     -3402.242    22680804.816    94299259.63306
     -2646.187  
  21355463.660   114277386.91408     -3721.956    21355468.057    88882427.82607
     -2894.859  
 20 10 02 06 48 25.0000000  0 15G15G27G18G23G20G24G10G13R15R22R 6R 7
                                R16R 5R21
  20420621.740   107311100.62949     -1598.562    20420621.159    83619042.51649
     -1245.636  
  23918393.328   125692019.10547      -380.632    23918395.753    97941837.60949
      -296.597  
  20710817.579   108836079.21149     -1516.706    20710817.629    84807338.39248
     -1181.851  
  20823767.297   109429649.30049      1751.281    20823766.889    85269868.16748
      1364.629  
  20493795.458   107695642.39449      1642.402    20493794.009    83918699.88748
      1279.789  
  21817132.887   114649832.61448      2841.901    21817135.731    89337564.11349
      2214.469  
  23166786.521   121742285.20648      2990.195    23166787.610    94864116.84349
      2330.022  
  22511443.771   118298431.43448     -3092.753    22511441.879    92180592.69244
     -2409.933  
  21678647.351   115844094.15007       -20.094    21678651.477    90100998.93007
       -15.628  
  20345218.654   108604165.96407        -8.284    20345222.602    84469944.14804
        -6.445  
  19316519.385   103076659.17207      -527.449           0.000           0.0000 
         0.000  
  21001772.408   112424149.72608      2586.156    21001776.229    87441030.30908
      2011.452  
  22190587.667   118538132.85805      3533.336    22190593.009    92196358.61704
      2748.155  
  22683980.712   121258904.88207     -3402.897    22683987.312    94312491.95905
     -2646.707  
  21358942.860   114296004.69208     -3724.878    21358947.334    88896908.29907
     -2897.132  
 20 10 02 06 48 30.0000000  0 15G15G27G18G23G20G24G10G13R15R22R 6R 7
                                R16R 5R21
  20422144.111   107319100.80649     -1601.301    20422143.612    83625276.42649
     -1247.765  
  23918757.006   125693930.77547      -383.770    23918759.604    97943327.20549
      -299.047  
  20712262.102   108843670.98049     -1519.914    20712262.339    84813254.05448
     -1184.351  
  20822101.867   109420897.90249      1749.391    20822101.362    85263048.89648
      1363.160  
  20492233.887   107687436.12549      1640.112    20492232.522    83912305.38748
      1278.008  
  21814429.935   114635628.78348      2839.508    21814432.775    89326496.17849
      2212.602  
  23163941.584   121727335.93148      2989.387    23163942.933    94852468.05649
      2329.387  
  22514387.074   118313898.69048     -3094.069    22514385.185    92192645.10044
     -2410.969  
  21678668.356   115844206.30007       -24.859    21678672.804    90101086.16207
       -19.336  
  20345228.772   108604219.75607       -12.972    20345232.472    84469985.97104
       -10.094  
  19317014.695   103079302.11307      -529.800           0.000           0.0000 
         0.000  
  20999357.679   112411223.36708      2584.441    20999361.399    87430976.49308
      2010.124  
  22187281.663   118520472.71405      3530.598    22187286.793    92182622.93005
      2746.016  
  22687164.249   121275921.02907     -3403.203    22687170.501    94325726.75605
     -2646.938  
  21362424.599   114314636.46108     -3727.808    21362428.990    88911399.67507
     -2899.405  
 20 10 02 06 48 35.0000000  0 15G15G27G18G23G20G24G10G13R15R22R 6R 7
                                R16R 5R21
  20423668.751   107327112.37449     -1603.573    20423668.248    83631519.20949
     -1249.542  
  23919123.767   125695857.99447      -386.843    23919126.150    97944828.96149
      -301.433  
  20713709.634   108851277.25049     -1522.718    20713709.752    84819181.02948
     -1186.535  
  20820438.137   109412154.82049      1747.749    20820437.807    85256236.10348
      1361.879  
  20490674.015   107679239.22449      1638.492    20490672.754    83905918.18248
      1276.742  
  21811729.091   114621435.91148      2837.547    21811731.818    89315436.80449
      2211.074  
  23161097.374   121712389.19248      2989.093    23161098.579    94840821.24449
      2329.159  
  22517331.482   118329371.56447     -3095.155    22517329.325    92204701.86344
     -2411.815  
  21678693.518   115844340.13407       -28.875    21678697.976    90101190.21907
       -22.464  
  20345243.211   108604296.39507       -17.473    20345246.965    84470045.57904
       -13.594  
  19317512.065   103081956.11208      -531.828           0.000           0.0000 
         0.000  
  20996944.272   112398304.05708      2583.164    20996948.018    87420928.14808
      2009.129  
  22183977.666   118502823.54405      3529.011    22183982.685    92168895.75504
      2744.777  
  22690347.824   121292938.65107     -3403.551    22690353.856    94338962.65306
     -2647.215  
  21365908.602   114333280.69108     -3729.948    21365913.040    88925900.70007
     -2901.078  
 20 10 02 06 48 40.0000000  0 15G15G27G18G23G20G24G10G13R15R22R 6R 7
                                R16R 5R21
  20425195.652   107335136.88649     -1605.847    20425195.300    83637772.08049
     -1251.312  
  23919493.941   125697802.36347      -390.308    23919496.404    97946344.02949
      -304.140  
  20715160.025   108858899.60649     -1525.854    20715160.101    84825120.52848
     -1188.977  
  20818776.260   109403421.59449      1746.022    20818775.716    85249430.99348
      1360.535  
  20489116.251   107671053.24549      1636.473    20489114.954    83899539.50048
      1275.167  
  21809030.714   114607255.59548      2835.089    21809033.470    89304387.20649
      2209.156  
  23158253.747   121697446.55048      2988.441    23158254.970    94829177.61049
      2328.651  
  22520277.186   118344851.56447     -3096.414    22520275.256    92216764.23644
     -2412.788  
  21678722.891   115844497.43607       -33.495    21678727.349    90101312.54807
       -26.055  
  20345262.091   108604397.77107       -22.375    20345266.024    84470124.42704
       -17.405  
  19318011.711   103084622.82208      -534.269           0.000           0.0000 
         0.000  
  20994532.431   112385393.50108      2581.648    20994536.104    87410886.60308
      2007.948  
  22180675.981   118485186.97005      3526.496    22180680.994    92155178.43304
      2742.827  
  22693532.113   121309959.47407     -3404.026    22693538.157    94352201.07706
     -2647.577  
  21369395.277   114351938.81108     -3732.687    21369399.721    88940412.58707
     -2903.203  
 20 10 02 06 48 45.0000000  0 15G15G27G18G23G20G24G10G13R15R22R 6R 7
                                R16R 5R21
  20426724.619   107343171.97649     -1608.270    20426724.309    83644033.17549
     -1253.198  
  23919866.831   125699761.50747      -393.339    23919869.136    97947870.64649
      -306.500  
  20716613.073   108866535.64349     -1528.714    20716613.119    84831070.67348
     -1191.211  
  20817115.741   109394695.88649      1744.270    20817115.329    85242631.73648
      1359.167  
  20487559.973   107662875.85549      1634.332    20487558.811    83893167.51248
      1273.503  
  21806334.247   114593085.68948      2832.828    21806336.819    89293345.71549
      2207.395  
  23155410.495   121682505.66148      2987.918    23155411.799    94817535.36249
      2328.246  
  22523223.867   118360336.38147     -3097.594    22523221.937    92228830.31044
     -2413.711  
  21678756.261   115844675.60307       -37.836    21678760.874    90101451.13807
       -29.429  
  20345285.291   108604521.36507       -27.054    20345289.102    84470220.55604
       -21.046  
  19318513.438   103087299.72708      -536.695           0.000           0.0000 
         0.000  
  20992121.876   112372489.08108      2580.124    20992125.440    87400849.82008
      2006.761  
  22177376.265   118467560.60406      3524.047    22177381.197    92141469.03905
      2740.925  
  22696716.233   121326980.92006     -3404.335    22696722.152    94365439.94605
     -2647.823  
  21372884.267   114370608.50608     -3735.281    21372888.590    88954933.45107
     -2905.223  
 20 10 02 06 48 50.0000000  0 15G15G27G18G23G20G24G10G13R15R22R 6R 7
                                R16R 5R21
  20428256.304   107351220.78249     -1610.972    20428255.734    83650304.97949
     -1255.305  
  23920243.206   125701738.55947      -397.020    23920245.466    97949411.18749
      -309.371  
  20718069.396   108874188.54749     -1532.148    20718069.336    84837033.98548
     -1193.883  
  20815457.259   109385980.88049      1741.984    20815456.890    85235840.83048
      1357.390  
  20486006.207   107654710.26049      1632.062    20486004.897    83886804.71048
      1271.737  
  21803640.416   114578929.13748      2830.151    21803642.931    89282314.66349
      2205.312  
  23152568.170   121667569.73448      2986.934    23152569.390    94805896.98648
      2327.477  
  22526172.090   118375829.14947     -3099.230    22526170.096    92240902.58945
     -2414.984  
  21678794.148   115844877.99808       -42.898    21678798.675    90101608.59007
       -33.363  
  20345313.187   108604670.34007       -32.039    20345317.040    84470336.42404
       -24.918  
  19319017.697   103089990.11008      -539.210           0.000           0.0000 
         0.000  
  20989713.042   112359594.09008      2578.125    20989716.665    87390820.40308
      2005.207  
  22174079.207   118449947.72106      3521.398    22174084.073    92127770.15705
      2738.867  
  22699901.361   121344006.50207     -3405.437    22699907.320    94378682.06506
     -2648.676  
  21376376.056   114389293.02308     -3738.359    21376380.219    88969465.86207
     -2907.613  
 20 10 02 06 48 55.0000000  0 15G15G27G18G23G20G24G10G13R15R22R 6R 7
                                R16R 5R21
  20429790.445   107359282.87349     -1613.445    20429790.065    83656587.12149
     -1257.234  
  23920623.006   125703733.13947      -400.448    23920625.008    97950965.37749
      -312.046  
  20719528.731   108881857.90749     -1535.426    20719529.017    84843010.10448
     -1196.440  
  20813800.896   109377276.16249      1740.203    20813800.421    85229057.93048
      1355.999  
  20484454.322   107646555.98649      1629.953    20484453.170    83880450.74448
      1270.093  
  21800948.870   114564785.43548      2827.738    21800951.464    89271293.58949
      2203.434  
  23149726.820   121652638.30848      2985.871    23149728.203    94794262.11348
      2326.656  
  22529121.657   118391329.47547     -3100.229    22529119.642    92252980.77044
     -2415.766  
  21678836.679   115845104.20507       -46.976    21678840.997    90101784.49007
       -36.543  
  20345345.826   108604844.28207       -37.265    20345349.610    84470471.71504
       -28.987  
  19319524.204   103092693.52407      -541.926           0.000           0.0000 
         0.000  
  20987305.802   112346708.10408      2576.464    20987309.305    87380797.97508
      2003.917  
  22170784.489   118432347.80305      3519.004    22170789.351    92114081.32005
      2737.000  
  22703087.067   121361035.51907     -3405.573    22703092.703    94391926.86105
     -2648.780  
  21379870.171   114407991.83608     -3740.906    21379874.755    88984009.37607
     -2909.594  
 20 10 02 06 49  0.0000000  0 15G15G27G18G23G20G24G10G13R15R22R 6R 7
                                R16R 5R21
  20431326.888   107367356.28149     -1615.843    20431326.393    83662878.09849
     -1259.097  
  23921005.652   125705743.24147      -403.473    23921007.482    97952531.70448
      -314.398  
  20720990.935   108889541.74749     -1538.370    20720991.133    84848997.50647
     -1198.733  
  20812145.856   109368579.77649      1738.391    20812145.713    85222281.52148
      1354.590  
  20482904.585   107638411.12349      1628.003    20482903.403    83874104.08148
      1268.569  
  21798259.441   114550652.95548      2825.019    21798262.189    89260281.26949
      2201.308  
  23146885.850   121637709.50248      2985.218    23146887.295    94782629.28749
      2326.144  
  22532072.339   118406835.41747     -3102.108    22532070.478    92265063.29345
     -2417.233  
  21678883.008   115845352.15007       -51.883    21678887.407    90101977.34607
       -40.355  
  20345382.734   108605041.27307       -41.953    20345386.519    84470624.92104
       -32.632  
  19320032.850   103095407.88208      -544.152           0.000           0.0000 
         0.000  
  20984899.834   112333829.32808      2574.855    20984903.643    87370781.14408
      2002.660  
  22167492.042   118414759.07805      3516.503    22167496.897    92100401.21805
      2735.058  
  22706273.181   121378066.12507     -3406.625    22706278.561    94405172.85305
     -2649.604  
  21383366.924   114426703.03908     -3743.730    21383371.405    88998562.53407
     -2911.792  
 20 10 02 06 49  5.0000000  0 15G15G27G18G23G20G24G10G13R15R22R 6R 7
                                R16R 5R21
  20432865.415   107375441.85549     -1618.374    20432864.937    83669178.55449
     -1261.069  
  23921391.293   125707769.76546      -406.949    23921393.137    97954110.83449
      -317.101  
  20722455.970   108897240.93049     -1541.445    20722456.109    84854996.86648
     -1201.128  
  20810492.738   109359892.58449      1736.461    20810492.727    85215512.28848
      1353.086  
  20481356.574   107630276.48949      1625.804    20481355.297    83867765.40748
      1266.859  
  21795572.494   114536532.35948      2822.847    21795575.041    89249278.22149
      2199.608  
  23144045.675   121622784.12948      2984.780    23144047.111    94770999.11549
      2325.801  
  22535024.178   118422347.71348     -3103.258    22535022.281    92277150.80745
     -2418.120  
  21678933.539   115845622.73506       -56.824    21678937.864    90102187.80707
       -44.195  
  20345424.159   108605262.14807       -46.507    20345427.981    84470796.69204
       -36.175  
  19320543.912   103098134.19408      -546.555           0.000           0.0000 
         0.000  
  20982495.387   112320958.44808      2573.457    20982499.212    87360770.47008
      2001.578  
  22164201.598   118397182.39705      3514.254    22164206.610    92086730.49505
      2733.309  
  22709459.590   121395099.05606     -3406.972    22709464.903    94418420.63605
     -2649.882  
  21386865.902   114445427.37208     -3746.453    21386870.404    89013125.87307
     -2913.909  
 20 10 02 06 49 10.0000000  0 15G15G27G18G23G20G24G10G13R15R22R 6R 7
                                R16R 5R21
  20434406.230   107383538.92349     -1620.222    20434405.675    83675487.96049
     -1262.512  
  23921780.179   125709812.02947      -409.788    23921782.018    97955702.20549
      -319.320  
  20723923.874   108904954.75449     -1543.944    20723924.039    84861007.64048
     -1203.073  
  20808841.146   109351213.93849      1735.144    20808841.167    85208749.70948
      1352.062  
  20479810.487   107622151.47049      1624.288    20479809.219    83861434.22948
      1265.675  
  21792887.458   114522422.92948      2820.922    21792889.872    89238283.87149
      2198.121  
  23141205.912   121607861.54048      2984.440    23141207.483    94759371.12849
      2325.539  
  22537977.197   118437865.74548     -3103.953    22537975.409    92289242.78145
     -2418.667  
  21678988.367   115845915.31207       -60.522    21678992.550    90102415.37407
       -47.074  
  20345469.885   108605506.20907       -50.651    20345473.804    84470986.53404
       -39.394  
  19321056.843   103100871.85208      -548.410           0.000           0.0000 
         0.000  
  20980092.213   112308094.85008      2572.374    20980096.238    87350765.45708
      2000.730  
  22160913.208   118379616.91105      3512.504    22160918.461    92073068.46505
      2731.949  
  22712646.069   121412133.70806     -3406.866    22712651.615    94431669.83005
     -2649.789  
  21390367.305   114464164.21508     -3748.109    21390371.850    89027698.98807
     -2915.195  
 20 10 02 06 49 15.0000000  0 15G15G27G18G23G20G24G10G13R15R22R 6R 7
                                R16R 5R21
  20435949.315   107391647.98249     -1623.327    20435948.853    83681806.70549
     -1264.933  
  23922171.888   125711870.53847      -413.733    23922173.813    97957306.19749
      -322.402  
  20725394.636   108912683.72549     -1547.762    20725394.903    84867030.20748
     -1206.050  
  20807191.481   109342544.29849      1732.608    20807191.500    85201994.13048
      1350.082  
  20478266.301   107614036.55849      1621.534    20478264.859    83855110.92648
      1263.534  
  21790204.912   114508325.21348      2818.035    21790207.227    89227298.64049
      2195.866  
  23138366.929   121592942.17748      2983.229    23138368.365    94747745.66149
      2324.593  
  22540931.320   118453389.95747     -3105.742    22540929.588    92301339.55545
     -2420.062  
  21679047.232   115846230.30507       -65.297    21679051.485    90102660.38107
       -50.784  
  20345519.880   108605773.89607       -56.183    20345523.864    84471194.75004
       -43.699  
  19321572.181   103103621.07908      -551.409           0.000           0.0000 
         0.000  
  20977690.761   112295239.06808      2569.871    20977694.714    87340766.51008
      1998.788  
  22157627.330   118362063.40405      3509.249    22157632.481    92059415.73005
      2729.414  
  22715833.050   121429170.54107     -3407.754    22715838.769    94444920.71005
     -2650.476  
  21393871.180   114482914.03108     -3751.612    21393875.933    89042282.14307
     -2917.929  
 20 10 02 06 49 20.0000000  0 15G15G27G18G23G20G24G10G13R15R22R 6R 7
                                R16R 5R21
  20437495.237   107399771.39149     -1625.691    20437494.739    83688136.63249
     -1266.776  
  23922567.121   125713947.53346      -416.983    23922569.019    97958924.65549
      -324.922  
  20726868.844   108920430.21049     -1550.578    20726868.923    84873066.41747
     -1208.246  
  20805543.926   109333886.08449      1731.054    20805543.799    85195247.47648
      1348.875  
  20476724.560   107605934.15649      1619.753    20476723.190    83848797.36248
      1262.140  
  21787524.835   114494241.62348      2815.801    21787527.308    89216324.41249
      2194.125  
  23135528.916   121578028.53848      2982.438    23135530.456    94736124.65149
      2323.977  
  22543887.112   118468922.74647     -3106.913    22543885.630    92313443.02345
     -2420.976  
  21679110.881   115846570.26907       -70.038    21679115.006    90102924.79507
       -54.480  
  20345574.973   108606067.76907       -60.792    20345579.010    84471423.30104
       -47.289  
  19322089.980   103106384.52507      -553.569           0.000           0.0000 
         0.000  
  20975291.003   112282393.41308      2568.667    20975295.018    87330775.45407
      1997.852  
  22154344.093   118344524.09405      3507.281    22154349.390    92045774.06205
      2727.887  
  22719021.037   121446212.00406     -3408.199    22719026.893    94458175.18105
     -2650.820  
  21397377.861   114501679.11608     -3754.188    21397382.551    89056877.19107
     -2919.925  
 20 10 02 06 49 25.0000000  0 15G15G27G18G23G20G24G10G13R15R22R 6R 7
                                R16R 5R21
  20439043.278   107407906.27549     -1628.112    20439042.824    83694475.49749
     -1268.663  
  23922965.312   125716040.25846      -420.074    23922967.393    97960555.33749
      -327.336  
  20728345.701   108928191.29949     -1553.777    20728345.890    84879114.03648
     -1210.734  
  20803897.892   109325236.40249      1728.925    20803897.781    85188507.46448
      1347.215  
  20475184.526   107597841.34849      1617.488    20475183.248    83842491.27348
      1260.375  
  21784846.987   114480169.34348      2813.261    21784849.519    89205359.00149
      2192.121  
  23132691.513   121563117.60348      2981.683    23132693.084    94724505.74449
      2323.390  
  22546844.123   118484461.25947     -3108.269    22546842.360    92325550.96445
     -2422.027  
  21679178.553   115846932.26307       -74.633    21679182.873    90103206.33407
       -58.051  
  20345634.433   108606384.85907       -65.831    20345638.300    84471669.93104
       -51.203  
  19322610.003   103109159.28007      -556.276           0.000           0.0000 
         0.000  
  20972892.746   112269555.10408      2566.840    20972896.778    87320790.08907
      1996.426  
  22151062.700   118326996.26505      3504.120    22151068.016    92032141.30705
      2725.425  
  22722209.252   121463255.11905     -3409.147    22722215.124    94471430.97705
     -2651.555  
  21400886.780   114520456.61208     -3756.891    21400891.294    89071481.92807
     -2922.026  
 20 10 02 06 49 30.0000000  0 15G15G27G18G23G20G24G10G13R15R22R 6R 7
                                R16R 5R21
  20440593.985   107416055.17049     -1630.781    20440593.597    83700825.28149
     -1270.741  
  23923366.907   125718151.18445      -423.800    23923369.098    97962200.21949
      -330.237  
  20729825.788   108935969.58449     -1556.949    20729826.087    84885175.04048
     -1213.207  
  20802253.971   109316597.81949      1726.960    20802253.929    85181776.10248
      1345.679  
  20473646.758   107589760.72949      1615.210    20473645.504    83836194.69148
      1258.601  
  21782171.603   114466110.88948      2810.683    21782174.174    89194404.38249
      2190.148  
  23129855.255   121548212.06148      2980.937    23129856.919    94712891.02849
      2322.804  
  22549802.582   118500008.06747     -3109.858    22549801.079    92337665.35945
     -2423.270  
  21679250.636   115847318.76506       -79.581    21679255.029    90103506.91707
       -61.906  
  20345698.753   108606727.66907       -70.992    20345702.540    84471936.55204
       -55.218  
  19323132.538   103111947.81708      -558.781           0.000           0.0000 
         0.000  
  20970496.219   112256726.49208      2565.089    20970500.200    87310812.29808
      1995.070  
  22147784.051   118309482.37205      3502.109    22147789.313    92018519.42905
      2723.866  
  22725398.344   121480302.51805     -3409.308    22725404.500    94484690.06005
     -2651.684  
  21404398.618   114539249.10508     -3759.559    21404403.170    89086098.30007
     -2924.105  
 20 10 02 06 49 35.0000000  0 15G15G27G18G23G20G24G10G13R15R22R 6R 7
                                R16R 5R21
  20442146.573   107424214.07649     -1633.198    20442146.081    83707182.87949
     -1272.621  
  23923771.293   125720276.50045      -427.370    23923773.489    97963856.35148
      -333.015  
  20731308.534   108943761.06149     -1559.987    20731308.701    84891246.31448
     -1215.578  
  20800611.570   109307966.34849      1725.273    20800611.338    85175050.27748
      1344.366  
  20472110.711   107581688.31049      1613.316    20472109.491    83829904.50348
      1257.129  
  21779498.335   114452062.23948      2808.164    21779500.745    89183457.38749
      2188.180  
  23127018.931   121533307.88748      2980.288    23127020.634    94701277.38248
      2322.304  
  22552761.766   118515559.11847     -3111.394    22552760.439    92349783.03845
     -2424.468  
  21679326.744   115847725.77707       -84.042    21679331.277    90103823.47607
       -65.371  
  20345767.118   108607092.29707       -75.226    20345770.936    84472220.14504
       -58.512  
  19323656.904   103114745.96408      -560.999           0.000           0.0000 
         0.000  
  20968100.771   112243903.75608      2563.589    20968104.868    87300839.04108
      1993.898  
  22144507.135   118291978.55205      3499.051    22144512.638    92004905.32205
      2721.480  
  22728587.525   121497350.14606     -3409.835    22728593.559    94497949.29905
     -2652.094  
  21407912.337   114558052.53508     -3762.104    21407917.021    89100723.17407
     -2926.086  
 20 10 02 06 49 40.0000000  0 15G15G27G18G23G20G24G10G13R15R22R 6R 7
                                R16R 5R21
  20443701.445   107432385.20349     -1635.933    20443701.018    83713549.99449
     -1274.753  
  23924178.848   125722418.28045      -430.352    23924180.885    97965525.22548
      -335.348  
  20732793.963   108951567.92149     -1563.405    20732794.226    84897329.57048
     -1218.241  
  20798970.853   109299344.23149      1723.026    20798970.415    85168331.75248
      1342.616  
  20470576.552   107573626.30949      1610.891    20470575.404    83823622.42348
      1255.238  
  21776827.143   114438025.81248      2805.503    21776829.494    89172519.90349
      2186.104  
  23124183.567   121518407.29548      2979.160    23124185.099    94689666.52749
      2321.418  
  22555722.110   118531116.55047     -3112.523    22555720.798    92361905.71345
     -2425.343  
  21679407.110   115848155.54106       -88.406    21679411.630    90104157.75107
       -68.761  
  20345839.798   108607480.82807       -80.265    20345843.709    84472522.34704
       -62.430  
  19324183.724   103117556.02108      -563.487           0.000           0.0000 
         0.000  
  20965706.959   112231089.24308      2561.741    20965710.952    87290872.21107
      1992.465  
  22141232.534   118274486.78204      3496.753    22141238.105    91991300.61505
      2719.698  
  22731777.093   121514400.27607     -3410.733    22731783.164    94511210.55505
     -2652.792  
  21411428.750   114576869.07108     -3764.988    21411433.320    89115358.26307
     -2928.324  
 20 10 02 06 49 45.0000000  0 15G15G27G18G23G20G24G10G13R15R22R 6R 7
                                R16R 5R21
  20445258.776   107440569.65649     -1637.523    20445258.617    83719927.47749
     -1275.995  
  23924589.679   125724577.52146      -433.448    23924591.542    97967207.76648
      -337.758  
  20734282.806   108959391.24849     -1565.547    20734282.933    84903425.67248
     -1219.906  
  20797332.033   109290732.54849      1721.901    20797331.688    85161621.34448
      1341.738  
  20469044.489   107565575.86349      1609.702    20469043.500    83817349.34648
      1254.309  
  21774158.620   114424002.44348      2804.184    21774160.891    89161592.60749
      2185.078  
  23121348.917   121503511.35948      2979.522    23121350.535    94678059.30549
      2321.706  
  22558684.066   118546681.54847     -3113.176    22558682.832    92374034.27745
     -2425.855  
  21679491.995   115848609.14107       -92.413    21679496.530    90104510.55107
       -71.879  
  20345917.295   108607894.48007       -84.457    20345921.295    84472844.06304
       -65.690  
  19324712.779   103120379.34908      -565.230           0.000           0.0000 
         0.000  
  20963314.628   112218283.74908      2560.922    20963318.690    87280912.38707
      1991.828  
  22137960.585   118257008.58904      3495.105    22137966.156    91977706.48906
      2718.413  
  22734967.291   121531453.90006     -3410.241    22734973.393    94524474.43605
     -2652.418  
  21414947.627   114595699.85308     -3766.917    21414952.217    89130004.41707
     -2929.828  
 20 10 02 06 49 50.0000000  0 15G15G27G18G23G20G24G10G13R15R22R 6R 7
                                R16R 5R21
  20446818.206   107448764.29749     -1640.440    20446817.913    83726312.90849
     -1278.269  
  23925003.300   125726751.30346      -437.007    23925005.132    97968901.59848
      -340.530  
  20735773.979   108967227.94949     -1569.210    20735774.330    84909532.19248
     -1222.762  
  20795694.732   109282128.18949      1719.507    20795694.195    85154916.65048
      1339.874  
  20467514.161   107557533.80849      1607.035    20467513.080    83811082.81448
      1252.233  
  21771492.024   114409989.32048      2800.960    21771494.333    89150673.27949
      2182.562  
  23118514.702   121488617.01948      2977.957    23118516.175    94666453.32549
      2320.483  
  22561646.768   118562250.90348     -3114.875    22561645.544    92386166.21444
     -2427.179  
  21679580.578   115849083.50107       -97.722    21679585.145    90104879.47807
       -76.012  
  20345998.924   108608330.06707       -90.051    20346002.726    84473182.87104
       -70.039  
  19325243.704   103123212.49907      -568.327           0.000           0.0000 
         0.000  
  20960923.598   112205484.22408      2558.746    20960927.689    87270957.19307
      1990.132  
  22134690.091   118239540.47504      3492.531    22134696.165    91964120.18505
      2716.413  
  22738157.723   121548507.90107     -3411.288    22738163.799    94537738.70805
     -2653.223  
  21418468.706   114614541.70208     -3770.206    21418473.271    89144659.17707
     -2932.387  
 20 10 02 06 49 55.0000000  0 15G15G27G18G23G20G24G10G13R15R22R 6R 7
                                R16R 5R21
  20448380.312   107456973.28249     -1643.128    20448380.121    83732709.51349
     -1280.363  
  23925420.435   125728943.54746      -439.901    23925422.202    97970609.80748
      -342.789  
  20737268.745   108975082.05949     -1572.378    20737268.885    84915652.27248
     -1225.234  
  20794059.545   109273535.22649      1717.476    20794058.865    85148220.83848
      1338.288  
  20465986.317   107549504.18249      1604.828    20465985.101    83804825.96448
      1250.516  
  21768828.101   114395990.28148      2798.511    21768830.171    89139764.95149
      2180.660  
  23115681.492   121473728.27648      2977.195    23115682.823    94654851.72149
      2319.890  
  22564611.213   118577828.78847     -3116.347    22564609.746    92398304.84445
     -2428.323  
  21679673.891   115849582.60907      -102.188    21679678.428    90105267.71207
       -79.477  
  20346085.224   108608791.71107       -94.754    20346089.223    84473541.92904
       -73.703  
  19325777.251   103126059.73207      -570.648           0.000           0.0000 
         0.000  
  20958534.237   112192694.94308      2557.156    20958538.457    87261009.98607
      1988.897  
  22131422.616   118222086.93005      3489.718    22131428.792    91950545.22205
      2714.227  
  22741348.961   121565566.42706     -3412.484    22741354.992    94551006.41005
     -2654.163  
  21421992.594   114633398.67808     -3772.902    21421997.028    89159325.71507
     -2934.479  
 20 10 02 06 50  0.0000000  0 15G15G27G18G23G20G24G10G13R15R22R 6R 7
                                R16R 5R21
  20449944.533   107465193.82149     -1645.097    20449944.497    83739115.12149
     -1281.898  
  23925840.647   125731151.65246      -443.168    23925842.501    97972330.42249
      -345.328  
  20738765.957   108982950.92749     -1575.226    20738766.128    84921783.85448
     -1227.453  
  20792426.105   109264951.00349      1716.152    20792425.334    85141531.83448
      1337.261  
  20464460.193   107541484.40949      1603.059    20464459.034    83798576.78548
      1249.133  
  21766166.292   114382002.85048      2796.308    21766168.563    89128865.64349
      2178.937  
  23112848.854   121458842.53848      2976.917    23112850.251    94643252.43949
      2319.671  
  22567576.752   118593412.49048     -3117.059    22567575.175    92410447.99945
     -2428.874  
  21679771.356   115850103.89907      -106.453    21679776.122    90105673.12707
       -82.801  
  20346176.046   108609276.71407       -99.129    20346180.327    84473919.14604
       -77.105  
  19326313.021   103128918.16908      -572.886           0.000           0.0000 
         0.000  
  20956146.660   112179913.11908      2555.707    20956150.892    87251068.56808
      1987.772  
  22128157.369   118204644.75204      3487.292    22128163.593    91936979.07905
      2712.335  
  22744540.403   121582626.82606     -3412.136    22744546.404    94564275.61806
     -2653.886  
  21425518.877   114652268.00108     -3775.027    21425523.213    89174001.85907
     -2936.137  
 20 10 02 06 50  5.0000000  0 15G15G27G18G23G20G24G10G13R15R22R 6R 7
                                R16R 5R21
  20451511.424   107473427.04649     -1648.195    20451511.076    83745530.62649
     -1284.308  
  23926264.195   125733376.63246      -447.003    23926266.041    97974064.18548
      -348.315  
  20740266.432   108990835.66749     -1578.886    20740266.503    84927927.79748
     -1230.305  
  20790794.360   109256376.65649      1713.569    20790793.760    85134850.53248
      1335.250  
  20462936.126   107533475.60149      1600.348    20462935.191    83792336.15248
      1247.020  
  21763507.154   114368028.11048      2793.414    21763509.352    89117976.24049
      2176.688  
  23110016.984   121443960.89748      2975.711    23110018.429    94631656.35149
      2318.733  
  22570543.564   118609003.09747     -3119.316    22570542.125    92422596.50845
     -2430.636  
  21679873.319   115850648.47707      -111.547    21679877.877    90106096.66607
       -86.765  
  20346271.581   108609786.11907      -104.644    20346275.718    84474315.35304
       -81.390  
  19326851.122   103131789.23508      -575.738           0.000           0.0000 
         0.000  
  20953760.368   112167139.89108      2553.487    20953764.680    87241133.84207
      1986.043  
  22124894.610   118187215.65105      3484.219    22124900.784    91923423.14506
      2709.949  
  22747732.606   121599690.13607     -3413.261    22747738.506    94577547.09805
     -2654.757  
  21429047.370   114671150.95908     -3778.164    21429051.965    89188688.59507
     -2938.573  
 20 10 02 06 50 10.0000000  0 15G15G27G18G23G20G24G10G13R15R22R 6R 7
                                R16R 5R21
  20453080.215   107481671.56649     -1650.058    20453079.842    83751954.92949
     -1285.766  
  23926690.623   125735617.27345      -449.569    23926692.463    97975810.15849
      -350.315  
  20741769.536   108998734.90649     -1581.309    20741769.877    84934083.05148
     -1232.191  
  20789164.311   109247810.84749      1712.402    20789163.712    85128175.88148
      1334.335  
  20461413.965   107525476.40449      1598.866    20461413.056    83786103.01548
      1245.871  
  21760849.932   114354064.78248      2791.538    21760852.099    89107095.73449
      2175.226  
  23107185.800   121429082.08148      2975.366    23107187.133    94620062.48149
      2318.468  
  22573511.277   118624599.09647     -3119.664    22573510.123    92434749.24645
     -2430.906  
  21679979.231   115851214.97007      -115.637    21679984.047    90106537.30407
       -89.941  
  20346371.129   108610318.76607      -108.863    20346375.464    84474729.63404
       -84.675  
  19327391.222   103134671.37707      -577.625           0.000           0.0000 
         0.000  
  20951375.535   112154373.91408      2552.449    20951379.886    87231204.74007
      1985.238  
  22121634.108   118169798.06905      3482.112    22121640.215    91909876.14105
      2708.308  
  22750925.113   121616755.04207     -3413.429    22750930.562    94590819.76505
     -2654.863  
  21432578.496   114690046.10408     -3780.358    21432582.902    89203384.82707
     -2940.281  
 20 10 02 06 50 15.0000000  0 15G15G27G18G23G20G24G10G13R15R22R 6R 7
                                R16R 5R21
  20454651.255   107489927.37149     -1652.703    20454651.046    83758388.02749
     -1287.819  
  23927119.946   125737873.41746      -452.906    23927121.881    97977568.17648
      -352.914  
  20743275.490   109006648.62349     -1584.652    20743275.686    84940249.58548
     -1234.792  
  20787535.992   109239253.53749      1710.219    20787535.347    85121507.84448
      1332.632  
  20459893.521   107517486.79149      1596.397    20459892.632    83779877.35448
      1243.944  
  21758195.033   114340112.66248      2788.867    21758197.158    89096223.94649
      2173.140  
  23104354.761   121414205.96548      2974.375    23104356.305    94608470.71249
      2317.695  
  22576480.000   118640200.68548     -3121.483    22576479.065    92446906.31345
     -2432.328  
  21680089.467   115851803.31708      -120.483    21680094.121    90106994.89007
       -93.715  
  20346475.290   108610874.38007      -113.897    20346479.564    84475161.78004
       -88.586  
  19327933.357   103137564.72008      -580.266           0.000           0.0000 
         0.000  
  20948992.192   112141615.13208      2550.476    20948996.472    87221281.25607
      1983.703  
  22118375.634   118152391.85905      3479.684    22118381.573    91896337.98705
      2706.421  
  22754117.729   121633821.43707     -3413.671    22754123.115    94604093.62006
     -2655.082  
  21436111.734   114708953.36008     -3783.441    21436116.301    89218090.46707
     -2942.679  
 20 10 02 06 50 20.0000000  0 15G15G27G18G23G20G24G10G13R15R22R 6R 7
                                R16R 5R21
  20456224.612   107498195.82549     -1654.632    20456224.228    83764830.97849
     -1289.324  
  23927552.488   125740146.59346      -456.276    23927554.471    97979339.52748
      -355.535  
  20744784.504   109014578.19949     -1587.312    20744784.708    84946428.46548
     -1236.870  
  20785909.557   109230706.12449      1708.711    20785908.934    85114847.51648
      1331.461  
  20458375.343   107509508.15049      1594.870    20458374.428    83773660.21548
      1242.753  
  21755542.572   114326173.22948      2786.784    21755544.827    89085362.06149
      2171.520  
  23101524.693   121399333.98548      2974.237    23101526.414    94596882.15849
      2317.585  
  22579450.289   118655809.12748     -3122.262    22579449.258    92459068.72745
     -2432.933  
  21680203.848   115852414.91308      -124.637    21680208.732    90107470.58107
       -96.945  
  20346583.919   108611454.59107      -118.191    20346588.462    84475613.06104
       -91.926  
  19328477.936   103140470.51008      -582.156           0.000           0.0000 
         0.000  
  20946610.227   112128864.78408      2549.472    20946614.541    87211364.32407
      1982.917  
  22115119.562   118134998.50706      3477.457    22115125.494    91882809.82605
      2704.688  
  22757310.822   121650890.78407     -3413.883    22757316.270    94617369.76405
     -2655.245  
  21439647.511   114727874.02008     -3785.270    21439652.121    89232806.52407
     -2944.104  
 20 10 02 06 50 25.0000000  0 15G15G27G18G23G20G24G10G13R15R22R 6R 7
                                R16R 5R21
  20457800.615   107506477.74649     -1657.569    20457800.316    83771284.41949
     -1291.617  
  23927988.484   125742437.48946      -459.808    23927990.406    97981124.60748
      -358.296  
  20746296.529   109022524.41649     -1590.827    20746296.844    84952620.31748
     -1239.609  
  20784285.003   109222169.37849      1706.390    20784284.545    85108195.50648
      1329.652  
  20456859.252   107501541.29149      1592.226    20456858.440    83767452.27948
      1240.695  
  21752892.573   114312247.41948      2783.926    21752894.721    89074510.79149
      2169.292  
  23098695.544   121384466.95747      2973.077    23098697.315    94585297.46849
      2316.684  
  22582421.902   118671425.15747     -3123.789    22582421.176    92471237.04745
     -2434.124  
  21680322.906   115853050.58908      -129.504    21680327.770    90107964.98207
      -100.729  
  20346697.459   108612060.11407      -123.655    20346701.898    84476084.02904
       -96.176  
  19329024.961   103143389.56808      -585.012           0.000           0.0000 
         0.000  
  20944230.285   112116124.11208      2547.300    20944234.292    87201454.89407
      1981.230  
  22111866.356   118117619.11806      3474.800    22111872.048    91869292.54505
      2702.620  
  22760504.806   121667963.83607     -3414.918    22760510.144    94630648.79906
     -2656.050  
  21443185.941   114746809.05908     -3788.335    21443190.621    89247533.76807
     -2946.487  
 20 10 02 06 50 30.0000000  0 15G15G27G18G23G20G24G10G13R15R22R 6R 7
                                R16R 5R21
  20459378.938   107514771.70249     -1659.523    20459378.622    83777747.25349
     -1293.136  
  23928427.532   125744744.66946      -462.438    23928429.611    97982922.39448
      -360.344  
  20747811.422   109030485.88449     -1593.465    20747811.908    84958824.06248
     -1241.664  
  20782662.165   109213641.96449      1704.968    20782661.826    85101550.77648
      1328.546  
  20455345.057   107493584.82649      1590.613    20455344.407    83761252.44348
      1239.437  
  21750244.872   114298333.72148      2781.922    21750247.073    89063668.95949
      2167.729  
  23095867.194   121369603.50148      2972.858    23095868.959    94573715.54249
      2316.511  
  22585394.627   118687047.49148     -3124.854    22585393.959    92483410.31645
     -2434.953  
  21680446.040   115853708.98408      -133.604    21680451.319    90108477.07407
      -103.917  
  20346815.318   108612689.56307      -127.901    20346819.651    84476573.57504
       -99.484  
  19329574.228   103146320.22008      -587.117           0.000           0.0000 
         0.000  
  20941851.671   112103391.29708      2546.082    20941855.764    87191551.60107
      1980.284  
  22108615.118   118100251.99606      3472.801    22108620.801    91855784.76905
      2701.065  
  22763699.361   121685039.28307     -3414.675    22763704.407    94643929.70205
     -2655.862  
  21446726.650   114765756.82508     -3790.503    21446731.450    89262270.89207
     -2948.176  
 20 10 02 06 50 35.0000000  0 15G15G27G18G23G20G24G10G13R15R22R 6R 7
                                R16R 5R21
  20460959.334   107523076.86349     -1662.140    20460958.867    83784218.81449
     -1295.176  
  23928869.486   125747067.34246      -466.250    23928871.618    97984732.30648
      -363.313  
  20749329.140   109038461.73849     -1596.659    20749329.623    84965039.00948
     -1244.155  
  20781041.242   109205123.01749      1702.929    20781040.839    85094912.63548
      1326.956  
  20453832.748   107485637.90349      1588.387    20453832.311    83755060.03948
      1237.698  
  21747599.465   114284431.35848      2779.413    21747601.615    89052835.93749
      2165.772  
  23093039.173   121354742.71247      2971.827    23093041.095    94562135.72349
      2315.715  
  22588368.515   118702675.19148     -3126.281    22588367.675    92495587.71745
     -2436.065  
  21680573.510   115854389.15008      -138.293    21680578.629    90109006.07307
      -107.565  
  20346937.469   108613341.98807      -132.636    20346941.650    84477081.00004
      -103.163  
  19330125.496   103149262.17508      -589.437           0.000           0.0000 
         0.000  
  20939474.333   112090665.59808      2544.354    20939478.361    87181653.86207
      1978.940  
  22105366.435   118082896.33406      3469.526    22105371.838    91842285.92505
      2698.515  
  22766894.016   121702116.13507     -3415.492    22766898.947    94657211.66406
     -2656.499  
  21450269.787   114784716.61708     -3793.273    21450274.686    89277017.40907
     -2950.328  
 20 10 02 06 50 40.0000000  0 15G15G27G18G23G20G24G10G13R15R22R 6R 7
                                R16R 5R21
  20462542.193   107531394.00149     -1664.815    20462541.582    83790699.70449
     -1297.258  
  23929314.581   125749406.33247      -469.535    23929316.467    97986554.88748
      -365.874  
  20750849.738   109046452.75249     -1599.796    20750850.033    84971265.77147
     -1246.598  
  20779421.829   109196613.32249      1700.952    20779421.567    85088281.70548
      1325.417  
  20452322.545   107477701.32549      1586.125    20452321.902    83748875.69748
      1235.941  
  21744956.057   114270540.93848      2776.965    21744958.579    89042012.24049
      2163.867  
  23090211.884   121339885.42747      2971.304    23090213.949    94550558.62849
      2315.301  
  22591343.605   118718309.05448     -3127.590    22591342.670    92507769.94945
     -2437.085  
  21680704.918   115855091.94408      -143.038    21680710.080    90109552.69507
      -111.257  
  20347064.300   108614018.30407      -137.859    20347068.432    84477607.03204
      -107.222  
  19330678.861   103152215.84807      -592.019           0.000           0.0000 
         0.000  
  20937098.737   112077948.03308      2542.765    20937102.557    87171762.40907
      1977.703  
  22102119.848   118065553.20806      3467.651    22102125.280    91828796.82205
      2697.059  
  22770089.049   121719195.10807     -3416.160    22770093.942    94670495.29805
     -2657.015  
  21453815.426   114803689.07908     -3795.816    21453820.136    89291773.76507
     -2952.305  
 20 10 02 06 50 45.0000000  0 15G15G27G18G23G20G24G10G13R15R22R 6R 7
                                R16R 5R21
  20464127.316   107539724.13049     -1667.229    20464126.768    83797190.71449
     -1299.140  
  23929763.041   125751762.66046      -472.730    23929764.817    97988390.99348
      -368.363  
  20752373.565   109054460.01549     -1602.886    20752373.871    84977505.19747
     -1249.008  
  20777804.314   109188113.94049      1699.109    20777804.227    85081658.81648
      1323.980  
  20450814.401   107469776.16549      1584.094    20450813.916    83742700.24648
      1234.359  
  21742315.252   114256663.63248      2774.304    21742317.718    89031198.76449
      2161.796  
  23087385.427   121325032.73547      2970.257    23087387.700    94538985.11249
      2314.488  
  22594320.008   118733950.12348     -3128.773    22594319.098    92519957.80045
     -2438.008  
  21680840.989   115855818.41308      -147.577    21680846.066    90110117.72507
      -114.784  
  20347195.646   108614719.37207      -142.417    20347199.565    84478152.32104
      -110.769  
  19331234.875   103155182.40707      -594.484           0.000           0.0000 
         0.000  
  20934724.627   112065239.55208      2541.034    20934728.555    87161878.02107
      1976.354  
  22098875.685   118048223.28505      3464.930    22098881.341    91815318.00705
      2694.945  
  22773284.619   121736277.60506     -3416.715    22773289.415    94683781.67106
     -2657.448  
  21457363.442   114822675.41808     -3798.426    21457368.191    89306540.90507
     -2954.336  
 20 10 02 06 50 50.0000000  0 15G15G27G18G23G20G24G10G13R15R22R 6R 7
                                R16R 5R21
  20465714.752   107548066.94249     -1669.734    20465714.450    83803691.59849
     -1301.094  
  23930214.712   125754135.95746      -476.108    23930216.629    97990240.30849
      -371.000  
  20753900.260   109062483.16449     -1606.206    20753900.627    84983757.00648
     -1251.590  
  20776188.881   109179624.59649      1696.879    20776188.788    85075043.73548
      1322.237  
  20449308.329   107461862.11049      1581.820    20449307.880    83736533.43648
      1232.582  
  21739676.916   114242799.33348      2771.566    21739679.576    89020395.41949
      2159.664  
  23084559.920   121310184.28147      2969.315    23084561.985    94527414.90549
      2313.754  
  22597297.727   118749598.07848     -3130.285    22597296.776    92532150.98745
     -2439.187  
  21680981.359   115856568.22608      -152.090    21680986.319    90110700.89507
      -118.296  
  20347331.649   108615445.08707      -147.526    20347335.331    84478716.77704
      -114.741  
  19331793.097   103158161.59408      -597.191           0.000           0.0000 
         0.000  
  20932352.205   112052539.56808      2539.046    20932356.059    87152000.24607
      1974.809  
  22095633.843   118030906.57205      3462.094    22095639.460    91801849.45905
      2692.738  
  22776480.772   121753362.90706     -3417.289    22776485.755    94697070.23905
     -2657.890  
  21460914.120   114841675.21908     -3801.487    21460918.845    89321318.51407
     -2956.719  
 20 10 02 06 50 55.0000000  0 15G15G27G18G23G20G24G10G13R15R22R 6R 7
                                R16R 5R21
  20467304.450   107556420.33149     -1672.316    20467304.115    83810200.73049
     -1303.108  
  23930669.370   125756524.17045      -479.870    23930671.273    97992101.24849
      -373.930  
  20755429.646   109070520.08149     -1609.362    20755429.842    84990019.54047
     -1254.054  
  20774574.957   109171143.11949      1694.980    20774574.832    85068434.79648
      1320.766  
  20447804.036   107453957.02549      1579.508    20447803.539    83730373.63148
      1230.781  
  21737040.521   114228945.79648      2769.104    21737043.396    89009600.45049
      2157.746  
  23081734.595   121295337.94147      2968.530    23081736.917    94515846.32049
      2313.141  
  22600276.225   118765250.78548     -3131.554    22600275.444    92544347.91645
     -2440.172  
  21681125.620   115857339.29708      -157.180    21681130.547    90111300.61707
      -122.249  
  20347471.818   108616193.32107      -152.448    20347475.484    84479298.73204
      -118.574  
  19332353.228   103161150.90308      -599.520           0.000           0.0000 
         0.000  
  20929981.118   112039846.23608      2537.366    20929984.813    87142127.64608
      1973.504  
  22092394.072   118013600.86105      3459.421    22092399.834    91788389.46705
      2690.659  
  22779677.325   121770449.09406     -3418.313    22779682.122    94710359.48706
     -2658.690  
  21464466.807   114860686.33307     -3804.000    21464471.368    89336104.93207
     -2958.671  
 20 10 02 06 51  0.0000000  0 15G15G27G18G23G20G24G10G13R15R22R 6R 7
                                R16R 5R21
  20468896.454   107564786.93349     -1674.308    20468896.426    83816720.16449
     -1304.659  
  23931126.985   125758929.79546      -482.300    23931129.141    97993975.76649
      -375.824  
  20756962.100   109078573.40149     -1611.999    20756962.276    84996294.85148
     -1256.108  
  20772962.985   109162672.20849      1693.433    20772963.061    85061834.08048
      1319.554  
  20446301.837   107446063.57249      1577.937    20446301.404    83724222.88948
      1229.558  
  21734406.747   114215105.59248      2767.105    21734409.584    88998815.90049
      2156.187  
  23078910.381   121280496.43847      2968.112    23078912.615    94504281.52649
      2312.816  
  22603256.246   118780910.93348     -3132.628    22603255.485    92556550.62145
     -2441.012  
  21681274.377   115858134.27507      -160.987    21681279.137    90111918.93707
      -125.218  
  20347616.620   108616966.65407      -157.011    20347620.412    84479900.19704
      -122.125  
  19332915.929   103164153.39807      -601.375           0.000           0.0000 
         0.000  
  20927611.728   112027162.05008      2536.207    20927615.419    87132262.19107
      1972.605  
  22089157.037   117996308.79405      3457.698    22089162.775    91774940.11304
      2689.324  
  22782874.277   121787538.78805     -3418.621    22782879.329    94723651.50406
     -2658.926  
  21468022.051   114879711.32107     -3806.148    21468026.826    89350902.13307
     -2960.339  
 20 10 02 06 51  5.0000000  0 15G15G27G18G23G20G24G10G13R15R22R 6R 7
                                R16R 5R21
  20470490.958   107573165.63549     -1676.902    20470490.931    83823249.01949
     -1306.679  
  23931587.848   125761351.99145      -486.500    23931590.358    97995863.21649
      -379.090  
  20758497.607   109086642.07249     -1615.218    20758497.885    85002582.13248
     -1258.612  
  20771352.722   109154210.75549      1691.382    20771352.686    85055240.74048
      1317.957  
  20444801.748   107438180.67749      1575.641    20444801.393    83718080.37648
      1227.770  
  21731775.312   114201277.74948      2764.366    21731778.233    88988040.96049
      2154.050  
  23076086.684   121265658.62547      2967.159    23076088.896    94492719.58449
      2312.069  
  22606237.549   118796577.35048     -3133.926    22606236.869    92568758.20645
     -2442.023  
  21681427.149   115858951.95507      -165.815    21681432.162    90112554.91207
      -128.973  
  20347765.895   108617763.93307      -161.902    20347769.627    84480520.30904
      -125.926  
  19333480.704   103167167.92407      -603.988           0.000           0.0000 
         0.000  
  20925243.870   112014486.22208      2534.335    20925247.444    87122403.20908
      1971.145  
  22085922.315   117979029.36505      3454.690    22085927.951    91761500.54305
      2686.977  
  22786071.565   121804630.90904     -3418.835    22786076.892    94736945.34906
     -2659.101  
  21471579.782   114898749.11108     -3808.984    21471584.431    89365709.29907
     -2962.543  
 20 10 02 06 51 10.0000000  0 15G15G27G18G23G20G24G10G13R15R22R 6R 7
                                R16R 5R21
  20472087.939   107581557.14049     -1679.460    20472087.579    83829787.87149
     -1308.671  
  23932051.951   125763791.21245      -489.608    23932054.521    97997763.91849
      -381.516  
  20760035.971   109094726.76249     -1618.585    20760036.182    85008881.89248
     -1261.234  
  20769744.561   109145759.50049      1689.249    20769744.557    85048655.34548
      1316.292  
  20443303.977   107430309.08549      1573.191    20443303.349    83711946.66648
      1225.858  
  21729146.569   114187463.01448      2761.655    21729149.580    88977276.22149
      2151.938  
  23073263.899   121250825.19447      2966.190    23073266.209    94481161.09348
      2311.316  
  22609220.003   118812250.78548     -3135.405    22609219.400    92580971.26445
     -2443.229  
  21681584.672   115859793.21007      -170.598    21681589.842    90113209.19907
      -132.691  
  20347919.898   108618585.91907      -166.776    20347923.514    84481159.62804
      -129.719  
  19334048.136   103170195.06807      -606.914           0.000           0.0000 
         0.000  
  20922877.650   112001819.06608      2532.578    20922880.986    87112550.98108
      1969.780  
  22082690.022   117961763.25204      3451.374    22082695.719    91748071.36504
      2684.401  
  22789269.786   121821726.10605     -3419.644    22789274.938    94750241.57405
     -2659.730  
  21475139.983   114917800.49608     -3811.777    21475144.651    89380527.03607
     -2964.719  
 20 10 02 06 51 15.0000000  0 15G15G27G18G23G20G24G10G13R15R22R 6R 7
                                R16R 5R21
  20473686.996   107589960.05749     -1681.766    20473686.653    83836335.59349
     -1310.468  
  23932518.961   125766246.17846      -492.480    23932521.803    97999676.89349
      -383.749  
  20761577.383   109102826.03349     -1621.398    20761577.358    85015192.99748
     -1263.429  
  20768138.120   109137317.00049      1687.605    20768137.858    85042076.77348
      1315.011  
  20441807.950   107422447.35049      1571.351    20441807.271    83705820.63348
      1224.425  
  21726519.776   114173659.87548      2759.371    21726522.864    88966520.53949
      2150.159  
  23070441.642   121235994.82548      2965.680    23070443.791    94469604.97948
      2310.918  
  22612203.601   118827929.75848     -3136.461    22612202.908    92593188.66945
     -2443.996  
  21681746.069   115860656.41408      -174.655    21681751.377    90113880.60207
      -135.843  
  20348078.409   108619431.15507      -171.112    20348082.002    84481817.04904
      -133.089  
  19334617.458   103173233.45407      -608.977           0.000           0.0000 
         0.000  
  20920512.717   111989159.54908      2531.215    20920516.213    87102704.70508
      1968.723  
  22079459.822   117944509.16705      3449.883    22079465.740    91734651.58204
      2683.245  
  22792468.099   121838823.01605     -3419.226    22792473.527    94763539.15005
     -2659.402  
  21478702.420   114936863.88408     -3813.730    21478706.981    89395354.11507
     -2966.233  
 20 10 02 06 51 20.0000000  0 15G15G27G18G23G20G24G10G13R15R22R 6R 7
                                R16R 5R21
  20475288.331   107598375.50249     -1684.066    20475288.143    83842893.08249
     -1312.258  
  23932989.092   125768717.98746      -495.910    23932992.199    98001602.96048
      -386.422  
  20763121.651   109110941.05749     -1624.354    20763121.717    85021516.39148
     -1265.733  
  20766533.354   109128884.42649      1685.702    20766533.139    85035505.93548
      1313.534  
  20440314.016   107414596.67249      1569.367    20440313.445    83699703.22748
      1222.882  
  21723895.666   114159869.64948      2757.093    21723898.577    88955774.89749
      2148.378  
  23067620.406   121221168.62947      2964.875    23067622.603    94458052.12748
      2310.297  
  22615188.530   118843615.45048     -3137.565    22615187.991    92605411.27245
     -2444.859  
  21681911.796   115861542.91608      -179.022    21681917.358    90114570.14407
      -139.238  
  20348241.274   108620300.85107      -176.183    20348244.855    84482493.46804
      -137.035  
  19335189.226   103176284.36507      -611.292           0.000           0.0000 
         0.000  
  20918149.446   111976508.49808      2529.598    20918153.119    87092865.01308
      1967.465  
  22076232.191   117927268.14704      3447.012    22076238.150    91721241.87904
      2681.004  
  22795666.765   121855922.71805     -3419.651    22795672.084    94776838.94005
     -2659.730  
  21482267.456   114955940.54508     -3816.285    21482271.867    89410191.49407
     -2968.226  
 20 10 02 06 51 25.0000000  0 15G15G27G18G23G20G24G10G13R15R22R 6R 7
                                R16R 5R21
  20476891.951   107606802.64449     -1686.378    20476891.566    83849459.67549
     -1314.066  
  23933462.532   125771205.80347      -498.980    23933465.673    98003541.50848
      -388.819  
  20764668.589   109119070.96249     -1627.226    20764668.750    85027851.38948
     -1267.973  
  20764930.306   109120460.91949      1683.980    20764930.344    85028942.16748
      1312.190  
  20438822.162   107406756.18049      1567.222    20438821.326    83693593.74948
      1221.207  
  21721273.854   114146091.39948      2754.726    21721276.753    88945038.58949
      2146.535  
  23064799.615   121206345.71047      2964.554    23064801.641    94446501.75648
      2310.034  
  22618174.451   118859306.94548     -3138.679    22618174.032    92617638.42245
     -2445.722  
  21682081.936   115862451.78408      -183.776    21682087.415    90115277.02907
      -142.937  
  20348408.789   108621194.18107      -180.901    20348412.319    84483188.27904
      -140.707  
  19335763.064   103179346.78407      -613.457           0.000           0.0000 
         0.000  
  20915787.635   111963865.25508      2528.180    20915791.250    87083031.38908
      1966.363  
  22073006.988   117910039.44605      3444.918    22073012.914    91707841.80304
      2679.379  
  22798865.999   121873024.36405     -3420.039    22798871.365    94790140.20405
     -2660.034  
  21485834.655   114975029.44407     -3818.926    21485839.254    89425038.43207
     -2970.276  
 20 10 02 06 51 30.0000000  0 15G15G27G18G23G20G24G10G13R15R22R 6R 7
                                R16R 5R21
  20478497.637   107615240.61549     -1689.004    20478497.184    83856034.72749
     -1316.105  
  23933938.856   125773708.80846      -502.164    23933941.825    98005491.86249
      -391.304  
  20766218.386   109127214.91749     -1630.453    20766218.538    85034197.32548
     -1270.487  
  20763328.967   109112045.66949      1681.918    20763328.778    85022384.83248
      1310.586  
  20437332.016   107398925.03549      1565.015    20437331.124    83687491.56248
      1219.487  
  21718654.157   114132324.39349      2751.933    21718657.095    88934311.05949
      2144.363  
  23061979.424   121191525.31747      2963.324    23061981.411    94434953.38549
      2309.077  
  22621161.495   118875003.49648     -3140.438    22621160.838    92629869.48744
     -2447.098  
  21682256.222   115863382.20807      -188.464    21682261.313    90116000.72207
      -146.577  
  20348580.432   108622110.20407      -185.960    20348583.888    84483900.73204
      -144.640  
  19336338.956   103182419.76007      -616.265           0.000           0.0000 
         0.000  
  20913426.924   111951228.87008      2526.347    20913430.775    87073203.06908
      1964.934  
  22069783.931   117892822.17005      3441.706    22069790.061    91694450.59404
      2676.886  
  22802065.530   121890127.19005     -3420.406    22802070.647    94803442.44505
     -2660.316  
  21489403.846   114994129.87407     -3821.479    21489408.695    89439894.33107
     -2972.262  
 20 10 02 06 51 35.0000000  0 15G15G27G18G23G20G24G10G13R15R22R 6R 7
                                R16R 5R21
  20480105.809   107623691.95649     -1691.394    20480105.471    83862620.17649
     -1317.973  
  23934418.620   125776229.48745      -505.308    23934421.591    98007456.04949
      -393.745  
  20767771.404   109135375.48949     -1633.417    20767771.472    85040556.20348
     -1272.796  
  20761729.719   109103641.25149      1680.156    20761729.379    85015835.93748
      1309.211  
  20435843.964   107391105.76749      1562.940    20435843.185    83681398.63648
      1217.874  
  21716037.125   114118571.08048      2749.577    21716039.910    88923594.18949
      2142.523  
  23059160.020   121176709.97047      2962.770    23059162.020    94423408.95149
      2308.644  
  22624149.871   118890707.64448     -3141.460    22624149.118    92642106.49344
     -2447.890  
  21682434.772   115864336.76008      -192.691    21682440.059    90116743.16107
      -149.871  
  20348756.749   108623051.61607      -190.671    20348760.244    84484632.93104
      -148.304  
  19336917.366   103185506.05007      -618.070           0.000           0.0000 
         0.000  
  20911068.311   111938602.15908      2524.538    20911071.940    87063382.29508
      1963.526  
  22066563.327   117875618.99805      3439.207    22066569.823    91681070.34304
      2674.934  
  22805265.363   121907233.75804     -3422.301    22805270.696    94816747.49905
     -2661.797  
  21492975.932   115013244.32808     -3824.124    21492980.675    89454761.10507
     -2974.327  
 20 10 02 06 51 40.0000000  0 15G15G27G18G23G20G24G10G13R15R22R 6R 7
                                R16R 5R21
  20481716.261   107632154.84749     -1693.801    20481715.770    83869214.64349
     -1319.844  
  23934901.294   125778766.14446      -508.659    23934904.095    98009432.66448
      -396.362  
  20769327.094   109143550.88149     -1636.594    20769327.122    85046926.64248
     -1275.272  
  20760131.976   109095245.89649      1678.151    20760131.928    85009294.11148
      1307.652  
  20434357.994   107383296.69049      1560.855    20434357.180    83675313.63448
      1216.245  
  21713422.164   114104829.68048      2747.104    21713424.908    88912886.59949
      2140.597  
  23056341.312   121161897.96247      2962.230    23056343.463    94411867.11948
      2308.227  
  22627139.332   118906417.80548     -3142.539    22627138.676    92654348.17344
     -2448.733  
  21682617.591   115865313.62508      -197.402    21682622.622    90117502.96007
      -153.535  
  20348937.550   108624016.55607      -195.456    20348941.229    84485383.44504
      -152.022  
  19337497.686   103188603.68807      -620.546           0.000           0.0000 
         0.000  
  20908710.976   111925983.03308      2523.152    20908714.548    87053567.43808
      1962.453  
  22063345.294   117858428.12906      3437.250    22063351.546    91667699.67904
      2673.413  
  22808465.843   121924342.09404     -3422.313    22808471.344    94830054.01005
     -2661.792  
  21496550.094   115032370.98608     -3826.562    21496554.798    89469637.39707
     -2976.219  
 20 10 02 06 51 45.0000000  0 15G15G27G18G23G20G24G10G13R15R22R 6R 7
                                R16R 5R21
  20483329.202   107640630.97249     -1696.132    20483328.839    83875819.42149
     -1321.660  
  23935387.201   125781320.41446      -512.261    23935390.400    98011423.00349
      -399.168  
  20770886.020   109151742.74849     -1639.707    20770885.907    85053309.91948
     -1277.695  
  20758536.537   109086861.27849      1676.168    20758536.219    85002760.63648
      1306.102  
  20432874.315   107375499.43649      1558.558    20432873.298    83669237.85448
      1214.461  
  21710810.025   114091102.01648      2744.535    21710812.609    88902189.73149
      2138.598  
  23053523.586   121147090.90347      2961.293    23053525.622    94400329.15849
      2307.500  
  22630130.293   118922135.41148     -3144.015    22630129.359    92666595.67545
     -2449.882  
  21682804.928   115866314.57608      -202.237    21682810.066    90118281.45307
      -157.304  
  20349122.991   108625006.70407      -200.276    20349126.733    84486153.56404
      -155.772  
  19338080.693   103191714.69008      -623.034           0.000           0.0000 
         0.000  
  20906355.297   111913373.45808      2521.340    20906358.770    87043759.98907
      1961.042  
  22060129.783   117841251.32206      3434.831    22060135.543    91654339.92903
      2671.530  
  22811666.933   121941454.13105     -3422.688    22811672.425    94843363.35505
     -2662.094  
  21500127.014   115051511.55407     -3829.269    21500131.577    89484524.48907
     -2978.327  
 20 10 02 06 51 50.0000000  0 15G15G27G18G23G20G24G10G13R15R22R 6R 7
                                R16R 5R21
  20484944.394   107649118.29749     -1698.563    20484943.817    83882432.92349
     -1323.559  
  23935876.199   125783890.20945      -515.659    23935879.368    98013425.43549
      -401.815  
  20772447.768   109159949.03849     -1642.688    20772447.612    85059704.43248
     -1280.016  
  20756942.668   109078485.31349      1674.289    20756942.265    84996233.91048
      1304.637  
  20431392.335   107367711.95549      1556.495    20431391.366    83663169.68248
      1212.851  
  21708199.824   114077385.87748      2742.070    21708202.500    88891501.83349
      2136.680  
  23050706.418   121132286.73847      2960.570    23050708.299    94388793.44048
      2306.934  
  22633122.168   118937858.22448     -3145.070    22633121.182    92678847.22345
     -2450.703  
  21682996.448   115867337.31208      -206.770    21683001.364    90119076.93607
      -160.820  
  20349312.944   108626020.02907      -205.058    20349316.586    84486941.70804
      -159.491  
  19338665.742   103194836.69008      -625.425           0.000           0.0000 
         0.000  
  20904001.130   111900771.04708      2519.828    20904004.661    87033958.11107
      1959.863  
  22056916.568   117824086.34106      3431.483    22056921.936    91640989.44903
      2668.941  
  22814868.409   121958567.66805     -3422.940    22814873.723    94856673.91605
     -2662.285  
  21503706.058   115070663.83808     -3831.500    21503710.573    89499420.71507
     -2980.054  
 20 10 02 06 51 55.0000000  0 15G15G27G18G23G20G24G10G13R15R22R 6R 7
                                R16R 5R21
  20486561.877   107657618.13649     -1701.066    20486561.463    83889056.16549
     -1325.511  
  23936368.198   125786476.86945      -519.176    23936371.638    98015441.00849
      -404.555  
  20774012.383   109168171.05649     -1645.925    20774012.297    85066111.18248
     -1282.542  
  20755350.684   109070119.35149      1672.293    20755350.251    84989714.97448
      1303.082  
  20429912.647   107359935.57849      1554.300    20429911.632    83657110.16748
      1211.145  
  21705592.278   114063682.81648      2739.397    21705595.019    88880824.13649
      2134.597  
  23047890.015   121117486.81747      2959.612    23047892.048    94377261.04948
      2306.191  
  22636115.166   118953587.63247     -3146.383    22636114.168    92691103.90644
     -2451.729  
  21683192.302   115868383.42608      -211.457    21683197.242    90119890.57608
      -164.468  
  20349507.177   108627057.79607      -209.929    20349511.083    84487748.85204
      -163.280  
  19339253.267   103197971.11508      -628.016           0.000           0.0000 
         0.000  
  20901648.430   111888177.45108      2517.980    20901652.020    87024163.09507
      1958.425  
  22053705.769   117806934.76405      3429.495    22053710.875    91627649.38603
      2667.394  
  22818070.481   121975683.92005     -3423.362    22818075.619    94869986.49205
     -2662.628  
  21507287.684   115089829.28008     -3834.402    21507292.307    89514327.18507
     -2982.312  
 20 10 02 06 52  0.0000000  0 15G15G27G18G23G20G24G10G13R15R22R 6R 7
                                R16R 5R21
  20488181.472   107666129.25749     -1703.460    20488181.067    83895688.20149
     -1327.375  
  23936863.578   125789079.13846      -522.229    23936866.587    98017468.74449
      -406.938  
  20775579.657   109176407.56949     -1648.797    20775579.632    85072529.24948
     -1284.776  
  20753760.423   109061762.16049      1670.573    20753759.972    84983202.89048
      1301.745  
  20428434.868   107352169.08049      1552.250    20428433.648    83651058.35548
      1209.546  
  21702986.988   114049991.49048      2736.844    21702989.477    88870155.56449
      2132.602  
  23045074.141   121102689.86047      2959.039    23045076.139    94365730.96749
      2305.750  
  22639109.344   118969322.48648     -3147.612    22639108.503    92703364.83345
     -2452.690  
  21683392.221   115869451.54707      -215.745    21683397.305    90120721.33208
      -167.805  
  20349705.943   108628118.82107      -214.418    20349710.066    84488574.08804
      -166.772  
  19339842.692   103201116.71108      -630.581           0.000           0.0000 
         0.000  
  20899297.240   111875591.25708      2516.391    20899300.577    87014373.85007
      1957.191  
  22050497.285   117789795.27405      3426.758    22050502.069    91614318.63503
      2665.254  
  22821272.638   121992801.82005     -3424.148    22821277.856    94883300.36205
     -2663.238  
  21510871.368   115109006.51507     -3836.766    21510875.980    89529242.81207
     -2984.155  
 20 10 02 06 52  5.0000000  0 15G15G27G18G23G20G24G10G13R15R22R 6R 7
                                R16R 5R21
  20489803.194   107674651.21449     -1705.319    20489802.581    83902328.68949
     -1328.824  
  23937361.619   125791696.61046      -524.750    23937364.552    98019508.32548
      -408.898  
  20777149.781   109184658.19049     -1651.414    20777149.672    85078958.30348
     -1286.820  
  20752171.669   109053413.35949      1669.148    20752171.384    84976697.32848
      1300.632  
  20426958.806   107344412.07149      1550.590    20426957.410    83645013.93548
      1208.246  
  21700383.780   114036311.38548      2735.065    21700386.190    88859495.72749
      2131.214  
  23042258.835   121087895.58047      2958.926    23042260.901    94354202.97749
      2305.656  
  22642104.502   118985062.27148     -3148.159    22642103.842    92715629.58645
     -2453.117  
  21683596.234   115870541.22907      -219.867    21683601.151    90121568.83707
      -171.016  
  20349908.997   108629202.64407      -218.616    20349913.119    84489417.06604
      -170.039  
  19340434.331   103204273.03107      -632.109           0.000           0.0000 
         0.000  
  20896947.380   111863012.05308      2515.354    20896950.830    87004590.01207
      1956.383  
  22047290.902   117772667.53905      3424.219    22047296.037    91600997.12803
      2663.284  
  22824475.078   122009920.81704     -3423.832    22824480.449    94896615.18005
     -2662.891  
  21514457.278   115128195.19308     -3838.883    21514462.019    89544167.32207
     -2985.801  
 20 10 02 06 52 10.0000000  0 15G15G27G18G23G20G24G10G13R15R22R 6R 7
                                R16R 5R21
  20491427.146   107683185.39249     -1708.085    20491426.572    83908978.68949
     -1330.980  
  23937862.801   125794330.74745      -528.969    23937865.371    98021560.87748
      -412.191  
  20778722.768   109192924.26149     -1654.765    20778722.646    85085399.39948
     -1289.430  
  20750584.795   109045074.30849      1666.792    20750584.547    84970199.37048
      1298.801  
  20425484.592   107336665.90149      1548.055    20425483.264    83638977.96348
      1206.272  
  21697782.855   114022643.89848      2732.133    21697785.357    88848845.74949
      2128.934  
  23039444.232   121073105.30147      2957.522    23039446.616    94342678.07549
      2304.563  
  22645100.854   119000808.43048     -3149.999    22645100.245    92727899.32845
     -2454.551  
  21683804.323   115871653.94607      -224.796    21683809.511    90122434.32508
      -174.839  
  20350116.600   108630310.68907      -224.000    20350120.516    84490278.86304
      -174.226  
  19341028.058   103207441.42708      -634.871           0.000           0.0000 
         0.000  
  20894599.011   111850441.26608      2513.140    20894602.350    86994812.72608
      1954.664  
  22044086.917   117755552.80105      3421.218    22044091.857    91587685.65603
      2660.952  
  22827678.087   122027042.33404     -3424.765    22827683.313    94909931.87504
     -2663.715  
  21518045.439   115147396.60608     -3841.351    21518050.201    89559101.75207
     -2987.722  
 20 10 02 06 52 15.0000000  0 15G15G27G18G23G20G24G10G13R15R22R 6R 7
                                R16R 5R21
  20493053.760   107691733.33949     -1710.979    20493053.279    83915639.43949
     -1333.230  
  23938367.376   125796982.90246      -532.535    23938369.720    98023627.50748
      -414.961  
  20780299.010   109201207.31249     -1658.312    20780298.833    85091853.71648
     -1292.194  
  20749000.013   109036746.56949      1664.378    20748999.940    84963710.22948
      1296.917  
  20424013.029   107328932.16149      1545.386    20424011.597    83632951.66848
      1204.199  
  21695184.780   114008990.79548      2729.270    21695187.222    88838206.97849
      2126.702  
  23036630.750   121058320.54248      2956.335    23036633.067    94331157.46748
      2303.633  
  22648098.730   119016562.46748     -3151.539    22648098.278    92740175.17445
     -2455.754  
  21684017.241   115872791.21507      -229.906    21684022.203    90123318.85007
      -178.824  
  20350329.079   108631444.50707      -229.448    20350332.970    84491160.71904
      -178.460  
  19341624.333   103210623.48507      -637.690           0.000           0.0000 
         0.000  
  20892252.515   111837880.47708      2510.828    20892256.059    86985043.24607
      1952.867  
  22040885.775   117738452.78205      3418.362    22040890.661    91574385.61104
      2658.718  
  22830882.093   122044168.05105     -3425.551    22830887.017    94923251.84605
     -2664.328  
  21521636.421   115166612.39108     -3844.469    21521641.264    89574047.35907
     -2990.144  
 20 10 02 06 52 20.0000000  0 15G15G27G18G23G20G24G10G13R15R22R 6R 7
                                R16R 5R21
  20494682.520   107700292.80849     -1713.175    20494682.171    83922309.13649
     -1334.945  
  23938874.983   125799650.98846      -535.362    23938877.411    98025706.51248
      -417.171  
  20781878.080   109209505.16149     -1661.137    20781877.946    85098319.57348
     -1294.395  
  20747416.903   109028427.95449      1662.780    20747417.089    84957228.19048
      1295.667  
  20422543.217   107321208.65149      1543.546    20422541.899    83626933.34348
      1202.761  
  21692589.012   113995349.85249      2726.926    21692591.522    88827577.67749
      2124.878  
  23033818.047   121043539.18647      2955.745    23033820.236    94319639.55349
      2303.180  
  22651097.763   119032322.18048     -3152.695    22651097.317    92752455.45645
     -2456.648  
  21684234.057   115873950.81307      -234.227    21684239.195    90124220.74407
      -182.180  
  20350545.879   108632601.83207      -233.608    20350549.626    84492060.86104
      -181.694  
  19342222.857   103213817.04207      -639.858           0.000           0.0000 
         0.000  
  20889907.453   111825327.55308      2509.608    20889910.948    86975279.86308
      1951.917  
  22037687.139   117721365.24106      3416.214    22037692.001    91561095.35904
      2657.062  
  22834086.084   122061295.71806     -3426.034    22834091.183    94936573.32605
     -2664.707  
  21525229.677   115185840.19208     -3847.132    21525234.509    89589002.29607
     -2992.218  
 20 10 02 06 52 25.0000000  0 15G15G27G18G23G20G24G10G13R15R22R 6R 7
                                R16R 5R21
  20496313.553   107708863.10349     -1715.203    20496313.005    83928987.28649
     -1336.526  
  23939385.710   125802334.34446      -538.405    23939387.860    98027797.40148
      -419.547  
  20783459.823   109217817.06249     -1663.805    20783459.761    85104796.37548
     -1296.477  
  20745835.576   109020117.71649      1661.184    20745835.657    84950752.67848
      1294.426  
  20421075.297   107313494.64649      1541.797    20421073.980    83620922.43248
      1201.397  
  21689995.502   113981720.14448      2724.620    21689998.062    88816957.10949
      2123.077  
  23031005.797   121028760.40447      2955.448    23031007.908    94308123.63149
      2302.949  
  22654097.570   119048086.80348     -3153.491    22654097.333    92764739.58445
     -2457.270  
  21684454.957   115875131.95507      -238.527    21684460.359    90125139.38607
      -185.522  
  20350766.951   108633781.96007      -238.203    20350770.709    84492978.73004
      -185.273  
  19342823.301   103217021.31607      -641.995           0.000           0.0000 
         0.000  
  20887563.738   111812781.58808      2508.433    20887567.272    86965521.89408
      1950.999  
  22034490.594   117704289.46706      3413.804    22034495.531    91547814.26304
      2655.188  
  22837290.432   122078424.32606     -3426.004    22837295.227    94949895.61805
     -2664.663  
  21528824.970   115205079.33308     -3848.934    21528829.824    89603966.06807
     -2993.616  
 20 10 02 06 52 30.0000000  0 15G15G27G18G23G20G24G10G13R15R22R 6R 7
                                R16R 5R21
  20497946.770   107717446.18649     -1717.772    20497946.349    83935675.39849
     -1338.523  
  23939899.543   125805034.80546      -541.148    23939901.617    98029901.68348
      -421.675  
  20785044.593   109226145.05349     -1667.070    20785044.471    85111285.71548
     -1299.019  
  20744256.159   109011817.88749      1659.160    20744256.406    84944285.28448
      1292.852  
  20419609.665   107305792.16749      1539.550    20419608.249    83614920.50548
      1199.645  
  21687404.250   113968103.86848      2722.089    21687407.010    88806347.02949
      2121.109  
  23028194.512   121013986.34447      2954.526    23028196.601    94296611.36349
      2302.226  
  22657098.906   119063858.39548     -3154.983    22657098.766    92777029.13845
     -2458.430  
  21684680.351   115876336.76607      -243.112    21684685.873    90126076.51208
      -189.086  
  20350992.917   108634987.02807      -243.214    20350996.380    84493915.98804
      -189.172  
  19343426.183   103220238.34407      -644.520           0.000           0.0000 
         0.000  
  20885221.682   111800244.69008      2506.667    20885225.334    86955770.97308
      1949.625  
  22031296.665   117687227.44706      3411.245    22031301.505    91534543.72904
      2653.180  
  22840495.337   122095556.22006     -3426.555    22840499.944    94963220.39104
     -2665.105  
  21532422.681   115224331.82108     -3851.718    21532427.596    89618940.22307
     -2995.785  
 20 10 02 06 52 35.0000000  0 15G15G27G18G23G20G24G10G13R15R22R 6R 7
                                R16R 5R21
  20499582.319   107726041.24049     -1720.429    20499581.882    83942372.85249
     -1340.594  
  23940416.610   125807751.69845      -545.336    23940418.660    98032018.73048
      -424.938  
  20786632.219   109234488.23849     -1670.452    20786632.102    85117786.89548
     -1301.655  
  20742678.616   109003527.68249      1656.925    20742678.896    84937825.39148
      1291.108  
  20418145.883   107298100.38249      1537.133    20418144.483    83608926.91348
      1197.765  
  21684815.653   113954500.26048      2719.199    21684818.166    88795746.83649
      2118.855  
  23025383.969   120999216.06147      2953.413    23025385.955    94285102.07949
      2301.363  
  22660101.382   119079636.13848     -3156.249    22660101.165    92789323.46045
     -2459.422  
  21684910.074   115877564.36807      -247.969    21684915.628    90127031.29707
      -192.866  
  20351222.931   108636215.95407      -248.445    20351226.649    84494871.83804
      -193.234  
  19344031.308   103223467.24907      -647.179           0.000           0.0000 
         0.000  
  20882881.315   111787716.08408      2504.742    20882885.073    86946026.49908
      1948.133  
  22028105.077   117670178.49605      3408.034    22028110.225    91521283.45104
      2650.695  
  22843700.640   122112690.40407     -3427.285    22843705.024    94976546.86005
     -2665.683  
  21536022.885   115243596.79808     -3854.375    21536027.723    89633924.05607
     -2997.854  
 20 10 02 06 52 40.0000000  0 15G15G27G18G23G20G24G10G13R15R22R 6R 7
                                R16R 5R21
  20501219.978   107734647.13249     -1722.241    20501219.579    83949078.73049
     -1342.012  
  23940936.652   125810483.78945      -547.805    23940938.594    98034147.61748
      -426.862  
  20788222.487   109242845.52949     -1672.659    20788222.661    85124299.06148
     -1303.374  
  20741102.637   108995245.91949      1655.636    20741103.009    84931372.05548
      1290.101  
  20416684.006   107290418.16549      1535.406    20416682.705    83602940.76748
      1196.418  
  21682229.184   113940908.15048      2717.284    21682231.720    88785155.58249
      2117.362  
  23022573.775   120984448.48448      2953.155    23022575.559    94273594.88449
      2301.159  
  22663104.630   119095418.84748     -3156.918    22663104.581    92801621.66645
     -2459.938  
  21685143.767   115878813.68407      -251.957    21685149.166    90128002.96107
      -195.968  
  20351457.485   108637467.86107      -252.551    20351461.309    84495845.54504
      -196.429  
  19344638.248   103226706.96708      -648.840           0.000           0.0000 
         0.000  
  20880542.041   111775194.51708      2503.655    20880545.951    86936287.52408
      1947.288  
  22024915.853   117653141.41906      3406.534    22024920.988    91508032.40804
      2649.526  
  22846906.245   122129825.60407     -3426.953    22846910.643    94989874.29005
     -2665.405  
  21539625.334   115262873.04408     -3856.324    21539629.754    89648916.72007
     -2999.363  
 20 10 02 06 52 45.0000000  0 15G15G27G18G23G20G24G10G13R15R22R 6R 7
                                R16R 5R21
  20502859.572   107743263.97549     -1724.660    20502859.439    83955793.14949
     -1343.895  
  23941459.620   125813231.15944      -551.565    23941461.489    98036288.44149
      -429.792  
  20789815.640   109251217.01049     -1676.039    20789815.663    85130822.29248
     -1306.003  
  20739528.344   108986972.73849      1653.449    20739528.540    84924925.43348
      1288.402  
  20415223.845   107282745.62449      1533.269    20415222.914    83596962.16748
      1194.754  
  21679644.789   113927327.47048      2714.854    21679647.535    88774573.24449
      2115.473  
  23019764.233   120969683.74148      2952.601    23019765.938    94262089.89549
      2300.726  
  22666109.029   119111206.66448     -3158.366    22666109.042    92813923.86945
     -2461.066  
  21685381.610   115880084.74007      -256.645    21685386.956    90128991.60807
      -199.608  
  20351696.327   108638742.75207      -257.397    20351700.199    84496837.12904
      -200.198  
  19345247.428   103229957.54507      -651.359           0.000           0.0000 
         0.000  
  20878204.281   111762680.05408      2502.077    20878208.300    86926554.04508
      1946.063  
  22021728.771   117636116.41005      3403.284    22021733.860    91494790.72304
      2646.995  
  22850112.180   122146962.19607     -3427.448    22850116.136    95003202.79205
     -2665.789  
  21543229.680   115282160.68908     -3858.808    21543234.192    89663918.21307
     -3001.301  
 20 10 02 06 52 50.0000000  0 15G15G27G18G23G20G24G10G13R15R22R 6R 7
                                R16R 5R21
  20504501.991   107751894.82449     -1727.472    20504501.787    83962518.47749
     -1346.086  
  23941985.690   125815996.92544      -555.055    23941987.700    98038443.59549
      -432.512  
  20791411.855   109259605.77349     -1679.429    20791411.855    85137358.99348
     -1308.648  
  20737956.344   108978711.22849      1651.199    20737956.256    84918487.88048
      1286.644  
  20413766.189   107275085.86949      1530.812    20413765.279    83590993.51948
      1192.835  
  21677063.238   113913761.51648      2711.913    21677066.052    88764002.37849
      2113.175  
  23016955.777   120954924.92448      2951.354    23016957.644    94250589.49249
      2299.749  
  22669114.970   119127002.67748     -3160.003    22669115.166    92826232.44645
     -2462.343  
  21685624.196   115881380.64108      -261.523    21685629.299    90129999.55507
      -203.405  
  20351940.024   108640043.74807      -262.922    20351943.949    84497849.00904
      -204.499  
  19345859.293   103233222.19708      -654.250           0.000           0.0000 
         0.000  
  20875868.414   111750176.10008      2499.809    20875872.308    86916828.75408
      1944.297  
  22018544.358   117619106.47605      3400.636    22018549.546    91481560.69503
      2644.929  
  22853318.802   122164103.18206     -3428.801    22853322.597    95016534.69205
     -2666.844  
  21546836.742   115301462.83907     -3861.827    21546841.058    89678930.99707
     -3003.648  
 20 10 02 06 52 55.0000000  0 15G15G27G18G23G20G24G10G13R15R22R 6R 7
                                R16R 5R21
  20506146.710   107760537.41149     -1729.500    20506146.305    83969252.97449
     -1347.664  
  23942515.057   125818778.83046      -558.113    23942517.077    98040611.36747
      -434.887  
  20793011.111   109268009.47849     -1682.108    20793011.214    85143907.32348
     -1310.737  
  20736386.032   108970459.08749      1649.565    20736385.951    84912057.64648
      1285.371  
  20412310.603   107267436.62249      1528.895    20412309.859    83585033.06848
      1191.344  
  21674483.987   113900207.95948      2709.668    21674486.956    88753441.16049
      2111.429  
  23014148.033   120940169.69048      2950.980    23014149.803    94239091.91549
      2299.460  
  22672122.080   119142804.49148     -3160.882    22672122.291    92838545.52345
     -2463.030  
  21685871.096   115882699.12407      -265.707    21685875.823    90131024.97507
      -206.668  
  20352188.166   108641368.44207      -267.363    20352191.966    84498879.32904
      -207.953  
  19346473.226   103236498.42107      -656.105           0.000           0.0000 
         0.000  
  20873534.004   111737680.07008      2498.559    20873537.991    86907109.62608
      1943.324  
  22015362.507   117602109.41205      3398.957    22015367.696    91468340.81304
      2643.637  
  22856525.876   122181246.29707     -3428.460    22856529.690    95029868.12506
     -2666.597  
  21550446.240   115320777.08808     -3864.069    21550450.596    89693953.15307
     -3005.394  
 20 10 02 06 53  0.0000000  0 15G15G27G18G23G20G24G10G13R15R22R 6R 7
                                R16R 5R21
  20507793.318   107769190.23949     -1731.929    20507793.021    83975995.43849
     -1349.555  
  23943047.277   125821575.38345      -560.984    23943049.146    98042790.50748
      -437.124  
  20794612.839   109276426.71149     -1685.058    20794613.030    85150466.20948
     -1313.030  
  20734817.053   108962214.89349      1647.608    20734817.156    84905633.59948
      1283.851  
  20410856.699   107259796.46249      1526.640    20410855.863    83579079.70148
      1189.589  
  21671907.012   113886665.45648      2706.819    21671909.800    88742888.57649
      2109.211  
  23011340.679   120925416.66548      2949.874    23011342.701    94227596.08249
      2298.608  
  22675129.949   119158610.70048     -3162.054    22675130.291    92850862.06146
     -2463.941  
  21686121.643   115884038.71807      -270.351    21686126.436    90132066.91707
      -210.272  
  20352440.464   108642715.41507      -272.050    20352444.171    84499926.97404
      -211.597  
  19347089.001   103239784.90407      -658.667           0.000           0.0000 
         0.000  
  20871200.686   111725190.76108      2496.711    20871204.861    86897395.71708
      1941.882  
  22012182.497   117585123.77404      3395.667    22012188.136    91455129.78904
      2641.078  
  22859733.049   122198389.91407     -3429.487    22859736.803    95043202.08205
     -2667.379  
  21554057.608   115340102.08907     -3866.758    21554061.779    89708983.71907
     -3007.479  
 20 10 02 06 53  5.0000000  0 15G15G27G18G23G20G24G10G13R15R22R 6R 7
                                R16R 5R21
  20509442.394   107777856.62649     -1734.276    20509442.163    83982748.46049
     -1351.391  
  23943582.806   125824389.98245      -564.395    23943584.687    98044983.67848
      -439.792  
  20796217.782   109284860.80749     -1688.055    20796218.061    85157038.23148
     -1315.370  
  20733250.361   108953981.99449      1645.698    20733250.556    84899218.35648
      1282.358  
  20409405.097   107252168.67849      1524.659    20409404.277    83573135.97748
      1188.046  
  21669332.720   113873137.33448      2704.616    21669335.507    88732347.18349
      2107.492  
  23008534.460   120910669.13648      2949.257    23008536.291    94216104.52449
      2298.121  
  22678139.303   119174424.64648     -3163.270    22678139.414    92863184.60845
     -2464.891  
  21686376.884   115885402.84007      -274.730    21686381.749    90133127.86607
      -213.684  
  20352697.694   108644088.14907      -276.801    20352701.465    84500994.65304
      -215.292  
  19347707.416   103243084.94807      -661.012           0.000           0.0000 
         0.000  
  20868869.459   111712711.21108      2495.258    20868873.722    86887689.41408
      1940.757  
  22009005.373   117568152.89505      3393.456    22009011.328    91441930.16604
      2639.348  
  22862941.180   122215537.43207     -3429.585    22862944.693    95056539.07905
     -2667.452  
  21557671.624   115359441.10708     -3869.155    21557675.855    89724025.17207
     -3009.348  
 20 10 02 06 53 10.0000000  0 15G15G27G18G23G20G24G10G13R15R22R 6R 7
                                R16R 5R21
  20511093.757   107786534.59749     -1736.440    20511093.503    83989510.51749
     -1353.073  
  23944121.472   125827220.56546      -567.063    23944123.458    98047189.32248
      -441.870  
  20797825.593   109293309.72349     -1690.976    20797825.731    85163621.80748
     -1317.645  
  20731685.552   108945758.36849      1644.058    20731685.658    84892810.32848
      1281.081  
  20407955.591   107244551.28649      1522.737    20407954.873    83567200.34848
      1186.551  
  21666760.723   113859621.55648      2702.180    21666763.390    88721815.41949
      2105.594  
  23005728.780   120895925.15747      2948.730    23005730.613    94204615.70949
      2297.710  
  22681149.789   119190244.26648     -3164.344    22681149.735    92875511.55345
     -2465.792  
  21686636.440   115886789.29708      -279.238    21686641.361    90134206.24007
      -217.183  
  20352959.166   108645484.46507      -281.332    20352963.091    84502080.69104
      -218.812  
  19348328.082   103246396.47408      -663.374           0.000           0.0000 
         0.000  
  20866539.528   111700239.65808      2493.840    20866544.050    86877989.34408
      1939.651  
  22005830.685   117551194.78304      3390.754    22005836.573    91428740.54004
      2637.257  
  22866149.413   122232686.92808     -3429.491    22866152.584    95069877.51805
     -2667.394  
  21561287.810   115378792.11207     -3871.101    21561291.866    89739075.95806
     -3010.859  
 20 10 02 06 53 15.0000000  0 15G15G27G18G23G20G24G10G13R15R22R 6R 7
                                R16R 5R21
  20512747.377   107795224.62049     -1739.289    20512747.028    83996281.95449
     -1355.292  
  23944663.210   125830067.48246      -571.547    23944665.040    98049407.69948
      -445.358  
  20799436.298   109301773.88149     -1694.465    20799436.626    85170217.24948
     -1320.366  
  20730122.452   108937544.44349      1641.828    20730122.456    84886409.87148
      1279.343  
  20406507.962   107236944.66149      1520.218    20406507.440    83561273.10448
      1184.581  
  21664191.219   113846118.43948      2699.355    21664193.739    88711293.50249
      2103.391  
  23002923.795   120881185.11348      2947.566    23002925.601    94193129.96649
      2296.804  
  22684161.200   119206069.96448     -3165.852    22684161.312    92887843.30245
     -2466.897  
  21686900.130   115888198.62508      -284.116    21686905.044    90135302.38207
      -220.979  
  20353225.197   108646904.81107      -286.194    20353229.290    84503185.40504
      -222.597  
  19348951.005   103249720.03908      -666.066           0.000           0.0000 
         0.000  
  20864211.290   111687776.41808      2491.770    20864215.777    86868295.72507
      1938.043  
  22002658.355   117534249.98804      3387.836    22002664.799    91415561.30404
      2634.987  
  22869358.251   122249838.78908     -3430.729    22869361.027    95083217.84805
     -2668.352  
  21564906.257   115398155.40107     -3874.226    21564910.542    89754136.27307
     -3013.292  
 20 10 02 06 53 20.0000000  0 15G15G27G18G23G20G24G10G13R15R22R 6R 7
                                R16R 5R21
  20514403.514   107803927.26849     -1741.729    20514403.254    84003063.23749
     -1357.194  
  23945208.175   125832931.45045      -574.538    23945210.071    98051639.35348
      -447.694  
  20801050.006   109310253.94049     -1697.507    20801050.410    85176825.08148
     -1322.737  
  20728561.277   108929340.90849      1639.672    20728561.469    84880017.51348
      1277.667  
  20405062.647   107229349.54049      1517.933    20405061.994    83555354.83548
      1182.800  
  21661624.183   113832628.73549      2696.719    21661626.778    88700782.03849
      2101.336  
  23000119.632   120866449.69648      2947.034    23000121.509    94181647.83449
      2296.391  
  22687174.158   119221902.47548     -3167.065    22687174.059    92900180.31145
     -2467.847  
  21687168.418   115889631.55508      -288.866    21687172.977    90136416.87206
      -224.680  
  20353495.918   108648349.93807      -291.707    20353500.058    84504309.39904
      -226.883  
  19349576.207   103253056.11308      -668.242           0.000           0.0000 
         0.000  
  20861884.795   111675322.22708      2490.004    20861889.345    86858609.11308
      1936.663  
  21999489.043   117517319.12004      3384.332    21999495.302    91402392.83704
      2632.258  
  22872567.567   122266993.61007     -3431.219    22872570.274    95096560.48805
     -2668.730  
  21568527.114   115417531.80807     -3876.535    21568531.327    89769206.80207
     -3015.086  
 20 10 02 06 53 25.0000000  0 15G15G27G18G23G20G24G10G13R15R22R 6R 7
                                R16R 5R21
  20516061.558   107812640.88049     -1743.565    20516061.432    84009853.07349
     -1358.624  
  23945756.064   125835810.93746      -577.559    23945758.103    98053883.10648
      -450.051  
  20802666.564   109318748.26149     -1700.113    20802666.849    85183444.03448
     -1324.766  
  20727001.969   108921146.10049      1638.109    20727001.931    84873631.96548
      1276.448  
  20403619.264   107221764.26249      1516.102    20403618.694    83549444.23548
      1181.378  
  21659059.424   113819150.86248      2694.469    21659061.773    88690279.80449
      2099.586  
  22997316.191   120851717.20548      2946.464    22997317.982    94170167.98449
      2295.945  
  22690188.084   119237740.07548     -3167.847    22690187.760    92912521.25545
     -2468.460  
  21687440.811   115891086.35808      -293.156    21687445.309    90137548.40007
      -228.011  
  20353771.079   108649818.16907      -295.805    20353775.235    84505451.35504
      -230.074  
  19350203.456   103256403.20308      -670.418           0.000           0.0000 
         0.000  
  20859559.598   111662875.35908      2488.565    20859564.164    86848928.20908
      1935.547  
  21996321.742   117500400.49904      3382.636    21996327.986    91389233.90404
      2630.940  
  22875777.115   122284149.85907     -3431.105    22875779.869    95109904.22806
     -2668.644  
  21572150.215   115436919.56407     -3878.589    21572154.487    89784286.18407
     -3016.679  
 20 10 02 06 53 30.0000000  0 15G15G27G18G23G20G24G10G13R15R22R 6R 7
                                R16R 5R21
  20517721.893   107821365.87749     -1746.336    20517721.588    84016651.76049
     -1360.784  
  23946307.172   125838706.09246      -580.781    23946308.828    98056139.07748
      -452.563  
  20804285.752   109327257.27649     -1703.445    20804285.899    85190074.42648
     -1327.362  
  20725444.211   108912960.46049      1636.168    20725444.301    84867253.54748
      1274.937  
  20402177.753   107214189.31949      1513.792    20402177.070    83543541.68148
      1179.574  
  21656497.129   113805685.28948      2691.750    21656499.489    88679787.14949
      2097.465  
  22994513.376   120836988.21647      2945.323    22994515.276    94158690.87249
      2295.058  
  22693202.975   119253583.24748     -3169.367    22693202.544    92924866.60445
     -2469.637  
  21687717.322   115892563.44808      -297.765    21687721.776    90138697.23407
      -231.598  
  20354050.452   108651309.79407      -300.995    20354054.703    84506611.50404
      -234.108  
  19350832.721   103259761.61207      -672.894           0.000           0.0000 
         0.000  
  20857235.886   111650436.31508      2487.026    20857240.345    86839253.41507
      1934.354  
  21993156.809   117483494.71505      3379.645    21993163.079    91376084.94704
      2628.605  
  22878986.976   122301307.81307     -3431.901    22878989.808    95123249.30906
     -2669.261  
  21575775.551   115456319.00207     -3881.226    21575779.562    89799374.63106
     -3018.734  
 20 10 02 06 53 35.0000000  0 15G15G27G18G23G20G24G10G13R15R22R 6R 7
                                R16R 5R21
  20519384.697   107830103.50349     -1748.660    20519384.373    84023460.30449
     -1362.597  
  23946861.403   125841618.37646      -584.320    23946862.805    98058408.42948
      -455.309  
  20805908.025   109335782.21949     -1706.492    20805908.158    85196717.24648
     -1329.733  
  20723888.574   108904785.31449      1634.188    20723888.638    84860883.30148
      1273.395  
  20400738.368   107206625.96149      1511.484    20400737.901    83537648.14848
      1177.776  
  21653937.297   113792233.28048      2689.011    21653939.607    88669305.04749
      2095.328  
  22991711.301   120822263.83847      2944.660    22991713.576    94147217.31649
      2294.535  
  22696219.220   119269433.19048     -3170.613    22696218.836    92937217.22245
     -2470.608  
  21687998.310   115894064.08808      -302.511    21688002.629    90139864.39207
      -235.288  
  20354334.700   108652826.22507      -305.633    20354338.824    84507790.96804
      -237.715  
  19351464.489   103263132.75307      -675.453           0.000           0.0000 
         0.000  
  20854913.906   111638006.23208      2485.250    20854918.287    86829585.57508
      1932.973  
  21989994.404   117466602.87205      3377.000    21990000.818    91362946.85403
      2626.554  
  22882197.309   122318468.87907     -3432.710    22882200.220    95136596.82307
     -2669.886  
  21579403.179   115475731.54408     -3883.772    21579407.236    89814473.23907
     -3020.715  
 20 10 02 06 53 40.0000000  0 15G15G27G18G23G20G24G10G13R15R22R 6R 7
                                R16R 5R21
  20521049.616   107838852.36549     -1751.198    20521049.076    84030277.61249
     -1364.569  
  23947418.547   125844546.43946      -587.332    23947420.036    98060690.03848
      -457.663  
  20807532.940   109344321.70449     -1709.551    20807533.093    85203371.39448
     -1332.116  
  20722334.622   108896619.21349      1631.980    20722334.696    84854520.10848
      1271.668  
  20399301.103   107199072.73649      1509.347    20399300.425    83531762.51948
      1176.112  
  21651379.728   113778793.35248      2686.452    21651381.901    88658832.38849
      2093.336  
  22988909.906   120807542.84948      2943.656    22988912.320    94135746.42249
      2293.754  
  22699236.387   119285288.54048     -3172.085    22699235.951    92949572.02545
     -2471.757  
  21688283.196   115895586.86908      -306.929    21688287.669    90141048.79707
      -238.722  
  20354623.249   108654366.07907      -310.706    20354627.501    84508988.63504
      -241.659  
  19352098.471   103266515.11907      -677.925           0.000           0.0000 
         0.000  
  20852593.419   111625584.01208      2483.395    20852597.636    86819923.84408
      1931.522  
  21986834.579   117449723.80605      3374.063    21986840.708    91349818.67103
      2624.266  
  22885408.051   122335631.54306     -3433.070    22885411.056    95149945.60206
     -2670.160  
  21583033.041   115495155.67308     -3886.289    21583036.882    89829580.90006
     -3022.672  
 20 10 02 06 53 45.0000000  0 15G15G27G18G23G20G24G10G13R15R22R 6R 7
                                R16R 5R21
  20522716.829   107847613.78649     -1753.410    20522716.234    84037104.68949
     -1366.297  
  23947978.792   125847491.51344      -590.563    23947980.070    98062984.84849
      -460.190  
  20809161.068   109352877.01349     -1712.476    20809160.920    85210037.85448
     -1334.402  
  20720782.582   108888463.46549      1630.229    20720782.471    84848164.97648
      1270.304  
  20397865.933   107191530.99249      1507.390    20397865.159    83525885.84648
      1174.589  
  21648824.657   113765366.80048      2684.242    21648826.865    88648370.12849
      2091.613  
  22986109.507   120792826.43047      2942.835    22986112.032    94124279.08649
      2293.116  
  22702254.868   119301150.57948     -3172.979    22702254.373    92961932.05045
     -2472.456  
  21688572.693   115897133.13708      -311.472    21688577.171    90142251.46407
      -242.257  
  20354916.276   108655930.55907      -315.198    20354920.763    84510205.45504
      -245.159  
  19352734.654   103269910.19307      -680.242           0.000           0.0000 
         0.000  
  20850274.451   111613170.61408      2482.027    20850278.655    86810268.97508
      1930.461  
  21983677.225   117432858.54005      3372.121    21983683.012    91336701.26803
      2622.766  
  22888619.288   122352797.13307     -3433.109    22888622.402    95163296.62306
     -2670.194  
  21586665.374   115514592.67608     -3888.430    21586669.125    89844698.55607
     -3024.340  
 20 10 02 06 53 50.0000000  0 15G15G27G18G23G20G24G10G13R15R22R 6R 7
                                R16R 5R21
  20524386.325   107856386.92349     -1755.812    20524385.598    84043940.89349
     -1368.168  
  23948542.185   125850452.63546      -594.074    23948543.707    98065292.22248
      -462.917  
  20810791.854   109361447.35249     -1715.608    20810791.885    85216716.04148
     -1336.843  
  20719232.435   108880317.29449      1628.246    20719232.451    84841817.30948
      1268.758  
  20396432.840   107183999.94349      1505.059    20396432.047    83520017.49048
      1172.773  
  21646272.058   113751952.89848      2681.457    21646274.087    88637917.74249
      2089.441  
  22983309.688   120778113.81647      2942.050    22983312.220    94112814.69949
      2292.503  
  22705274.480   119317018.49948     -3174.144    22705273.761    92974296.65945
     -2473.362  
  21688866.335   115898702.11408      -315.973    21688870.817    90143471.76307
      -245.762  
  20355213.728   108657518.97007      -320.211    20355218.284    84511440.87204
      -249.059  
  19353372.940   103273316.86707      -682.484           0.000           0.0000 
         0.000  
  20847957.166   111600765.44508      2480.284    20847961.329    86800620.52308
      1929.109  
  21980522.484   117416006.66805      3368.944    21980527.973    91323594.24803
      2620.284  
  22891830.756   122369964.92807     -3433.558    22891834.127    95176649.31506
     -2670.554  
  21590299.919   115534041.73208     -3890.979    21590303.580    89859825.60506
     -3026.320  
 20 10 02 06 53 55.0000000  0 15G15G27G18G23G20G24G10G13R15R22R 6R 7
                                R16R 5R21
  20526058.078   107865171.45149     -1758.147    20526057.195    84050785.99149
     -1369.984  
  23949108.731   125853429.66747      -597.043    23949110.253    98067612.00748
      -465.226  
  20812425.509   109370032.36349     -1718.688    20812425.358    85223405.65348
     -1339.241  
  20717684.003   108872180.35749      1626.344    20717683.900    84835476.84248
      1267.281  
  20395001.850   107176479.26149      1503.019    20395000.903    83514157.22448
      1171.183  
  21643721.901   113738551.32348      2678.965    21643723.803    88627474.97249
      2087.503  
  22980510.599   120763404.65947      2941.277    22980513.376    94101353.02649
      2291.901  
  22708295.023   119332891.93348     -3175.476    22708294.190    92986665.56045
     -2474.402  
  21689164.047   115900293.40307      -320.733    21689168.818    90144709.41007
      -249.468  
  20355515.708   108659130.93007      -324.750    20355520.342    84512694.62104
      -252.582  
  19354013.712   103276735.05408      -684.836           0.000           0.0000 
         0.000  
  20845641.324   111588368.18508      2478.527    20845645.444    86790978.20208
      1927.738  
  21977370.031   117399167.54805      3366.227    21977375.107    91310497.16303
      2618.175  
  22895042.829   122387134.48507     -3434.304    22895046.028    95190003.39806
     -2671.128  
  21593936.690   115553502.55008     -3893.448    21593940.104    89874961.76906
     -3028.241  
 20 10 02 06 54  0.0000000  0 15G15G27G18G23G20G24G10G13R15R22R 6R 7
                                R16R 5R21
  20527732.107   107873968.78149     -1760.585    20527731.494    84057641.05649
     -1371.886  
  23949678.473   125856423.96145      -600.301    23949680.191    98069945.18649
      -467.773  
  20814062.237   109378633.48949     -1721.703    20814062.029    85230107.82948
     -1341.590  
  20716137.690   108864054.08149      1624.394    20716137.475    84829144.67948
      1265.761  
  20393572.946   107168970.37949      1500.847    20393571.955    83508306.14148
      1169.487  
  21641174.185   113725163.42648      2676.367    21641176.240    88617042.85049
      2085.479  
  22977712.467   120748700.43747      2940.531    22977715.243    94089895.20249
      2291.320  
  22711317.075   119348772.29648     -3176.336    22711315.977    92999039.86745
     -2475.069  
  21689466.231   115901908.46607      -325.038    21689471.105    90145965.56207
      -252.812  
  20355822.366   108660767.89307      -329.741    20355826.973    84513967.82504
      -256.464  
  19354656.685   103280166.01608      -687.273           0.000           0.0000 
         0.000  
  20843327.137   111575980.06808      2477.039    20843331.189    86781343.00707
      1926.586  
  21974220.372   117382342.78905      3363.871    21974225.341    91297411.20504
      2616.335  
  22898255.426   122404307.28207     -3434.672    22898258.584    95203360.04306
     -2671.410  
  21597575.977   115572976.45308     -3895.895    21597579.292    89890108.14207
     -3030.141  
 20 10 02 06 54  5.0000000  0 15G15G27G18G23G20G24G10G13R15R22R 6R 7
                                R16R 5R21
  20529408.611   107882778.08749     -1762.914    20529407.787    84064505.44949
     -1373.698  
  23950251.502   125859434.68646      -603.546    23950253.402    98072291.20148
      -470.301  
  20815701.828   109387249.87849     -1724.855    20815701.628    85236821.89848
     -1344.043  
  20714593.084   108855937.68749      1622.316    20714593.044    84822820.21148
      1264.141  
  20392146.124   107161472.44549      1498.562    20392145.010    83502463.60248
      1167.707  
  21638628.962   113711788.43448      2673.852    21638631.066    88606620.78849
      2083.519  
  22974915.179   120734000.30748      2939.750    22974917.789    94078440.53349
      2290.710  
  22714340.058   119364658.77748     -3177.792    22714339.022    93011418.95045
     -2476.203  
  21689772.744   115903546.37908      -329.667    21689777.638    90147239.48207
      -256.414  
  20356133.400   108662428.93207      -334.433    20356138.102    84515259.73704
      -260.116  
  19355301.860   103283609.01208      -689.727           0.000           0.0000 
         0.000  
  20841014.450   111563600.54308      2475.090    20841018.438    86771714.47907
      1925.065  
  21971073.360   117365531.58205      3361.082    21971078.070    91284335.80203
      2614.171  
  22901468.422   122421482.42806     -3435.124    22901471.474    95216718.48706
     -2671.770  
  21601217.499   115592462.59908     -3898.344    21601220.749    89905264.02407
     -3032.050  
 20 10 02 06 54 10.0000000  0 15G15G27G18G23G20G24G10G13R15R22R 6R 7
                                R16R 5R21
  20531087.017   107891598.45449     -1765.190    20531086.254    84071378.45949
     -1375.477  
  23950827.372   125862460.87246      -606.687    23950829.522    98074649.28549
      -472.742  
  20817344.278   109395880.60549     -1727.671    20817344.174    85243547.13248
     -1346.241  
  20713050.382   108847830.20149      1620.469    20713050.089    84816502.69348
      1262.702  
  20390721.231   107153984.58349      1496.585    20390720.011    83496628.90848
      1166.171  
  21636086.004   113698425.50948      2671.242    21636088.324    88596208.11949
      2081.488  
  22972118.495   120719303.35748      2939.184    22972121.058    94066988.35549
      2290.269  
  22717364.190   119380550.53848     -3179.081    22717363.242    93023802.12645
     -2477.210  
  21690083.414   115905206.38108      -334.188    21690088.190    90148530.60507
      -259.921  
  20356449.021   108664113.05107      -339.281    20356453.537    84516569.61904
      -263.887  
  19355949.101   103287063.25507      -692.030           0.000           0.0000 
         0.000  
  20838703.243   111551228.53308      2473.555    20838707.147    86762091.81308
      1923.875  
  21967928.574   117348732.91504      3358.710    21967933.472    91271270.19103
      2612.335  
  22904681.519   122438658.96406     -3435.558    22904684.611    95230077.98806
     -2672.105  
  21604861.117   115611959.98808     -3900.707    21604864.227    89920428.65907
     -3033.883  
 20 10 02 06 54 15.0000000  0 15G15G27G18G23G20G24G10G13R15R22R 6R 7
                                R16R 5R21
  20532767.538   107900429.89749     -1767.176    20532766.960    84078260.10449
     -1377.019  
  23951406.264   125865502.56447      -609.565    23951408.479    98077019.42248
      -474.991  
  20818989.410   109404525.67549     -1730.285    20818989.202    85250283.55748
     -1348.273  
  20711509.181   108839731.69849      1618.992    20711509.101    84810192.16848
      1261.547  
  20389298.228   107146506.80449      1494.746    20389297.253    83490802.07548
      1164.737  
  21633545.354   113685074.83148      2668.895    21633547.574    88585804.98749
      2079.652  
  22969322.347   120704609.59048      2938.742    22969324.836    94055538.66849
      2289.926  
  22720389.300   119396447.63448     -3179.719    22720388.185    93036189.45045
     -2477.711  
  21690398.154   115906888.34807      -338.500    21690402.876    90149838.78807
      -263.280  
  20356768.797   108665820.53507      -343.531    20356773.384    84517897.66104
      -267.191  
  19356598.373   103290528.23807      -694.063           0.000           0.0000 
         0.000  
  20836393.561   111538864.02908      2472.190    20836397.213    86752474.98607
      1922.815  
  21964786.286   117331947.03405      3355.781    21964791.162    91258214.52404
      2610.050  
  22907895.134   122455837.04606     -3435.558    22907898.151    95243438.72506
     -2672.101  
  21608506.863   115631468.76808     -3902.629    21608510.052    89935602.15507
     -3035.378  
 20 10 02 06 54 20.0000000  0 15G15G27G18G23G20G24G10G13R15R22R 6R 7
                                R16R 5R21
  20534450.508   107909273.18549     -1769.964    20534449.633    84085150.96649
     -1379.199  
  23951988.221   125868560.64247      -613.254    23951990.730    98079402.33149
      -477.863  
  20820637.404   109413185.88249     -1733.684    20820637.187    85257031.78348
     -1350.921  
  20709969.894   108831642.94049      1616.694    20709969.853    84803889.23748
      1259.761  
  20387877.319   107139039.90949      1492.148    20387876.240    83484983.70448
      1162.711  
  21631007.398   113671737.03648      2666.176    21631009.529    88575411.89849
      2077.535  
  22966526.913   120689919.83248      2937.597    22966529.550    94044092.09849
      2289.034  
  22723415.531   119412350.58248     -3181.227    22723414.357    93048581.36445
     -2478.879  
  21690717.201   115908593.20808      -343.551    21690721.741    90151164.77507
      -267.210  
  20357093.003   108667551.98207      -349.063    20357097.814    84519244.32704
      -271.495  
  19357249.901   103294005.29108      -696.645           0.000           0.0000 
         0.000  
  20834085.158   111526507.96908      2470.206    20834089.000    86742864.72608
      1921.273  
  21961646.370   117315174.51005      3353.155    21961651.572    91245169.22004
      2608.011  
  22911108.857   122473017.39106     -3436.288    22911111.867    95256801.22505
     -2672.667  
  21612154.852   115650989.64808     -3905.503    21612158.029    89950785.08107
     -3037.613  
