     2.11           OBSERVATION DATA    M                   RINEX VERSION / TYPE
LEICA GEO OFFICE 8.4                    2-10-20 22:41       PGM / RUN BY / DATE
                                                            OBSERVER / AGENCY
KUHR                                                        MARKER NAME
KUHR                                                        MARKER NUMBER
352348              LEICA GX1220GG      4.10                REC # / TYPE / VERS
                    LEIAX1202GG                             ANT # / TYPE
 -1265373.7983  3799790.0940  4948593.4596                  APPROX POSITION XYZ
        1.7810        0.0000        0.0000                  ANTENNA: DELTA H/E/N
L1PhaOff:   0.0644  L2PhaOff:   0.0640                      COMMENT
     1     1                                                WAVELENGTH FACT L1/2
     6    C1    L1    D1    P2    L2    D2                  # / TYPES OF OBSERV
  2020    10     2     4    52   40.0000000     GPS         TIME OF FIRST OBS
  2020    10     2     6    36   20.0000000     GPS         TIME OF LAST OBS
    18                                                      LEAP SECONDS
    23                                                      # OF SATELLITES
          C1    L1    D1    P2    L2    D2                  COMMENT
   G 1     0     0     0     0     0     0                  PRN / # OF OBS
   G 2   137   137   137   128   128   128                  PRN / # OF OBS
   G 3     0     0     0     0     0     0                  PRN / # OF OBS
   G 4     0     0     0     0     0     0                  PRN / # OF OBS
   G 5  1124  1124  1124  1124  1124  1124                  PRN / # OF OBS
   G 6     0     0     0     0     0     0                  PRN / # OF OBS
   G 7    37    37    37    24    24    24                  PRN / # OF OBS
   G 8     0     0     0     0     0     0                  PRN / # OF OBS
   G 9     0     0     0     0     0     0                  PRN / # OF OBS
   G10   413   413   413   413   413   413                  PRN / # OF OBS
   G11     0     0     0     0     0     0                  PRN / # OF OBS
   G12     0     0     0     0     0     0                  PRN / # OF OBS
   G13  1245  1245  1245  1245  1245  1245                  PRN / # OF OBS
   G14     0     0     0     0     0     0                  PRN / # OF OBS
   G15  1245  1245  1245  1245  1245  1245                  PRN / # OF OBS
   G16     0     0     0     0     0     0                  PRN / # OF OBS
   G17     0     0     0     0     0     0                  PRN / # OF OBS
   G18  1245  1245  1245  1245  1245  1245                  PRN / # OF OBS
   G19     0     0     0     0     0     0                  PRN / # OF OBS
   G20  1244  1244  1244  1243  1243  1243                  PRN / # OF OBS
   G21     0     0     0     0     0     0                  PRN / # OF OBS
   G22     0     0     0     0     0     0                  PRN / # OF OBS
   G23  1100  1100  1100  1100  1100  1100                  PRN / # OF OBS
   G24   636   636   636   635   635   635                  PRN / # OF OBS
   G25     0     0     0     0     0     0                  PRN / # OF OBS
   G26     0     0     0     0     0     0                  PRN / # OF OBS
   G27   655   655   655   654   654   654                  PRN / # OF OBS
   G28     0     0     0     0     0     0                  PRN / # OF OBS
   G29   829   829   829   829   829   829                  PRN / # OF OBS
   G30   721   721   721   695   695   695                  PRN / # OF OBS
   G31     0     0     0     0     0     0                  PRN / # OF OBS
   G32     0     0     0     0     0     0                  PRN / # OF OBS
   R 1     0     0     0     0     0     0                  PRN / # OF OBS
   R 2     0     0     0     0     0     0                  PRN / # OF OBS
   R 3     0     0     0     0     0     0                  PRN / # OF OBS
   R 4   242   242   242   242   242   242                  PRN / # OF OBS
   R 5  1224  1224  1224  1225  1225  1225                  PRN / # OF OBS
   R 6  1245  1245  1245     0     0     0                  PRN / # OF OBS
   R 7   738   738   738   737   737   737                  PRN / # OF OBS
   R 8     0     0     0     0     0     0                  PRN / # OF OBS
   R 9     0     0     0     0     0     0                  PRN / # OF OBS
   R10     0     0     0     0     0     0                  PRN / # OF OBS
   R11     0     0     0     0     0     0                  PRN / # OF OBS
   R12     0     0     0     0     0     0                  PRN / # OF OBS
   R13     0     0     0     0     0     0                  PRN / # OF OBS
   R14   959   959   959   938   938   938                  PRN / # OF OBS
   R15   826   826   826   825   825   825                  PRN / # OF OBS
   R16    52    52    52    52    52    52                  PRN / # OF OBS
   R17     0     0     0     0     0     0                  PRN / # OF OBS
   R18     0     0     0     0     0     0                  PRN / # OF OBS
   R19     0     0     0     0     0     0                  PRN / # OF OBS
   R20   566   566   566   566   566   566                  PRN / # OF OBS
   R21  1245  1245  1245  1245  1245  1245                  PRN / # OF OBS
   R22  1172  1172  1172  1099  1099  1099                  PRN / # OF OBS
   R23     0     0     0     0     0     0                  PRN / # OF OBS
   R24     0     0     0     0     0     0                  PRN / # OF OBS
                                                            END OF HEADER
 20 10 02 04 52 40.0000000  0 13G15G 2G18G29G 5G30G20G13R 4R 6R 5R20
                                R21
  21002869.450   110370821.61849      2526.184    21002868.727    86003238.63249
      1968.448  
  24175365.285   127042399.79047     -3233.671    24175361.985    98994076.27745
     -2519.750  
  21535722.142   113170982.75848      2447.328    21535722.061    88185185.30347
      1907.004  
  22134468.904   116317419.76348     -2607.858    22134468.752    90636948.87949
     -2032.101  
  21535195.568   113168215.06249     -2442.995    21535194.523    88183023.80949
     -1903.632  
  23750289.726   124808596.24047        86.854    23750291.971    97253470.62946
        67.675  
  23989247.427   126064332.25045      3259.187    23989243.111    98231942.19843
      2539.625  
  20508949.361   107775256.65949       595.733    20508948.217    83980716.71147
       464.206  
  22524669.202   120618566.49306     -3770.425    22524671.388    93814460.40407
     -2932.554  
  20935461.152   111715632.33907      2966.241           0.000           0.0000 
         0.000  
  19340676.010   103387001.85009     -1156.324    19340679.660    80412129.94808
      -899.363  
  20177580.617   107898596.91706     -2713.719    20177586.644    83921149.13908
     -2110.671  
  20080164.161   107453011.65609      2033.952    20080167.713    83574583.07008
      1581.965  
 20 10 02 04 52 45.0000000  0 13G15G 2G18G29G 5G30G20G13R 4R 6R 5R20
                                R21
  21000467.430   110358198.88749      2522.840    21000466.572    85993402.73949
      1965.844  
  24178443.164   127058573.02647     -3235.421    24178439.468    99006678.77544
     -2521.116  
  21533395.044   113158753.15548      2444.684    21533394.718    88175655.75247
      1904.949  
  22136951.833   116330467.64248     -2611.141    22136951.817    90647116.05149
     -2034.660  
  21537520.958   113180435.25748     -2445.101    21537520.025    88192546.04049
     -1905.272  
  23750208.749   124808171.17647        82.929    23750211.390    97253139.41246
        64.616  
  23986145.976   126048037.42345      3258.233    23986141.380    98219244.84643
      2538.866  
  20508384.525   107772288.42549       591.495    20508383.313    83978403.80248
       460.906  
  22528189.832   120637421.33805     -3771.449    22528192.706    93829125.32107
     -2933.496  
  20932683.049   111700808.56607      2963.449           0.000           0.0000 
         0.000  
  19341759.318   103392792.31709     -1159.901    19341762.928    80416633.63108
      -902.147  
  20180120.319   107912176.03506     -2718.297    20180125.886    83931710.67008
     -2114.234  
  20078265.909   107442853.94508      2029.172    20078269.345    83566682.63208
      1578.246  
 20 10 02 04 52 50.0000000  0 13G15G 2G18G29G 5G30G20G13R 4R 6R 5R20
                                R21
  20998067.841   110345588.05549      2521.265    20998066.866    85983576.12549
      1964.621  
  24181521.265   127074749.77647     -3235.815    24181518.269    99019284.01544
     -2521.418  
  21531069.280   113146531.64748      2443.688    21531069.081    88166132.50047
      1904.168  
  22139436.872   116343526.76548     -2612.602    22139436.637    90657291.97649
     -2035.796  
  21539847.464   113192661.34648     -2445.526    21539846.336    88202072.86349
     -1905.608  
  23750130.415   124807760.33847        81.176    23750133.357    97252819.28746
        63.254  
  23983044.862   126031743.39444      3258.999    23983040.394    98206548.32846
      2539.499  
  20507822.755   107769336.21049       589.124    20507821.610    83976103.37848
       459.058  
  22531710.445   120656277.87105     -3771.266    22531714.205    93843791.49107
     -2933.211  
  20929906.869   111685994.36807      2962.124           0.000           0.0000 
         0.000  
  19342845.144   103398596.45809     -1161.921    19342848.638    80421147.96508
      -903.722  
  20182662.674   107925771.49106     -2720.464    20182668.290    83942284.91308
     -2115.922  
  20076371.151   107432714.08508      2026.448    20076374.612    83558796.07408
      1576.124  
 20 10 02 04 52 55.0000000  0 13G15G 2G18G29G 5G30G20G13R 4R 6R 5R20
                                R21
  20995670.133   110332988.98649      2518.266    20995669.209    85973758.68349
      1962.285  
  24184600.070   127090929.94147     -3236.671    24184597.042    99031891.91845
     -2522.085  
  21528745.242   113134318.02748      2441.613    21528744.945    88156615.39947
      1902.555  
  22141923.974   116356596.91948     -2615.460    22141923.950    90667476.51249
     -2038.026  
  21542175.093   113204893.15348     -2447.253    21542174.226    88211604.14949
     -1906.948  
  23750054.693   124807363.54247        77.530    23750057.797    97252510.10046
        60.409  
  23979944.369   126015450.09845      3258.226    23979941.045    98193852.10443
      2538.863  
  20507263.850   107766399.83249       585.363    20507262.889    83973815.29048
       456.128  
  22535231.609   120675135.92405     -3771.737    22535235.904    93858458.83407
     -2933.637  
  20927132.400   111671189.36307      2959.858           0.000           0.0000 
         0.000  
  19343933.307   103404413.93808     -1165.226    19343936.909    80425672.66508
      -906.292  
  20185207.964   107939383.33206     -2723.945    20185213.834    83952871.90408
     -2118.629  
  20074479.444   107422591.74408      2022.499    20074483.001    83550923.13408
      1573.051  
 20 10 02 04 53  0.0000000  0 13G15G 2G18G29G 5G30G20G13R 4R 6R 5R20
                                R21
  20993274.871   110320401.79849      2516.382    20993274.055    85963950.49149
      1960.815  
  24187679.808   127107113.57647     -3236.995    24187676.700    99044502.54244
     -2522.339  
  21526422.474   113122112.42648      2440.445    21526422.363    88147104.53247
      1901.640  
  22144413.369   116369678.24748     -2617.249    22144413.285    90677669.73649
     -2039.417  
  21544503.664   113217130.81448     -2448.102    21544502.834    88221139.97349
     -1907.616  
  23749981.585   124806980.94947        75.202    23749984.863    97252211.98146
        58.601  
  23976843.942   125999157.62105      3258.922           0.000           0.0000 
         0.000  
  20506708.232   107763479.44949       582.624    20506707.130    83971539.67848
       453.992  
  22538753.294   120693995.57205     -3771.605    22538757.921    93873127.47307
     -2933.472  
  20924359.731   111656393.96307      2958.152           0.000           0.0000 
         0.000  
  19345024.275   103410245.06709     -1167.546    19345027.556    80430207.99508
      -908.097  
  20187756.531   107953011.54206     -2726.819    20187762.487    83963471.61008
     -2120.862  
  20072591.244   107412487.23108      2019.253    20072594.814    83543064.06908
      1570.527  
 20 10 02 04 53  5.0000000  0 13G15G 2G18G29G 5G30G20G13R 4R 6R 5R20
                                R21
  20990882.433   110307829.67149      2510.969    20990881.836    85954154.03449
      1956.598  
  24190760.656   127123303.88547     -3240.667    24190757.469    99057118.33844
     -2525.203  
  21524102.044   113109918.04548      2436.058    21524101.942    88137602.42147
      1898.223  
  22146905.284   116382773.84748     -2622.417    22146905.617    90687874.10549
     -2043.444  
  21546834.138   113229377.47548     -2452.159    21546833.348    88230682.81949
     -1910.777  
  23749911.775   124806615.65747        69.297    23749915.467    97251927.34745
        53.995  
  23973744.224   125982869.11644      3255.363    23973741.858    98168461.50053
      2536.667  
  20506156.226   107760578.19849       576.395    20506155.055    83969278.96148
       449.133  
  22542275.681   120712860.04605     -3775.659    22542280.505    93887799.84806
     -2936.624  
  20921589.758   111641611.35807      2953.422           0.000           0.0000 
         0.000  
  19346118.083   103416092.84909     -1173.207    19346121.632    80434756.26508
      -912.500  
  20190308.666   107966659.39006     -2733.629    20190314.756    83974086.60208
     -2126.155  
  20070706.862   107402403.61708      2012.844    20070710.427    83535221.25708
      1565.546  
 20 10 02 04 53 10.0000000  0 13G15G 2G18G29G 5G30G20G13R 4R 6R 5R20
                                R21
  20988494.220   110295279.46749      2509.397    20988493.481    85944374.65149
      1955.375  
  24193843.945   127139507.64546     -3240.276    24193840.851    99069744.61444
     -2524.897  
  21521784.854   113097741.69148      2435.183    21521784.929    88128114.35747
      1897.547  
  22149401.422   116395890.55148     -2623.851    22149401.593    90698094.90049
     -2044.562  
  21549167.486   113241639.89448     -2452.578    21549166.709    88240237.95149
     -1911.101  
  23749846.628   124806274.55847        67.499    23749850.245    97251661.55446
        52.594  
  23970646.513   125966591.31745      3255.979    23970643.926    98155778.39451
      2537.128  
  20505608.992   107757702.90249       574.050    20505608.110    83967038.46948
       447.313  
  22545800.046   120731736.23305     -3774.687    22545805.451    93902481.34306
     -2935.866  
  20918823.232   111626848.20607      2952.159           0.000           0.0000 
         0.000  
  19347216.577   103421964.27509     -1175.069    19347219.832    80439322.93508
      -913.945  
  20192865.753   107980333.75106     -2735.749    20192872.023    83984722.22808
     -2127.805  
  20068827.719   107392347.94209      2010.016    20068831.324    83527400.18508
      1563.344  
 20 10 02 04 53 15.0000000  0 13G15G 2G18G29G 5G30G20G13R 4R 6R 5R20
                                R21
  20986106.955   110282734.36449      2508.503    20986106.367    85934599.25549
      1954.680  
  24196926.736   127155708.10347     -3239.792    24196923.712    99082368.32244
     -2524.522  
  21519468.038   113085566.61749      2435.019    21519468.182    88118627.29247
      1897.417  
  22151898.342   116409011.57749     -2624.655    22151898.778    90708319.07749
     -2045.191  
  21551500.832   113253901.33748     -2452.245    21551500.069    88249792.32449
     -1910.843  
  23749782.928   124805940.84647        66.011    23749786.395    97251401.50346
        51.433  
  23967547.577   125950307.61445      3256.921    23967545.124    98143089.84843
      2537.878  
  20505063.633   107754836.77249       572.328    20505062.851    83964805.12848
       445.969  
  22549323.857   120750607.11205     -3773.516    22549329.289    93917158.69007
     -2934.957  
  20916057.084   111612087.91907      2951.770           0.000           0.0000 
         0.000  
  19348316.194   103427842.35409     -1176.245    19348319.604    80443894.76808
      -914.862  
  20195424.759   107994017.53506     -2737.641    20195430.958    83995365.16408
     -2129.281  
  20066950.814   107382303.21009      2007.835    20066954.127    83519587.61308
      1561.645  
 20 10 02 04 53 20.0000000  0 13G15G 2G18G29G 5G30G20G13R 4R 6R 5R20
                                R21
  20983721.205   110270197.84949      2505.789    20983720.711    85924830.55249
      1952.562  
  24200009.463   127171908.63147     -3240.852    24200006.665    99094992.12345
     -2525.340  
  21517152.183   113073396.31049      2432.901    21517152.158    88109143.93547
      1895.766  
  22154396.768   116422140.39548     -2627.133    22154397.145    90718549.31749
     -2047.121  
  21553834.576   113266165.24348     -2453.609    21553833.691    88259348.61849
     -1911.901  
  23749721.307   124805617.99147        62.983    23749724.506    97251149.92445
        49.074  
  23964448.461   125934021.36545      3257.073    23964446.358    98130399.20241
      2537.980  
  20504520.737   107751983.30349       568.819    20504519.800    83962581.64748
       443.238  
  22552847.346   120769476.17405     -3774.218    22552853.016    93931834.60907
     -2935.507  
  20913292.231   111597333.94807      2949.847           0.000           0.0000 
         0.000  
  19349417.687   103433730.53009     -1179.269    19349421.341    80448474.45408
      -917.214  
  20197986.219   108007714.18806     -2740.828    20197992.360    84006018.11108
     -2131.758  
  20065076.328   107372272.89808      2003.926    20065079.790    83511786.25608
      1558.609  
 20 10 02 04 53 25.0000000  0 13G15G 2G18G29G 5G30G20G13R 4R 6R 5R20
                                R21
  20981338.318   110257675.25849      2504.184    20981337.736    85915072.69649
      1951.313  
  24203093.275   127188114.66946     -3240.523    24203090.462    99107620.19244
     -2525.089  
  21514838.249   113061236.06948      2432.242    21514838.318    88099668.42747
      1895.254  
  22156897.672   116435282.26348     -2628.624    22156897.936    90728789.73349
     -2048.281  
  21556169.695   113278436.96948     -2453.948    21556168.777    88268910.99849
     -1912.171  
  23749663.028   124805311.29947        60.637    23749665.761    97250910.96845
        47.250  
  23961349.703   125917737.97244      3257.844    23961347.209    98117710.92141
      2538.578  
  20503981.073   107749147.78449       566.495    20503980.406    83960372.16548
       441.425  
  22556371.357   120788348.75105     -3773.796    22556377.461    93946513.26507
     -2935.180  
  20910529.561   111582591.34307      2948.362           0.000           0.0000 
         0.000  
  19350522.224   103439634.16609     -1181.215    19350525.912    80453066.17408
      -918.723  
  20200550.932   108021429.35806     -2743.789    20200557.036    84016685.45608
     -2134.063  
  20063205.752   107362262.47408      2001.198    20063209.112    83504000.37708
      1556.487  
 20 10 02 04 53 30.0000000  0 13G15G 2G18G29G 5G30G20G13R 4R 6R 5R20
                                R21
  20978956.026   110245156.75849      2501.698    20978955.774    85905318.02449
      1949.374  
  24206176.295   127204316.33146     -3241.585    24206173.325    99120244.81644
     -2525.918  
  21512524.258   113049076.05749      2430.363    21512524.486    88090193.11047
      1893.789  
  22159399.134   116448427.35048     -2631.015    22159399.394    90739032.66049
     -2050.141  
  21558504.593   113290706.60048     -2455.320    21558503.609    88278471.74549
     -1913.238  
  23749605.769   124805010.99147        57.800    23749608.429    97250676.95345
        45.034  
  23958249.674   125901447.48945      3257.339    23958248.167    98105017.11341
      2538.194  
  20503443.123   107746320.43449       563.155    20503442.461    83958169.03048
       438.824  
  22559893.975   120807214.95705     -3774.750    22559900.766    93961187.02007
     -2935.918  
  20907767.111   111567850.53307      2945.999           0.000           0.0000 
         0.000  
  19351627.634   103445543.40009     -1184.184    19351631.370    80457662.24108
      -921.035  
  20203117.106   108035152.87506     -2746.941    20203123.337    84027359.30808
     -2136.515  
  20061336.891   107352261.84808      1997.574    20061340.342    83496222.09408
      1553.663  
 20 10 02 04 53 35.0000000  0 13G15G 2G18G29G 5G30G20G13R 4R 6R 5R20
                                R21
  20976577.949   110232659.59949      2496.226    20976577.485    85895579.98249
      1945.113  
  24209261.723   127220530.83347     -3245.226    24209258.870    99132879.48045
     -2528.754  
  21510213.555   113036933.57748      2425.688    21510213.839    88080731.42747
      1890.140  
  22161904.423   116461592.91848     -2636.269    22161904.746    90749291.53049
     -2054.237  
  21560842.343   113302991.43048     -2459.387    21560841.374    88288044.34549
     -1916.409  
  23749553.344   124804734.27947        52.108    23749555.677    97250461.28445
        40.597  
  23955151.318   125885167.39243      3254.366    23955150.504    98092337.32653
      2535.871  
  20502909.915   107743518.43849       556.836    20502909.101    83955985.66348
       433.898  
  22563419.003   120826092.17004     -3777.715    22563425.876    93975869.29307
     -2938.223  
  20905008.228   111553128.82406      2941.023           0.000           0.0000 
         0.000  
  19352737.360   103451475.55409     -1189.957    19352741.117    80462276.13608
      -925.527  
  20205688.343   108048902.12306     -2753.546    20205694.459    84038053.15108
     -2141.651  
  20059473.186   107342288.69608      1990.898    20059476.639    83488465.21308
      1548.477  
 20 10 02 04 53 40.0000000  0 12G15G 2G18G29G 5G30G13R 4R 6R 5R20R21
  20974204.016   110220184.34249      2494.522    20974203.814    85885859.01049
      1943.785  
  24212349.930   127236758.68947     -3245.362    24212347.073    99145524.56343
     -2528.854  
  21507906.460   113024809.14448      2424.844    21507906.591    88071283.82147
      1889.484  
  22164413.859   116474779.49848     -2637.757    22164413.960    90759566.78249
     -2055.397  
  21563182.934   113315291.94648     -2460.120    21563182.048    88297629.16949
     -1916.977  
  23749505.332   124804481.66147        49.699    23749507.565    97250264.46045
        38.727  
  20502381.650   107740742.35449       554.370    20502380.827    83953822.47148
       431.972  
  22566946.109   120844981.15805     -3777.418    22566953.105    93990560.76207
     -2937.750  
  20902253.019   111538426.72007      2940.233           0.000           0.0000 
         0.000  
  19353851.602   103457431.31609     -1191.758    19353855.198    80466908.39808
      -926.921  
  20208264.333   108062677.94306     -2756.304    20208270.409    84048767.66808
     -2143.796  
  20057614.719   107332343.50509      1988.003    20057618.205    83480730.07808
      1546.226  
 20 10 02 04 53 45.0000000  0 13G15G 2G18G29G 5G30G20G13R 4R 6R 5R20
                                R21
  20971830.826   110207713.64549      2493.483    20971830.651    85876141.58849
      1942.976  
  24215437.515   127252982.62446     -3244.812    24215434.329    99158166.57844
     -2528.430  
  21505599.354   113012685.44048      2424.625    21505599.549    88061836.77647
      1889.315  
  22166923.871   116487969.73448     -2638.516    22166923.892    90769844.87649
     -2055.987  
  21565523.319   113327590.90848     -2459.941    21565522.251    88307212.78449
     -1916.835  
  23749458.568   124804235.88447        48.210    23749460.621    97250072.95045
        37.565  
  23948957.265   125852620.08255      3255.621    23948960.210    98066988.29453
      2536.848  
  20501854.936   107737974.85949       552.538    20501854.012    83951665.99947
       430.550  
  22570472.276   120863864.03305     -3775.979    22570479.453    94005247.37707
     -2936.882  
  20899498.213   111523726.73707      2939.391           0.000           0.0000 
         0.000  
  19354966.983   103463393.00709     -1192.973    19354970.501    80471545.27008
      -927.867  
  20210842.137   108076462.33906     -2757.480    20210848.098    84059488.85508
     -2144.711  
  20055758.152   107322408.64209      1985.702    20055761.416    83473002.97308
      1544.437  
 20 10 02 04 53 50.0000000  0 13G15G 2G18G29G 5G30G20G13R 4R 6R 5R20
                                R21
  20969459.763   110195253.93849      2490.108    20969459.677    85866432.71649
      1940.339  
  24218525.301   127269208.95546     -3246.175    24218522.234    99170810.47044
     -2529.495  
  21503293.562   113000568.86148      2422.085    21503294.002    88052395.29147
      1887.339  
  22169435.825   116501169.95149     -2641.672    22169435.809    90780130.75649
     -2058.449  
  21567864.653   113339894.67248     -2461.870    21567863.715    88316800.12949
     -1918.343  
  23749414.456   124804003.25947        44.590    23749416.404    97249891.70445
        34.745  
  23945859.719   125836343.99345      3254.184    23945863.531    98054305.78644
      2535.745  
  20501331.246   107735222.35249       548.452    20501330.387    83949521.18948
       427.366  
  22573998.528   120882747.44805     -3777.272    22574005.679    94019934.45307
     -2937.891  
  20896745.132   111509035.20407      2936.793           0.000           0.0000 
         0.000  
  19356084.593   103469367.05609     -1196.660    19356088.018    80476191.75308
      -930.738  
  20213422.727   108090262.03806     -2762.125    20213428.655    84070221.96808
     -2148.319  
  20053904.750   107312490.68209      1981.199    20053907.999    83465288.99808
      1540.930  
 20 10 02 04 53 55.0000000  0 13G15G 2G18G29G 5G30G20G13R 4R 6R 5R20
                                R21
  20967091.748   110182809.02949      2487.668    20967091.597    85856735.38749
      1938.437  
  24221614.384   127285441.53846     -3246.793    24221611.444    99183459.23744
     -2529.972  
  21500990.075   112988463.23648      2420.277    21500990.358    88042962.34747
      1885.930  
  22171950.416   116514383.97149     -2643.851    22171950.411    90790427.41249
     -2060.145  
  21570207.710   113352207.01948     -2462.964    21570206.645    88326394.16049
     -1919.198  
  23749373.406   124803787.66947        41.207    23749375.383    97249723.69845
        32.104  
  23942763.179   125820071.53346      3254.425    23942766.930    98041625.91344
      2535.914  
  20500810.969   107732488.62249       545.050    20500810.181    83947391.00048
       424.711  
  22577525.528   120901635.09405     -3777.612    22577532.710    94034624.85007
     -2938.054  
  20893994.315   111494356.22607      2934.859           0.000           0.0000 
         0.000  
  19357205.214   103475357.44909     -1199.504    19357208.653    80480850.94908
      -932.948  
  20216006.747   108104080.76506     -2765.624    20216012.765    84080969.86108
     -2151.047  
  20052055.292   107302593.54608      1977.612    20052058.655    83457591.22508
      1538.140  
 20 10 02 04 54  0.0000000  0 13G15G 2G18G29G 5G30G20G13R 4R 6R 5R20
                                R21
  20964727.907   110170387.33649      2478.668    20964727.936    85847056.15649
      1931.430  
  24224706.140   127301688.79446     -3254.160    24224703.363    99196119.41244
     -2535.714  
  21498690.007   112976376.98648      2411.979    21498690.374    88033544.48347
      1879.464  
  22174469.352   116527620.22148     -2652.808    22174469.149    90800741.38149
     -2067.125  
  21572553.803   113364536.35348     -2471.015    21572552.763    88336001.43349
     -1925.469  
  23749337.197   124803597.51446        32.191    23749339.291    97249575.50046
        25.081  
  23939668.955   125803811.21446      3247.944    23939672.900    98028955.56241
      2530.866  
  20500296.022   107729782.11949       535.313    20500295.088    83945282.03148
       417.121  
  22581054.919   120920535.72905     -3784.422    22581062.372    94049325.39307
     -2943.433  
  20891247.353   111479698.28507      2926.195           0.000           0.0000 
         0.000  
  19358330.482   103481372.62209     -1208.913    19358333.992    80485529.42308
      -940.265  
  20218596.284   108117927.40306     -2775.691    20218602.245    84091739.46308
     -2158.874  
  20050211.257   107292725.74208      1967.343    20050214.573    83449916.25808
      1530.151  
 20 10 02 04 54  5.0000000  0 13G15G 2G18G29G 5G30G20G13R 4R 6R 5R20
                                R21
  20962368.803   110157990.41149      2480.500    20962368.869    85837396.23149
      1932.854  
  24227801.038   127317952.28045     -3250.718    24227798.247    99208792.28945
     -2533.030  
  21496394.123   112964311.69048      2414.601    21496394.240    88024142.94847
      1881.504  
  22176992.623   116540880.22948     -2650.894    22176992.272    90811073.86549
     -2065.633  
  21574903.527   113376884.20248     -2467.694    21574902.634    88345623.13449
     -1922.882  
  23749306.063   124803434.27745        33.499    23749308.249    97249448.29547
        26.105  
  23936577.235   125787564.55246      3251.737    23936581.404    98016295.83943
      2533.824  
  20499786.412   107727104.37949       536.288    20499785.383    83943195.46647
       417.883  
  22584587.060   120939450.90305     -3780.409    22584594.679    94064037.16907
     -2940.324  
  20888504.629   111465062.83307      2928.480           0.000           0.0000 
         0.000  
  19359460.802   103487414.20409     -1207.266    19359464.166    80490228.43608
      -938.973  
  20221191.218   108131803.12006     -2774.363    20221197.041    84102531.67708
     -2157.844  
  20048373.035   107282888.85809      1967.953    20048376.226    83442265.34708
      1530.625  
 20 10 02 04 54 10.0000000  0 13G15G 2G18G29G 5G30G20G13R 4R 6R 5R20
                                R21
  20960008.554   110145587.52949      2480.647    20960008.528    85827731.65549
      1932.973  
  24230893.157   127334201.16345     -3248.812    24230890.300    99221453.69845
     -2531.547  
  21494096.327   112952236.59348      2415.456    21494096.391    88014733.79947
      1882.175  
  22179514.530   116554133.28148     -2650.546    22179514.151    90821400.91349
     -2065.363  
  21577250.760   113389219.83948     -2466.722    21577250.049    88355235.31249
     -1922.125  
  23749274.092   124803267.36545        33.082    23749276.388    97249318.23746
        25.772  
  23933482.363   125771300.79846      3254.214    23933486.688    98003622.74644
      2535.742  
  20499276.381   107724424.65149       535.655    20499275.479    83941107.37048
       417.390  
  22588116.106   120958349.15805     -3778.569    22588123.661    94078735.88207
     -2938.878  
  20885760.365   111450418.82207      2929.042           0.000           0.0000 
         0.000  
  19360589.984   103493450.88909     -1207.444    19360593.402    80494923.64208
      -939.124  
  20223785.576   108145676.81706     -2775.280    20223791.546    84113322.33608
     -2158.554  
  20046534.795   107273051.69009      1966.824    20046537.873    83434614.22608
      1529.753  
 20 10 02 04 54 15.0000000  0 13G15G 2G18G29G 5G30G20G13R 4R 6R 5R20
                                R21
  20957650.033   110133193.57349      2476.999    20957650.128    85818074.02849
      1930.128  
  24233985.339   127350450.37545     -3250.589    24233982.631    99234115.40045
     -2532.930  
  21491799.453   112940166.56548      2412.573    21491799.573    88005328.58747
      1879.929  
  22182037.978   116567394.15048     -2653.749    22182037.734    90831734.03349
     -2067.858  
  21579598.766   113401558.16348     -2468.934    21579597.973    88364849.57749
     -1923.847  
  23749243.922   124803111.47545        28.461    23749246.562    97249196.82146
        22.183  
  23930387.124   125755034.73946      3252.492    23930391.433    97990947.88044
      2534.402  
  20498768.833   107721757.77949       531.230    20498768.059    83939029.29048
       413.945  
  22591644.688   120977245.64606     -3779.902    22591652.654    94093433.13907
     -2939.741  
  20883017.420   111435781.25507      2926.093           0.000           0.0000 
         0.000  
  19361721.208   103499497.80909     -1211.352    19361724.580    80499626.80108
      -942.168  
  20226382.549   108159563.59206     -2779.531    20226388.437    84124123.16308
     -2161.859  
  20044699.353   107263229.33709      1962.159    20044702.173    83426974.61508
      1526.120  
 20 10 02 04 54 20.0000000  0 13G15G 2G18G29G 5G30G20G13R 4R 6R 5R20
                                R21
  20955294.363   110120814.47549      2474.390    20955294.191    85808427.98349
      1928.094  
  24237078.630   127366705.73046     -3251.347    24237075.819    99246781.89344
     -2533.522  
  21489504.696   112928107.59948      2410.707    21489504.738    87995931.99847
      1878.473  
  22184563.907   116580668.87548     -2656.301    22184563.532    90842077.97149
     -2069.847  
  21581948.304   113413905.13248     -2470.102    21581947.590    88374470.58349
     -1924.757  
  23749217.170   124802972.70345        25.979    23749219.992    97249088.68045
        20.249  
  23927292.592   125738772.45846      3252.105    23927297.011    97978276.02144
      2534.112  
  20498264.904   107719109.77049       527.792    20498264.054    83936965.90948
       411.265  
  22595174.257   120996146.45306     -3780.343    22595182.111    94108133.76507
     -2940.265  
  20880276.745   111421156.17407      2923.801           0.000           0.0000 
         0.000  
  19362855.616   103505561.05609     -1214.160    19362858.904    80504342.66008
      -944.352  
  20228983.157   108173469.33606     -2783.265    20228988.731    84134938.74508
     -2164.762  
  20042867.601   107253427.85409      1958.413    20042870.586    83419351.24408
      1523.206  
 20 10 02 04 54 25.0000000  0 13G15G 2G18G29G 5G30G20G13R 4R 6R 5R20
                                R21
  20952941.328   110108449.13349      2471.878    20952941.169    85798792.65949
      1926.140  
  24240173.000   127382966.34946     -3252.198    24240170.394    99259452.47243
     -2534.191  
  21487211.833   112916058.55148      2409.094    21487212.085    87986543.12247
      1877.210  
  22187092.492   116593956.24048     -2658.617    22187092.033    90852431.76149
     -2071.652  
  21584299.222   113426259.50848     -2471.198    21584298.655    88384097.36749
     -1925.612  
  23749193.600   124802849.80946        22.961    23749196.499    97248992.91844
        17.886  
  23924198.464   125722512.70347      3251.945    23924202.751    97965606.13743
      2533.987  
  20497764.357   107716479.44349       524.464    20497763.742    83934916.31248
       408.676  
  22598704.293   121015050.48206     -3780.683    22598712.288    94122836.88907
     -2940.535  
  20877538.106   111406542.52407      2921.887           0.000           0.0000 
         0.000  
  19363992.613   103511639.33209     -1217.022    19363996.105    80509070.20108
      -946.577  
  20231587.096   108187393.14506     -2786.011    20231592.654    84145768.38708
     -2166.898  
  20041039.758   107243646.10608      1954.832    20041042.613    83411743.23108
      1520.426  
 20 10 02 04 54 30.0000000  0 13G15G 2G18G29G 5G30G20G13R 4R 6R 5R20
                                R21
  20950590.385   110096095.53049      2469.414    20950590.389    85789166.48149
      1924.219  
  24243267.911   127399230.05845     -3253.229    24243265.244    99272125.46144
     -2534.992  
  21484920.503   112904017.43848      2407.194    21484920.610    87977160.44647
      1875.737  
  22189622.978   116607254.21948     -2660.930    22189622.582    90862793.81249
     -2073.456  
  21586651.292   113438619.28348     -2472.660    21586650.689    88393728.36149
     -1926.754  
  23749172.603   124802740.88045        20.390    23749176.037    97248908.03545
        15.887  
  23921104.553   125706253.65346      3251.456    23921108.399    97952936.72343
      2533.597  
  20497266.698   107713864.78949       521.120    20497266.086    83932878.92948
       406.070  
  22602234.371   121033955.63804     -3780.765    22602242.642    94137540.90707
     -2940.598  
  20874801.336   111391938.24907      2919.112           0.000           0.0000 
         0.000  
  19365132.041   103517730.66309     -1219.844    19365135.449    80513807.90508
      -948.770  
  20234193.810   108201332.75906     -2789.476    20234199.449    84156610.28208
     -2169.601  
  20039215.106   107233882.11608      1950.734    20039217.962    83404149.01108
      1517.233  
 20 10 02 04 54 35.0000000  0 13G15G 2G18G29G 5G30G20G13R 4R 6R 5R20
                                R21
  20948242.324   110083756.07249      2466.684    20948242.308    85779551.32549
      1922.090  
  24246363.777   127415499.16245     -3254.352    24246361.258    99284802.65344
     -2535.867  
  21482631.129   112891986.63449      2405.281    21482631.144    87967785.80847
      1874.246  
  22192155.990   116620565.28748     -2663.266    22192155.781    90873166.05649
     -2075.277  
  21589004.689   113450986.87248     -2474.136    21589004.222    88403365.43949
     -1927.902  
  23749155.135   124802648.30345        16.984    23749158.280    97248835.88445
        13.230  
  23918011.210   125689997.52747      3251.261    23918014.509    97940269.60242
      2533.440  
  20496772.643   107711268.19849       517.663    20496772.085    83930855.60948
       403.370  
  22605765.269   121052864.40505     -3781.229    22605773.723    94152247.64007
     -2940.973  
  20872066.616   111377345.75807      2917.336           0.000           0.0000 
         0.000  
  19366274.450   103523837.52909     -1222.585    19366277.896    80518557.69608
      -950.897  
  20236804.016   108215290.64306     -2792.816    20236809.652    84167466.41708
     -2172.190  
  20037394.178   107224138.24209      1946.905    20037396.942    83396570.43608
      1514.258  
 20 10 02 04 54 40.0000000  0 13G15G 2G18G29G 5G30G20G13R 4R 6R 5R20
                                R21
  20945896.712   110071430.51949      2463.772    20945896.910    85769947.00249
      1919.823  
  24249460.620   127431773.43546     -3255.175    24249458.163    99297483.89644
     -2536.504  
  21480343.644   112879965.91549      2403.179    21480343.921    87958419.01447
      1872.608  
  22194691.429   116633889.08048     -2665.851    22194691.173    90883548.24949
     -2077.288  
  21591359.625   113463361.98548     -2475.891    21591359.220    88413008.38549
     -1929.270  
  23749140.308   124802571.69545        13.836    23749143.952    97248776.18246
        10.777  
  23914918.343   125673744.18447      3250.613    23914921.027    97927604.68543
      2532.944  
  20496281.836   107708689.46249       513.973    20496281.438    83928846.20948
       400.496  
  22609296.960   121071776.41804     -3782.862    22609305.245    94166956.99107
     -2942.226  
  20869334.112   111362764.84307      2915.137           0.000           0.0000 
         0.000  
  19367419.662   103529959.59109     -1225.897    19367423.215    80523319.30308
      -953.480  
  20239417.647   108229266.68206     -2796.956    20239423.203    84178336.66708
     -2175.410  
  20035577.006   107214414.37709      1942.887    20035579.852    83389007.43808
      1511.129  
 20 10 02 04 54 45.0000000  0 13G15G 2G18G29G 5G30G20G13R 4R 6R 5R20
                                R21
  20943553.999   110059119.60249      2460.058    20943554.199    85760354.08749
      1916.930  
  24252558.650   127448053.69346     -3257.315    24252556.356    99310169.79344
     -2538.176  
  21478058.446   112867956.02549      2400.183    21478058.407    87949060.65547
      1870.270  
  22197229.386   116647226.35148     -2669.461    22197228.975    90893940.90849
     -2080.102  
  21593716.274   113475745.38849     -2478.147    21593715.648    88422657.78349
     -1931.026  
  23749128.756   124802511.86745         9.371    23749132.516    97248729.57346
         7.301  
  23911826.110   125657494.29547      3248.948    23911828.752    97914942.43243
      2531.647  
  20495794.654   107706129.26949       509.495    20495794.188    83926851.25448
       397.011  
  22612829.394   121090692.35105     -3783.976    22612837.795    94181669.43907
     -2943.086  
  20866604.149   111348196.17807      2911.995           0.000           0.0000 
         0.000  
  19368567.852   103536097.60409     -1229.776    19368571.485    80528093.30308
      -956.495  
  20242034.847   108243261.46306     -2801.413    20242040.323    84189221.50808
     -2178.878  
  20033763.747   107204711.13708      1938.008    20033766.568    83381460.46408
      1507.336  
 20 10 02 04 54 50.0000000  0 14G15G 2G18G29G 5G30G 7G20G13R 4R 6R 5
                                R20R21
  20941214.705   110046826.93749      2457.680    20941214.877    85750775.39149
      1915.074  
  24255658.428   127464343.35045     -3258.468    24255656.387    99322863.02645
     -2539.069  
  21475775.725   112855960.55849      2398.539    21475775.831    87939713.54047
      1868.987  
  22199770.613   116660580.62148     -2671.699    22199770.207    90904346.82949
     -2081.847  
  21596075.000   113488140.70049     -2479.437    21596074.513    88432316.47349
     -1932.026  
  23749121.266   124802472.47746         6.503    23749125.074    97248698.91146
         5.070  
  24950276.628   131114595.13155     -1432.390    24950276.661   102167212.77253
     -1115.906  
  23908735.180   125641251.53747      3248.929    23908737.880    97902285.76343
      2531.633  
  20495311.684   107703591.24549       506.332    20495311.060    83924873.58348
       394.543  
  22616363.350   121109616.05205     -3784.496    22616371.574    94196387.81507
     -2943.507  
  20863876.940   111333643.29707      2909.944           0.000           0.0000 
         0.000  
  19369719.812   103542255.11609     -1232.488    19369723.346    80532882.48108
      -958.605  
  20244656.143   108257278.49205     -2804.551    20244661.532    84200123.63708
     -2181.315  
  20031954.981   107195032.28108      1934.313    20031957.858    83373932.46808
      1504.461  
 20 10 02 04 54 55.0000000  0 15G15G 2G18G29G 5G30G 7G20G13R14R 4R 6
                                R 5R20R21
  20938877.112   110034542.05349      2456.133    20938877.003    85741202.74849
      1913.867  
  24258757.823   127480632.15644     -3257.819    24258755.970    99335555.61346
     -2538.566  
  21473493.989   112843969.04649      2397.804    21473493.959    87930369.50247
      1868.417  
  22202313.130   116673941.41848     -2672.960    22202312.720    90914757.83549
     -2082.832  
  21598434.117   113500537.41049     -2479.672    21598433.617    88441976.23449
     -1932.215  
  23749115.874   124802443.01745         4.758    23749119.494    97248675.96945
         3.711  
  24951639.635   131121758.37206     -1433.229           0.000           0.0000 
         0.000  
  23905643.621   125625005.31646      3249.367    23905646.285    97889626.35644
      2531.972  
  20494830.807   107701064.93749       503.948    20494830.375    83922905.03948
       392.688  
  23202285.939   123681236.10515      2149.219    23202295.310    96196566.46012
      1671.609  
  22619896.476   121128536.69205     -3784.147    22619904.904    94211103.85507
     -2943.234  
  20861150.645   111319095.79607      2908.988           0.000           0.0000 
         0.000  
  19370873.263   103548421.66109     -1234.344    19370876.827    80537678.67908
      -960.051  
  20247279.660   108271307.36706     -2807.051    20247284.965    84211034.98408
     -2183.266  
  20030148.826   107185367.15308      1931.332    20030151.788    83366415.14708
      1502.147  
 20 10 02 04 55  0.0000000  0 15G15G 2G18G29G 5G30G 7G20G13R14R 4R 6
                                R 5R20R21
  20936541.643   110022269.26849      2453.215    20936541.647    85731639.54449
      1911.597  
  24261857.851   127496924.32045     -3259.160    24261856.352    99348250.81545
     -2539.604  
  21471213.570   112831985.83149      2395.645    21471213.517    87921031.94047
      1866.734  
  22204857.756   116687313.05248     -2675.473    22204857.443    90925177.30049
     -2084.784  
  21600794.170   113512939.85448     -2481.211    21600793.707    88451640.47149
     -1933.413  
  23749112.881   124802427.72646         1.702    23749116.852    97248664.05845
         1.331  
  24953006.054   131128933.42146     -1436.515    24953005.176   102178366.39853
     -1119.370  
  23902552.279   125608760.01747      3248.758    23902554.633    97876967.74543
      2531.499  
  20494353.162   107698554.64549       500.242    20494352.393    83920948.97047
       389.796  
  23200272.967   123670502.74105      2144.792    23200280.608    96188218.26903
      1668.167  
  22623430.210   121147458.70405     -3784.422    22623438.439    94225820.96407
     -2943.440  
  20858426.371   111304558.04707      2906.523           0.000           0.0000 
         0.000  
  19372029.345   103554601.55109     -1237.343    19372032.948    80542485.25908
      -962.378  
  20249906.127   108285352.32706     -2810.933    20249911.546    84221958.83208
     -2186.285  
  20028346.006   107175720.14608      1927.370    20028348.782    83358911.92208
      1499.062  
 20 10 02 04 55  5.0000000  0 15G15G 2G18G29G 5G30G 7G20G13R14R 4R 6
                                R 5R20R21
  20934208.662   110010009.74449      2450.570    20934208.776    85722086.67049
      1909.535  
  24264958.518   127513220.99844     -3259.503    24264957.619    99360949.48645
     -2539.878  
  21468935.275   112820012.06149      2393.761    21468935.021    87911701.72547
      1865.265  
  22207404.486   116700696.71048     -2677.800    22207404.340    90935606.10849
     -2086.602  
  21603155.696   113525349.13248     -2482.550    21603155.227    88461310.03249
     -1934.461  
  23749113.046   124802427.93446        -1.422    23749116.874    97248664.24345
        -1.104  
  24954374.522   131136121.33646     -1439.297    24954368.808   102183967.40143
     -1121.535  
  23899461.171   125592516.75947      3248.520    23899463.116    97864310.59443
      2531.308  
  20493878.783   107696061.48649       496.960    20493878.083    83919006.24748
       387.237  
  23198262.905   123659786.16505      2141.867    23198269.033    96179883.01201
      1665.878  
  22626964.502   121166383.21006     -3785.215    22626972.733    94240540.01807
     -2944.055  
  20855704.072   111290031.21107      2904.280           0.000           0.0000 
         0.000  
  19373188.048   103560795.95009     -1240.379    19373191.700    80547303.12008
      -964.742  
  20252535.780   108299414.51306     -2814.222    20252541.485    84232896.08608
     -2188.844  
  20026546.739   107166092.40508      1923.663    20026549.593    83351423.67808
      1496.180  
 20 10 02 04 55 10.0000000  0 15G15G 2G18G29G 5G30G 7G20G13R14R 4R 6
                                R 5R20R21
  20931878.531   109997764.26149      2447.480    20931878.578    85712544.74349
      1907.128  
  24268060.337   127529522.95044     -3261.351    24268059.696    99373652.31745
     -2541.320  
  21466658.685   112808048.53449      2391.542    21466658.475    87902379.49447
      1863.535  
  22209953.848   116714093.13348     -2680.637    22209953.351    90946044.88049
     -2088.812  
  21605518.570   113537766.02548     -2484.101    21605517.963    88470985.54149
     -1935.663  
  23749116.468   124802444.26346        -5.156    23749119.903    97248676.92645
        -4.022  
  24955745.333   131143322.93245     -1442.082    24955733.502   102189579.06441
     -1123.695  
  23896370.757   125576276.39747      3247.645    23896371.971    97851655.78043
      2530.629  
  20493407.817   107693586.29349       493.016    20493406.947    83917077.52748
       384.164  
  23196255.494   123649087.31405      2138.132    23196261.782    96171561.80403
      1663.004  
  22630499.366   121185311.15406     -3786.085    22630507.248    94255261.77507
     -2944.733  
  20852983.746   111275515.90707      2901.789           0.000           0.0000 
         0.000  
  19374349.727   103567005.57008     -1243.473    19374353.189    80552132.83108
      -967.144  
  20255168.731   108313494.83706     -2817.804    20255174.464    84243847.44608
     -2191.628  
  20024751.199   107156484.79608      1919.406    20024754.287    83343951.09408
      1492.870  
 20 10 02 04 55 15.0000000  0 15G15G 2G18G29G 5G30G 7G20G13R14R 4R 6
                                R 5R20R21
  20929550.839   109985532.53149      2444.859    20929551.067    85703013.53649
      1905.086  
  24271162.723   127545829.97244     -3262.097    24271163.023    99386359.04747
     -2541.901  
  21464383.970   112796094.98149      2389.594    21464383.843    87893065.03647
      1862.019  
  22212505.320   116727501.98948     -2683.191    22212505.038    90956493.33149
     -2090.801  
  21607882.806   113550190.23348     -2485.632    21607882.194    88480666.73449
     -1936.859  
  23749122.737   124802476.45546        -7.934    23749126.291    97248702.02046
        -6.188  
  24957118.774   131150537.88205     -1444.684           0.000           0.0000 
         0.000  
  23893280.679   125560038.58746      3246.940    23893281.271    97839002.97242
      2530.094  
  20492940.057   107691128.73149       489.660    20492939.274    83915162.54548
       381.550  
  23194251.615   123638405.88505      2134.347    23194256.914    96163253.98004
      1660.038  
  22634034.854   121204242.00105     -3786.898    22634042.457    94269985.73107
     -2945.375  
  20850265.912   111261012.05807      2899.344           0.000           0.0000 
         0.000  
  19375514.210   103573230.05808     -1246.500    19375517.805    80556974.10608
      -969.500  
  20257805.095   108327592.85006     -2821.211    20257810.737    84254812.57208
     -2194.276  
  20022959.366   107146896.99108      1915.445    20022962.414    83336493.92408
      1489.862  
 20 10 02 04 55 20.0000000  0 15G15G 2G18G29G 5G30G 7G20G13R14R 4R 6
                                R 5R20R21
  20927226.039   109973315.74849      2442.215    20927226.186    85693493.97649
      1903.023  
  24274266.776   127562143.03745     -3263.628    24274267.044    99399070.49345
     -2543.093  
  21462111.519   112784152.57648      2387.641    21462111.140    87883759.26147
      1860.495  
  22215059.670   116740924.46948     -2685.598    22215059.227    90966952.40149
     -2092.675  
  21610248.538   113562622.92648     -2487.090    21610248.151    88490354.55849
     -1937.996  
  23749132.210   124802525.76947       -11.293    23749135.702    97248740.46245
        -8.805  
  24958494.232   131157767.36905     -1446.718           0.000           0.0000 
         0.000  
  23890191.309   125543804.49446      3246.840    23890192.104    97826353.03944
      2530.008  
  20492475.925   107688689.95149       486.145    20492475.273    83913262.19748
       378.812  
  23192251.445   123627743.07406      2130.848    23192255.280    96154960.68703
      1657.324  
  22637570.754   121223176.99205     -3786.706    22637578.338    94284712.95907
     -2945.215  
  20847550.221   111246520.85707      2896.879           0.000           0.0000 
         0.000  
  19376681.510   103579470.78909     -1249.460    19376685.351    80561828.00108
      -971.808  
  20260444.971   108341709.88906     -2824.737    20260450.641    84265792.49008
     -2197.046  
  20021171.670   107137330.23408      1911.605    20021174.951    83329053.10608
      1486.800  
 20 10 02 04 55 25.0000000  0 15G15G 2G18G29G 5G30G 7G20G13R14R 4R 6
                                R 5R20R21
  20924903.867   109961112.55949      2439.312    20924903.965    85683984.99549
      1900.758  
  24277371.228   127578460.73343     -3263.519    24277372.347    99411785.62645
     -2542.996  
  21459840.773   112772219.88049      2385.655    21459840.467    87874461.04847
      1858.953  
  22217616.285   116754359.16848     -2688.031    22217615.873    90977421.00149
     -2094.570  
  21612615.811   113575062.72048     -2488.594    21612615.322    88500047.88449
     -1939.168  
  23749144.691   124802590.69846       -14.835    23749148.323    97248791.05245
       -11.559  
  24959871.964   131165009.99105     -1449.840           0.000           0.0000 
         0.000  
  23887102.353   125527572.85847      3246.293    23887103.126    97813705.03044
      2529.581  
  20492015.204   107686268.62849       482.605    20492014.461    83911375.46648
       376.054  
  23190254.195   123617097.36006      2127.387    23190257.012    96146680.63003
      1654.624  
  22641107.436   121242114.82406     -3788.043    22641114.982    94299442.39207
     -2946.257  
  20844836.722   111232040.66907      2894.839           0.000           0.0000 
         0.000  
  19377851.795   103585726.19709     -1252.578    19377855.525    80566693.32008
      -974.230  
  20263088.335   108355844.36406     -2828.569    20263093.774    84276785.95808
     -2200.004  
  20019387.561   107127783.16909      1907.465    20019390.800    83321627.60908
      1483.577  
 20 10 02 04 55 30.0000000  0 15G15G 2G18G29G 5G30G 7G20G13R14R 4R 6
                                R 5R20R21
  20922584.014   109948921.96549      2436.793    20922584.189    85674485.83849
      1898.800  
  24280476.881   127594782.29545     -3264.953    24280478.316    99424503.73942
     -2544.120  
  21457571.878   112760296.00848      2383.758    21457571.268    87865169.74247
      1857.473  
  22220174.936   116767805.09448     -2690.395    22220174.438    90987898.33549
     -2096.414  
  21614984.219   113587508.59949     -2489.847    21614983.717    88509745.96849
     -1940.144  
  23749160.053   124802670.27047       -17.620    23749163.600    97248853.10945
       -13.722  
  24961252.442   131172264.79845     -1452.741    24961249.242   102212148.84552
     -1132.008  
  23884013.864   125511342.55047      3245.913    23884014.447    97801058.09543
      2529.289  
  20491557.534   107683863.77549       479.042    20491556.861    83909501.54648
       373.277  
  23188260.453   123606468.03106      2124.249    23188262.175    96138413.39303
      1652.194  
  22644644.342   121261054.45305     -3788.141    22644651.787    94314173.18607
     -2946.233  
  20842125.057   111217570.67307      2892.848           0.000           0.0000 
         0.000  
  19379024.558   103591995.31609     -1255.449    19379028.323    80571569.30008
      -976.464  
  20265734.650   108369995.43306     -2832.097    20265740.222    84287792.34508
     -2202.742  
  20017606.800   107118254.70709      1903.797    20017610.203    83314216.58608
      1480.727  
 20 10 02 04 55 35.0000000  0 15G15G 2G18G29G 5G30G 7G20G13R14R 4R 6
                                R 5R20R21
  20920266.228   109936741.53849      2436.593    20920266.401    85664994.60449
      1898.645  
  24283583.168   127611105.13245     -3263.456    24283584.298    99437222.77744
     -2542.960  
  21455303.939   112748378.46949      2384.487    21455303.566    87855883.35247
      1858.043  
  22222735.087   116781259.80848     -2690.238    22222734.715    90998382.52449
     -2096.293  
  21617353.378   113599958.17648     -2488.617    21617352.852    88519446.93049
     -1939.188  
  23749177.718   124802762.10247       -18.012    23749180.962    97248924.67245
       -14.035  
  24962634.388   131179529.09644     -1452.242    24962633.998   102217809.34544
     -1131.613  
  23880925.295   125495111.20047      3247.934    23880925.784    97788410.28743
      2530.854  
  20491102.531   107681472.90249       478.305    20491101.910    83907638.53348
       372.702  
  23186269.087   123595852.42806      2123.659    23186270.245    96130156.80403
      1651.729  
  22648181.169   121279993.24704     -3786.289    22648188.350    94328903.31607
     -2944.894  
  20839414.869   111203108.43507      2893.284           0.000           0.0000 
         0.000  
  19380199.364   103598275.60809     -1255.577    19380203.006    80576453.96108
      -976.565  
  20268383.569   108384160.51506     -2832.862    20268389.007    84298809.63108
     -2203.339  
  20015829.207   107108742.41508      1902.464    20015832.724    83306818.13808
      1479.729  
 20 10 02 04 55 40.0000000  0 15G15G 2G18G29G 5G30G 7G20G13R14R 4R 6
                                R 5R20R21
  20917949.560   109924567.87049      2432.445    20917949.793    85655508.63649
      1895.409  
  24286688.808   127627425.84945     -3265.359    24286690.225    99449940.21944
     -2544.441  
  21453036.622   112736463.88649      2380.979    21453036.313    87846599.26947
      1855.304  
  22225296.416   116794719.87148     -2694.117    22225296.017    91008870.87749
     -2099.315  
  21619722.332   113612407.98848     -2491.562    21619722.176    88529148.07549
     -1941.480  
  23749196.841   124802862.80947       -22.750    23749200.264    97249003.11745
       -17.730  
  24964017.055   131186799.81404     -1457.051           0.000           0.0000 
         0.000  
  23877835.780   125478875.34547      3246.124    23877835.951    97775758.97043
      2529.449  
  20490649.613   107679092.61549       473.391    20490648.880    83905783.76448
       368.875  
  23184279.873   123585247.07605      2118.479    23184280.418    96121908.24402
      1647.706  
  22651717.054   121298927.72205     -3787.909    22651724.197    94343630.14807
     -2946.156  
  20836705.376   111188650.47107      2889.487           0.000           0.0000 
         0.000  
  19381375.649   103604563.62209     -1259.965    19381379.383    80581344.63408
      -979.976  
  20271034.536   108398336.05006     -2837.578    20271039.963    84309835.04508
     -2207.007  
  20014053.899   107099242.82208      1896.969    20014057.376    83299429.55908
      1475.418  
 20 10 02 04 55 45.0000000  0 15G15G 2G18G29G 5G30G 7G20G13R14R 4R 6
                                R 5R20R21
  20915636.902   109912414.51949      2429.336    20915637.102    85646038.48849
      1892.984  
  24289796.849   127643758.12445     -3266.878    24289798.125    99462666.64245
     -2545.629  
  21450772.552   112724565.86849      2378.637    21450772.174    87837328.08847
      1853.483  
  22227861.345   116808198.85448     -2697.047    22227860.993    91019373.99249
     -2101.593  
  21622094.130   113624871.65248     -2493.374    21622093.938    88538860.01149
     -1942.895  
  23749220.450   124802985.91147       -26.015    23749223.592    97249099.04445
       -20.276  
  24965404.297   131194090.28904     -1459.680           0.000           0.0000 
         0.000  
  23874747.976   125462648.66947      3245.034    23874747.768    97763114.78443
      2528.594  
  20490201.279   107676736.57349       469.355    20490200.492    83903947.88048
       365.727  
  23182294.748   123574665.84105      2114.612    23182295.004    96113678.35502
      1644.695  
  22655254.749   121317871.91605     -3789.344    22655261.834    94358364.50007
     -2947.269  
  20833999.302   111174210.49407      2887.026           0.000           0.0000 
         0.000  
  19382556.084   103610873.25108     -1263.534    19382559.852    80586252.13008
      -982.749  
  20273689.842   108412535.97806     -2841.570    20273695.329    84320879.42908
     -2210.113  
  20012283.599   107089769.80908      1892.511    20012287.081    83292061.66708
      1471.953  
 20 10 02 04 55 50.0000000  0 14G15G 2G18G29G 5G30G20G13R14R 4R 6R 5
                                R20R21
  20913327.108   109900276.09649      2426.354    20913327.115    85636579.97949
      1890.668  
  24292905.854   127660096.36845     -3268.300    24292907.279    99475397.70345
     -2546.733  
  21448510.586   112712678.93949      2376.289    21448509.992    87828065.55147
      1851.651  
  22230428.934   116821691.28048     -2699.757    22230428.645    91029887.56849
     -2103.710  
  21624467.472   113637343.71048     -2495.296    21624467.153    88548578.49249
     -1944.391  
  23749247.423   124803126.03147       -29.745    23749250.172    97249208.19845
       -23.188  
  23871660.898   125446425.68447      3243.949    23871660.340    97750473.53043
      2527.750  
  20489756.559   107674399.27149       465.570    20489755.787    83902126.60648
       362.777  
  23180313.104   123564103.37205      2110.895    23180313.595    96105463.07302
      1641.801  
  22658793.509   121336820.03705     -3789.828    22658800.203    94373101.96307
     -2947.641  
  20831295.724   111159783.08907      2884.558           0.000           0.0000 
         0.000  
  19383739.284   103617198.75909     -1266.613    19383742.995    80591171.96408
      -985.147  
  20276348.827   108426754.58106     -2845.605    20276354.415    84331938.34108
     -2213.253  
  20010517.241   107080317.89008      1888.421    20010520.816    83284710.17008
      1468.769  
 20 10 02 04 55 55.0000000  0 14G15G 2G18G29G 5G30G20G13R14R 4R 6R 5
                                R20R21
  20911019.755   109888151.96449      2423.538    20911020.047    85627132.60749
      1888.472  
  24296015.906   127676439.92545     -3269.215    24296017.395    99488132.95145
     -2547.445  
  21446250.683   112700802.50649      2374.281    21446250.003    87818811.18247
      1850.085  
  22232998.855   116835196.46148     -2702.238    22232998.740    91040411.08249
     -2105.645  
  21626842.337   113649823.52148     -2496.573    21626842.105    88558303.02449
     -1945.383  
  23749277.233   124803282.46046       -32.906    23749279.830    97249330.08246
       -25.644  
  23868574.407   125430205.68646      3243.563    23868573.155    97737834.58744
      2527.457  
  20489315.276   107672080.03349       462.194    20489314.528    83900319.40848
       360.148  
  23178334.844   123553558.85405      2106.890    23178335.317    96097261.77202
      1638.687  
  22662332.573   121355771.56206     -3790.487    22662339.376    94387842.05907
     -2948.152  
  20828594.142   111145367.49707      2882.035           0.000           0.0000 
         0.000  
  19384925.492   103623539.66109     -1269.608    19384929.272    80596103.76908
      -987.476  
  20279011.228   108440991.22606     -2849.086    20279016.849    84343011.27308
     -2215.960  
  20008754.777   107070886.33908      1884.319    20008758.178    83277374.52008
      1465.582  
 20 10 02 04 56  0.0000000  0 14G15G 2G18G29G 5G30G20G13R14R 4R 6R 5
                                R20R21
  20908715.263   109876041.18549      2420.859    20908715.422    85617695.64849
      1886.383  
  24299126.958   127692787.92845     -3270.133    24299128.460    99500871.64646
     -2548.160  
  21443992.480   112688935.60349      2372.491    21443991.730    87809564.24447
      1848.694  
  22235571.067   116848713.49548     -2704.636    22235570.818    91050943.84549
     -2107.507  
  21629218.547   113662310.18548     -2497.957    21629218.033    88568032.89549
     -1946.464  
  23749310.113   124803454.25047       -35.883    23749312.119    97249463.98545
       -27.957  
  23865488.266   125413987.84646      3243.215    23865486.659    97725197.37142
      2527.191  
  20488877.032   107669777.98149       458.683    20488876.423    83898525.60148
       357.413  
  23176359.812   123543031.26103      2104.069    23176360.915    96089073.72804
      1636.507  
  22665872.264   121374725.54006     -3791.167    22665878.870    94402584.01607
     -2948.695  
  20825894.741   111130963.00407      2879.754           0.000           0.0000 
         0.000  
  19386114.348   103629894.90209     -1272.406    19386118.205    80601046.73808
      -989.647  
  20281676.889   108455245.15406     -2853.164    20281682.341    84354097.64708
     -2219.132  
  20006995.892   107061474.19008      1880.641    20006999.122    83270053.96908
      1462.718  
 20 10 02 04 56  5.0000000  0 14G15G 2G18G29G 5G30G20G13R14R 4R 6R 5
                                R20R21
  20906412.703   109863941.80549      2418.879    20906413.025    85608267.56249
      1884.840  
  24302238.589   127709138.44045     -3270.358    24302240.069    99513612.26244
     -2548.335  
  21441735.769   112677076.31749      2371.237    21441734.914    87800323.24247
      1847.718  
  22238145.154   116862240.41248     -2706.043    22238145.105    91061484.30649
     -2108.605  
  21631595.524   113674801.62449     -2498.663    21631595.188    88577766.48249
     -1947.011  
  23749345.439   124803639.47947       -38.194    23749347.334    97249608.31045
       -29.761  
  23862402.276   125397770.14047      3243.672    23862400.229    97712560.17443
      2527.534  
  20488442.027   107667491.10949       455.984    20488441.233    83896743.63148
       355.313  
  23174387.248   123532518.85104      2101.344    23174389.646    96080897.36004
      1634.370  
  22669411.910   121393679.80705     -3790.913    22669418.354    94417326.21907
     -2948.487  
  20823196.830   111116567.28107      2878.270           0.000           0.0000 
         0.000  
  19387305.606   103636262.51209     -1274.597    19387309.511    80605999.32208
      -991.358  
  20284345.301   108469514.13506     -2855.457    20284350.726    84365195.73608
     -2220.914  
  20005240.199   107052079.55908      1877.394    20005243.625    83262747.03908
      1460.190  
 20 10 02 04 56 10.0000000  0 14G15G 2G18G29G 5G30G20G13R14R 4R 6R 5
                                R20R21
  20904112.983   109851856.04049      2415.159    20904113.265    85598850.08449
      1881.941  
  24305350.924   127725493.58845     -3272.085    24305352.169    99526356.50744
     -2549.688  
  21439480.780   112665226.86348      2368.313    21439479.872    87791089.90847
      1845.437  
  22240721.442   116875779.43348     -2709.522    22240721.581    91072034.17349
     -2111.319  
  21633973.995   113687300.07548     -2501.054    21633973.521    88587505.54249
     -1948.875  
  23749383.724   124803840.32846       -42.070    23749385.261    97249764.80445
       -32.780  
  23859316.550   125381554.82147      3242.117    23859314.295    97699924.91644
      2526.328  
  20488010.065   107665221.63549       451.612    20488009.452    83894975.21848
       351.906  
  23172418.151   123522023.86303      2096.359    23172421.878    96072734.59804
      1630.500  
  22672952.095   121412636.86806     -3792.383    22672958.341    94432070.63907
     -2949.628  
  20820501.067   111102182.89207      2875.128           0.000           0.0000 
         0.000  
  19388499.475   103642644.67709     -1278.394    19388503.480    80610963.23208
      -994.309  
  20287016.880   108483800.51806     -2859.272    20287022.514    84376307.35608
     -2223.883  
  20003488.210   107042704.68808      1872.624    20003491.569    83255455.46508
      1456.480  
 20 10 02 04 56 15.0000000  0 15G15G 2G18G29G 5G30G 7G20G13R14R 4R 6
                                R 5R20R21
  20901815.940   109839785.03049      2413.070    20901816.201    85589444.11649
      1880.316  
  24308464.483   127741854.48445     -3272.952    24308465.684    99539105.26946
     -2550.344  
  21437228.059   112653388.39048      2366.914    21437227.322    87781865.12247
      1844.348  
  22243300.253   116889331.67148     -2711.409    22243300.447    91082594.35449
     -2112.793  
  21636353.738   113699806.64648     -2501.733    21636353.309    88597250.90849
     -1949.405  
  23749425.289   124804058.06347       -45.003    23749426.604    97249934.50045
       -35.066  
  24973779.998   131238100.39254     -1474.378    24973784.315   102263447.90655
     -1148.866  
  23856231.714   125365343.05647      3242.300    23856229.382    97687292.36744
      2526.472  
  20487581.736   107662970.68749       448.671    20487581.088    83893221.23048
       349.613  
  23170452.547   123511547.18104      2093.844    23170457.302    96064586.07304
      1628.547  
  22676493.105   121431597.75506     -3791.930    22676499.063    94446817.96707
     -2949.281  
  20817807.722   111087810.96507      2873.659           0.000           0.0000 
         0.000  
  19389696.358   103649042.58009     -1280.867    19389700.312    80615939.38708
      -996.230  
  20289691.948   108498105.43206     -2862.500    20289697.620    84387433.39708
     -2226.394  
  20001740.172   107033350.67509      1869.082    20001743.647    83248180.12608
      1453.641  
 20 10 02 04 56 20.0000000  0 15G15G 2G18G29G 5G30G 7G20G13R14R 4R 6
                                R 5R20R21
  20899521.181   109827726.20949      2410.602    20899521.340    85580047.64049
      1878.390  
  24311578.369   127758218.59544     -3273.051    24311579.469    99551856.51246
     -2550.433  
  21434976.895   112641558.29048      2365.159    21434976.017    87772646.87347
      1842.979  
  22245881.236   116902894.51748     -2713.602    22245881.239    91093162.79549
     -2114.500  
  21638734.627   113712318.83748     -2502.828    21638734.330    88607000.66649
     -1950.258  
  23749469.265   124804289.94147       -47.858    23749470.643    97250115.17745
       -37.297  
  24975184.427   131245481.50004     -1477.551           0.000           0.0000 
         0.000  
  23853146.944   125349132.22847      3242.265    23853144.782    97674660.57144
      2526.445  
  20487156.453   107660735.71649       445.355    20487155.658    83891479.69848
       347.026  
  23168490.306   123501086.42805      2090.397    23168495.174    96056449.95005
      1625.866  
  22680034.214   121450559.70306     -3792.656    22680040.264    94461566.16307
     -2949.844  
  20815116.290   111073448.65807      2871.289           0.000           0.0000 
         0.000  
  19390895.672   103655453.69309     -1283.500    19390899.560    80620925.80408
      -998.280  
  20292369.997   108512426.09906     -2865.776    20292375.597    84398571.69708
     -2228.938  
  19999995.688   107024015.02508      1865.328    19999999.080    83240919.06508
      1450.809  
 20 10 02 04 56 25.0000000  0 15G15G 2G18G29G 5G30G 7G20G13R14R 4R 6
                                R 5R20R21
  20897229.638   109815684.37949      2406.449    20897229.895    85570664.39949
      1875.156  
  24314693.763   127774590.75644     -3275.604    24314694.793    99564613.96246
     -2552.430  
  21432728.171   112629741.41648      2361.762    21432727.417    87763438.92148
      1840.327  
  22248465.022   116916472.71748     -2717.488    22248465.211    91103743.22749
     -2117.522  
  21641117.610   113724841.33748     -2505.882    21641117.342    88616758.45349
     -1952.641  
  23749516.985   124804540.83747       -52.479    23749518.159    97250310.71845
       -40.891  
  24976592.156   131252879.13204     -1481.729           0.000           0.0000 
         0.000  
  23850063.304   125332927.15447      3240.414    23850061.316    97662033.20243
      2524.988  
  20486735.148   107658521.46549       440.601    20486734.370    83889754.31348
       343.323  
  23166531.869   123490646.51104      2085.542    23166537.242    96048330.06205
      1622.093  
  22683576.452   121469527.63106     -3794.656    22683582.256    94476318.99507
     -2951.402  
  20812427.511   111059100.97407      2867.961           0.000           0.0000 
         0.000  
  19392098.388   103661882.62009     -1287.991    19392102.374    80625926.08008
     -1001.773  
  20295051.807   108526767.47706     -2870.539    20295057.636    84409726.10808
     -2232.640  
  19998255.344   107014702.53308      1859.851    19998258.872    83233676.02108
      1446.551  
 20 10 02 04 56 30.0000000  0 14G15G 2G18G29G 5G30G20G13R14R 4R 6R 5
                                R20R21
  20894941.113   109803658.57049      2404.387    20894941.425    85561293.65249
      1873.546  
  24317810.497   127790969.87045     -3275.410    24317811.649    99577376.84044
     -2552.281  
  21430481.726   112617936.76748      2360.359    21430481.280    87754240.48847
      1839.241  
  22251051.664   116930065.30248     -2719.242    22251051.534    91114334.85149
     -2118.890  
  21643502.341   113737373.21748     -2506.547    21643502.098    88626523.56649
     -1953.151  
  23749568.196   124804809.76546       -54.754    23749569.407    97250520.25845
       -42.667  
  23846980.437   125316726.92147      3239.977    23846978.490    97649409.69943
      2524.659  
  20486317.671   107656327.01549       437.597    20486316.743    83888044.35748
       340.983  
  23164577.304   123480226.30004      2082.875    23164582.445    96040225.45804
      1620.019  
  22687119.615   121488500.63907     -3794.344    22687125.473    94491075.77407
     -2951.137  
  20809741.252   111044766.92207      2866.457           0.000           0.0000 
         0.000  
  19393304.237   103668328.63408     -1290.237    19393308.099    80630939.64808
     -1003.522  
  20297737.414   108541128.65306     -2873.054    20297742.987    84420895.91708
     -2234.598  
  19996519.278   107005412.24108      1856.574    19996522.648    83226450.24608
      1444.003  
 20 10 02 04 56 35.0000000  0 13G15G18G29G 5G30G20G13R14R 4R 6R 5R20
                                R21
  20892654.340   109791641.52949      2402.159    20892654.644    85551929.72849
      1871.812  
  21428236.413   112606137.03548      2359.082    21428235.884    87745045.90547
      1838.245  
  22253639.446   116943664.93948     -2721.015    22253639.379    91124931.95549
     -2120.277  
  21645887.485   113749907.17248     -2507.315    21645887.341    88636290.26849
     -1953.758  
  23749621.321   124805089.40646       -57.218    23749622.522    97250738.15945
       -44.590  
  23843897.303   125300524.06546      3240.124    23843895.426    97636784.09743
      2524.772  
  20485902.479   107654145.04149       434.792    20485901.557    83886344.11448
       338.796  
  23162624.912   123469818.54404      2079.859    23162629.834    96032130.56904
      1617.672  
  22690662.517   121507471.21907     -3794.304    22690668.266    94505830.66307
     -2951.128  
  20807056.121   111030438.95507      2864.519           0.000           0.0000 
         0.000  
  19394511.951   103674784.12109     -1292.503    19394515.755    80635960.58508
     -1005.280  
  20300425.366   108555502.09006     -2875.894    20300431.009    84432075.27208
     -2236.808  
  19994785.847   106996136.73709      1853.105    19994789.054    83219235.94708
      1441.351  
 20 10 02 04 56 40.0000000  0 13G15G 2G18G29G 5G30G20G13R 4R 6R 5R20
                                R21
  20890370.053   109779637.29849      2399.792    20890370.308    85542575.78849
      1869.968  
  24324044.827   127823717.17955     -3276.667    24324045.878    99602902.12253
     -2553.254  
  21425992.566   112594346.35248      2357.355    21425992.398    87735858.36347
      1836.897  
  22256229.523   116957275.72748     -2723.007    22256229.455    91135537.76149
     -2121.828  
  21648273.761   113762447.26148     -2508.417    21648273.579    88646061.76649
     -1954.617  
  23749677.081   124805383.86746       -60.391    23749678.533    97250967.60844
       -47.062  
  23840814.098   125284322.74846      3240.581    23840812.492    97624159.71945
      2525.129  
  20485490.317   107651979.64349       431.711    20485489.292    83884656.80448
       336.397  
  22694205.615   121526443.40907     -3794.222    22694211.334    94520586.79407
     -2951.065  
  20804373.042   111016121.50107      2862.645           0.000           0.0000 
         0.000  
  19395722.073   103681253.32109     -1294.902    19395726.050    80640992.18408
     -1007.147  
  20303116.412   108569892.01006     -2879.039    20303121.988    84443267.42808
     -2239.257  
  19993056.182   106986880.20009      1849.671    19993059.332    83212036.42108
      1438.632  
 20 10 02 04 56 45.0000000  0 13G15G 2G18G29G 5G30G20G13R 4R 6R 5R20
                                R21
  20888088.075   109767645.48849      2397.124    20888088.435    85533231.52449
      1867.890  
  24327162.989   127840103.10745     -3277.340    24327163.882    99615670.42145
     -2553.765  
  21423750.410   112582564.33448      2355.426    21423750.334    87726677.58047
      1835.398  
  22258821.667   116970897.28548     -2725.551    22258821.460    91146151.96049
     -2123.809  
  21650661.169   113774993.11048     -2509.882    21650661.082    88655837.75249
     -1955.757  
  23749735.691   124805692.76846       -63.472    23749737.309    97251208.32045
       -49.460  
  23837731.185   125268122.67946      3239.742    23837729.993    97611536.27644
      2524.465  
  20485081.381   107649830.45249       428.093    20485080.436    83882982.10647
       333.578  
  22697749.064   121545417.01607     -3795.159    22697754.784    94535344.04107
     -2951.797  
  20801691.922   111001814.00107      2860.211           0.000           0.0000 
         0.000  
  19396934.662   103687735.77309     -1297.839    19396938.755    80646034.08408
     -1009.433  
  20305810.247   108584297.96806     -2882.863    20305816.168    84454472.05208
     -2242.229  
  19991329.847   106977642.23409      1845.504    19991333.056    83204851.33108
      1435.387  
 20 10 02 04 56 50.0000000  0 14G15G 2G18G29G 5G30G 7G20G13R 4R 6R 5
                                R20R21
  20885808.965   109755668.36849      2392.160    20885809.230    85523898.71749
      1864.020  
  24330282.152   127856494.64045     -3280.690    24330283.265    99628443.02145
     -2556.387  
  21421510.313   112570793.20348      2351.336    21421510.449    87717505.28247
      1832.210  
  22261416.083   116984531.75548     -2730.062    22261416.235    91156776.22449
     -2127.320  
  21653049.920   113787546.89748     -2513.371    21653050.023    88665619.91349
     -1958.476  
  23749797.618   124806018.32247       -68.663    23749798.929    97251461.98746
       -53.507  
  24983665.690   131290049.86855     -1494.862    24983670.437   102303956.01853
     -1164.824  
  23834648.901   125251925.95246      3236.785    23834648.006    97598915.46045
      2522.176  
  20484675.864   107647699.63549       422.520    20484674.766    83881321.73648
       329.234  
  22701293.132   121564394.18107     -3797.776    22701298.742    94550104.03507
     -2953.832  
  20799012.914   110987518.80207      2856.000           0.000           0.0000 
         0.000  
  19398150.224   103694233.80709     -1303.016    19398154.326    80651088.12008
     -1013.456  
  20308507.851   108598722.20706     -2888.395    20308513.467    84465690.90008
     -2246.530  
  19989607.464   106968425.19609      1839.453    19989610.609    83197682.52108
      1430.710  
 20 10 02 04 56 55.0000000  0 13G15G 2G18G29G 5G30G20G13R 4R 6R 5R20
                                R21
  20883535.011   109743718.44049      2389.640    20883535.372    85514587.08449
      1862.054  
  24333404.953   127872904.28945     -3281.426    24333405.891    99641229.71545
     -2556.968  
  21419274.635   112559045.48248      2349.604    21419274.896    87708351.21947
      1830.862  
  22264015.453   116998191.72048     -2732.163    22264015.663    91167420.35649
     -2128.965  
  21655442.852   113800121.14948     -2514.620    21655443.130    88675418.03649
     -1959.449  
  23749864.889   124806372.99047       -71.312    23749866.722    97251738.36744
       -55.570  
  23831569.804   125235745.12346      3236.871    23831569.356    97586307.09144
      2522.238  
  20484276.271   107645599.76049       419.210    20484275.219    83879685.47148
       326.655  
  22704840.127   121583387.64506     -3797.957    22704845.550    94564876.73706
     -2953.968  
  20796338.765   110973248.53107      2854.078           0.000           0.0000 
         0.000  
  19399371.042   103700759.99609     -1305.733    19399375.184    80656164.04208
     -1015.569  
  20311210.915   108613177.42506     -2891.800    20311216.670    84476933.83508
     -2249.184  
  19987891.193   106959241.74209      1835.726    19987894.396    83190539.84508
      1427.789  
 20 10 02 04 57  0.0000000  0 13G15G 2G18G29G 5G30G20G13R 4R 6R 5R20
                                R21
  20881261.811   109731772.04149      2388.328    20881261.985    85505278.19349
      1861.031  
  24336526.525   127889308.32345     -3280.815    24336527.787    99654012.13943
     -2556.477  
  21417038.979   112547297.52948      2349.058    21417039.084    87699196.97447
      1830.434  
  22266615.200   117011853.45548     -2733.137    22266615.287    91178065.84949
     -2129.723  
  21657835.030   113812692.22348     -2514.496    21657835.263    88685213.67149
     -1959.351  
  23749933.501   124806733.20447       -73.336    23749935.448    97252019.03944
       -57.145  
  23828489.031   125219556.55146      3237.680    23828489.020    97573692.62744
      2522.871  
  20483878.172   107643507.14249       417.183    20483876.886    83878054.86448
       325.077  
  22708385.712   121602373.28006     -3796.882    22708391.146    94579643.33406
     -2953.136  
  20793664.765   110958979.20707      2853.215           0.000           0.0000 
         0.000  
  19400592.801   103707290.40609     -1307.020    19400596.764    80661243.24908
     -1016.574  
  20313915.359   108627639.42706     -2893.488    20313921.293    84488182.05108
     -2250.495  
  19986176.780   106950067.79009      1833.160    19986180.126    83183404.56808
      1425.793  
 20 10 02 04 57  5.0000000  0 13G15G 2G18G29G 5G30G20G13R 4R 6R 5R20
                                R21
  20878990.503   109719836.83049      2385.629    20878990.790    85495978.02949
      1858.925  
  24339648.531   127905714.51046     -3281.780    24339649.616    99666796.10346
     -2557.241  
  21414804.696   112535556.98248      2346.983    21414804.960    87690048.48547
      1828.815  
  22269216.688   117025524.58348     -2735.336    22269216.913    91188718.66649
     -2131.434  
  21660227.958   113825267.73948     -2515.918    21660228.327    88695012.77449
     -1960.461  
  23750004.417   124807106.52947       -76.190    23750006.291    97252309.97344
       -59.375  
  23825408.331   125203367.86345      3237.819    23825408.866    97561078.10245
      2522.979  
  20483482.741   107641429.38849       413.777    20483481.512    83876435.84348
       322.426  
  22711931.167   121621358.81307     -3797.015    22711936.514    94594409.85307
     -2953.238  
  20790992.325   110944718.42907      2851.012           0.000           0.0000 
         0.000  
  19401816.612   103713832.75009     -1310.065    19401820.502    80666331.73608
     -1018.944  
  20316622.565   108642116.19806     -2896.777    20316628.276    84499441.76908
     -2253.054  
  19984465.782   106940911.23609      1829.253    19984468.967    83176282.80208
      1422.754  
 20 10 02 04 57 10.0000000  0 14G15G 2G18G29G 5G30G 7G20G13R 4R 6R 5
                                R20R21
  20876721.842   109707914.62049      2383.296    20876722.074    85486688.01849
      1857.113  
  24342771.329   127922124.39446     -3281.952    24342772.442    99679582.99044
     -2557.375  
  21412572.317   112523825.59448      2345.683    21412572.581    87680907.14047
      1827.800  
  22271820.262   117039206.86248     -2737.362    22271820.722    91199380.17449
     -2133.015  
  21662622.216   113837849.39948     -2516.694    21662622.607    88704816.66949
     -1961.063  
  23750078.229   124807494.75947       -79.128    23750080.265    97252612.48045
       -61.664  
  24989371.469   131320033.81455     -1503.102    24989373.217   102327305.26054
     -1171.250  
  23822328.021   125187180.88446      3237.472    23822328.583    97548464.85745
      2522.703  
  20483090.521   107639368.25849       410.719    20483089.317    83874829.77548
       320.038  
  22715477.136   121640346.09707     -3797.230    22715482.333    94609177.72006
     -2953.406  
  20788321.910   110930468.21007      2849.108           0.000           0.0000 
         0.000  
  19403043.061   103720388.70109     -1312.401    19403046.905    80671430.80908
     -1020.762  
  20319332.941   108656609.36006     -2900.398    20319338.660    84510714.22608
     -2255.871  
  19982758.146   106931773.73609      1825.733    19982761.430    83169175.85908
      1420.015  
 20 10 02 04 57 15.0000000  0 14G15G 2G18G29G 5G30G 7G20G13R 4R 6R 5
                                R20R21
  20874455.265   109696003.61849      2381.414    20874455.351    85477406.73149
      1855.648  
  24345894.538   127938536.43746     -3282.347    24345895.895    99692371.60043
     -2557.680  
  21410341.321   112512101.69048      2344.227    21410341.421    87671771.63547
      1826.671  
  22274425.771   117052898.56348     -2738.949    22274426.241    91210049.02449
     -2134.249  
  21665017.248   113850435.56848     -2517.426    21665017.835    88714624.06949
     -1961.628  
  23750154.753   124807896.17447       -81.195    23750156.804    97252925.26745
       -63.273  
  24990802.877   131327555.07145     -1504.754    24990803.836   102333166.96753
     -1172.535  
  23819247.726   125170993.79046      3237.855    23819248.714    97535851.55943
      2523.003  
  20482701.153   107637322.05149       407.906    20482700.090    83873235.33148
       317.847  
  22719022.959   121659333.38206     -3797.086    22719028.107    94623945.58606
     -2953.296  
  20785652.973   110916226.81607      2847.687           0.000           0.0000 
         0.000  
  19404271.772   103726956.64309     -1314.590    19404275.748    80676539.20808
     -1022.460  
  20322046.101   108671117.22106     -2903.184    20322051.628    84521998.11708
     -2258.035  
  19981053.864   106922653.65508      1822.604    19981057.207    83162082.46208
      1417.581  
 20 10 02 04 57 20.0000000  0 14G15G 2G18G29G 5G30G 7G20G13R 4R 6R 5
                                R20R21
  20872190.950   109684104.40449      2378.078    20872191.045    85468134.61649
      1853.046  
  24349018.306   127954951.04446     -3283.640    24349019.546    99705162.21244
     -2558.680  
  21408111.856   112500385.80849      2341.781    21408111.957    87662642.38247
      1824.762  
  22277033.180   117066600.21348     -2741.972    22277033.456    91220725.63549
     -2136.605  
  21667413.254   113863026.78948     -2519.434    21667413.789    88724435.41249
     -1963.194  
  23750233.721   124808311.30847       -84.816    23750235.710    97253248.78145
       -66.089  
  24992236.173   131335087.33846     -1508.164    24992236.142   102339036.24241
     -1175.190  
  23816167.670   125154807.20445      3236.508    23816168.502    97523238.63844
      2521.957  
  20482314.648   107635291.29849       403.948    20482313.574    83871652.92448
       314.765  
  22722568.935   121678321.17206     -3797.945    22722573.860    94638713.86906
     -2953.961  
  20782985.957   110901994.79607      2844.883           0.000           0.0000 
         0.000  
  19405502.902   103733537.14709     -1317.886    19405506.828    80681657.37908
     -1025.043  
  20324761.955   108685640.36206     -2906.641    20324767.338    84533293.88308
     -2260.722  
  19979352.937   106913551.59208      1818.109    19979356.277    83155003.08208
      1414.082  
 20 10 02 04 57 25.0000000  0 14G15G 2G18G29G 5G30G 7G20G13R 4R 6R 5
                                R20R21
  20869929.851   109672222.31249      2374.983    20869929.904    85458875.84349
      1850.637  
  24352143.377   127971373.71345     -3284.918    24352144.838    99717959.00844
     -2559.687  
  21405885.070   112488683.30948      2339.453    21405884.953    87653523.54847
      1822.944  
  22279643.462   117080317.18248     -2744.565    22279643.783    91231414.17749
     -2138.629  
  21669811.324   113875628.35648     -2521.077    21669811.635    88734254.81749
     -1964.488  
  23750316.321   124808745.53247       -88.339    23750318.468    97253587.12845
       -68.840  
  24993672.587   131342635.99945     -1511.116    24993672.873   102344911.32051
     -1177.492  
  23813088.574   125138626.44945      3235.796    23813089.223    97510630.25545
      2521.397  
  20481932.129   107633281.39849       400.164    20481931.195    83870086.76947
       311.815  
  22726115.807   121697314.97806     -3798.737    22726120.851    94653486.80306
     -2954.582  
  20780321.715   110887777.45107      2842.223           0.000           0.0000 
         0.000  
  19406737.237   103740135.40409     -1321.211    19406741.271    80686789.34908
     -1027.613  
  20327481.828   108700184.15206     -2911.022    20327487.174    84544605.71508
     -2264.132  
  19977656.281   106904472.87808      1813.777    19977659.477    83147941.85908
      1410.710  
 20 10 02 04 57 30.0000000  0 14G15G 2G18G29G 5G30G 7G20G13R 4R 6R 5
                                R20R21
  20867671.409   109660354.31049      2372.453    20867671.669    85449628.06049
      1848.664  
  24355269.571   127987801.22346     -3286.147    24355270.764    99730759.65345
     -2560.641  
  21403660.205   112476991.12749      2337.586    21403659.887    87644412.74647
      1821.491  
  22282256.051   117094046.39748     -2746.913    22282256.352    91242112.23949
     -2140.460  
  21672210.723   113888237.18948     -2522.354    21672210.962    88744079.87749
     -1965.476  
  23750402.009   124809195.76547       -91.461    23750403.931    97253937.99345
       -71.265  
  24995111.625   131350197.97645     -1513.242    24995109.631   102350803.66643
     -1179.175  
  23810009.972   125122448.50245      3235.672    23810010.378    97498024.11844
      2521.308  
  20481553.037   107631289.25649       397.012    20481552.188    83868534.45647
       309.359  
  22729663.380   121716311.60407     -3799.448    22729668.318    94668261.97107
     -2955.132  
  20777659.466   110873571.64707      2840.245           0.000           0.0000 
         0.000  
  19407974.363   103746748.58609     -1323.882    19407978.367    80691932.93808
     -1029.687  
  20330204.827   108714745.31606     -2913.699    20330210.410    84555931.06208
     -2266.215  
  19975963.580   106895414.51608      1809.800    19975966.818    83140896.46808
      1407.617  
 20 10 02 04 57 35.0000000  0 14G15G 2G18G29G 5G30G 7G20G13R 4R 6R 5
                                R20R21
  20865415.458   109648499.26849      2369.801    20865415.625    85440390.37349
      1846.598  
  24358396.426   128004232.48946     -3286.555    24358397.543    99743563.23144
     -2560.952  
  21401437.004   112465308.12748      2335.655    21401436.783    87635309.13047
      1819.992  
  22284870.719   117107786.60248     -2749.112    22284870.843    91252818.89249
     -2142.172  
  21674611.282   113900852.08548     -2523.448    21674611.477    88753909.67849
     -1966.324  
  23750490.560   124809660.84947       -94.593    23750492.532    97254300.36045
       -73.719  
  24996552.919   131357772.08645     -1516.543    24996547.570   102356705.62941
     -1181.714  
  23806931.800   125106272.22546      3235.129    23806932.281    97485419.22944
      2520.879  
  20481176.968   107629313.71849       393.612    20481176.377    83866995.07248
       306.711  
  22733211.174   121735309.87806     -3799.801    22733216.306    94683038.34406
     -2955.414  
  20774999.350   110859376.32007      2838.020           0.000           0.0000 
         0.000  
  19409214.125   103753375.32509     -1326.676    19409218.337    80697087.07208
     -1031.859  
  20332930.751   108729322.96106     -2917.031    20332936.465    84567269.23008
     -2268.805  
  19974274.385   106886375.29308      1806.066    19974277.579    83133865.96308
      1404.714  
 20 10 02 04 57 40.0000000  0 14G15G 2G18G29G 5G30G 7G20G13R 4R 6R 5
                                R20R21
  20863161.770   109636656.43249      2368.488    20863162.013    85431162.18149
      1845.570  
  24361523.891   128020666.74346     -3286.132    24361524.762    99756369.07343
     -2560.636  
  21399215.350   112453633.60249      2335.155    21399215.102    87626212.09447
      1819.602  
  22287487.455   117121537.14548     -2749.905    22287487.605    91263533.59849
     -2142.788  
  21677012.789   113913472.37148     -2523.405    21677012.980    88763743.65149
     -1966.292  
  23750581.972   124810140.06747       -96.074    23750583.613    97254673.79146
       -74.862  
  24997996.288   131365357.54344     -1517.276    24997991.540   102362616.32045
     -1182.313  
  23803853.760   125090096.89346      3235.801    23803854.403    97472815.08344
      2521.397  
  20480804.174   107627354.04549       391.375    20480803.479    83865468.05648
       304.969  
  22736759.335   121754309.05606     -3798.930    22736764.315    94697815.48706
     -2954.726  
  20772340.822   110845190.90507      2837.132           0.000           0.0000 
         0.000  
  19410456.103   103760014.87409     -1328.073    19410460.445    80702251.15808
     -1032.949  
  20335659.832   108743916.05206     -2919.312    20335665.364    84578619.41208
     -2270.578  
  19972588.589   106877354.47708      1803.398    19972591.958    83126849.77008
      1402.640  
 20 10 02 04 57 45.0000000  0 14G15G 2G18G29G 5G30G 7G20G13R 4R 6R 5
                                R20R21
  20860909.217   109624819.40449      2365.363    20860909.389    85421938.52749
      1843.137  
  24364650.796   128037097.64646     -3287.808    24364650.958    99769172.41644
     -2561.933  
  21396994.247   112441961.12448      2332.753    21396993.714    87617116.66347
      1817.730  
  22290104.860   117135291.54349     -2752.598    22290105.144    91274251.29349
     -2144.886  
  21679414.112   113926091.62748     -2525.102    21679414.234    88773576.82349
     -1967.616  
  23750674.670   124810627.01247       -99.473    23750676.485    97255053.21146
       -77.515  
  24999440.622   131372947.97545     -1520.202    24999437.528   102368530.83843
     -1184.597  
  23800774.676   125073915.94746      3235.597    23800775.104    97460206.58843
      2521.253  
  20480432.893   107625403.82549       387.976    20480432.294    83863948.39748
       302.315  
  22740306.199   121773302.53806     -3799.480    22740311.361    94712588.24706
     -2955.148  
  20769683.078   110831008.64307      2834.511           0.000           0.0000 
         0.000  
  19411699.397   103766660.74209     -1331.195    19411703.770    80707420.17908
     -1035.374  
  20338390.435   108758518.22006     -2922.620    20338395.980    84589976.63908
     -2273.152  
  19970905.088   106868345.56709      1799.289    19970908.467    83119842.84408
      1399.440  
 20 10 02 04 57 50.0000000  0 15G15G 2G18G29G 5G30G 7G20G13R 4R22R 6
                                R 5R20R21
  20858660.483   109613002.91349      2361.620    20858660.644    85412730.88749
      1840.222  
  24367779.807   128053539.79947     -3289.249    24367779.662    99781984.46943
     -2563.055  
  21394776.178   112430305.47148      2329.694    21394775.741    87608034.34147
      1815.348  
  22292725.865   117149064.55248     -2755.922    22292725.955    91284983.51549
     -2147.477  
  21681818.065   113938724.61348     -2527.729    21681818.195    88783420.73549
     -1969.660  
  23750771.579   124811136.46247      -103.676    23750773.468    97255450.18645
       -80.789  
  25000888.964   131380558.06546     -1523.531    25000886.079   102374460.87941
     -1187.164  
  23797697.508   125057744.35046      3233.844    23797697.881    97447605.34543
      2519.879  
  20480066.381   107623477.85449       383.133    20480065.773    83862447.64648
       298.546  
  22743854.985   121792305.34606     -3800.753    22743860.026    94727368.15406
     -2956.148  
  23570553.062   125821214.72514      4277.578           0.000           0.0000 
         0.000  
  20767028.730   110816844.62907      2831.238           0.000           0.0000 
         0.000  
  19412946.597   103773327.96509     -1335.168    19412950.920    80712605.78808
     -1038.468  
  20341125.480   108773144.54806     -2927.331    20341131.178    84601352.67608
     -2276.813  
  19969226.595   106859363.58209      1794.104    19969230.050    83112856.85208
      1395.409  
 20 10 02 04 57 55.0000000  0 15G15G 2G18G29G 5G30G 7G20G13R 4R22R 6
                                R 5R20R21
  20856415.036   109601202.69749      2358.613    20856415.077    85403535.91849
      1837.878  
  24370910.086   128069988.93747     -3290.237    24370909.674    99794801.97043
     -2563.831  
  21392560.565   112418662.31348      2327.438    21392559.983    87598961.74347
      1813.586  
  22295349.545   117162851.86049     -2758.547    22295349.450    91295726.88049
     -2149.515  
  21684223.762   113951366.94948     -2529.171    21684223.873    88793271.89749
     -1970.788  
  23750872.145   124811664.00047      -107.233    23750873.929    97255861.24345
       -83.563  
  25002340.000   131388183.65446     -1526.590    25002339.103   102380402.83142
     -1189.546  
  23794621.046   125041577.71645      3233.078    23794621.745    97435007.98844
      2519.280  
  20479703.696   107621571.74549       379.375    20479703.168    83860962.37348
       295.616  
  22747404.598   121811313.11406     -3801.698    22747409.391    94742151.97706
     -2956.883  
  23566546.306   125799828.95404      4276.554           0.000           0.0000 
         0.000  
  20764376.976   110802694.36207      2828.999           0.000           0.0000 
         0.000  
  19414197.179   103780012.16309     -1338.309    19414201.420    80717804.60708
     -1040.909  
  20343864.374   108787790.39606     -2930.961    20343870.000    84612743.88008
     -2279.641  
  19967552.433   106850404.14909      1789.785    19967555.909    83105888.41008
      1392.054  
 20 10 02 04 58  0.0000000  0 13G15G 2G18G29G 5G30G20G13R 4R 6R 5R20
                                R21
  20854172.625   109589418.03149      2354.589    20854172.667    85394353.06149
      1834.745  
  24374041.843   128086444.36447     -3292.539    24374041.342    99807624.28243
     -2565.624  
  21390347.065   112407030.97848      2324.148    21390346.695    87589898.35647
      1811.022  
  22297975.841   117176652.76849     -2762.500    22297975.660    91306480.83449
     -2152.602  
  21686631.181   113964017.95948     -2531.999    21686631.256    88803129.82249
     -1972.987  
  23750975.738   124812208.94647      -111.684    23750977.538    97256285.91145
       -87.023  
  23791545.573   125025415.24645      3231.570    23791546.329    97422413.83044
      2518.101  
  20479344.587   107619684.83549       374.512    20479344.250    83859492.06848
       291.828  
  22750955.018   121830325.13906     -3803.651    22750959.941    94756939.14106
     -2958.504  
  20761727.670   110788557.15707      2825.375           0.000           0.0000 
         0.000  
  19415450.606   103786712.45009     -1342.585    19415454.779    80723015.94208
     -1044.237  
  20346606.723   108802455.15606     -2935.937    20346612.369    84624149.80208
     -2283.511  
  19965882.197   106841466.56509      1784.413    19965885.583    83098936.96508
      1387.878  
 20 10 02 04 58  5.0000000  0 13G15G 2G18G29G 5G30G20G13R 4R 6R 5R20
                                R21
  20851933.827   109577653.66149      2352.511    20851933.981    85385186.01449
      1833.124  
  24377175.465   128102910.75747     -3292.425    24377174.860    99820455.23344
     -2565.535  
  21388136.963   112395416.15848      2323.073    21388136.300    87580847.87547
      1810.188  
  22300605.572   117190471.90648     -2763.980    22300605.344    91317248.98449
     -2153.753  
  21689041.234   113976682.43248     -2532.457    21689041.281    88812998.25249
     -1973.344  
  23751083.802   124812776.14047      -113.910    23751085.520    97256727.86245
       -88.766  
  23788471.612   125009261.71846      3231.839    23788472.342    97409826.67943
      2518.312  
  20478990.063   107617821.80049       371.977    20478989.731    83858040.34448
       289.848  
  22754506.990   121849346.16406     -3803.930    22754511.994    94771733.22506
     -2958.270  
  20759081.573   110774437.88607      2823.835           0.000           0.0000 
         0.000  
  19416707.932   103793433.73309     -1344.608    19416712.173    80728243.60908
     -1045.812  
  20349353.496   108817143.53806     -2938.312    20349359.327    84635574.09808
     -2285.359  
  19964216.941   106832555.66109      1781.374    19964220.531    83092006.25508
      1385.511  
 20 10 02 04 58 10.0000000  0 14G15G 2G18G29G 5G30G 7G20G13R 4R 6R 5
                                R20R21
  20849696.544   109565896.44149      2350.327    20849696.520    85376024.54949
      1831.425  
  24380308.636   128119374.92746     -3292.609    24380307.809    99833284.45045
     -2565.672  
  21385927.226   112383804.76048      2321.570    21385926.914    87571800.02947
      1809.015  
  22303236.431   117204296.13649     -2765.702    22303236.189    91328021.10449
     -2155.098  
  21691451.323   113989347.09749     -2533.292    21691451.136    88822866.83349
     -1973.995  
  23751193.444   124813352.31347      -116.398    23751195.164    97257176.83545
       -90.702  
  25006710.179   131411149.32015     -1534.074           0.000           0.0000 
         0.000  
  23785396.974   124993104.13745      3230.960    23785398.026    97397236.40044
      2517.633  
  20478637.642   107615969.50049       369.077    20478637.127    83856596.98848
       287.589  
  22758058.144   121868362.86806     -3803.226    22758063.097    94786523.97306
     -2958.073  
  20756436.627   110760323.19907      2822.074           0.000           0.0000 
         0.000  
  19417966.719   103800162.61009     -1346.859    19417970.977    80733477.17508
     -1047.562  
  20352102.241   108831842.31406     -2941.351    20352107.908    84647006.48007
     -2287.722  
  19962554.321   106823658.11709      1777.887    19962557.661    83085085.93808
      1382.796  
 20 10 02 04 58 15.0000000  0 15G15G 2G18G29G 5G30G 7G20G13R14R 4R 6
                                R 5R20R21
  20847461.545   109554151.50349      2348.132    20847461.511    85366872.65349
      1829.711  
  24383442.622   128135842.10447     -3293.206    24383441.515    99846116.01545
     -2566.140  
  21383719.206   112372201.90848      2319.870    21383718.702    87562758.83147
      1807.687  
  22305868.985   117218130.58048     -2767.520    22305868.791    91338801.19849
     -2156.512  
  21693862.382   114002017.04749     -2534.120    21693862.235    88832739.50449
     -1974.645  
  23751305.790   124813942.66647      -119.523    23751307.540    97257636.84045
       -93.136  
  25008171.144   131418826.49104     -1536.101           0.000           0.0000 
         0.000  
  23782322.287   124976947.42646      3231.914    23782323.559    97384646.72144
      2518.371  
  20478288.239   107614133.12449       366.090    20478287.937    83855166.05148
       285.266  
  23124257.038   123265302.34315      2010.559    23124265.755    95873048.88816
      1563.770  
  22761609.641   121887380.28706     -3803.155    22761614.682    94801315.29506
     -2958.016  
  20753793.387   110746218.29907      2820.269           0.000           0.0000 
         0.000  
  19419227.954   103806904.22809     -1349.261    19419232.009    80738720.65708
     -1049.430  
  20354853.786   108846556.50206     -2944.121    20354859.348    84658450.85207
     -2289.871  
  19960895.070   106814779.06509      1774.297    19960898.631    83078180.00808
      1380.004  
 20 10 02 04 58 20.0000000  0 16G15G 2G18G29G 5G30G 7G20G13R14R 4R22
                                R 6R 5R20R21
  20845229.217   109542420.42049      2344.288    20845229.168    85357731.55249
      1826.714  
  24386577.098   128152313.85946     -3295.499    24386576.142    99858951.13243
     -2567.930  
  21381513.264   112360609.13448      2316.999    21381512.756    87553725.50947
      1805.449  
  22308503.810   117231976.73848     -2771.030    22308503.577    91349590.39349
     -2159.250  
  21696274.558   114014693.90348     -2536.679    21696274.515    88842617.57549
     -1976.636  
  23751421.115   124814548.67047      -123.456    23751423.146    97258109.06945
       -96.199  
  25009634.623   131426516.50244     -1539.792    25009635.284   102410274.53853
     -1199.586  
  23779248.238   124960793.22145      3230.234    23779249.728    97372059.08344
      2517.063  
  20477942.093   107612314.17949       361.422    20477941.637    83853748.69948
       281.629  
  23122373.540   123255261.11306      2005.914    23122382.658    95865239.05106
      1560.156  
  22765161.505   121906400.20105     -3804.910    22765166.457    94816108.53206
     -2959.386  
  23546532.565   125692989.80415      4271.023           0.000           0.0000 
         0.000  
  20751152.205   110732124.69907      2817.043           0.000           0.0000 
         0.000  
  19420491.836   103813660.21309     -1353.328    19420495.925    80743975.31808
     -1052.593  
  20357608.549   108861287.67706     -2948.796    20357614.115    84669908.43407
     -2293.511  
  19959239.556   106805920.07508      1769.304    19959242.959    83071289.68208
      1376.120  
 20 10 02 04 58 25.0000000  0 16G15G 2G18G29G 5G30G 7G20G13R14R 4R22
                                R 6R 5R20R21
  20842999.925   109530705.12549      2342.117    20842999.763    85348602.76049
      1825.026  
  24389712.918   128168791.95047     -3295.983    24389711.874    99871791.17945
     -2568.305  
  21379309.409   112349028.42348      2315.401    21379308.984    87544701.58447
      1804.211  
  22311141.293   117245836.61948     -2772.809    22311141.055    91360390.30049
     -2160.633  
  21698688.667   114027379.59648     -2537.445    21698688.507    88852502.53149
     -1977.234  
  23751539.836   124815172.30347      -126.410    23751542.016    97258595.01046
       -98.504  
  25011100.858   131434221.36844     -1542.476    25011102.342   102416278.52043
     -1201.886  
  23776174.994   124944643.52346      3230.121    23776176.094    97359474.94244
      2516.983  
  20477599.576   107610514.55449       358.473    20477599.209    83852346.38848
       279.324  
  23120493.615   123245239.52206      2002.874    23120502.781    95857444.46906
      1557.793  
  22768714.103   121925424.42206     -3804.765    22768719.217    94830905.15106
     -2959.262  
  23542532.652   125671635.96604      4270.547           0.000           0.0000 
         0.000  
  20748513.609   110718044.61307      2814.788           0.000           0.0000 
         0.000  
  19421758.706   103820432.51709     -1355.574    19421762.770    80749242.65808
     -1054.339  
  20360366.919   108876037.88906     -2951.285    20360372.341    84681380.81008
     -2295.448  
  19957588.150   106797083.25709      1765.632    19957591.666    83064416.61208
      1373.270  
 20 10 02 04 58 30.0000000  0 16G15G 2G18G29G 5G30G 7G20G13R14R 4R22
                                R 6R 5R20R21
  20840771.973   109518997.94049      2340.308    20840772.096    85339480.27349
      1823.613  
  24392848.528   128185268.81847     -3295.730    24392847.394    99884630.23743
     -2568.112  
  21377106.567   112337452.06948      2314.480    21377106.209    87535681.06147
      1803.492  
  22313779.914   117259702.44648     -2774.022    22313779.524    91371194.82749
     -2161.582  
  21701102.943   114040066.45549     -2537.854    21701102.749    88862388.38649
     -1977.546  
  23751660.271   124815805.91447      -127.906    23751662.483    97259088.70945
       -99.671  
  25012568.471   131441933.41445     -1544.038    25012570.110   102422296.84653
     -1203.147  
  23773101.042   124928490.57846      3230.530    23773102.347    97346888.27444
      2517.297  
  20477259.307   107608726.55249       356.141    20477258.994    83850953.13848
       277.507  
  23118615.885   123235229.85505      2000.398    23118625.402    95849659.17907
      1555.862  
  22772266.028   121944445.19006     -3804.012    22772271.211    94845699.08106
     -2958.679  
  23538532.454   125650281.38904      4271.418           0.000           0.0000 
         0.000  
  20745876.104   110703970.07107      2813.901           0.000           0.0000 
         0.000  
  19423027.253   103827213.37909     -1357.331    19423031.293    80754516.66308
     -1055.702  
  20363127.553   108890799.20806     -2953.258    20363132.781    84692861.83407
     -2296.979  
  19955939.339   106788260.70008      1762.879    19955943.051    83057554.62808
      1371.129  
 20 10 02 04 58 35.0000000  0 16G15G 2G18G29G 5G30G 7G20G13R14R 4R22
                                R 6R 5R20R21
  20838546.841   109507304.64049      2337.218    20838546.868    85330368.62049
      1821.210  
  24395985.208   128201750.21747     -3296.523    24395983.749    99897472.83344
     -2568.730  
  21374905.443   112325885.86748      2312.300    21374905.165    87526668.43247
      1801.788  
  22316420.790   117273580.00348     -2776.746    22316420.395    91382008.50449
     -2163.702  
  21703518.583   114052760.16749     -2539.472    21703518.227    88872279.58149
     -1978.812  
  23751783.992   124816455.22647      -131.543    23751786.117    97259594.68946
      -102.500  
  25014038.521   131449658.29645     -1546.254    25014039.762   102428316.23341
     -1204.883  
  23770027.743   124912340.15846      3229.684    23770028.826    97334303.46943
      2516.633  
  20476922.468   107606956.01349       352.460    20476921.963    83849573.49247
       274.644  
  23116741.613   123225238.02505      1996.179    23116751.047    95841887.77407
      1552.585  
  22775818.496   121963468.30806     -3804.925    22775823.495    94860494.84306
     -2959.391  
  23534533.223   125628931.84604      4269.383           0.000           0.0000 
         0.000  
  20743240.466   110689906.89307      2811.437           0.000           0.0000 
         0.000  
  19424298.384   103834008.48609     -1360.484    19424302.458    80759801.74408
     -1058.160  
  20365891.054   108905577.64106     -2957.488    20365896.527    84704356.16808
     -2300.272  
  19954294.442   106779458.30009      1758.457    19954298.213    83050708.32908
      1367.687  
 20 10 02 04 58 40.0000000  0 15G15G 2G18G29G 5G30G20G13R14R 4R22R 6
                                R 5R20R21
  20836324.763   109495627.07349      2333.945    20836324.785    85321269.21649
      1818.655  
  24399122.708   128218237.95047     -3297.891    24399121.579    99910320.41045
     -2569.793  
  21372706.808   112314331.64949      2309.745    21372706.586    87517665.15247
      1799.796  
  22319064.169   117287471.08648     -2779.507    22319063.707    91392832.73749
     -2165.852  
  21705935.754   114065462.57749     -2541.270    21705935.462    88882177.56949
     -1980.214  
  23751910.954   124817122.07046      -135.151    23751913.080    97260114.29946
      -105.312  
  23766955.119   124896194.16445      3228.562    23766956.039    97321722.23144
      2515.766  
  20476589.063   107605204.77149       348.441    20476588.585    83848208.89347
       271.511  
  23114870.696   123215265.92006      1992.324    23114880.452    95834131.70607
      1549.585  
  22779371.664   121982495.64206     -3805.535    22779376.781    94875293.87206
     -2959.862  
  23530535.652   125607589.22904      4267.530           0.000           0.0000 
         0.000  
  20740607.710   110675857.03607      2808.538           0.000           0.0000 
         0.000  
  19425572.523   103840819.93109     -1363.789    19425576.743    80765099.54808
     -1060.727  
  20368658.383   108920375.07506     -2961.289    20368663.692    84715865.28207
     -2303.230  
  19952653.655   106770678.02809      1753.867    19952657.384    83043879.21608
      1364.112  
 20 10 02 04 58 45.0000000  0 16G15G 2G18G29G 5G30G 7G20G13R14R 4R22
                                R 6R 5R20R21
  20834105.487   109483965.22949      2330.891    20834105.667    85312182.08249
      1816.276  
  24402261.529   128234731.97447     -3299.409    24402260.263    99923172.89145
     -2570.973  
  21370510.458   112302789.44048      2307.336    21370510.257    87508671.20647
      1797.922  
  22321709.984   117301375.74848     -2782.313    22321709.723    91403667.51149
     -2168.038  
  21708354.635   114078173.69949     -2542.930    21708354.409    88892082.34449
     -1981.504  
  23752041.078   124817806.50547      -138.793    23752043.220    97260647.63845
      -108.148  
  25016986.952   131465153.21754     -1552.664    25016987.814   102440383.38551
     -1209.840  
  23763883.293   124880052.51345      3228.199    23763884.366    97309144.24845
      2515.469  
  20476259.493   107603472.80749       344.690    20476259.171    83846859.31448
       268.590  
  23113003.848   123205313.41206      1988.687    23113013.470    95826390.86907
      1546.757  
  22782925.884   122001527.26807     -3806.769    22782930.986    94890096.25806
     -2960.820  
  23526538.820   125586253.64804      4266.676           0.000           0.0000 
         0.000  
  20737977.183   110661820.50507      2806.098           0.000           0.0000 
         0.000  
  19426849.822   103847647.51109     -1366.929    19426853.868    80770409.87908
     -1063.172  
  20371429.035   108935191.33706     -2965.207    20371434.493    84727389.02408
     -2306.276  
  19951016.767   106761919.89508      1749.531    19951020.618    83037067.32708
      1360.742  
 20 10 02 04 58 50.0000000  0 16G15G 2G18G29G 5G30G 7G20G13R14R 4R22
                                R 6R 5R20R21
  20831888.705   109472316.77149      2328.508    20831889.033    85303105.36849
      1814.421  
  24405401.070   128251229.93447     -3299.847    24405399.939    99936028.43344
     -2571.313  
  21368315.751   112291256.92348      2305.519    21368315.657    87499684.84447
      1796.507  
  22324358.026   117315291.61548     -2784.109    22324357.918    91414511.05349
     -2169.437  
  21710774.862   114090891.23249     -2544.121    21710774.595    88901992.10449
     -1982.437  
  23752174.245   124818506.11347      -141.316    23752176.186    97261192.80045
      -110.117  
  25018464.771   131472919.86844     -1554.897    25018466.455   102446436.36352
     -1211.609  
  23760811.875   124863912.82345      3228.250    23760812.797    97296567.90444
      2515.523  
  20475933.181   107601757.80449       341.401    20475932.665    83845522.95148
       266.026  
  23111140.034   123195378.30006      1985.566    23111149.650    95818663.57607
      1544.332  
  22786480.224   122020560.68907     -3806.698    22786485.401    94904900.02306
     -2960.769  
  23522542.991   125564922.61005      4266.144           0.000           0.0000 
         0.000  
  20735348.696   110647794.74307      2804.179           0.000           0.0000 
         0.000  
  19428129.541   103854488.96708     -1369.468    19428133.889    80775731.00208
     -1065.145  
  20374202.579   108950023.94006     -2968.074    20374208.176    84738925.49908
     -2308.504  
  19949383.859   106753181.37708      1745.901    19949387.449    83030270.68908
      1357.968  
 20 10 02 04 58 55.0000000  0 16G15G 2G18G29G 5G30G 7G20G13R14R 4R22
                                R 6R 5R20R21
  20829674.615   109460681.93249      2325.847    20829675.065    85294039.25649
      1812.348  
  24408541.575   128267732.11747     -3300.801    24408540.340    99948887.25844
     -2572.059  
  21366123.165   112279734.21648      2303.613    21366123.245    87490706.12447
      1795.023  
  22327008.177   117329218.78548     -2786.538    22327008.055    91425363.38949
     -2171.327  
  21713196.211   114103615.25849     -2545.348    21713195.746    88911906.93549
     -1983.386  
  23752310.358   124819221.14247      -144.328    23752312.079    97261749.97745
      -112.464  
  25019945.320   131480699.20504     -1557.116           0.000           0.0000 
         0.000  
  23757741.072   124847775.45445      3227.879    23757741.917    97283993.38343
      2515.230  
  20475610.129   107600059.93849       337.715    20475609.566    83844199.94548
       263.155  
  23109279.653   123185460.73405      1981.632    23109289.034    95810949.94206
      1541.273  
  22790035.023   122039596.19506     -3807.272    22790040.063    94919705.37806
     -2961.383  
  23518547.789   125543596.57604      4264.500           0.000           0.0000 
         0.000  
  20732722.434   110633780.06707      2801.612           0.000           0.0000 
         0.000  
  19429412.071   103861344.35908     -1372.590    19429416.070    80781062.97608
     -1067.570  
  20376979.573   108964873.33806     -2971.867    20376985.162    84750475.02307
     -2311.457  
  19947754.470   106744462.75008      1741.641    19947758.184    83023489.55408
      1354.609  
 20 10 02 04 59  0.0000000  0 16G15G 2G18G29G 5G30G 7G20G13R14R 4R22
                                R 6R 5R20R21
  20827463.199   109449060.92549      2322.995    20827463.503    85284983.93749
      1810.120  
  24411682.605   128284238.65646     -3301.421    24411681.383    99961749.42644
     -2572.538  
  21363932.317   112268221.69949      2301.620    21363932.514    87481735.32547
      1793.469  
  22329660.565   117343157.61448     -2788.785    22329660.417    91436224.80449
     -2173.082  
  21715618.899   114116346.13149     -2546.718    21715618.579    88921827.09649
     -1984.461  
  23752449.269   124819951.84447      -147.793    23752451.141    97262319.35045
      -115.164  
  25021428.267   131488491.26603     -1559.219           0.000           0.0000 
         0.000  
  23754670.594   124831640.54645      3227.191    23754671.300    97271420.71844
      2514.691  
  20475290.484   107598379.44449       334.430    20475289.918    83842890.47647
       260.594  
  23107422.609   123175560.95606      1978.050    23107431.948    95803250.13206
      1538.487  
  22793590.054   122058633.94407     -3807.663    22793595.221    94934512.51406
     -2961.519  
  23514553.828   125522275.45104      4264.199           0.000           0.0000 
         0.000  
  20730098.019   110619776.93307      2799.672           0.000           0.0000 
         0.000  
  19430696.995   103868213.97908     -1375.121    19430701.376    80786406.01008
     -1069.542  
  20379759.557   108979739.50506     -2974.921    20379765.083    84762037.60008
     -2313.827  
  19946129.004   106735764.33108      1737.808    19946132.766    83016724.11208
      1351.624  
 20 10 02 04 59  5.0000000  0 15G15G 2G18G29G 5G30G20G13R14R 4R22R 6
                                R 5R20R21
  20825254.466   109437453.01649      2320.331    20825254.627    85275938.80249
      1808.047  
  24414824.273   128300748.82746     -3302.371    24414823.200    99974614.48545
     -2573.281  
  21361743.350   112256718.50649      2299.683    21361743.500    87472771.80247
      1791.961  
  22332315.050   117357107.24548     -2791.175    22332314.965    91447094.64149
     -2174.945  
  21718042.532   114129082.99949     -2547.905    21718042.148    88931751.92549
     -1985.383  
  23752591.201   124820697.35546      -150.827    23752592.885    97262900.27045
      -117.527  
  23751600.604   124815507.35746      3226.742    23751601.778    97258849.38444
      2514.339  
  20474973.895   107596715.53949       331.015    20474973.209    83841593.91948
       257.929  
  23105568.999   123165678.20206      1974.679    23105577.773    95795563.54906
      1535.863  
  22797145.672   122077673.14706     -3808.199    22797150.639    94949320.83107
     -2961.933  
  23510560.673   125500958.84004      4262.996           0.000           0.0000 
         0.000  
  20727475.886   110605784.32607      2797.625           0.000           0.0000 
         0.000  
  19431984.749   103875097.04608     -1377.988    19431988.800    80791759.50408
     -1071.772  
  20382542.629   108994621.96706     -2978.019    20382548.022    84773612.85207
     -2316.237  
  19944507.065   106727085.22508      1733.796    19944510.687    83009973.69708
      1348.508  
 20 10 02 04 59 10.0000000  0 15G15G 2G18G29G 5G30G20G13R14R 4R22R 6
                                R 5R20R21
  20823047.996   109425858.65749      2317.698    20823048.409    85266904.24049
      1805.996  
  24417966.972   128317263.00746     -3302.690    24417965.529    99987482.67245
     -2573.527  
  21359556.328   112245225.18948      2297.879    21359556.432    87463815.97047
      1790.554  
  22334971.664   117371068.09548     -2793.198    22334971.698    91457973.20549
     -2176.522  
  21720467.664   114141826.37349     -2549.211    21720467.172    88941681.80349
     -1986.406  
  23752735.946   124821458.31146      -153.652    23752737.692    97263493.26147
      -119.729  
  23748531.060   124799376.39046      3226.281    23748532.078    97246279.85044
      2513.987  
  20474660.528   107595068.72149       327.765    20474659.884    83840310.68847
       255.401  
  23103718.501   123155813.03806      1971.608    23103726.946    95787890.65806
      1533.473  
  22800701.433   122096714.30406     -3808.562    22800706.493    94964130.58806
     -2962.219  
  23506568.287   125479646.83704      4261.719           0.000           0.0000 
         0.000  
  20724855.621   110591802.84007      2794.999           0.000           0.0000 
         0.000  
  19433274.787   103881993.97309     -1380.730    19433278.852    80797123.79808
     -1073.902  
  20385328.829   109009520.90905     -2981.543    20385334.075    84785200.90407
     -2318.980  
  19942888.819   106718426.10108      1730.007    19942892.421    83003238.83608
      1345.562  
 20 10 02 04 59 15.0000000  0 15G15G 2G18G29G 5G30G20G13R14R 4R22R 6
                                R 5R20R21
  20820844.405   109414278.36749      2314.910    20820844.633    85257880.64649
      1803.824  
  24421110.308   128333781.88446     -3303.945    24421108.961   100000354.53344
     -2574.508  
  21357371.201   112233742.20949      2295.680    21357371.569    87454868.19647
      1788.840  
  22337630.460   117385040.75748     -2795.347    22337630.666    91468861.01749
     -2178.190  
  21722893.974   114154576.68849     -2550.379    21722893.576    88951617.11849
     -1987.313  
  23752883.758   124822235.03446      -156.917    23752885.355    97264098.47946
      -122.272  
  23745462.110   124783248.07446      3225.851    23745462.847    97233712.30041
      2513.640  
  20474350.567   107593439.48849       324.383    20474349.898    83839041.15948
       252.762  
  23101871.322   123145966.00706      1967.718    23101879.363    95780231.84205
      1530.444  
  22804257.560   122115757.89305     -3808.886    22804262.853    94978942.23406
     -2962.476  
  23502576.902   125458340.27104      4261.710           0.000           0.0000 
         0.000  
  20722237.641   110577832.85907      2792.953           0.000           0.0000 
         0.000  
  19434567.756   103888905.32408     -1383.309    19434571.830    80802499.29108
     -1075.909  
  20388118.143   109024436.90206     -2984.890    20388123.555    84796802.23808
     -2321.581  
  19941274.396   106709787.46808      1725.964    19941278.082    82996519.88208
      1342.413  
 20 10 02 04 59 20.0000000  0 15G15G 2G18G29G 5G30G20G13R14R 4R22R 6
                                R 5R20R21
  20818643.247   109402711.86149      2311.823    20818643.532    85248867.78549
      1801.422  
  24424254.527   128350304.98745     -3304.831    24424253.231   100013229.63544
     -2575.203  
  21355187.967   112222269.33048      2293.617    21355188.363    87445928.30147
      1787.233  
  22340291.548   117399024.90348     -2797.925    22340291.558    91479757.76949
     -2180.202  
  21725321.599   114167333.72749     -2552.093    21725320.997    88961557.68849
     -1988.645  
  23753034.443   124823027.36047      -159.684    23753036.023    97264715.87545
      -124.430  
  23742393.513   124767122.17647      3225.168    23742394.023    97221146.63343
      2513.109  
  20474043.828   107591827.53249       320.667    20474043.107    83837785.08947
       249.866  
  23100027.267   123136136.71406      1963.973    23100035.220    95772586.81806
      1527.527  
  22807814.354   122134803.64307     -3809.406    22807819.439    94993755.57006
     -2962.879  
  23498586.063   125437038.80904      4259.918           0.000           0.0000 
         0.000  
  20719621.888   110563874.22707      2790.422           0.000           0.0000 
         0.000  
  19435863.170   103895830.80209     -1386.483    19435867.195    80807885.76908
     -1078.378  
  20390910.736   109039369.68306     -2988.199    20390916.013    84808416.61208
     -2324.159  
  19939663.699   106701168.90009      1721.738    19939667.552    82989816.56408
      1339.128  
 20 10 02 04 59 25.0000000  0 16G15G 2G18G29G 5G30G 7G20G13R14R 4R22
                                R 6R 5R20R21
  20816444.961   109391159.78949      2309.105    20816445.371    85239866.18349
      1799.304  
  24427399.672   128366832.93246     -3305.844    24427398.441   100026108.52544
     -2575.987  
  21353006.847   112210807.12448      2291.441    21353007.167    87436996.69747
      1785.535  
  22342955.137   117413021.06248     -2800.331    22342954.992    91490663.83549
     -2182.086  
  21727750.731   114180098.02748     -2553.625    21727749.920    88971503.87849
     -1989.839  
  23753188.156   124823835.87846      -163.382    23753189.839    97265345.91546
      -127.313  
  25028879.056   131527645.08214     -1572.645           0.000           0.0000 
         0.000  
  23739325.499   124750999.27746      3224.336    23739326.069    97208583.43743
      2512.477  
  20473740.477   107590233.47349       317.020    20473739.495    83836542.97147
       247.026  
  23098186.812   123126325.64806      1960.520    23098194.374    95764955.96305
      1524.843  
  22811371.623   122153852.06607     -3809.921    22811376.644    95008570.98106
     -2963.276  
  23494596.887   125415743.06704      4258.011           0.000           0.0000 
         0.000  
  20717008.186   110549927.32807      2788.105           0.000           0.0000 
         0.000  
  19437161.397   103902770.91209     -1389.534    19437165.510    80813283.63908
     -1080.753  
  20393706.458   109054319.82506     -2991.496    20393711.899    84820044.49708
     -2326.722  
  19938057.120   106692571.04909      1717.402    19938060.892    82983129.35208
      1335.753  
 20 10 02 04 59 30.0000000  0 15G15G 2G18G29G 5G30G20G13R14R 4R22R 6
                                R 5R20R21
  20814249.149   109379620.87449      2306.487    20814249.430    85230874.82949
      1797.262  
  24430545.571   128383364.49345     -3306.348    24430544.027   100038990.27043
     -2576.374  
  21350827.382   112199354.36148      2289.632    21350827.848    87428072.47147
      1784.129  
  22345620.512   117427028.01648     -2802.401    22345620.703    91501578.32149
     -2183.699  
  21730180.754   114192868.34948     -2554.422    21730180.061    88981454.77249
     -1990.460  
  23753344.889   124824659.29747      -165.901    23753346.706    97265987.50645
      -129.281  
  23736257.878   124734878.25946      3224.359    23736258.207    97196021.55744
      2512.483  
  20473440.377   107588656.06349       313.995    20473439.276    83835313.81347
       244.671  
  23096349.494   123116531.89906      1957.190    23096357.017    95757338.57706
      1522.253  
  22814928.900   122172901.96306     -3809.805    22814934.168    95023387.57006
     -2963.183  
  23490608.087   125394451.64704      4258.465           0.000           0.0000 
         0.000  
  20714396.406   110535990.99407      2786.145           0.000           0.0000 
         0.000  
  19438462.274   103909724.41009     -1391.980    19438466.222    80818691.90908
     -1082.652  
  20396505.398   109069286.01206     -2994.749    20396510.633    84831684.84908
     -2329.254  
  19936453.934   106683992.73408      1714.000    19936457.845    82976457.33308
      1333.109  
 20 10 02 04 59 35.0000000  0 15G15G 2G18G29G 5G30G20G13R14R 4R22R 6
                                R 5R20R21
  20812055.816   109368094.89249      2303.440    20812056.141    85221893.55049
      1794.891  
  24433692.114   128399899.43546     -3307.621    24433690.412   100051874.59644
     -2577.378  
  21348649.642   112187910.79349      2287.359    21348650.227    87419155.41347
      1782.358  
  22348287.862   117441045.44148     -2804.965    22348288.250    91512501.01049
     -2185.688  
  21732611.922   114205644.47749     -2556.167    21732611.357    88991410.21049
     -1991.819  
  23753504.368   124825497.39647      -169.988    23753506.230    97266640.57546
      -132.460  
  23733190.456   124718758.69146      3223.238    23733190.675    97183460.83645
      2511.604  
  20473143.349   107587095.01449       310.148    20473142.212    83834097.41847
       241.672  
  23094515.618   123106755.02307      1953.363    23094522.792    95749734.35906
      1519.285  
  22818486.552   122191952.99806     -3810.753    22818491.932    95038205.06307
     -2963.922  
  23486620.321   125373164.61804      4256.804           0.000           0.0000 
         0.000  
  20711786.891   110522065.21707      2783.886           0.000           0.0000 
         0.000  
  19439765.568   103916691.16909     -1395.151    19439769.549    80824110.49108
     -1085.121  
  20399307.161   109084268.05006     -2998.176    20399312.416    84843337.54108
     -2331.917  
  19934854.509   106675433.73009      1709.440    19934858.351    82969800.32508
      1329.562  
 20 10 02 04 59 40.0000000  0 15G15G 2G18G29G 5G30G20G13R14R 4R22R 6
                                R 5R20R21
  20809865.507   109356584.11649      2300.598    20809865.804    85212924.11449
      1792.672  
  24436839.599   128416439.92645     -3308.585    24436838.194   100064763.26843
     -2578.124  
  21346474.174   112176478.69748      2285.141    21346474.801    87410247.28547
      1780.624  
  22350957.670   117455075.62648     -2807.355    22350957.949    91523433.60649
     -2187.555  
  21735044.587   114218428.59149     -2557.562    21735043.989    89001371.83949
     -1992.910  
  23753667.043   124826352.35247      -172.843    23753669.072    97267306.79246
      -134.680  
  23730123.606   124702642.90844      3222.785    23730124.192    97170903.19545
      2511.280  
  20472849.729   107585552.56349       306.695    20472848.587    83832895.50947
       238.984  
  23092685.017   123096997.36007      1949.828    23092692.167    95742145.07205
      1516.527  
  22822044.894   122211007.47606     -3811.370    22822050.298    95053025.15606
     -2964.402  
  23482633.792   125351883.94204      4255.710           0.000           0.0000 
         0.000  
  20709179.607   110508152.12107      2781.534           0.000           0.0000 
         0.000  
  19441071.706   103923673.25809     -1397.965    19441075.780    80829541.02408
     -1087.304  
  20402112.250   109099268.21406     -3001.550    20402117.570    84855004.34508
     -2334.539  
  19933259.155   106666896.29309      1705.386    19933262.928    82963160.09908
      1326.406  
 20 10 02 04 59 45.0000000  0 15G15G 2G18G29G 5G30G20G13R14R 4R22R 6
                                R 5R20R21
  20807677.670   109345087.80049      2297.815    20807677.930    85203965.94549
      1790.503  
  24439987.995   128432985.35843     -3309.573    24439986.654   100077655.74844
     -2578.910  
  21344300.827   112165057.36648      2283.340    21344301.306    87401347.55847
      1779.227  
  22353629.791   117469117.80948     -2809.555    22353630.025    91534375.59149
     -2189.257  
  21737478.796   114231220.00849     -2559.199    21737478.253    89011339.18049
     -1994.183  
  23753832.784   124827223.57547      -176.109    23753834.978    97267985.64945
      -137.233  
  23727057.572   124686530.26145      3222.550    23727057.820    97158347.88444
      2511.081  
  20472559.729   107584028.10049       303.012    20472558.393    83831707.62147
       236.108  
  23090858.095   123087258.24307      1945.953    23090864.989    95734570.19505
      1513.516  
  22825603.676   122230064.81206     -3811.870    22825608.994    95067847.59406
     -2964.789  
  23478648.491   125330609.07304      4254.684           0.000           0.0000 
         0.000  
  20706574.623   110494251.08307      2779.266           0.000           0.0000 
         0.000  
  19442380.605   103930670.07209     -1400.785    19442384.376    80834982.98308
     -1089.499  
  20404920.599   109114285.65906     -3005.386    20404925.964    84866684.59308
     -2337.523  
  19931667.587   106658379.68109      1701.206    19931671.348    82956536.05708
      1323.156  
 20 10 02 04 59 50.0000000  0 15G15G 2G18G29G 5G30G20G13R14R 4R22R 6
                                R 5R20R21
  20805492.707   109333605.11549      2295.387    20805492.949    85195018.40949
      1788.613  
  24443136.931   128449534.87844     -3309.516    24443136.241   100090551.46745
     -2578.848  
  21342129.211   112153645.98049      2281.516    21342129.684    87392455.56947
      1777.804  
  22356304.214   117483171.18648     -2811.659    22356304.365    91545326.25749
     -2190.906  
  21739913.981   114244017.83449     -2559.863    21739913.524    89021311.51949
     -1994.754  
  23754001.596   124828110.12547      -178.429    23754003.761    97268676.47745
      -139.038  
  23723991.616   124670419.86545      3222.328    23723992.059    97145794.29144
      2510.898  
  20472272.785   107582520.63749       300.062    20472271.394    83830532.96947
       233.812  
  23089034.366   123077536.74207      1942.750    23089040.972    95727009.05105
      1511.031  
  22829162.814   122249123.95907     -3811.914    22829168.068    95082671.35506
     -2964.823  
  23474663.847   125309339.23905      4253.609           0.000           0.0000 
         0.000  
  20703971.668   110480361.06407      2777.151           0.000           0.0000 
         0.000  
  19443691.964   103937680.75609     -1403.190    19443695.880    80840435.74908
     -1091.370  
  20407732.020   109129319.52806     -3007.991    20407737.451    84878377.58508
     -2339.555  
  19930079.904   106649883.07309      1697.499    19930083.442    82949927.59008
      1320.277  
 20 10 02 04 59 55.0000000  0 15G15G 2G18G29G 5G30G20G13R14R 4R22R 6
                                R 5R20R21
  20803310.205   109322136.74349      2292.155    20803310.669    85186082.02349
      1786.097  
  24446287.034   128466089.00345     -3311.336    24446286.345   100103450.80745
     -2580.265  
  21339959.865   112142245.20948      2278.983    21339959.996    87383571.83747
      1775.827  
  22358980.715   117497236.38748     -2814.108    22358980.876    91556286.15149
     -2192.816  
  21742350.742   114256822.78749     -2561.769    21742350.262    89031289.39949
     -1996.188  
  23754173.208   124829012.70547      -182.082    23754175.431    97269379.77945
      -141.886  
  23720926.339   124654312.35245      3221.578    23720927.075    97133243.00945
      2510.319  
  20471989.261   107581030.90049       296.249    20471988.108    83829372.15048
       230.843  
  23087214.202   123067833.58907      1938.820    23087220.307    95719462.15304
      1507.969  
  22832722.554   122268185.54806     -3812.354    22832727.665    95097497.04606
     -2965.167  
  23470680.300   125288075.07604      4251.944           0.000           0.0000 
         0.000  
  20701370.701   110466482.80707      2774.363           0.000           0.0000 
         0.000  
  19445006.139   103944705.89808     -1406.633    19445010.040    80845899.74608
     -1094.051  
  20410546.716   109144370.69006     -3011.855    20410552.312    84890084.04108
     -2342.559  
  19928495.977   106641407.13209      1693.210    19928499.592    82943335.18808
      1316.938  
 20 10 02 05 00  0.0000000  0 15G15G 2G18G29G 5G30G20G13R14R 4R22R 6
                                R 5R20R21
  20801130.581   109310682.45849      2289.425    20801130.862    85177156.61049
      1783.969  
  24449437.763   128482647.66344     -3311.852    24449437.394   100116353.63544
     -2580.672  
  21337792.257   112130854.84949      2277.078    21337792.558    87374696.22947
      1774.344  
  22361659.499   117511313.17848     -2816.379    22361659.514    91567255.06949
     -2194.586  
  21744788.829   114269634.64949     -2562.934    21744788.230    89041272.69049
     -1997.090  
  23754348.045   124829931.13447      -184.688    23754350.310    97270095.44346
      -143.913  
  23717861.580   124638207.58946      3220.831    23717862.446    97120693.83445
      2509.734  
  20471709.162   107579558.77949       292.823    20471708.050    83828225.04548
       228.175  
  23085397.485   123058148.59107      1935.269    23085403.104    95711929.41404
      1505.214  
  22836282.726   122287249.64107     -3812.859    22836287.385    95112324.65006
     -2965.562  
  23466697.706   125266816.34704      4250.819           0.000           0.0000 
         0.000  
  20698772.198   110452616.10007      2772.113           0.000           0.0000 
         0.000  
  19446323.151   103951745.39709     -1409.242    19446326.901    80851374.91008
     -1096.082  
  20413364.590   109159438.62806     -3015.229    20413370.024    84901803.54808
     -2345.183  
  19926915.822   106632951.74609      1689.214    19926919.359    82936758.78108
      1313.831  
 20 10 02 05 00  5.0000000  0 15G15G 2G18G29G 5G30G20G13R14R 4R22R 6
                                R 5R20R21
  20798953.431   109299241.42949      2286.772    20798953.733    85168241.53649
      1781.902  
  24452589.465   128499209.90745     -3312.703    24452589.311   100129259.24244
     -2581.339  
  21335626.736   112119474.02649      2275.409    21335626.781    87365828.04947
      1773.043  
  22364340.236   117525400.70548     -2818.711    22364340.031    91578232.37049
     -2196.402  
  21747228.009   114282452.59249     -2564.453    21747227.431    89051260.68549
     -1998.155  
  23754525.625   124830864.47947      -188.347    23754527.832    97270822.70746
      -146.765  
  23714797.279   124622104.61246      3220.675    23714798.315    97108146.07145
      2509.616  
  20471432.291   107578103.31149       289.233    20471430.924    83827090.91648
       225.378  
  23083583.863   123048480.93107      1931.890    23083589.588    95704410.12005
      1502.577  
  22839843.264   122306315.06307     -3813.355    22839847.565    95127153.30106
     -2965.944  
  23462716.173   125245562.18404      4250.046           0.000           0.0000 
         0.000  
  20696175.554   110438760.28507      2769.785           0.000           0.0000 
         0.000  
  19447642.580   103958798.15409     -1412.012    19447646.455    80856860.39708
     -1098.229  
  20416185.331   109174522.61406     -3018.523    20416190.844    84913535.54008
     -2347.746  
  19925339.565   106624516.03309      1685.199    19925342.968    82930197.67408
      1310.706  
 20 10 02 05 00 10.0000000  0 15G15G 2G18G29G 5G30G20G13R14R 4R22R 6
                                R 5R20R21
  20796778.614   109287812.68649      2284.516    20796779.074    85159336.01549
      1780.137  
  24455741.783   128515774.73044     -3312.788    24455741.081   100142166.90045
     -2581.398  
  21333462.543   112108101.76649      2273.827    21333462.515    87356966.55247
      1771.812  
  22367022.832   117539497.87048     -2820.401    22367022.588    91589217.18049
     -2197.714  
  21749668.152   114295275.44649     -2565.098    21749667.573    89061252.53549
     -1998.777  
  23754705.892   124831811.82247      -190.840    23754708.015    97271560.93745
      -148.707  
  23711733.200   124606002.45346      3220.589    23711733.927    97095598.94845
      2509.555  
  20471158.280   107576663.49849       286.324    20471156.959    83825968.98248
       223.105  
  23081773.347   123038829.49007      1928.792    23081779.285    95696903.42705
      1500.167  
  22843403.619   122325380.82107     -3812.983    22843407.860    95141982.24006
     -2965.655  
  23458735.069   125224311.71505      4249.695           0.000           0.0000 
         0.000  
  20693580.804   110424914.14007      2768.077           0.000           0.0000 
         0.000  
  19448964.242   103965863.26109     -1414.293    19448968.227    80862355.47908
     -1100.003  
  20419008.847   109189621.59906     -3021.155    20419014.595    84925279.19108
     -2349.792  
  19923766.506   106616098.90108      1681.417    19923770.198    82923651.01508
      1307.765  
 20 10 02 05 00 15.0000000  0 15G15G 2G18G29G 5G30G20G13R14R 4R22R 6
                                R 5R20R21
  20794606.628   109276398.23049      2281.651    20794606.863    85150441.64249
      1777.909  
  24458894.929   128532344.30945     -3314.367    24458894.463   100155078.22245
     -2582.636  
  21331300.617   112096740.14649      2271.508    21331300.450    87348113.35447
      1770.008  
  22369707.712   117553606.82448     -2822.851    22369707.364    91600211.14149
     -2199.632  
  21752109.582   114308105.40049     -2566.492    21752108.943    89071249.88149
     -1999.867  
  23754889.371   124832775.16747      -193.987    23754891.342    97272311.56645
      -151.164  
  23708669.639   124589903.30447      3219.933    23708670.529    97083054.15545
      2509.034  
  20470887.701   107575241.44449       282.875    20470886.404    83824860.88448
       220.418  
  23079966.264   123029196.43807      1924.972    23079972.253    95689411.04705
      1497.195  
  22846964.707   122344449.13007     -3813.741    22846968.647    95156813.13806
     -2966.246  
  23454755.100   125203066.90105      4248.176           0.000           0.0000 
         0.000  
  20690988.093   110411079.75107      2765.976           0.000           0.0000 
         0.000  
  19450288.557   103972942.89009     -1417.195    19450292.527    80867861.85508
     -1102.266  
  20421835.600   109204737.76706     -3024.668    20421841.488    84937036.19608
     -2352.522  
  19922197.522   106607702.51509      1677.323    19922201.029    82917120.49908
      1304.585  
 20 10 02 05 00 20.0000000  0 15G15G 2G18G29G 5G30G20G13R14R 4R22R 6
                                R 5R20R21
  20792437.112   109264997.25449      2278.851    20792437.307    85141557.76749
      1775.727  
  24462048.558   128548917.55445     -3315.409    24462048.424   100167992.44745
     -2583.440  
  21329140.423   112085388.31249      2269.430    21329140.091    87339267.76347
      1768.383  
  22372394.670   117567726.66648     -2825.176    22372394.197    91611213.61549
     -2201.441  
  21754552.169   114320941.56649     -2567.840    21754551.756    89081252.07349
     -2000.917  
  23755075.479   124833753.70347      -197.577    23755077.574    97273074.06145
      -153.961  
  23705606.458   124573806.14946      3219.590    23705607.178    97070510.96345
      2508.769  
  20470620.343   107573836.31049       279.249    20470619.001    83823765.97748
       217.597  
  23078162.306   123019580.88806      1921.327    23078168.612    95681932.29205
      1494.363  
  22850525.990   122363519.04907     -3814.226    22850529.634    95171645.24206
     -2966.628  
  23450776.124   125181826.95005      4247.284           0.000           0.0000 
         0.000  
  20688397.728   110397256.34807      2763.648           0.000           0.0000 
         0.000  
  19451615.663   103980036.15909     -1420.047    19451619.447    80873378.84008
     -1104.479  
  20424665.353   109219869.94806     -3027.960    20424671.229    84948805.66608
     -2355.086  
  19920632.288   106599326.00709      1673.312    19920635.642    82910605.44008
      1301.465  
 20 10 02 05 00 25.0000000  0 15G15G 2G18G29G 5G30G20G13R14R 4R22R 6
                                R 5R20R21
  20790270.264   109253610.26649      2275.772    20790270.474    85132684.79249
      1773.328  
  24465203.392   128565495.10046     -3316.465    24465202.715   100180909.99343
     -2584.261  
  21326982.115   112074046.76648      2267.077    21326981.955    87330430.21347
      1766.555  
  22375083.702   117581857.90248     -2827.675    22375083.277    91622224.98149
     -2203.382  
  21756996.087   114333784.43949     -2569.558    21756995.595    89091259.49749
     -2002.257  
  23755264.633   124834747.83747      -200.363    23755266.567    97273848.70646
      -156.132  
  23702543.664   124557711.52546      3218.538    23702544.503    97057969.66644
      2507.945  
  20470356.247   107572448.53649       275.527    20470355.030    83822684.59047
       214.690  
  23076361.925   123009983.53006      1917.515    23076368.185    95674467.67105
      1491.397  
  22854087.490   122382590.96607     -3814.723    22854090.952    95186478.97606
     -2967.011  
  23446798.119   125160592.40604      4246.113           0.000           0.0000 
         0.000  
  20685809.299   110383444.43307      2761.203           0.000           0.0000 
         0.000  
  19452945.195   103987143.36209     -1423.055    19452948.997    80878906.66608
     -1106.820  
  20427498.189   109235018.83306     -3031.749    20427504.228    84960588.12607
     -2358.030  
  19919070.639   106590969.92708      1668.972    19919074.100    82904106.26408
      1298.086  
 20 10 02 05 00 30.0000000  0 15G15G 2G18G29G 5G30G20G13R14R 4R22R 6
                                R 5R20R21
  20788106.063   109242237.31249      2273.473    20788106.282    85123822.75749
      1771.538  
  24468358.758   128582076.94145     -3316.621    24468357.935   100193830.90443
     -2584.390  
  21324825.896   112062715.56948      2265.589    21324825.557    87321600.71747
      1765.395  
  22377774.990   117596000.53248     -2829.362    22377774.765    91633245.20449
     -2204.699  
  21759441.372   114346634.03249     -2570.288    21759440.871    89101272.17949
     -2002.824  
  23755456.817   124835757.74147      -203.066    23755458.759    97274635.63546
      -158.238  
  23699481.483   124541619.46546      3218.382    23699482.387    97045430.43745
      2507.831  
  20470095.554   107571078.14849       272.687    20470094.203    83821616.76748
       212.483  
  23074564.936   123000404.22406      1914.246    23074571.229    95667017.09805
      1488.855  
  22857649.751   122401665.08607     -3814.551    22857653.015    95201314.43406
     -2966.867  
  23442821.075   125139363.26605      4246.108           0.000           0.0000 
         0.000  
  20683223.039   110369643.90207      2759.280           0.000           0.0000 
         0.000  
  19454277.376   103994264.75509     -1425.351    19454281.170    80884445.52508
     -1108.609  
  20430334.251   109250184.53206     -3034.531    20430340.104    84972383.67808
     -2360.191  
  19917513.070   106582634.34409      1665.438    19917516.352    82897623.03108
      1295.336  
 20 10 02 05 00 35.0000000  0 15G15G 2G18G29G 5G30G20G13R14R 4R22R 6
                                R 5R20R21
  20785944.143   109230876.56549      2270.714    20785944.524    85114970.22149
      1769.386  
  24471514.825   128598661.31045     -3317.316    24471513.946   100206753.74146
     -2584.930  
  21322671.210   112051392.89849      2263.526    21322670.839    87312777.85047
      1763.784  
  22380468.011   117610152.70048     -2831.479    22380467.656    91644272.86249
     -2206.352  
  21761887.416   114359488.54749     -2571.479    21761886.834    89111288.67849
     -2003.753  
  23755651.702   124836781.49348      -206.430    23755653.608    97275433.35646
      -160.862  
  23696419.558   124525528.19347      3217.968    23696420.292    97032891.79744
      2507.507  
  20469837.724   107569723.33949       269.257    20469836.559    83820561.06947
       209.812  
  23072770.923   122990841.18806      1911.078    23072777.110    95659579.22405
      1486.394  
  22861211.828   122420739.47607     -3815.112    22861215.024    95216150.04606
     -2967.316  
  23438844.677   125118137.73405      4244.598           0.000           0.0000 
         0.000  
  20680638.818   110355853.06507      2756.983           0.000           0.0000 
         0.000  
  19455611.983   104001398.24309     -1428.082    19455615.544    80889993.78408
     -1110.734  
  20433172.925   109265364.94706     -3037.746    20433178.907    84984190.65208
     -2362.694  
  19915958.826   106574317.33109      1661.366    19915962.005    82891154.23608
      1292.172  
 20 10 02 05 00 40.0000000  0 15G15G 2G18G29G 5G30G20G13R14R 4R22R 6
                                R 5R20R21
  20783785.434   109219532.18949      2267.203    20783785.620    85106130.46249
      1766.651  
  24474671.718   128615252.33244     -3319.206    24474671.226   100219681.86746
     -2586.398  
  21320519.033   112040082.94549      2260.637    21320518.613    87303964.90547
      1761.534  
  22383163.650   117624318.63148     -2834.581    22383163.558    91655311.22349
     -2208.769  
  21764335.333   114372352.09448     -2573.651    21764334.738    89121312.21849
     -2005.449  
  23755850.086   124837823.25747      -210.616    23755851.962    97276245.14546
      -164.117  
  23693358.312   124509441.92646      3216.894    23693359.398    97020357.04145
      2506.668  
  20469583.671   107568388.24749       265.007    20469582.305    83819520.72547
       206.496  
  23070980.759   122981298.70007      1906.770    23070986.934    95652157.31905
      1483.043  
  22864774.748   122439818.37207     -3816.340    22864777.788    95230989.17406
     -2968.269  
  23434870.137   125096920.11905      4243.030           0.000           0.0000 
         0.000  
  20678057.052   110342076.20907      2753.957           0.000           0.0000 
         0.000  
  19456949.605   104008548.25909     -1431.683    19456952.997    80895554.90808
     -1113.535  
  20436015.315   109280564.45005     -3041.961    20436021.352    84996012.48908
     -2365.973  
  19914408.841   106566023.17608      1656.491    19914411.960    82884703.22108
      1288.379  
 20 10 02 05 00 45.0000000  0 14G15G18G29G 5G30G20G13R14R 4R22R 6R 5
                                R20R21
  20781629.556   109208203.56949      2264.754    20781629.628    85097302.97249
      1764.742  
  21318369.327   112028785.04149      2258.862    21318368.886    87295161.35347
      1760.151  
  22385861.811   117638497.56148     -2836.496    22385861.686    91666359.73049
     -2210.262  
  21766784.810   114385224.05849     -2574.776    21766784.133    89131342.32749
     -2006.324  
  23756051.688   124838882.39948      -213.012    23756053.531    97277070.44346
      -165.988  
  23690298.069   124493359.92546      3216.402    23690298.873    97007825.60744
      2506.289  
  20469333.239   107567072.21949       261.797    20469331.944    83818495.25648
       203.995  
  23069194.544   122971776.04406      1902.831    23069200.427    95644750.78905
      1479.976  
  22868338.438   122458901.02207     -3816.550    22868341.362    95245831.21106
     -2968.434  
  23430896.680   125075709.56805      4242.327           0.000           0.0000 
         0.000  
  20675477.661   110328312.52107      2751.683           0.000           0.0000 
         0.000  
  19458290.186   104015714.02409     -1434.328    19458293.570    80901128.28608
     -1115.589  
  20438861.163   109295782.38606     -3044.702    20438867.166    85007848.65508
     -2368.104  
  19912863.020   106557751.23809      1652.723    19912866.107    82878269.49708
      1285.448  
 20 10 02 05 00 50.0000000  0 14G15G18G29G 5G30G20G13R14R 4R22R 6R 5
                                R20R21
  20779475.989   109196886.96349      2261.859    20779476.082    85088484.84249
      1762.487  
  21316220.900   112017495.47948      2256.776    21316220.638    87286364.29547
      1758.527  
  22388561.693   117652685.82048     -2838.699    22388561.776    91677415.52249
     -2211.973  
  21769235.057   114398100.66149     -2575.905    21769234.463    89141376.02249
     -2007.203  
  23756255.860   124839955.23847      -216.137    23756257.672    97277906.39546
      -168.421  
  23687238.007   124477278.53446      3216.659    23687238.505    96995294.69646
      2506.491  
  20469085.636   107565771.55749       258.554    20469084.280    83817481.76947
       201.472  
  23067411.052   122962269.52906      1899.570    23067416.949    95637356.84305
      1477.445  
  22871901.859   122477983.57206     -3816.105    22871904.977    95260673.19506
     -2968.085  
  23426923.796   125054502.60705      4240.843           0.000           0.0000 
         0.000  
  20672900.145   110314558.27707      2749.672           0.000           0.0000 
         0.000  
  19459632.787   104022891.74609     -1436.891    19459636.073    80906710.96708
     -1117.581  
  20441709.744   109311014.83906     -3048.171    20441715.847    85019696.12108
     -2370.801  
  19911320.565   106549497.72108      1648.565    19911323.877    82871850.10208
      1282.246  
 20 10 02 05 00 55.0000000  0 14G15G18G29G 5G30G20G13R14R 4R22R 6R 5
                                R20R21
  20777325.270   109185584.33249      2259.348    20777325.209    85079677.59749
      1760.530  
  21314074.542   112006216.13648      2254.964    21314074.348    87277575.18948
      1757.113  
  22391263.854   117666885.24148     -2840.738    22391263.796    91688479.99949
     -2213.565  
  21771686.616   114410983.87749     -2577.133    21771685.783    89151414.89249
     -2008.155  
  23756462.870   124841043.58447      -218.886    23756464.740    97278754.46346
      -170.566  
  23684178.371   124461199.63447      3216.055    23684178.618    96982765.68845
      2506.016  
  20468841.481   107564488.20149       255.097    20468840.026    83816481.74947
       198.776  
  23065631.089   122952780.98007      1895.804    23065636.806    95629976.85005
      1474.515  
  22875465.774   122497068.23607     -3816.840    22875468.801    95275516.83606
     -2968.651  
  23422951.858   125033300.91005      4240.206           0.000           0.0000 
         0.000  
  20670324.596   110300815.33807      2747.641           0.000           0.0000 
         0.000  
  19460978.193   104030083.27709     -1439.516    19460981.530    80912304.36608
     -1119.628  
  20444561.403   109326263.85106     -3051.620    20444567.408    85031556.46808
     -2373.483  
  19909781.987   106541264.50808      1644.777    19909785.230    82865446.49508
      1279.218  
 20 10 02 05 01  0.0000000  0 14G15G18G29G 5G30G20G13R14R 4R22R 6R 5
                                R20R21
  20775177.033   109174295.39549      2256.151    20775177.019    85070881.02349
      1758.034  
  21311929.895   111994946.87548      2252.762    21311929.793    87268793.96847
      1755.397  
  22393967.902   117681095.60848     -2843.390    22393968.283    91699553.01749
     -2215.629  
  21774139.569   114423873.39049     -2578.598    21774138.625    89161458.68149
     -2009.297  
  23756672.949   124842147.33647      -222.573    23756674.755    97279614.50046
      -173.438  
  23681119.238   124445123.06546      3214.441    23681119.473    96970238.50244
      2504.762  
  20468600.345   107563221.83549       251.660    20468598.922    83815494.96547
       196.093  
  23063854.636   122943310.23706      1892.262    23063859.956    95622610.73104
      1471.757  
  22879029.960   122516154.57206     -3817.597    22879033.074    95290361.74906
     -2969.249  
  23418981.176   125012104.51504      4238.499           0.000           0.0000 
         0.000  
  20667751.269   110287083.72907      2745.191           0.000           0.0000 
         0.000  
  19462325.982   104037288.54608     -1442.425    19462329.400    80917908.45708
     -1121.891  
  20447416.208   109341529.08906     -3054.617    20447422.131    85043429.40808
     -2375.816  
  19908247.139   106533051.60308      1640.488    19908250.457    82859058.67208
      1275.929  
 20 10 02 05 01  5.0000000  0 14G15G18G29G 5G30G20G13R14R 4R22R 6R 5
                                R20R21
  20773031.445   109163020.12549      2253.656    20773031.338    85062095.10049
      1756.098  
  21309787.333   111983687.63548      2250.757    21309787.373    87260020.52147
      1753.831  
  22396674.061   117695316.88248     -2845.391    22396674.424    91710634.55649
     -2217.188  
  21776593.655   114436769.32349     -2579.890    21776592.675    89171507.44949
     -2010.309  
  23756885.888   124843266.33847      -225.477    23756887.651    97280486.46046
      -175.694  
  23678060.266   124429048.68046      3214.976    23678060.798    96957713.01745
      2505.175  
  20468362.686   107561972.43149       248.144    20468361.239    83814521.41247
       193.358  
  23062081.341   122933857.42106      1888.707    23062086.650    95615258.55205
      1468.991  
  22882594.400   122535242.48806     -3818.445    22882597.519    95305207.88106
     -2969.906  
  23415011.480   124990913.22804      4237.312           0.000           0.0000 
         0.000  
  20665180.192   110273363.06207      2742.968           0.000           0.0000 
         0.000  
  19463676.402   104044507.43909     -1445.219    19463679.898    80923523.15808
     -1124.058  
  20450273.907   109356810.55306     -3058.292    20450279.782    85055314.99208
     -2378.676  
  19906716.055   106524858.77408      1636.488    19906719.524    82852686.48008
      1272.824  
 20 10 02 05 01 10.0000000  0 14G15G18G29G 5G30G20G13R14R 4R22R 6R 5
                                R20R21
  20770888.281   109151758.75549      2251.183    20770888.363    85053320.00649
      1754.168  
  21307646.632   111972438.61748      2249.133    21307646.870    87251255.05447
      1752.566  
  22399382.532   117709549.27248     -2847.246    22399382.670    91721724.68349
     -2218.640  
  21779048.884   114449671.73449     -2580.702    21779047.960    89181561.27549
     -2010.941  
  23757101.677   124844400.87847      -228.195    23757103.574    97281370.53846
      -177.816  
  23675001.832   124412976.75046      3214.699    23675002.339    96945189.45245
      2504.956  
  20468128.248   107560740.29449       245.034    20468126.768    83813561.29548
       190.933  
  23060311.513   122924422.55406      1885.690    23060316.432    95607920.30604
      1466.641  
  22886159.306   122554332.33507     -3817.707    22886162.440    95320055.52606
     -2969.328  
  23411042.700   124969727.33105      4236.602           0.000           0.0000 
         0.000  
  20662610.916   110259653.76107      2741.315           0.000           0.0000 
         0.000  
  19465029.435   104051740.17209     -1447.538    19465032.893    80929148.62108
     -1125.863  
  20453134.801   109372108.35106     -3060.616    20453140.790    85067213.28608
     -2380.480  
  19905188.885   106516686.29908      1632.738    19905192.400    82846330.11608
      1269.906  
 20 10 02 05 01 15.0000000  0 14G15G18G29G 5G30G20G13R14R 4R22R 6R 5
                                R20R21
  20768747.638   109140509.53649      2247.972    20768747.604    85044554.39549
      1751.667  
  21305507.676   111961198.07848      2246.645    21305507.883    87242496.19847
      1750.628  
  22402092.492   117723790.95948     -2850.039    22402092.822    91732822.11349
     -2220.808  
  21781505.040   114462578.92149     -2582.586    21781503.958    89191618.83349
     -2012.406  
  23757320.361   124845549.16748      -231.706    23757322.190    97282265.29546
      -180.555  
  23671943.619   124396905.54446      3213.605    23671943.973    96932666.45645
      2504.109  
  20467896.647   107559523.59749       241.050    20467895.161    83812613.21547
       187.827  
  23058544.625   122915003.98306      1881.569    23058549.183    95600594.71004
      1463.437  
  22889724.092   122573422.19406     -3818.590    22889727.234    95334903.17406
     -2970.019  
  23407074.604   124948545.02205      4234.980           0.000           0.0000 
         0.000  
  20660043.795   110245954.07807      2738.354           0.000           0.0000 
         0.000  
  19466384.552   104058984.86209     -1450.973    19466388.306    80934783.38208
     -1128.535  
  20455998.265   109387420.86206     -3064.723    20456004.433    85079123.01208
     -2383.675  
  19903665.070   106508532.46308      1628.190    19903668.716    82839988.25208
      1266.370  
 20 10 02 05 01 20.0000000  0 14G15G18G29G 5G30G20G13R14R 4R22R 6R 5
                                R20R21
  20766610.061   109129276.49449      2245.715    20766610.051    85035801.37949
      1749.905  
  21303371.035   111949970.10748      2245.011    21303371.328    87233747.11148
      1749.352  
  22404805.241   117738046.01948     -2851.590    22404805.280    91743929.95649
     -2222.020  
  21783962.848   114475494.91249     -2583.402    21783961.942    89201683.24049
     -2013.042  
  23757542.318   124846715.24747      -234.137    23757543.942    97283173.92446
      -182.448  
  23668886.264   124380839.06846      3213.559    23668886.667    96920147.14245
      2504.074  
  20467668.844   107558326.36049       238.066    20467667.240    83811680.32348
       185.511  
  23056781.458   122905605.77905      1878.819    23056786.312    95593285.01304
      1461.300  
  22893289.736   122592516.18106     -3818.691    22893292.884    95349754.07307
     -2970.093  
  23403107.766   124927370.51804      4234.171           0.000           0.0000 
         0.000  
  20657479.057   110232268.05207      2736.551           0.000           0.0000 
         0.000  
  19467742.832   104066245.68209     -1453.073    19467746.583    80940430.67908
     -1130.171  
  20458865.206   109402751.99206     -3067.526    20458871.487    85091047.20608
     -2385.858  
  19902145.586   106500401.27008      1624.746    19902149.071    82833663.98208
      1263.687  
 20 10 02 05 01 25.0000000  0 14G15G18G29G 5G30G20G13R14R 4R22R 6R 5
                                R20R21
  20764474.969   109118056.72849      2242.468    20764474.993    85027058.70649
      1747.379  
  21301236.088   111938751.72948      2242.254    21301236.468    87225005.56048
      1747.215  
  22407519.700   117752311.50448     -2854.444    22407519.970    91755045.91149
     -2224.245  
  21786421.794   114488416.73149     -2585.414    21786420.900    89211752.17149
     -2014.612  
  23757767.106   124847896.23147      -238.203    23757768.849    97284094.13146
      -185.616  
  23665829.162   124364774.45046      3212.026    23665829.714    96907629.24545
      2502.878  
  20467444.130   107557145.69949       233.894    20467442.520    83810760.31847
       182.250  
  23055021.166   122896224.87405      1874.097    23055026.052    95585988.89404
      1457.652  
  22896855.647   122611611.34807     -3819.831    22896858.432    95364605.86106
     -2970.984  
  23399141.878   124906200.62204      4233.124           0.000           0.0000 
         0.000  
  20654916.195   110218592.84707      2733.226           0.000           0.0000 
         0.000  
  19469103.584   104073519.68109     -1456.508    19469107.520    80946088.22108
     -1132.843  
  20461735.150   109418098.87406     -3071.637    20461741.505    85102983.66108
     -2389.054  
  19900629.645   106492289.88208      1619.813    19900633.473    82827355.12008
      1259.851  
 20 10 02 05 01 30.0000000  0 14G15G18G29G 5G30G20G13R14R 4R22R 6R 5
                                R20R21
  20762342.928   109106852.02749      2239.426    20762342.857    85018327.77549
      1745.008  
  21299103.460   111927544.72448      2240.484    21299103.790    87216272.78847
      1745.819  
  22410236.700   117766589.15448     -2856.590    22410237.103    91766171.33549
     -2225.918  
  21788882.263   114501346.08348     -2586.473    21788881.099    89221826.99149
     -2015.433  
  23757994.915   124849093.81347      -240.754    23757996.663    97285027.33446
      -187.601  
  23662772.774   124348713.30646      3212.559    23662773.254    96895114.08244
      2503.293  
  20467222.997   107555983.35649       230.879    20467221.259    83809854.60547
       179.906  
  23053264.719   122886863.23905      1870.570    23053269.679    95578707.54704
      1454.883  
  22900422.060   122630709.48606     -3819.515    22900424.831    95379459.97507
     -2970.733  
  23395177.376   124885037.37405      4232.836           0.000           0.0000 
         0.000  
  20652355.911   110204930.12107      2731.573           0.000           0.0000 
         0.000  
  19470467.136   104080808.55309     -1459.074    19470471.079    80951757.35408
     -1134.835  
  20464608.394   109433463.18306     -3074.554    20464614.807    85114933.68608
     -2391.319  
  19899117.999   106484200.04408      1615.918    19899121.763    82821063.03308
      1256.823  
 20 10 02 05 01 35.0000000  0 14G15G18G29G 5G30G20G13R14R 4R22R 6R 5
                                R20R21
  20760213.347   109095661.34949      2236.597    20760213.417    85009607.76249
      1742.805  
  21296972.902   111916348.16048      2238.050    21296973.296    87207548.17747
      1743.929  
  22412955.648   117780877.97948     -2859.109    22412956.261    91777305.45449
     -2227.887  
  21791343.874   114514282.02749     -2587.964    21791342.834    89231906.94749
     -2016.602  
  23758225.926   124850307.03647      -244.535    23758227.431    97285972.69746
      -190.550  
  23659716.736   124332654.87246      3211.495    23659717.368    96882601.02045
      2502.465  
  20467005.077   107554838.39949       226.913    20467003.446    83808962.44847
       176.816  
  23051511.956   122877520.02906      1866.737    23051516.865    95571440.64104
      1451.906  
  22903988.906   122649809.63106     -3820.636    22903991.767    95394315.63707
     -2971.608  
  23391213.948   124863879.79304      4231.437           0.000           0.0000 
         0.000  
  20649797.641   110191279.00907      2728.772           0.000           0.0000 
         0.000  
  19471833.296   104088111.21109     -1462.137    19471837.268    80957437.20208
     -1137.218  
  20467484.671   109448844.02106     -3078.219    20467491.163    85126896.56808
     -2394.171  
  19897609.921   106476130.76008      1611.413    19897613.670    82814786.93608
      1253.320  
 20 10 02 05 01 40.0000000  0 14G15G18G29G 5G30G20G13R14R 4R22R 6R 5
                                R20R21
  20758086.636   109084485.68749      2233.968    20758086.914    85000899.46349
      1740.754  
  21294844.283   111905162.91048      2236.375    21294844.724    87198832.40547
      1742.625  
  22415677.048   117795178.84748     -2861.121    22415677.580    91788448.98849
     -2229.449  
  21793806.803   114527225.43048     -2589.058    21793806.001    89241992.70549
     -2017.452  
  23758459.857   124851536.82447      -247.340    23758461.420    97286930.97046
      -192.734  
  23656661.619   124316600.00046      3211.280    23656661.897    96870090.72445
      2502.293  
  20466790.617   107553711.71249       223.816    20466789.103    83808084.49847
       174.397  
  23049762.612   122868195.85206      1863.141    23049767.796    95564188.54205
      1449.112  
  22907556.271   122668912.61406     -3820.815    22907559.153    95409173.48406
     -2971.754  
  23387251.635   124842728.85204      4229.194           0.000           0.0000 
         0.000  
  20647241.662   110177640.22207      2726.843           0.000           0.0000 
         0.000  
  19473202.108   104095428.79509     -1464.691    19473206.113    80963128.65608
     -1139.203  
  20470364.270   109464242.25006     -3080.714    20470370.638    85138872.95108
     -2396.117  
  19896105.970   106468082.97408      1607.883    19896109.888    82808527.53108
      1250.562  
 20 10 02 05 01 45.0000000  0 14G15G18G29G 5G30G20G13R14R 4R22R 6R 5
                                R20R21
  20755962.401   109073322.41449      2231.214    20755962.555    84992200.82049
      1738.609  
  21292717.566   111893986.40448      2234.261    21292717.901    87190123.45047
      1740.980  
  22418400.339   117809489.11748     -2862.937    22418400.876    91799599.83649
     -2230.863  
  21796270.689   114540173.67848     -2590.179    21796270.158    89252082.23549
     -2018.323  
  23758696.623   124852780.53447      -250.520    23758698.312    97287900.09646
      -195.210  
  23653606.334   124300545.96246      3210.515    23653607.055    96857581.09245
      2501.698  
  20466579.207   107552600.65549       220.617    20466577.653    83807218.74148
       171.909  
  23048016.667   122858888.23406      1859.734    23048021.768    95556949.30405
      1446.461  
  22911123.644   122688015.76607     -3820.711    22911126.491    95424031.48107
     -2971.668  
  23383290.032   124821581.70504      4229.069           0.000           0.0000 
         0.000  
  20644687.551   110164011.09207      2724.789           0.000           0.0000 
         0.000  
  19474573.330   104102758.48309     -1467.440    19474577.365    80968829.52208
     -1141.347  
  20473246.558   109479655.20006     -3084.461    20473252.924    85150860.80708
     -2399.022  
  19894605.728   106460054.06208      1603.680    19894609.447    82802282.81608
      1247.344  
 20 10 02 05 01 50.0000000  0 14G15G18G29G 5G30G20G13R14R 4R22R 6R 5
                                R20R21
  20753840.847   109062173.63749      2228.434    20753841.129    84983513.46449
      1736.441  
  21290592.739   111882820.74149      2232.058    21290592.939    87181422.92947
      1739.262  
  22421125.579   117823810.91348     -2865.359    22421126.319    91810759.66649
     -2232.750  
  21798735.906   114553128.94848     -2591.503    21798735.597    89262177.26449
     -2019.354  
  23758936.412   124854040.32247      -253.371    23758937.966    97288881.75346
      -197.438  
  23650551.824   124284495.00046      3209.663    23650552.481    96845073.90345
      2501.039  
  20466371.207   107551507.32649       217.219    20466369.629    83806366.79247
       169.262  
  23046274.236   122849599.31406      1856.050    23046279.234    95549724.55005
      1443.589  
  22914691.648   122707121.22906     -3821.155    22914694.363    95438891.32207
     -2972.011  
  23379329.520   124800440.53504      4228.191           0.000           0.0000 
         0.000  
  20642135.644   110150394.09807      2722.172           0.000           0.0000 
         0.000  
  19475947.193   104110102.41209     -1470.116    19475951.268    80974541.47308
     -1143.426  
  20476131.939   109495084.91106     -3087.749    20476138.333    85162861.68608
     -2401.585  
  19893109.266   106452046.15908      1599.695    19893113.041    82796054.45608
      1244.206  
 20 10 02 05 01 55.0000000  0 14G15G18G29G 5G30G20G13R14R 4R22R 6R 5
                                R20R21
  20751721.963   109051038.57249      2225.570    20751722.124    84974836.80549
      1734.211  
  21288470.039   111871665.09849      2230.020    21288470.149    87172730.24147
      1737.676  
  22423853.123   117838143.40948     -2867.648    22423853.716    91821927.83749
     -2234.534  
  21801202.459   114566090.39648     -2593.172    21801202.242    89272277.07449
     -2020.656  
  23759179.035   124855315.28447      -256.605    23759180.800    97289875.20946
      -199.957  
  23647497.964   124268446.23147      3208.949    23647498.677    96832568.33745
      2500.476  
  20466166.256   107550430.89549       213.429    20466165.029    83805528.01947
       166.305  
  23044535.152   122840328.32806      1851.745    23044540.225    95542513.82106
      1440.250  
  22918259.785   122726228.16306     -3821.940    22918262.544    95453752.23207
     -2972.628  
  23375369.909   124779304.77104      4227.171           0.000           0.0000 
         0.000  
  20639585.817   110136788.13607      2719.922           0.000           0.0000 
         0.000  
  19477323.478   104117459.81609     -1473.086    19477327.533    80980263.90008
     -1145.734  
  20479020.447   109510530.65606     -3090.863    20479026.861    85174875.03508
     -2404.008  
  19891616.541   106444058.44308      1595.359    19891620.285    82789841.78408
      1240.832  
 20 10 02 05 02  0.0000000  0 14G15G18G29G 5G30G20G13R14R 4R22R 6R 5
                                R20R21
  20749605.937   109039918.21949      2222.706    20749606.058    84966171.59049
      1731.977  
  21286349.249   111860520.54849      2228.003    21286349.372    87164046.17347
      1736.105  
  22426582.728   117852487.61448     -2869.793    22426583.557    91833105.14249
     -2236.207  
  21803670.146   114579058.96249     -2594.331    21803670.060    89282382.47049
     -2021.554  
  23759424.647   124856606.51647      -259.862    23759426.541    97290881.38747
      -202.492  
  23644444.507   124252400.64347      3208.781    23644445.259    96820065.31844
      2500.352  
  20465964.916   107549372.43849       210.120    20465963.563    83804703.23947
       163.727  
  23042799.576   122831076.23006      1848.738    23042804.873    95535317.74806
      1437.905  
  22921828.356   122745337.60307     -3822.320    22921831.208    95468615.18607
     -2972.905  
  23371411.763   124758175.44804      4225.395           0.000           0.0000 
         0.000  
  20637038.226   110123194.39307      2717.366           0.000           0.0000 
         0.000  
  19478702.569   104124831.72409     -1475.667    19478706.654    80985997.60808
     -1147.742  
  20481912.061   109525993.41406     -3093.882    20481918.240    85186901.61808
     -2406.354  
  19890127.904   106436092.04208      1591.121    19890131.587    82783645.69508
      1237.534  
 20 10 02 05 02  5.0000000  0 14G15G18G29G 5G30G20G13R14R 4R22R 6R 5
                                R20R21
  20747492.388   109028811.38549      2220.043    20747492.405    84957516.90749
      1729.897  
  21284230.405   111849385.88449      2226.074    21284230.287    87155369.80847
      1734.598  
  22429314.461   117866842.31248     -2871.910    22429315.101    91844290.61049
     -2237.854  
  21806139.196   114592033.53248     -2595.339    21806139.105    89292492.51749
     -2022.348  
  23759673.012   124857912.83847      -262.992    23759675.206    97291899.31546
      -204.929  
  23641391.615   124236357.15047      3208.394    23641392.172    96807563.87645
      2500.047  
  20465766.599   107548330.71249       206.539    20465765.254    83803891.50847
       160.941  
  23041067.145   122821841.80705      1844.843    23041072.900    95528135.40806
      1434.874  
  22925397.320   122764448.30807     -3822.187    22925400.093    95483479.05707
     -2972.812  
  23367454.403   124737050.94704      4225.543           0.000           0.0000 
         0.000  
  20634492.702   110109611.55107      2715.479           0.000           0.0000 
         0.000  
  19480084.103   104132216.84609     -1478.460    19480088.161    80991741.58408
     -1149.918  
  20484806.595   109541471.94506     -3097.354    20484812.708    85198940.48407
     -2409.054  
  19888642.897   106428145.68809      1587.151    19888646.719    82777465.20008
      1234.452  
 20 10 02 05 02 10.0000000  0 14G15G18G29G 5G30G20G13R14R 4R22R 6R 5
                                R20R21
  20745381.490   109017718.35149      2217.098    20745381.447    84948872.98249
      1727.604  
  21282113.635   111838261.34349      2223.926    21282113.403    87146701.33847
      1732.929  
  22432048.113   117881207.71948     -2874.422    22432048.884    91855484.42949
     -2239.813  
  21808609.354   114605014.32948     -2596.754    21808609.368    89302607.42749
     -2023.445  
  23759924.473   124859234.39747      -265.651    23759926.754    97292929.07946
      -207.003  
  23638339.023   124220315.95147      3207.906    23638339.834    96795064.24945
      2499.663  
  20465571.534   107547305.92349       203.285    20465570.122    83803092.97748
       158.402  
  23039338.278   122812625.41005      1841.288    23039344.263    95520967.08506
      1432.109  
  22928966.470   122783560.53706     -3822.581    22928969.216    95498344.11207
     -2973.125  
  23363498.044   124715931.94904      4223.547           0.000           0.0000 
         0.000  
  20631949.289   110096039.84707      2713.375           0.000           0.0000 
         0.000  
  19481468.218   104139615.42109     -1481.007    19481472.310    80997496.03808
     -1151.898  
  20487704.309   109556966.57806     -3100.577    20487710.163    85210991.86708
     -2411.565  
  19887161.776   106420219.62808      1583.093    19887165.401    82771300.47808
      1231.292  
 20 10 02 05 02 15.0000000  0 14G15G18G29G 5G30G20G13R14R 4R22R 6R 5
                                R20R21
  20743273.425   109006640.02249      2214.527    20743273.404    84940240.52449
      1725.605  
  21279998.729   111827147.90648      2222.066    21279998.491    87138041.52947
      1731.480  
  22434784.051   117895584.79148     -2876.202    22434784.855    91866687.33649
     -2241.198  
  21811080.849   114618002.44048     -2598.051    21811081.059    89312728.02249
     -2024.461  
  23760178.972   124860572.23847      -268.883    23760181.282    97293971.58146
      -209.515  
  23635287.147   124204277.95547      3207.851    23635287.750    96782567.13345
      2499.625  
  20465380.075   107546299.10949       199.847    20465378.654    83802308.44347
       155.723  
  23037612.750   122803427.96705      1837.859    23037618.978    95513813.53306
      1429.445  
  22932536.158   122802675.23907     -3822.859    22932538.792    95513211.11307
     -2973.335  
  23359543.019   124694819.28705      4221.776           0.000           0.0000 
         0.000  
  20629408.315   110082480.19106      2710.895           0.000           0.0000 
         0.000  
  19482854.969   104147028.43408     -1483.758    19482858.825    81003261.70908
     -1154.039  
  20490605.227   109572478.15106     -3104.007    20490610.979    85223056.41807
     -2414.230  
  19885684.555   106412314.78109      1579.176    19885688.164    82765152.27608
      1228.245  
 20 10 02 05 02 20.0000000  0 14G15G18G29G 5G30G20G13R14R 4R22R 6R 5
                                R20R21
  20741167.826   108995575.39749      2211.566    20741167.824    84931618.74449
      1723.297  
  21277885.896   111816044.57848      2219.667    21277885.549    87129389.57447
      1729.609  
  22437522.041   117909972.52548     -2878.547    22437522.719    91877898.55549
     -2243.027  
  21813553.454   114630996.59748     -2599.382    21813553.756    89322853.33749
     -2025.495  
  23760436.399   124861925.33747      -272.128    23760438.715    97295025.94447
      -212.050  
  23632235.849   124188242.18347      3206.909    23632236.156    96770071.73844
      2498.891  
  20465191.664   107545309.22049       196.378    20465190.382    83801537.09847
       153.019  
  23035890.848   122794248.41805      1834.461    23035896.920    95506673.89006
      1426.800  
  22936105.939   122821791.34806     -3823.151    22936108.651    95528079.20107
     -2973.566  
  23355588.925   124673712.00204      4221.229           0.000           0.0000 
         0.000  
  20626869.121   110068931.90806      2708.565           0.000           0.0000 
         0.000  
  19484244.122   104154454.78308     -1486.487    19484248.026    81009037.76108
     -1156.137  
  20493508.858   109588005.57406     -3107.007    20493514.718    85235133.28207
     -2416.566  
  19884211.254   106404430.25809      1574.944    19884214.536    82759019.87508
      1224.956  
 20 10 02 05 02 25.0000000  0 14G15G18G29G 5G30G20G13R14R 4R22R 6R 5
                                R20R21
  20739064.669   108984523.95049      2208.773    20739064.920    84923007.23449
      1721.120  
  21275774.745   111804950.78249      2217.581    21275774.548    87120745.06447
      1727.983  
  22440261.891   117924370.28448     -2880.602    22440262.498    91889117.58849
     -2244.624  
  21816027.240   114643996.27348     -2600.684    21816027.435    89332982.95049
     -2026.512  
  23760696.654   124863293.04747      -275.105    23760699.078    97296091.71046
      -214.367  
  23629184.763   124172208.08547      3206.819    23629184.894    96757577.64545
      2498.819  
  20465006.277   107544335.72449       192.894    20465005.071    83800778.53148
       150.305  
  23034172.043   122785086.31205      1830.386    23034178.225    95499547.81906
      1423.628  
  22939675.873   122840908.34006     -3823.617    22939678.473    95542947.94407
     -2973.933  
  23351635.576   124652609.41104      4219.691           0.000           0.0000 
         0.000  
  20624332.248   110055394.17007      2706.227           0.000           0.0000 
         0.000  
  19485635.898   104161894.05709     -1489.253    19485639.612    81014823.85908
     -1158.312  
  20496415.484   109603548.45506     -3110.504    20496421.325    85247222.19907
     -2419.280  
  19882741.513   106396565.43608      1570.858    19882744.813    82752902.78908
      1221.719  
 20 10 02 05 02 30.0000000  0 14G15G18G29G 5G30G20G13R14R 4R22R 6R 5
                                R20R21
  20736964.340   108973486.36949      2205.979    20736964.448    84914406.52649
      1718.944  
  21273665.697   111793867.22348      2215.547    21273665.269    87112108.54447
      1726.397  
  22443003.631   117938778.85548     -2882.926    22443004.506    91900345.02749
     -2246.441  
  21818502.152   114657002.20948     -2601.960    21818502.512    89343117.44549
     -2027.508  
  23760959.772   124864676.18447      -278.281    23760962.449    97297169.48346
      -216.844  
  23626133.990   124156176.35147      3205.695    23626134.191    96745085.36745
      2497.941  
  20464824.329   107543379.26849       189.430    20464823.218    83800033.24748
       147.609  
  23032456.652   122775942.31505      1826.926    23032462.877    95492435.81006
      1420.937  
  22943246.007   122860026.90206     -3824.242    22943248.825    95557817.95807
     -2974.409  
  23347683.115   124631512.46704      4219.483           0.000           0.0000 
         0.000  
  20621797.261   110041867.61807      2704.206           0.000           0.0000 
         0.000  
  19487029.954   104169346.68309     -1492.042    19487033.863    81020620.34908
     -1160.477  
  20499325.104   109619107.31306     -3113.473    20499330.774    85259323.53008
     -2421.593  
  19881275.680   106388721.06308      1566.742    19881278.946    82746801.59508
      1218.574  
 20 10 02 05 02 35.0000000  0 14G15G18G29G 5G30G20G13R14R 4R22R 6R 5
                                R20R21
  20734866.292   108962461.17849      2203.339    20734866.415    84905815.46649
      1716.882  
  21271558.165   111782792.44249      2213.785    21271557.719    87103478.85447
      1725.026  
  22445747.352   117953196.64148     -2884.797    22445747.968    91911579.63949
     -2247.898  
  21820977.837   114670012.92748     -2603.066    21820978.365    89353255.64849
     -2028.367  
  23761225.578   124866073.18847      -281.042    23761228.446    97298258.07346
      -218.996  
  23623083.497   124140145.49947      3205.757    23623083.458    96732593.81344
      2497.987  
  20464645.224   107542438.41049       186.172    20464644.323    83799300.10948
       145.069  
  23030744.215   122766814.99705      1823.312    23030750.714    95485336.75606
      1418.129  
  22946816.271   122879145.50707     -3823.926    22946819.171    95572687.98007
     -2974.167  
  23343731.529   124610419.60404      4218.175           0.000           0.0000 
         0.000  
  20619264.346   110028351.02907      2702.167           0.000           0.0000 
         0.000  
  19488426.405   104176811.41909     -1494.593    19488430.351    81026426.26408
     -1162.460  
  20502237.364   109634680.72706     -3116.093    20502243.112    85271436.19107
     -2423.628  
  19879813.191   106380895.58308      1562.934    19879816.706    82740715.12308
      1215.559  
 20 10 02 05 02 40.0000000  0 14G15G18G29G 5G30G20G13R14R 4R22R 6R 5
                                R20R21
  20732771.473   108951453.54549      2200.190    20732771.819    84897238.09849
      1714.433  
  21269453.314   111771731.62648      2211.159    21269453.133    87094860.02347
      1722.976  
  22448493.747   117967628.79648     -2887.309    22448494.371    91922825.48249
     -2249.854  
  21823455.648   114683033.56948     -2604.722    21823456.150    89363401.61049
     -2029.652  
  23761495.052   124867489.25447      -284.504    23761497.813    97299361.49346
      -221.690  
  23620034.099   124124120.71147      3205.258    23620034.034    96720106.96345
      2497.597  
  20464470.092   107541518.27149       182.487    20464469.335    83798583.12348
       142.195  
  23029036.200   122757709.50405      1819.379    23029042.668    95478254.71006
      1415.066  
  22950387.632   122898269.32107     -3824.940    22950390.717    95587562.06207
     -2974.956  
  23339781.990   124589336.07104      4216.671           0.000           0.0000 
         0.000  
  20616734.060   110014849.34407      2699.308           0.000           0.0000 
         0.000  
  19489826.022   104184293.29809     -1497.461    19489830.007    81032245.50408
     -1164.690  
  20505153.323   109650273.92006     -3120.023    20505159.050    85283564.22807
     -2426.688  
  19878355.381   106373094.29508      1558.301    19878358.777    82734647.46608
      1212.019  
 20 10 02 05 02 45.0000000  0 15G15G 2G18G29G 5G30G20G13R14R 4R22R 6
                                R 5R20R21
  20730679.552   108940460.39849      2197.125    20730679.932    84888672.01549
      1712.047  
  24553852.991   129031364.45014     -3338.535           0.000           0.0000 
         0.000  
  21267350.574   111760681.65348      2208.921    21267350.261    87086249.67347
      1721.237  
  22451242.402   117982072.25948     -2889.980    22451243.007    91934080.12649
     -2251.938  
  21825934.823   114696061.06648     -2606.332    21825935.186    89373552.91049
     -2030.905  
  23761767.621   124868921.26847      -288.102    23761770.348    97300477.38446
      -224.491  
  23616985.182   124108098.88747      3204.016    23616985.175    96707622.45943
      2496.636  
  20464298.239   107540615.77349       178.660    20464297.526    83797879.87748
       139.211  
  23027331.577   122748622.74805      1815.270    23027338.221    95471187.24106
      1411.874  
  22953959.337   122917395.26807     -3825.347    22953962.194    95602437.79307
     -2975.272  
  23335833.224   124568258.41304      4215.336           0.000           0.0000 
         0.000  
  20614206.027   110001359.59007      2696.680           0.000           0.0000 
         0.000  
  19491228.277   104191789.28009     -1500.690    19491232.344    81038075.70508
     -1167.207  
  20508072.499   109665883.63006     -3123.066    20508078.121    85295705.11107
     -2429.050  
  19876901.494   106365314.06909      1553.961    19876904.899    82728596.17108
      1208.633  
 20 10 02 05 02 50.0000000  0 15G15G 2G18G29G 5G30G20G13R14R 4R22R 6
                                R 5R20R21
  20728590.299   108929481.29849      2194.754    20728590.495    84880116.86949
      1710.194  
  24557030.470   129048062.46844     -3339.479    24557027.623   100556915.48252
     -2602.190  
  21265249.925   111749642.19649      2207.226    21265249.588    87077647.48747
      1719.913  
  22453992.959   117996526.56548     -2891.402    22453993.571    91945343.22349
     -2253.043  
  21828414.952   114709094.98248     -2606.952    21828415.632    89383709.20149
     -2031.394  
  23762043.007   124870368.84047      -290.808    23762045.776    97301605.37346
      -226.605  
  23613936.869   124092079.67446      3204.063    23613936.746    96695139.96645
      2496.671  
  20464129.816   107539730.48849       175.660    20464129.330    83797190.04748
       136.875  
  23025630.335   122739554.48305      1811.792    23025637.137    95464134.12206
      1409.164  
  22957531.252   122936522.99207     -3825.305    22957534.166    95617314.89907
     -2975.241  
  23331885.540   124547186.78605      4214.104           0.000           0.0000 
         0.000  
  20611680.198   109987881.34407      2694.762           0.000           0.0000 
         0.000  
  19492632.980   104199298.94309     -1502.863    19492637.332    81043916.55708
     -1168.895  
  20510994.737   109681509.64806     -3126.559    20511000.138    85307858.68108
     -2431.769  
  19875451.339   106357554.55509      1550.280    19875454.646    82722560.99408
      1205.770  
 20 10 02 05 02 55.0000000  0 15G15G 2G18G29G 5G30G20G13R14R 4R22R 6
                                R 5R20R21
  20726503.353   108918514.60149      2191.906    20726503.755    84871571.39549
      1707.979  
  24560209.573   129064762.54645     -3340.613    24560204.219   100569928.61143
     -2603.077  
  21263150.795   111738611.44548      2205.211    21263150.653    87069052.10647
      1718.348  
  22456745.381   118010990.01848     -2893.676    22456745.873    91956613.44249
     -2254.813  
  21830896.212   114722133.59348     -2608.332    21830896.745    89393869.16449
     -2032.469  
  23762321.225   124871830.22947      -293.820    23762323.785    97302744.11346
      -228.953  
  23610888.814   124076061.32147      3203.370    23610888.707    96682658.16244
      2496.137  
  20463964.242   107538860.70049       172.249    20463963.807    83796512.28948
       134.218  
  23023932.165   122730502.66105      1808.671    23023938.857    95457093.84307
      1406.746  
  22961103.339   122955650.63507     -3825.684    22961106.148    95632191.98407
     -2975.527  
  23327939.060   124526119.17604      4212.383           0.000           0.0000 
         0.000  
  20609156.124   109974412.80707      2692.690           0.000           0.0000 
         0.000  
  19494040.084   104206820.40609     -1505.620    19494044.446    81049766.58808
     -1171.042  
  20513919.650   109697150.03706     -3130.207    20513925.123    85320023.41308
     -2434.608  
  19874004.728   106349813.94808      1546.027    19874008.240    82716540.52108
      1202.460  
 20 10 02 05 03  0.0000000  0 14G15G18G29G 5G30G20G13R14R 4R22R 6R 5
                                R20R21
  20724419.484   108907563.30049      2188.957    20724419.717    84863037.91849
      1705.676  
  21261053.945   111727592.48649      2202.780    21261053.568    87060465.89647
      1716.449  
  22459499.924   118025465.64748     -2896.022    22459500.628    91967893.14049
     -2256.644  
  21833378.801   114735179.90548     -2609.820    21833379.328    89404035.11649
     -2033.628  
  23762602.469   124873308.45846      -297.366    23762604.830    97303895.98047
      -231.715  
  23607841.339   124060046.79347      3202.589    23607841.250    96670179.33345
      2495.523  
  20463802.285   107538009.42249       168.796    20463801.669    83795848.95648
       131.526  
  23022237.667   122721470.53303      1804.465    23022244.408    95450068.88707
      1403.476  
  22964675.985   122974781.24207     -3826.004    22964678.839    95647071.33607
     -2975.785  
  23323993.543   124505058.54904      4211.964           0.000           0.0000 
         0.000  
  20606634.693   109960957.12807      2690.073           0.000           0.0000 
         0.000  
  19495449.810   104214356.85609     -1508.484    19495454.376    81055628.26208
     -1173.270  
  20516847.652   109712807.78106     -3133.180    20516853.140    85332201.65807
     -2436.922  
  19872562.359   106342095.29208      1541.922    19872565.894    82710537.12908
      1199.273  
 20 10 02 05 03  5.0000000  0 13G15G18G29G 5G30G20G13R 4R22R 6R 5R20
                                R21
  20722337.726   108896623.46149      2186.753    20722338.103    84854513.37049
      1703.964  
  21258958.635   111716581.37049      2201.413    21258958.191    87051885.79947
      1715.382  
  22462256.127   118039949.46448     -2897.765    22462256.826    91979179.24549
     -2257.999  
  21835862.177   114748229.97648     -2610.425    21835862.631    89414204.01449
     -2034.098  
  23762886.254   124874799.60347      -299.625    23762888.586    97305057.91346
      -233.476  
  23604794.002   124044032.26947      3202.698    23604793.603    96657700.47744
      2495.609  
  20463642.995   107537172.75349       165.770    20463642.702    83795197.01248
       129.172  
  22968248.244   122993910.86907     -3825.875    22968250.997    95661949.93407
     -2975.683  
  23320048.930   124484001.12604      4211.179           0.000           0.0000 
         0.000  
  20604114.774   109947510.22907      2688.245           0.000           0.0000 
         0.000  
  19496861.841   104221904.25409     -1510.667    19496866.190    81061498.46108
     -1174.969  
  20519778.340   109728479.01906     -3136.164    20519783.787    85344390.40208
     -2439.238  
  19871123.196   106334394.66209      1538.266    19871126.683    82704547.75408
      1196.430  
 20 10 02 05 03 10.0000000  0 13G15G18G29G 5G30G20G13R 4R22R 6R 5R20
                                R21
  20720258.791   108885698.24149      2183.539    20720259.155    84846000.20949
      1701.456  
  21256865.389   111705581.29049      2198.718    21256864.983    87043314.30747
      1713.288  
  22465014.386   118054444.59048     -2900.336    22465015.197    91990474.12749
     -2260.008  
  21838346.837   114761286.95548     -2612.254    21838347.162    89424378.28249
     -2035.526  
  23763173.107   124876306.80447      -303.266    23763175.448    97306232.34346
      -236.316  
  23601747.063   124028020.84447      3201.461    23601746.883    96645224.04445
      2494.641  
  20463487.131   107536353.80749       161.785    20463486.626    83794558.87448
       126.062  
  22971821.033   123013042.71407     -3826.742    22971823.858    95676830.24507
     -2976.359  
  23316105.378   124462950.05404      4209.128           0.000           0.0000 
         0.000  
  20601597.090   109934075.51107      2685.582           0.000           0.0000 
         0.000  
  19498276.253   104229465.71909     -1513.828    19498280.657    81067379.59408
     -1177.425  
  20522711.871   109744166.89606     -3139.042    20522717.610    85356592.08008
     -2441.480  
  19869688.200   106326715.27309      1533.620    19869691.605    82698574.89008
      1192.813  
 20 10 02 05 03 15.0000000  0 13G15G18G29G 5G30G20G13R 4R22R 6R 5R20
                                R21
  20718182.745   108874788.23149      2180.164    20718182.867    84837498.90649
      1698.828  
  21254774.257   111694592.81749      2196.152    21254773.777    87034751.85647
      1711.284  
  22467774.936   118068951.62548     -2902.620    22467775.746    92001778.30249
     -2261.784  
  21840833.037   114774351.45848     -2613.886    21840833.162    89434558.41049
     -2036.796  
  23763463.208   124877830.64047      -306.530    23763465.339    97307419.77646
      -238.851  
  23598701.066   124012013.08447      3201.027    23598700.444    96632750.48244
      2494.308  
  20463334.861   107535553.12549       158.016    20463334.216    83793934.96948
       123.128  
  22975394.379   123032177.25706     -3827.715    22975396.915    95691712.65007
     -2977.117  
  23312163.140   124441905.96004      4207.340           0.000           0.0000 
         0.000  
  20599081.826   109920653.36207      2682.938           0.000           0.0000 
         0.000  
  19499693.509   104237041.98709     -1516.913    19499697.976    81073272.24508
     -1179.823  
  20525648.977   109759872.11306     -3143.195    20525654.624    85368807.24208
     -2444.710  
  19868257.129   106319057.79309      1528.969    19868260.878    82692619.07808
      1189.199  
 20 10 02 05 03 20.0000000  0 14G15G 2G18G29G 5G30G20G13R 4R22R 6R 5
                                R20R21
  20716110.090   108863896.38549      2174.461    20716110.311    84829011.76049
      1694.386  
  24576109.080   129148324.83055     -3347.241    24576111.522   100635068.76453
     -2608.253  
  21252685.955   111683618.87349      2191.472    21252685.474    87026200.73247
      1707.637  
  22470538.408   118083473.42748     -2907.929    22470538.986    92013093.99549
     -2265.922  
  21843321.113   114787426.35548     -2617.824    21843321.120    89444746.62349
     -2039.867  
  23763757.140   124879374.04347      -312.582    23763759.123    97308622.39746
      -243.573  
  23595656.086   123996011.98247      3197.577    23595655.515    96620282.09744
      2491.617  
  20463186.371   107534773.71249       151.848    20463185.926    83793327.62447
       118.320  
  22978968.661   123051317.53207     -3830.598    22978971.088    95706599.51506
     -2979.358  
  23308222.829   124420871.81604      4204.336           0.000           0.0000 
         0.000  
  20596569.461   109907246.71307      2677.878           0.000           0.0000 
         0.000  
  19501114.137   104244635.87009     -1522.534    19501118.431    81079178.58608
     -1184.198  
  20528589.662   109775597.43406     -3149.136    20528595.474    85381038.04908
     -2449.331  
  19866830.950   106311425.08309      1522.039    19866834.554    82686682.52708
      1183.805  
 20 10 02 05 03 25.0000000  0 14G15G 2G18G29G 5G30G20G13R 4R22R 6R 5
                                R20R21
  20714042.014   108853028.35849      2173.437    20714042.349    84820543.17649
      1693.585  
  24579294.057   129165062.46744     -3346.305    24579298.628   100648111.02442
     -2607.526  
  21250601.652   111672665.15848      2190.848    21250601.132    87017665.38747
      1707.152  
  22473305.718   118098015.76948     -2908.339    22473306.407    92024425.68249
     -2266.242  
  21845812.224   114800517.32548     -2617.522    21845812.225    89454947.37549
     -2039.632  
  23764055.621   124880942.66547      -313.937    23764057.526    97309844.71546
      -244.624  
  23592613.704   123980023.18847      3198.866    23592612.848    96607823.29045
      2492.620  
  20463043.237   107534021.22449       149.953    20463042.740    83792741.26747
       116.844  
  22982545.251   123070469.32206     -3829.316    22982547.400    95721495.38606
     -2978.352  
  23304285.643   124399853.44305      4204.226           0.000           0.0000 
         0.000  
  20594061.156   109893861.66607      2677.117           0.000           0.0000 
         0.000  
  19502539.270   104252253.14809     -1523.526    19502543.429    81085103.13108
     -1184.968  
  20531535.234   109791348.79106     -3150.905    20531541.144    85393289.09008
     -2450.707  
  19865410.378   106303823.03509      1519.530    19865414.005    82680769.82408
      1181.858  
 20 10 02 05 03 30.0000000  0 14G15G 2G18G29G 5G30G20G13R 4R22R 6R 5
                                R20R21
  20711974.485   108842163.41649      2172.047    20711974.645    84812076.99449
      1692.504  
  24582477.377   129181793.02144     -3346.336    24582482.743   100661147.78845
     -2607.546  
  21248516.971   111661710.93048      2190.378    21248516.594    87009129.61447
      1706.784  
  22476073.039   118112557.82648     -2909.090    22476073.852    92035757.15949
     -2266.823  
  21848302.387   114813603.59848     -2617.211    21848302.342    89465144.48549
     -2039.386  
  23764355.020   124882515.83047      -315.500    23764356.986    97311070.54646
      -245.852  
  23589569.488   123964025.94247      3199.487    23589568.448    96595357.92144
      2493.113  
  20462901.083   107533274.91849       148.117    20462900.566    83792159.74647
       115.414  
  22986119.845   123089611.48206     -3827.999    22986121.877    95736383.70806
     -2977.340  
  23300347.364   124378829.76805      4204.660           0.000           0.0000 
         0.000  
  20591552.783   109880476.81807      2676.441           0.000           0.0000 
         0.000  
  19503964.607   104259872.73509     -1524.770    19503968.659    81091029.48408
     -1185.933  
  20534481.673   109807104.75806     -3152.031    20534487.548    85405543.71808
     -2451.581  
  19863991.485   106296230.40709      1516.948    19863995.373    82674864.44408
      1179.848  
 20 10 02 05 03 35.0000000  0 14G15G 2G18G29G 5G30G20G13R 4R22R 6R 5
                                R20R21
  20709909.043   108831309.41549      2169.362    20709909.367    84803619.33849
      1690.413  
  24585660.608   129198524.17244     -3346.617    24585665.666   100674185.17045
     -2607.746  
  21246433.992   111650764.02348      2188.304    21246433.531    87000599.56947
      1705.171  
  22478841.882   118127107.32048     -2910.973    22478842.495    92047094.41449
     -2268.292  
  21850793.339   114826693.04348     -2618.625    21850793.227    89475344.05549
     -2040.465  
  23764656.846   124884101.28347      -318.891    23764658.632    97312305.95346
      -248.488  
  23586525.420   123948028.10047      3199.265    23586524.324    96582892.08544
      2492.929  
  20462761.783   107532542.55149       144.734    20462761.317    83791589.07447
       112.781  
  22989694.111   123108751.95406     -3828.273    22989696.035    95751270.69906
     -2977.555  
  23296409.557   124357808.67405      4203.636           0.000           0.0000 
         0.000  
  20589046.103   109867100.07207      2674.397           0.000           0.0000 
         0.000  
  19505391.988   104267502.71409     -1527.343    19505395.848    81096963.91508
     -1187.938  
  20537430.524   109822873.65306     -3155.121    20537436.546    85417808.41208
     -2453.987  
  19862575.936   106288655.30009      1512.862    19862579.836    82668972.69608
      1176.672  
 20 10 02 05 03 40.0000000  0 14G15G 2G18G29G 5G30G20G13R 4R22R 6R 5
                                R20R21
  20707846.252   108820469.75249      2166.531    20707846.534    84795172.85049
      1688.207  
  24588845.151   129215259.39944     -3347.770    24588850.893   100687225.57844
     -2608.652  
  21244352.752   111639827.87548      2186.070    21244352.372    86992077.91347
      1703.430  
  22481612.592   118141667.71548     -2913.250    22481613.364    92058440.18949
     -2270.066  
  21853285.467   114839789.04548     -2619.983    21853285.113    89485548.72549
     -2041.551  
  23764961.414   124885702.48346      -322.022    23764963.552    97313553.64347
      -250.930  
  23583481.676   123932033.05347      3198.598    23583480.511    96570428.42945
      2492.414  
  20462625.741   107531827.60949       141.194    20462624.967    83791031.96447
       110.020  
  22993268.945   123127894.21506     -3828.870    22993270.609    95766159.14106
     -2978.012  
  23292472.739   124336793.79505      4202.633           0.000           0.0000 
         0.000  
  20586541.440   109853735.17707      2671.652           0.000           0.0000 
         0.000  
  19506822.012   104275146.29209     -1530.395    19506825.682    81102908.91108
     -1190.313  
  20540382.401   109838658.69506     -3158.105    20540388.335    85430085.65308
     -2456.309  
  19861164.301   106281101.07508      1508.637    19861168.352    82663097.18708
      1173.379  
 20 10 02 05 03 45.0000000  0 15G15G 2G18G29G 5G30G20G13R14R 4R22R 6
                                R 5R20R21
  20705786.692   108809646.56649      2163.766    20705787.066    84786739.20449
      1686.051  
  24592031.201   129232000.98545     -3348.456    24592036.529   100700270.94444
     -2609.190  
  21242274.147   111628904.60948      2184.187    21242273.934    86983566.27747
      1701.960  
  22484385.914   118156241.15248     -2915.245    22484386.671    92069796.10749
     -2271.625  
  21855779.134   114852893.79048     -2620.969    21855778.931    89495760.21049
     -2042.315  
  23765269.388   124887321.58646      -324.761    23765271.743    97314815.26246
      -253.065  
  23580438.733   123916042.97147      3198.266    23580437.672    96557968.60845
      2492.152  
  20462493.519   107531132.18749       137.929    20462492.820    83790490.09248
       107.476  
  23007143.849   122641022.04715      1771.770    23007152.003    95387496.31816
      1378.043  
  22996844.363   123147040.35406     -3828.897    22996845.706    95781050.60806
     -2978.031  
  23288537.673   124315787.23805      4201.113           0.000           0.0000 
         0.000  
  20584039.418   109840384.18907      2669.395           0.000           0.0000 
         0.000  
  19508254.804   104282805.79509     -1532.566    19508258.567    81108866.30708
     -1192.000  
  20543337.875   109854462.19406     -3162.077    20543343.695    85442377.25008
     -2459.398  
  19859756.943   106273570.08209      1504.602    19859760.902    82657239.75308
      1170.245  
 20 10 02 05 03 50.0000000  0 15G15G 2G18G29G 5G30G20G13R14R 4R22R 6
                                R 5R20R21
  20703729.400   108798835.95449      2160.355    20703729.814    84778315.35049
      1683.391  
  24595217.754   129248744.65645     -3349.077    24595222.651   100713317.95744
     -2609.672  
  21240197.271   111617990.33048      2181.433    21240196.902    86975061.64847
      1699.820  
  22487160.730   118170823.65948     -2917.922    22487161.646    92081159.07149
     -2273.715  
  21858273.917   114866003.24948     -2622.852    21858273.501    89505975.37149
     -2043.745  
  23765580.056   124888954.52946      -328.375    23765582.562    97316087.66945
      -255.875  
  23577396.176   123900053.88347      3196.749    23577395.130    96545509.59545
      2490.973  
  20462364.170   107530452.39049       133.933    20462363.383    83789960.38347
       104.358  
  23005484.034   122632173.73805      1767.882    23005492.150    95380614.26406
      1375.012  
  23000419.721   123166186.54206     -3829.559    23000421.066    95795942.07406
     -2978.550  
  23284603.105   124294784.87505      4199.621           0.000           0.0000 
         0.000  
  20581539.380   109827043.25807      2666.808           0.000           0.0000 
         0.000  
  19509690.016   104290477.26209     -1535.960    19509693.644    81114833.00708
     -1194.637  
  20546295.848   109870280.02005     -3165.065    20546301.651    85454680.01208
     -2461.719  
  19858353.175   106266058.32909      1500.038    19858357.231    82651397.26908
      1166.691  
 20 10 02 05 03 55.0000000  0 16G15G 2G18G29G 5G30G23G20G13R14R 4R22
                                R 6R 5R20R21
  20701675.155   108788040.57549      2157.925    20701675.446    84769903.37049
      1681.499  
  24598405.196   129265493.43145     -3350.285    24598410.478   100726368.95041
     -2610.616  
  21238122.483   111607087.65348      2179.703    21238122.382    86966566.05247
      1698.465  
  22489937.839   118185417.81148     -2919.559    22489938.829    92092531.14149
     -2274.983  
  21860770.033   114879120.02148     -2623.836    21860769.531    89516196.23049
     -2044.550  
  23765894.010   124890604.02947      -331.379    23765896.716    97317373.04446
      -258.214  
  23941277.455   125812265.65855      3203.230    23941278.113    98035540.64355
      2496.023  
  23574354.345   123884068.38947      3197.062    23574353.369    96533053.37145
      2491.215  
  20462238.217   107529790.78749       130.758    20462237.391    83789444.84347
       101.890  
  23003828.009   122623345.03705      1763.991    23003835.814    95373747.48307
      1371.988  
  23003995.629   123185335.27607     -3829.839    23003996.663    95810835.49706
     -2978.772  
  23280669.994   124273789.69005      4198.663           0.000           0.0000 
         0.000  
  20579041.604   109813714.74107      2664.401           0.000           0.0000 
         0.000  
  19511127.873   104298163.15009     -1538.332    19511131.154    81120810.91508
     -1196.484  
  20549256.868   109886114.80205     -3168.397    20549262.480    85466995.94608
     -2464.312  
  19856953.495   106258568.36009      1496.254    19856957.409    82645571.73708
      1163.754  
 20 10 02 05 04  0.0000000  0 16G15G 2G18G29G 5G30G23G20G13R14R 4R22
                                R 6R 5R20R21
  20699622.848   108777255.84449      2155.680    20699623.051    84761499.68849
      1679.749  
  24601592.682   129282242.41045     -3350.551    24601597.577   100739420.11743
     -2610.824  
  21236049.260   111596192.01248      2178.285    21236048.833    86958075.93548
      1697.363  
  22492716.452   118200019.11748     -2921.015    22492717.217    92103908.79849
     -2276.117  
  21863266.515   114892239.58748     -2624.339    21863266.057    89526419.27549
     -2044.940  
  23766210.046   124892265.55747      -333.351    23766212.753    97318667.72745
      -259.758  
  23938229.709   125796249.33145      3203.390    23938228.840    98023060.37945
      2496.144  
  23571312.264   123868082.01947      3197.352    23571311.304    96520596.49944
      2491.445  
  20462114.925   107529142.88249       128.015    20462114.107    83788939.98447
        99.749  
  23002174.635   122614531.18405      1761.215    23002182.374    95366892.30106
      1369.835  
  23007571.119   123204481.92307     -3829.116    23007572.080    95825727.35706
     -2978.203  
  23276737.365   124252796.80205      4198.246           0.000           0.0000 
         0.000  
  20576545.512   109800394.20707      2663.151           0.000           0.0000 
         0.000  
  19512567.409   104305858.95209     -1540.461    19512570.916    81126796.53108
     -1198.140  
  20552220.548   109901962.02506     -3171.077    20552226.094    85479321.55908
     -2466.398  
  19855556.992   106251095.54408      1492.628    19855560.968    82639759.56108
      1160.933  
 20 10 02 05 04  5.0000000  0 16G15G 2G18G29G 5G30G23G20G13R14R 4R22
                                R 6R 5R20R21
  20697573.597   108766486.58349      2152.050    20697573.812    84753108.05349
      1676.918  
  24604781.127   129298996.52046     -3351.737    24604786.032   100752475.24544
     -2611.741  
  21233978.113   111585308.34248      2175.304    21233978.009    86949595.16448
      1695.043  
  22495497.234   118214632.41048     -2924.086    22495497.947    92115295.76749
     -2278.512  
  21865764.517   114905366.83548     -2626.472    21865764.037    89536648.30349
     -2046.601  
  23766529.558   124893944.01247      -337.882    23766532.334    97319975.60946
      -263.288  
  23935182.961   125780237.06445      3201.839    23935181.938    98010583.32445
      2494.940  
  23568270.740   123852099.61047      3195.839    23568270.140    96508142.65845
      2490.261  
  20461995.223   107528513.46949       123.813    20461994.471    83788449.53248
        96.477  
  23000525.126   122605737.24905      1756.624    23000532.466    95360052.57406
      1366.265  
  23011147.254   123223631.53006     -3830.413    23011147.895    95840621.50006
     -2979.210  
  23272806.300   124231811.44305      4196.015           0.000           0.0000 
         0.000  
  20574051.635   109787086.53107      2659.835           0.000           0.0000 
         0.000  
  19514009.937   104313569.62009     -1543.867    19514013.300    81132793.73508
     -1200.785  
  20555187.152   109917826.50606     -3174.402    20555192.868    85491660.59108
     -2468.983  
  19854164.792   106243645.00908      1487.645    19854168.571    82633964.68708
      1157.035  
 20 10 02 05 04 10.0000000  0 16G15G 2G18G29G 5G30G23G20G13R14R 4R22
                                R 6R 5R20R21
  20695527.385   108755733.51249      2149.129    20695527.532    84744729.03549
      1674.641  
  24607970.734   129315756.54646     -3352.340    24607975.278   100765535.01843
     -2612.215  
  21231909.442   111574437.27549      2172.948    21231909.406    86941124.20447
      1693.206  
  22498280.480   118229258.31048     -2926.465    22498281.111    92126692.57949
     -2280.362  
  21868264.218   114918502.41348     -2628.046    21868263.483    89546883.80349
     -2047.832  
  23766852.120   124895639.93147      -341.011    23766855.155    97321297.09745
      -265.727  
  23932135.974   125764229.60045      3201.097    23932135.084    97998109.93543
      2494.355  
  23565230.139   123836121.86146      3194.831    23565229.879    96495692.45444
      2489.473  
  20461879.123   107527903.29549       120.156    20461878.490    83787974.07747
        93.629  
  22998879.301   122596963.89106      1752.879    22998886.343    95353228.88306
      1363.355  
  23014723.976   123242784.77406     -3831.155    23014724.535    95855518.45506
     -2979.793  
  23268876.661   124210834.04805      4194.453           0.000           0.0000 
         0.000  
  20571560.421   109773792.55607      2657.359           0.000           0.0000 
         0.000  
  19515455.268   104321295.80609     -1546.656    19515458.811    81138803.00108
     -1202.952  
  20558157.044   109933708.94906     -3178.090    20558162.973    85504013.60408
     -2471.851  
  19852776.673   106236217.43109      1483.323    19852780.484    82628187.68408
      1153.722  
 20 10 02 05 04 15.0000000  0 16G15G 2G18G29G 5G30G23G20G13R14R 4R22
                                R 6R 5R20R21
  20693483.669   108744993.68149      2146.851    20693483.674    84736360.33949
      1672.866  
  24611160.902   129332519.40146     -3352.973    24611165.040   100778596.93644
     -2612.711  
  21229842.495   111563575.89649      2171.641    21229842.498    86932660.77948
      1692.183  
  22501065.451   118243893.90148     -2927.730    22501066.025    92138096.92849
     -2281.351  
  21870764.899   114931643.33148     -2628.324    21870764.187    89557123.48649
     -2048.043  
  23767177.726   124897350.46747      -343.210    23767180.328    97322629.97044
      -267.440  
  23929089.764   125748223.94144      3201.472    23929090.494    97985638.03544
      2494.655  
  23562189.948   123820145.73847      3195.655    23562189.763    96483243.53344
      2490.120  
  20461766.049   107527309.36849       117.464    20461765.445    83787511.27048
        91.526  
  22997237.044   122588208.20606      1749.737    22997243.602    95346418.90306
      1360.906  
  23018300.987   123261938.50806     -3830.323    23018301.320    95870415.79406
     -2979.145  
  23264947.689   124189861.74105      4194.558    23264951.641    96592137.79013
      3262.437  
  20569071.247   109760509.13107      2656.097           0.000           0.0000 
         0.000  
  19516902.987   104329034.53909     -1548.745    19516906.538    81144822.01208
     -1204.586  
  20561129.998   109949606.51506     -3180.819    20561135.949    85516378.37208
     -2473.976  
  19851392.300   106228809.71509      1479.973    19851396.241    82622426.12008
      1151.027  
 20 10 02 05 04 20.0000000  0 15G15G 2G18G29G 5G30G20G13R14R 4R22R 6
                                R 5R20R21
  20691442.434   108734266.32549      2144.163    20691442.272    84728001.35649
      1670.772  
  24614351.518   129349284.35946     -3353.367    24614355.702   100791660.60242
     -2613.011  
  21227777.434   111552723.43049      2169.503    21227777.557    86924204.31947
      1690.522  
  22503852.298   118258538.41448     -2929.828    22503852.906    92149508.24049
     -2282.987  
  21873266.323   114944788.84248     -2629.604    21873265.648    89567366.73749
     -2049.046  
  23767505.832   124899074.80547      -346.293    23767508.371    97323973.62844
      -269.843  
  23559150.029   123804170.60647      3195.022    23559149.755    96470795.42445
      2489.636  
  20461655.855   107526730.92149       114.000    20461655.326    83787060.53847
        88.832  
  22995597.824   122579469.27306      1746.027    22995603.956    95339621.97306
      1358.020  
  23021877.992   123281092.04906     -3830.585    23021878.403    95885313.00206
     -2979.344  
  23261019.642   124168893.80705      4193.319    23261023.667    96575829.38403
      3261.469  
  20566583.778   109747235.61307      2653.464           0.000           0.0000 
         0.000  
  19518352.764   104336784.95909     -1551.281    19518356.473    81150850.11108
     -1206.554  
  20564105.623   109965518.05006     -3183.679    20564111.659    85528754.01008
     -2476.199  
  19850011.668   106221421.08509      1475.671    19850015.380    82616679.41108
      1147.745  
 20 10 02 05 04 25.0000000  0 15G15G 2G18G29G 5G30G20G13R14R 4R22R 6
                                R 5R20R21
  20689403.844   108723553.96249      2140.945    20689403.816    84719654.06749
      1668.269  
  24617542.797   129366053.98546     -3354.855    24617546.965   100804727.76044
     -2614.184  
  21225714.468   111541882.37548      2166.991    21225714.560    86915756.75347
      1688.566  
  22506641.228   118273194.27748     -2932.344    22506641.754    92160928.38649
     -2284.944  
  21875769.189   114957941.39748     -2631.250    21875768.584    89577615.46949
     -2050.327  
  23767837.193   124900815.49247      -349.977    23767839.560    97325330.01244
      -272.714  
  23556110.713   123788198.86347      3193.651    23556110.280    96458349.90944
      2488.559  
  20461549.273   107526170.42149       110.206    20461548.629    83786623.79148
        85.874  
  22993962.196   122570749.73405      1741.730    22993968.198    95332840.10005
      1354.676  
  23025455.151   123300247.88806     -3831.488    23025455.579    95900212.00006
     -2980.047  
  23257092.876   124147932.74404      4191.390    23257097.329    96559526.29903
      3259.961  
  20564098.668   109733974.43407      2650.940           0.000           0.0000 
         0.000  
  19519805.371   104344549.57209     -1554.480    19519809.081    81156889.26008
     -1209.038  
  20567084.237   109981446.37906     -3187.473    20567090.304    85541142.69808
     -2479.148  
  19848634.937   106214054.13309      1471.152    19848638.667    82610949.56508
      1144.230  
 20 10 02 05 04 30.0000000  0 15G15G 2G18G29G 5G30G20G13R14R 4R22R 6
                                R 5R20R21
  20687368.285   108712856.08749      2138.479    20687368.058    84711318.07149
      1666.348  
  24620735.083   129382827.68746     -3354.929    24620738.670   100817798.16544
     -2614.233  
  21223653.611   111531052.24749      2165.202    21223653.708    86907317.68847
      1687.168  
  22509432.058   118287860.96948     -2933.878    22509432.572    92172356.97949
     -2286.140  
  21878273.170   114971100.59548     -2632.254    21878272.733    89587869.38349
     -2051.108  
  23768171.324   124902571.95647      -352.652    23768173.436    97326698.67845
      -274.796  
  23553072.117   123772230.02447      3193.992    23553071.484    96445906.67345
      2488.823  
  20461445.922   107525627.40049       107.125    20461445.365    83786200.66048
        83.472  
  22992330.238   122562049.10205      1738.675    22992335.630    95326072.92105
      1352.301  
  23029032.703   123319405.51706     -3831.382    23029033.480    95915112.36206
     -2979.968  
  23253167.301   124126978.10305      4190.198    23253172.370    96543228.25103
      3259.043  
  20561615.805   109720725.21107      2649.050           0.000           0.0000 
         0.000  
  19521260.419   104352327.91509     -1556.613    19521264.301    81162939.08208
     -1210.702  
  20570065.820   109997390.90006     -3190.133    20570072.313    85553544.00208
     -2481.215  
  19847262.177   106206708.34608      1467.335    19847266.058    82605236.17008
      1141.258  
 20 10 02 05 04 35.0000000  0 15G15G 2G18G29G 5G30G20G13R14R 4R22R 6
                                R 5R20R21
  20685334.810   108702170.29249      2135.527    20685334.512    84702991.47749
      1664.046  
  24623927.740   129399603.02346     -3355.624    24623930.819   100830869.88643
     -2614.777  
  21221594.280   111520230.64349      2163.098    21221594.555    86898885.26947
      1685.526  
  22512224.825   118302536.12048     -2936.383    22512225.345    92183792.16649
     -2288.089  
  21880777.904   114984263.93648     -2633.414    21880777.598    89598126.51049
     -2052.015  
  23768508.119   124904341.79447      -355.737    23768510.034    97328077.77045
      -277.202  
  23550033.347   123756261.71047      3193.227    23550033.015    96433463.83744
      2488.226  
  20461345.444   107525099.41649       103.655    20461344.991    83785789.24048
        80.766  
  22990701.029   122553364.87905      1734.675    22990706.503    95319318.57305
      1349.195  
  23032610.103   123338562.42305     -3831.898    23032611.184    95930012.21606
     -2980.362  
  23249242.325   124106027.31805      4189.132    23249248.219    96526933.18703
      3258.210  
  20559134.581   109707485.23607      2646.895           0.000           0.0000 
         0.000  
  19522717.702   104360117.39909     -1559.640    19522721.440    81168997.56808
     -1213.059  
  20573050.105   110013348.99306     -3193.437    20573056.482    85565955.85408
     -2483.785  
  19845892.981   106199381.34208      1463.132    19845896.831    82599537.38508
      1137.988  
 20 10 02 05 04 40.0000000  0 15G15G 2G18G29G 5G30G20G13R14R 4R22R 6
                                R 5R20R21
  20683304.371   108691500.88949      2131.898    20683304.132    84694677.66149
      1661.218  
  24627121.339   129416384.40746     -3357.230    24627124.315   100843946.28043
     -2616.026  
  21219537.419   111509421.85848      2160.233    21219537.587    86890462.83247
      1683.296  
  22515019.703   118317223.95948     -2939.090    22515020.345    92195237.22649
     -2290.203  
  21883284.420   114997435.70048     -2635.359    21883284.087    89608390.23049
     -2053.531  
  23768848.295   124906129.27647      -359.270    23768850.050    97329470.61045
      -279.952  
  23546995.605   123740298.20846      3191.820    23546995.368    96421024.74345
      2487.133  
  20461248.588   107524590.77949        99.496    20461248.064    83785392.90148
        77.527  
  22989075.861   122544701.47305      1730.375    22989081.240    95312580.37005
      1345.847  
  23036188.193   123357723.02605     -3833.171    23036189.347    95944914.89106
     -2981.359  
  23245318.836   124085084.90004      4188.012    23245325.197    96510644.65003
      3257.344  
  20556656.044   109694259.03907      2643.758           0.000           0.0000 
         0.000  
  19524177.813   104367922.49409     -1562.827    19524181.701    81175068.19308
     -1215.534  
  20576037.927   110029325.25306     -3197.382    20576044.161    85578381.83708
     -2486.851  
  19844528.085   106192077.44509      1458.094    19844531.896    82593856.58608
      1134.073  
 20 10 02 05 04 45.0000000  0 15G15G 2G18G29G 5G30G20G13R14R 4R22R 6
                                R 5R20R21
  20681277.554   108680849.30149      2128.863    20681277.188    84686377.72649
      1658.854  
  24630316.381   129433173.05746     -3358.382    24630318.603   100857028.29643
     -2616.929  
  21217483.357   111498627.37449      2157.808    21217483.445    86882051.55747
      1681.409  
  22517817.452   118331925.97948     -2941.261    22517817.994    92206693.34949
     -2291.891  
  21885792.871   115010617.35948     -2636.863    21885792.290    89618661.65049
     -2054.702  
  23769191.907   124907935.96947      -362.793    23769193.865    97330878.41345
      -282.699  
  23543958.785   123724340.98746      3191.249    23543958.933    96408590.58044
      2486.687  
  20461155.754   107524102.93649        95.738    20461155.246    83785012.76348
        74.598  
  22987454.885   122536060.47805      1725.702    22987459.958    95305859.57705
      1342.210  
  23039767.022   123376888.77605     -3834.046    23039768.729    95959821.60706
     -2982.034  
  23241397.344   124064152.36804      4185.241    23241404.115    96494363.79303
      3255.183  
  20554180.291   109681048.35207      2640.952           0.000           0.0000 
         0.000  
  19525641.107   104375744.80009     -1565.679    19525645.069    81181152.20308
     -1217.753  
  20579029.066   110045320.97006     -3200.460    20579035.402    85590822.94408
     -2489.249  
  19843167.816   106184798.12408      1453.780    19843171.489    82588194.88408
      1130.718  
 20 10 02 05 04 50.0000000  0 15G15G 2G18G29G 5G30G20G13R14R 4R22R 6
                                R 5R20R21
  20679253.372   108670212.93249      2125.964    20679253.188    84678089.65949
      1656.598  
  24633512.209   129449966.56446     -3358.957    24633514.462   100870114.21041
     -2617.351  
  21215431.418   111487844.58148      2155.503    21215431.508    86873649.37247
      1679.609  
  22520617.488   118346639.55148     -2943.707    22520617.873    92218158.44849
     -2293.800  
  21888302.668   115023806.33648     -2638.480    21888301.937    89628938.76749
     -2055.961  
  23769538.960   124909759.18147      -366.362    23769540.841    97332299.09745
      -285.480  
  23540922.970   123708387.48047      3190.512    23540923.224    96396159.29944
      2486.116  
  20461066.551   107523633.26449        92.194    20461065.826    83784646.79348
        71.839  
  22985837.597   122527439.14205      1722.038    22985842.403    95299154.04704
      1339.355  
  23043346.511   123396056.93104     -3833.784    23043348.468    95974730.12706
     -2981.840  
  23237476.938   124043226.87804      4185.108    23237484.444    96478088.39103
      3255.082  
  20551706.994   109667850.18207      2638.566           0.000           0.0000 
         0.000  
  19527107.175   104383581.42709     -1568.625    19527111.037    81187247.36708
     -1220.043  
  20582023.712   110061333.56106     -3203.969    20582030.074    85603277.16708
     -2491.980  
  19841811.474   106177540.78108      1449.508    19841815.372    82582550.29108
      1127.395  
 20 10 02 05 04 55.0000000  0 15G15G 2G18G29G 5G30G20G13R14R 4R22R 6
                                R 5R20R21
  20677231.494   108659587.01849      2124.054    20677231.159    84669809.72649
      1655.108  
  24636708.209   129466760.02946     -3358.815    24636709.143   100883199.92341
     -2617.269  
  21213380.800   111477068.66749      2154.402    21213380.837    86865252.56147
      1678.753  
  22523418.642   118361359.80848     -2944.874    22523418.983    92229628.74349
     -2294.715  
  21890812.854   115036997.76548     -2638.668    21890812.091    89639217.80349
     -2056.113  
  23769888.186   124911594.06648      -368.351    23769889.895    97333728.88446
      -287.026  
  23537886.713   123692432.81446      3190.859    23537887.182    96383727.08845
      2486.382  
  20460979.578   107523176.96749        89.839    20460979.087    83784291.23448
        70.000  
  22984222.963   122518832.51505      1719.602    22984227.197    95292459.97904
      1337.460  
  23046925.512   123415222.75704     -3833.085    23046927.366    95989636.89006
     -2981.288  
  23233556.856   124022303.87403      4182.879    23233564.799    96461814.96803
      3253.351  
  20549235.051   109654659.70107      2637.277           0.000           0.0000 
         0.000  
  19528574.917   104391427.56609     -1570.163    19528578.693    81193349.92508
     -1221.238  
  20585020.487   110077358.03906     -3205.999    20585026.583    85615740.65408
     -2493.558  
  19840458.537   106170300.47309      1446.218    19840462.169    82576918.94808
      1124.816  
 20 10 02 05 05  0.0000000  0 14G15G 2G18G29G 5G30G20G13R14R22R 6R 5
                                R20R21
  20675212.298   108648976.72749      2120.977    20675212.021    84661541.97649
      1652.710  
  24639904.928   129483558.58946     -3359.729    24639905.121   100896289.76543
     -2617.964  
  21211332.484   111466304.82348      2151.902    21211332.636    86856865.14747
      1676.804  
  22526222.088   118376091.92248     -2947.140    22526222.452    92241108.32349
     -2296.477  
  21893324.530   115050196.83948     -2640.230    21893323.803    89649502.81149
     -2057.323  
  23770240.438   124913445.85047      -371.737    23770242.380    97335171.84645
      -289.667  
  23534851.442   123676482.16946      3190.104    23534851.935    96371298.03844
      2485.797  
  20460896.464   107522739.23349        86.058    20460895.738    83783950.15547
        67.059  
  22982612.113   122510245.93506      1715.569    22982616.417    95285781.50605
      1334.324  
  23229638.609   124001388.44404      4182.727    23229647.007    96445547.39803
      3253.227  
  20546765.679   109641482.37507      2634.632           0.000           0.0000 
         0.000  
  19530045.438   104399288.40809     -1573.198    19530049.230    81199463.89808
     -1223.601  
  20588020.260   110093399.82806     -3209.362    20588026.461    85628217.59108
     -2496.175  
  19839109.686   106163082.53008      1441.957    19839113.219    82571304.99408
      1121.522  
 20 10 02 05 05  5.0000000  0 14G15G 2G18G29G 5G30G20G13R14R22R 6R 5
                                R20R21
  20673194.975   108638375.65349      2118.801    20673194.850    84653281.40149
      1651.012  
  24643101.400   129500355.87945     -3359.570    24643101.050   100909381.49754
     -2617.847  
  21209285.260   111455546.65048      2150.608    21209285.441    86848482.16247
      1675.801  
  22529026.684   118390829.48248     -2948.555    22529026.826    92252592.13949
     -2297.577  
  21895836.609   115063397.12148     -2640.854    21895835.761    89659788.73449
     -2057.812  
  23770595.010   124915308.13848      -373.793    23770596.803    97336622.95945
      -291.270  
  23531815.628   123660529.20147      3190.593    23531816.049    96358867.15844
      2486.171  
  20460815.416   107522313.66749        83.375    20460814.581    83783618.54747
        64.969  
  22981004.014   122501672.99005      1712.398    22981008.168    95279113.68705
      1331.867  
  23225720.625   123980474.13304      4182.254    23225729.000    96429280.68303
      3252.855  
  20544297.499   109628311.44507      2633.222           0.000           0.0000 
         0.000  
  19531517.471   104407157.55109     -1574.968    19531521.436    81205584.34208
     -1224.979  
  20591022.253   110109452.20906     -3212.288    20591028.259    85640702.76307
     -2498.449  
  19837763.808   106155880.43309      1438.433    19837767.409    82565703.35808
      1118.777  
 20 10 02 05 05 10.0000000  0 15G15G 2G18G29G 5G30G23G20G13R14R22R 6
                                R 5R20R21
  20671180.897   108627791.16749      2115.147    20671180.625    84645033.73949
      1648.164  
  24646299.134   129517159.21445     -3361.245    24646299.176   100922474.97653
     -2619.152  
  21207240.508   111444801.49648      2147.480    21207240.635    86840109.33647
      1673.363  
  22531833.460   118405579.78848     -2951.401    22531833.447    92264085.84749
     -2299.800  
  21898349.998   115076605.94248     -2642.621    21898349.467    89670081.31449
     -2059.188  
  23770952.865   124917188.26948      -378.035    23770954.658    97338087.97445
      -294.582  
  23895620.621   125572328.68856      3194.370    23895622.576    97848573.91155
      2489.120  
  23528780.734   123644581.16247      3189.019    23528781.076    96346440.07444
      2484.944  
  20460738.173   107521907.56049        78.988    20460737.398    83783302.09148
        61.547  
  22979400.018   122493121.09904      1708.180    22979404.076    95272462.25605
      1328.594  
  23221804.196   123959568.37405      4180.621    23221812.580    96413020.68603
      3251.598  
  20541831.862   109615154.33407      2630.022           0.000           0.0000 
         0.000  
  19532992.487   104415042.41609     -1578.633    19532996.532    81211717.02208
     -1227.824  
  20594027.408   110125522.55905     -3216.093    20594033.328    85653201.91408
     -2501.410  
  19836422.271   106148701.66309      1433.195    19836425.746    82560119.88708
      1114.706  
 20 10 02 05 05 15.0000000  0 15G15G 2G18G29G 5G30G23G20G13R14R22R 6
                                R 5R20R21
  20669169.658   108617222.37649      2112.043    20669169.598    84636798.32549
      1645.746  
  24649497.447   129533967.77545     -3362.577    24649497.279   100935570.79652
     -2620.190  
  21205198.040   111434068.53948      2145.477    21205198.052    86831745.98747
      1671.796  
  22534642.555   118420341.99248     -2953.660    22534642.591    92275588.88549
     -2301.555  
  21900865.067   115089822.53448     -2644.257    21900864.406    89680379.94549
     -2060.464  
  23771313.927   124919085.32248      -381.175    23771315.935    97339566.21745
      -297.019  
  23892582.219   125556356.77847      3194.031    23892581.432    97836128.27845
      2488.852  
  23525746.690   123628637.34147      3188.163    23525746.943    96334016.40245
      2484.292  
  20460664.532   107521520.01149        75.651    20460663.650    83783000.10647
        58.944  
  22977799.471   122484589.44205      1704.176    22977803.748    95265826.49305
      1325.461  
  23217889.420   123938670.34704      4178.707    23217897.734    96396766.68903
      3250.108  
  20539368.702   109602010.43807      2627.448           0.000           0.0000 
         0.000  
  19534470.152   104422941.97709     -1581.601    19534474.309    81217861.12608
     -1230.136  
  20597035.972   110141610.23706     -3219.710    20597041.797    85665714.55307
     -2504.219  
  19835084.998   106141545.29809      1428.941    19835088.394    82554553.82908
      1111.397  
 20 10 02 05 05 20.0000000  0 15G15G 2G18G29G 5G30G23G20G13R14R22R 6
                                R 5R20R21
  20667161.271   108606668.76349      2109.105    20667161.200    84628574.74049
      1643.457  
  24652696.948   129550781.04505     -3362.839           0.000           0.0000 
         0.000  
  21203157.835   111423347.22048      2142.855    21203157.921    86823391.70947
      1669.754  
  22537453.944   118435115.56448     -2955.819    22537453.947    92287100.73049
     -2303.245  
  21903381.536   115103046.25948     -2645.680    21903381.020    89690684.15249
     -2061.574  
  23771677.989   124920998.82347      -384.534    23771680.159    97341057.24745
      -299.640  
  23889543.585   125540388.58846      3192.968    23889542.260    97823685.53445
      2488.022  
  23522713.452   123612697.07146      3187.328    23522713.553    96321595.36544
      2483.628  
  20460594.136   107521150.54749        71.883    20460593.335    83782712.20547
        56.008  
  22976202.560   122476077.47304      1699.870    22976207.128    95259206.04203
      1322.125  
  23213975.693   123917779.60605      4176.219    23213984.108    96380518.28702
      3248.163  
  20536908.047   109588879.13507      2624.758           0.000           0.0000 
         0.000  
  19535950.606   104430855.75909     -1584.448    19535954.767    81224016.28608
     -1232.351  
  20600047.547   110157714.60405     -3222.738    20600053.478    85678240.17307
     -2506.574  
  19833751.645   106134410.97708      1424.483    19833755.227    82549004.90908
      1107.934  
 20 10 02 05 05 25.0000000  0 15G15G 2G18G29G 5G30G23G20G13R 4R22R 6
                                R 5R20R21
  20665155.167   108596126.17749      2107.827    20665155.021    84620359.74049
      1642.464  
  24655896.311   129567594.78005     -3362.358           0.000           0.0000 
         0.000  
  21201118.998   111412633.40348      2142.223    21201119.206    86815043.29548
      1669.265  
  22540266.692   118449896.31348     -2956.480    22540266.712    92298618.22149
     -2303.750  
  21905898.369   115116272.93148     -2645.191    21905897.873    89700990.65149
     -2061.190  
  23772044.519   124922924.61047      -386.034    23772046.649    97342557.86746
      -300.809  
  23886504.689   125524419.95347      3194.598    23886503.012    97811242.44744
      2489.292  
  23519679.913   123596756.24446      3188.886    23519679.799    96309173.95943
      2484.848  
  20460526.614   107520795.03049        70.085    20460525.699    83782435.18547
        54.612  
  23068404.517   123530264.32415     -3833.676    23068406.758    96079101.39115
     -2981.746  
  23210062.532   123896891.79704      4177.824    23210071.024    96364272.23303
      3249.417  
  20534448.782   109575756.08307      2623.965           0.000           0.0000 
         0.000  
  19537432.958   104438779.62309     -1585.499    19537437.157    81230179.28908
     -1233.171  
  20603061.458   110173831.40706     -3224.632    20603067.387    85690775.43608
     -2508.050  
  19832421.798   106127294.35508      1421.866    19832425.398    82543469.75408
      1105.890  
 20 10 02 05 05 30.0000000  0 14G15G 2G18G29G 5G30G23G20G13R 4R 6R 5
                                R20R21
  20663151.569   108585597.07349      2104.159    20663151.543    84612155.24149
      1639.601  
  24659096.476   129584411.35345     -3364.476    24659087.380   100974877.19151
     -2621.672  
  21199082.046   111401929.58548      2139.352    21199082.227    86806702.64347
      1667.023  
  22543081.115   118464686.67448     -2959.480    22543081.259    92310143.16349
     -2306.093  
  21908416.534   115129505.03848     -2647.300    21908415.938    89711301.36449
     -2062.835  
  23772413.856   124924865.11046      -389.922    23772415.855    97344069.95346
      -303.839  
  23883466.776   125508453.39646      3193.051    23883464.969    97798800.98345
      2488.086  
  23516646.769   123580817.34046      3187.504    23516646.864    96296754.06645
      2483.770  
  20460461.942   107520455.86749        65.777    20460460.974    83782170.89847
        51.250  
  23071985.248   123549436.85004     -3834.574    23071987.525    96094013.31905
     -2982.449  
  20531991.456   109562643.94807      2621.077           0.000           0.0000 
         0.000  
  19538917.556   104446715.93309     -1588.875    19538921.686    81236351.96808
     -1235.797  
  20606078.197   110189963.07806     -3228.148    20606084.121    85703322.29208
     -2510.785  
  19831095.557   106120197.90408      1416.796    19831099.357    82537950.30708
      1101.952  
 20 10 02 05 05 35.0000000  0 15G15G 2G18G29G 5G30G23G20G13R14R 4R 6
                                R 5R20R21
  20661151.346   108575086.77049      2100.449    20661151.471    84603965.40449
      1636.715  
  24662298.015   129601236.05444     -3364.632    24662287.496   100987987.40943
     -2621.797  
  21197047.979   111391240.99248      2136.558    21197048.226    86798373.87647
      1664.852  
  22545898.399   118479491.91448     -2962.089    22545898.447    92321679.70349
     -2308.125  
  21910936.410   115142747.82748     -2649.387    21910935.993    89721620.41249
     -2064.460  
  23772786.684   124926825.52646      -393.906    23772789.017    97345597.58345
      -306.938  
  23880429.783   125492494.14146      3191.168    23880429.095    97786365.21144
      2486.629  
  23513614.989   123564885.66846      3185.797    23513614.871    96284339.75244
      2482.429  
  20460401.639   107520138.34449        61.644    20460400.667    83781923.48247
        48.034  
  22971431.907   122450657.99015      1688.688    22971436.311    95239419.86114
      1313.430  
  23075566.085   123568615.28504     -3836.382    23075569.622    96108929.87505
     -2983.851  
  20529537.281   109549547.99807      2617.461           0.000           0.0000 
         0.000  
  19540405.722   104454670.12509     -1592.352    19540409.810    81242538.56408
     -1238.495  
  20609098.572   110206114.94106     -3231.644    20609104.365    85715884.84207
     -2513.504  
  19829774.347   106113127.12208      1411.934    19829777.910    82532450.82008
      1098.101  
 20 10 02 05 05 40.0000000  0 14G15G 2G18G29G 5G30G23G20G13R14R 6R 5
                                R20R21
  20659154.371   108564592.40949      2097.816    20659154.327    84595787.99449
      1634.664  
  24665500.324   129618066.33204     -3366.195           0.000           0.0000 
         0.000  
  21195016.413   111380564.85148      2134.503    21195016.635    86790054.81847
      1663.250  
  22548718.193   118494309.24848     -2963.996    22548718.045    92333225.63949
     -2309.612  
  21913458.013   115155998.40848     -2650.417    21913457.526    89731945.54049
     -2065.261  
  23773163.014   124928803.21547      -396.882    23773165.376    97347138.61945
      -309.262  
  23877394.031   125476539.37447      3191.297    23877392.442    97773932.96644
      2486.729  
  23510584.249   123548958.33247      3185.460    23510583.871    96271928.87544
      2482.175  
  20460344.796   107519839.63249        58.468    20460343.753    83781690.71248
        45.554  
  22969849.747   122442223.12404      1685.440    22969853.947    95232859.42304
      1310.894  
  20527085.715   109536465.34807      2615.652           0.000           0.0000 
         0.000  
  19541896.456   104462639.36109     -1594.719    19541900.560    81248736.85608
     -1240.340  
  20612122.434   110222284.20506     -3234.741    20612127.933    85728460.93207
     -2515.909  
  19828457.208   106106079.09508      1408.101    19828460.767    82526968.99708
      1095.188  
 20 10 02 05 05 45.0000000  0 14G15G 2G18G29G 5G30G23G20G13R14R 6R 5
                                R20R21
  20657159.460   108554109.14349      2095.046    20657159.612    84587619.22049
      1632.504  
  24668703.118   129634897.03404     -3366.327           0.000           0.0000 
         0.000  
  21192986.419   111369896.25549      2132.421    21192986.454    86781741.62847
      1661.628  
  22551539.174   118509133.66948     -2966.085    22551539.139    92344777.17549
     -2311.234  
  21915979.971   115169251.98248     -2651.516    21915979.550    89742272.99849
     -2066.120  
  23773541.603   124930793.18047      -399.628    23773544.134    97348689.22645
      -311.401  
  23874357.705   125460584.21846      3190.835    23874356.677    97761500.36145
      2486.363  
  23507553.245   123533030.39546      3185.113    23507553.006    96259517.52145
      2481.909  
  20460290.617   107519554.82649        55.156    20460289.556    83781468.78448
        42.977  
  22968270.135   122433803.84204      1681.284    22968274.326    95226311.10503
      1307.667  
  20524635.702   109523391.17507      2613.530           0.000           0.0000 
         0.000  
  19543389.126   104470618.44609     -1597.266    19543393.160    81254942.81008
     -1242.319  
  20615148.472   110238465.85306     -3238.105    20615153.917    85741046.66707
     -2518.526  
  19827143.279   106099048.84008      1403.805    19827147.304    82521501.02108
      1091.847  
 20 10 02 05 05 50.0000000  0 14G15G 2G18G29G 5G30G23G20G13R14R 6R 5
                                R20R21
  20655167.445   108543641.53149      2092.031    20655167.555    84579462.64449
      1630.152  
  24671906.426   129651732.66145     -3367.976    24671899.038   101027289.31751
     -2624.402  
  21190958.508   111359239.82148      2130.129    21190958.541    86773437.91448
      1659.835  
  22554362.422   118523969.81148     -2968.387    22554362.199    92356337.78949
     -2313.030  
  21918503.607   115182513.15248     -2653.062    21918503.260    89752606.35549
     -2067.324  
  23773923.160   124932799.99646      -403.226    23773925.789    97350252.97745
      -314.207  
  23871322.271   125444633.24546      3189.886    23871321.560    97749071.06645
      2485.629  
  23504522.867   123517106.62046      3184.750    23504522.702    96247109.40145
      2481.621  
  20460240.010   107519288.51149        51.465    20460239.055    83781261.26948
        40.101  
  22966694.419   122425404.63605      1678.352    22966698.476    95219778.29903
      1305.370  
  20522187.898   109510329.81607      2611.160           0.000           0.0000 
         0.000  
  19544884.599   104478612.23109     -1600.125    19544888.637    81261160.19708
     -1244.547  
  20618177.812   110254664.47106     -3241.144    20618183.084    85753645.60708
     -2520.890  
  19825833.688   106092040.98509      1399.483    19825837.644    82516050.47008
      1088.484  
 20 10 02 05 05 55.0000000  0 14G15G 2G18G29G 5G30G23G20G13R14R 6R 5
                                R20R21
  20653178.484   108533189.12649      2088.738    20653178.446    84571317.91849
      1627.589  
  24675110.946   129668572.90004     -3369.417           0.000           0.0000 
         0.000  
  21188933.078   111348595.05248      2127.624    21188933.097    86765143.28047
      1657.886  
  22557187.897   118538817.09548     -2970.664    22557187.719    92367907.10149
     -2314.805  
  21921028.430   115195781.34448     -2654.487    21921028.164    89762945.19649
     -2068.438  
  23774308.202   124934823.09446      -406.210    23774310.804    97351829.45246
      -316.522  
  23868287.315   125428685.97746      3188.620    23868287.293    97736644.62245
      2484.640  
  23501493.212   123501186.36346      3183.484    23501493.172    96234704.01444
      2480.641  
  20460192.848   107519040.20649        47.695    20460191.706    83781067.79048
        37.164  
  22965122.436   122417025.20904      1673.792    22965126.260    95213261.09101
      1301.855  
  20519742.457   109497280.97607      2608.241           0.000           0.0000 
         0.000  
  19546382.666   104486620.16009     -1603.152    19546386.517    81267388.60108
     -1246.894  
  20621210.085   110270879.67406     -3244.948    20621215.451    85766257.41907
     -2523.852  
  19824528.370   106085055.02908      1394.812    19824532.072    82510616.96408
      1084.854  
 20 10 02 05 06  0.0000000  0 14G15G 2G18G29G 5G30G23G20G13R14R 6R 5
                                R20R21
  20651192.562   108522753.28649      2085.874    20651192.763    84563186.09849
      1625.354  
  24678316.386   129685418.97804     -3369.460           0.000           0.0000 
         0.000  
  21186909.920   111337963.31748      2125.460    21186909.826    86756858.82347
      1656.203  
  22560015.426   118553676.98348     -2972.745    22560015.426    92379486.21749
     -2316.430  
  21923554.798   115209057.93548     -2655.852    21923554.534    89773290.60149
     -2069.496  
  23774696.447   124936863.99247      -409.249    23774699.071    97353419.74946
      -318.895  
  23865253.242   125412743.75146      3188.401    23865253.635    97724222.14245
      2484.469  
  23498464.579   123485271.06847      3183.063    23498464.451    96222302.46944
      2480.305  
  20460149.293   107518811.31949        44.238    20460148.249    83780889.43848
        34.472  
  22963554.196   122408666.79704      1669.688    22963557.937    95206760.08404
      1298.644  
  20517299.865   109484246.17707      2606.055           0.000           0.0000 
         0.000  
  19547883.543   104494643.48909     -1605.813    19547887.318    81273628.96708
     -1248.964  
  20624245.755   110287112.70606     -3248.133    20624251.173    85778883.09307
     -2526.328  
  19823227.126   106078092.46208      1390.612    19823230.996    82505201.63708
      1081.590  
 20 10 02 05 06  5.0000000  0 14G15G18G29G 5G30G23G20G13R14R22R 6R 5
                                R20R21
  20649209.306   108512331.27049      2083.163    20649209.536    84555065.05049
      1623.245  
  21184888.673   111327341.97049      2123.394    21184888.766    86748582.44947
      1654.590  
  22562845.088   118568546.71048     -2974.690    22562845.086    92391073.01149
     -2317.944  
  21926082.525   115222340.22849     -2656.738    21926082.106    89783640.46249
     -2070.188  
  23775087.739   124938919.96347      -412.429    23775090.256    97355021.80545
      -321.378  
  23862219.626   125396803.87147      3188.180    23862220.574    97711801.48445
      2484.304  
  23495436.227   123469358.06446      3182.691    23495436.160    96209902.74944
      2480.020  
  20460108.968   107518599.06649        40.917    20460107.981    83780724.04547
        31.878  
  22961989.414   122400326.78205      1666.030    22961993.680    95200273.43403
      1295.804  
  23178806.920   123730045.43414      4165.367    23178815.092    96234513.99112
      3239.730  
  20514859.137   109471222.58207      2603.781           0.000           0.0000 
         0.000  
  19549386.859   104502679.60909     -1608.270    19549390.740    81279879.29008
     -1250.875  
  20627284.177   110303360.79506     -3251.276    20627289.568    85791520.51008
     -2528.769  
  19821929.786   106071150.66808      1386.515    19821933.763    82499802.46408
      1078.398  
 20 10 02 05 06 10.0000000  0 15G15G 2G18G29G 5G30G23G20G13R14R22R 6
                                R 5R20R21
  20647228.742   108501923.52449      2080.059    20647228.969    84546955.11849
      1620.824  
  24684729.866   129719130.19655     -3370.370    24684722.256   101079837.00454
     -2626.261  
  21182869.675   111316731.34449      2120.969    21182869.594    86740314.43547
      1652.703  
  22565676.571   118583426.65848     -2976.987    22565676.489    92402667.76049
     -2319.738  
  21928611.171   115235628.63848     -2658.171    21928610.959    89793995.03449
     -2071.309  
  23775482.145   124940991.33147      -415.727    23775484.338    97356635.81645
      -323.949  
  23859186.673   125380866.87346      3186.749    23859187.951    97699383.02644
      2483.180  
  23492408.283   123453447.77147      3181.675    23492408.618    96197505.15744
      2479.230  
  20460071.691   107518403.86549        37.534    20460070.559    83780571.93347
        29.245  
  22960428.418   122392005.61005      1662.417    22960432.922    95193801.38703
      1292.984  
  23174905.961   123709221.25705      4164.332    23174914.059    96218317.37602
      3238.921  
  20512420.681   109458210.57407      2601.383           0.000           0.0000 
         0.000  
  19550892.620   104510728.85609     -1611.218    19550896.346    81286139.81608
     -1253.171  
  20630325.614   110319624.44206     -3254.273    20630331.103    85804170.01507
     -2531.104  
  19820636.414   106064229.82008      1381.995    19820640.372    82494419.59108
      1074.887  
 20 10 02 05 06 15.0000000  0 14G15G18G29G 5G30G23G20G13R14R22R 6R 5
                                R20R21
  20645250.639   108491528.27449      2077.491    20645250.566    84538854.92049
      1618.823  
  21180852.208   111306129.73249      2119.145    21180852.104    86732053.43047
      1651.276  
  22568509.778   118598315.01048     -2978.757    22568509.903    92414269.05349
     -2321.113  
  21931140.791   115248921.41348     -2659.167    21931140.554    89804353.05449
     -2072.078  
  23775879.018   124943076.37747      -418.488    23775881.100    97358260.52145
      -326.101  
  23856153.791   125364930.84745      3186.655    23856155.259    97686965.34845
      2483.105  
  23489380.758   123437538.29847      3181.844    23489381.028    96185108.15145
      2479.358  
  20460037.434   107518223.99849        34.151    20460036.342    83780431.78747
        26.613  
  22958870.620   122383701.38806      1658.852    22958875.183    95187342.54201
      1290.222  
  23171005.743   123688401.59804      4163.589    23171013.829    96202124.31602
      3238.347  
  20509984.068   109445208.27807      2599.242           0.000           0.0000 
         0.000  
  19552400.629   104518789.43409     -1613.456    19552404.441    81292409.13308
     -1254.914  
  20633369.517   110335901.87406     -3257.573    20633374.905    85816830.23008
     -2533.671  
  19819346.781   106057328.26408      1378.144    19819350.552    82489051.70808
      1071.887  
 20 10 02 05 06 20.0000000  0 15G15G18G29G 5G30G23G20G13R14R 4R22R 6
                                R 5R20R21
  20643275.199   108481147.48349      2074.824    20643275.338    84530766.00149
      1616.745  
  21178836.966   111295539.09548      2117.159    21178836.600    86723800.99847
      1649.734  
  22571344.789   118613213.78148     -2980.824    22571345.076    92425878.48949
     -2322.723  
  21933671.531   115262220.50848     -2660.233    21933671.118    89814715.98049
     -2072.913  
  23776278.895   124945177.02847      -421.410    23776280.884    97359897.38445
      -328.374  
  23853121.196   125348997.79845      3186.354    23853123.440    97674550.05647
      2482.882  
  23486353.682   123421631.75246      3181.409    23486354.109    96172713.45746
      2479.020  
  20460006.575   107518061.39449        30.816    20460005.583    83780305.08648
        24.011  
  22957316.433   122375416.13205      1655.483    22957321.377    95180898.56704
      1287.605  
  23107813.947   123741289.65615     -3838.222    23107817.167    96243243.79415
     -2985.288  
  23167106.924   123667588.50004      4162.094    23167114.663    96185936.35402
      3237.179  
  20507549.514   109432217.93707      2597.163           0.000           0.0000 
         0.000  
  19553911.021   104526863.34809     -1615.957    19553914.653    81298688.84408
     -1256.859  
  20636416.278   110352194.93106     -3259.772    20636421.661    85829502.60908
     -2535.379  
  19818060.870   106050447.93908      1373.930    19818064.785    82483700.31908
      1068.604  
 20 10 02 05 06 25.0000000  0 15G15G18G29G 5G30G23G20G13R14R 4R22R 6
                                R 5R20R21
  20641302.403   108470780.33949      2072.039    20641302.332    84522687.71849
      1614.573  
  21176823.465   111284958.60849      2115.104    21176823.293    86715556.46847
      1648.133  
  22574181.941   118628122.05748     -2982.647    22574182.177    92437495.31649
     -2324.145  
  21936203.409   115275525.02148     -2661.434    21936203.156    89825083.12549
     -2073.847  
  23776681.445   124947292.47747      -424.398    23776683.473    97361545.79245
      -330.698  
  23850089.230   125333066.86345      3185.945    23850091.827    97662136.38845
      2482.565  
  23483327.195   123405727.23547      3180.448    23483327.761    96160320.31745
      2478.272  
  20459978.764   107517915.21449        27.461    20459977.768    83780191.18948
        21.398  
  22955765.609   122367149.11906      1651.621    22955771.153    95174468.69304
      1284.597  
  23111397.954   123760481.10005     -3838.359    23111401.239    96258170.45105
     -2985.397  
  23163209.088   123646781.27205      4161.000    23163216.468    96169752.96103
      3236.332  
  20505117.276   109419238.57807      2594.621           0.000           0.0000 
         0.000  
  19555423.678   104534949.67409     -1618.438    19555427.555    81304978.20608
     -1258.788  
  20639465.852   110368502.87206     -3263.438    20639471.367    85842186.56708
     -2538.230  
  19816779.095   106043588.02809      1369.827    19816782.594    82478364.84008
      1065.421  
 20 10 02 05 06 30.0000000  0 15G15G18G29G 5G30G23G20G13R14R 4R22R 6
                                R 5R20R21
  20639332.291   108460427.95549      2069.257    20639332.261    84514620.91949
      1612.406  
  21174812.294   111274389.39449      2112.957    21174811.969    86707320.71547
      1646.457  
  22577020.787   118643040.94948     -2984.582    22577021.048    92449120.45749
     -2325.647  
  21938736.408   115288836.14748     -2662.602    21938736.131    89835455.42249
     -2074.758  
  23777087.021   124949423.82347      -427.761    23777089.129    97363206.60345
      -333.315  
  23847058.413   125317139.12746      3185.535    23847060.919    97649725.16945
      2482.234  
  23480301.137   123389825.79047      3180.055    23480301.849    96147929.58944
      2477.961  
  20459954.155   107517786.58449        24.121    20459953.106    83780090.95348
        18.793  
  22954218.431   122358901.38106      1647.738    22954224.245    95168053.81804
      1281.578  
  23114981.929   123779674.18404     -3837.815    23114985.690    96273098.37505
     -2984.977  
  23159312.379   123625980.97205      4159.277    23159319.848    96153574.98103
      3234.991  
  20502687.149   109406271.17407      2592.608           0.000           0.0000 
         0.000  
  19556938.955   104543049.51409     -1621.094    19556942.836    81311278.08308
     -1260.854  
  20642518.569   110384826.68406     -3266.312    20642524.014    85854882.85508
     -2540.469  
  19815501.074   106036749.70208      1365.788    19815504.732    82473046.13208
      1062.276  
 20 10 02 05 06 35.0000000  0 16G15G 2G18G29G 5G30G23G20G13R14R 4R22
                                R 6R 5R20R21
  20637365.034   108450089.01249      2066.026    20637364.908    84506564.59349
      1609.887  
  24700774.776   129803444.36454     -3374.055    24700761.905   101145501.43451
     -2629.133  
  21172803.004   111263830.13249      2110.440    21172802.635    86699092.73247
      1644.500  
  22579861.688   118657969.16948     -2987.011    22579861.647    92460752.82849
     -2327.543  
  21941270.350   115302152.54048     -2664.305    21941270.112    89845831.83849
     -2076.081  
  23777495.374   124951569.76146      -431.148    23777497.504    97364878.74046
      -335.964  
  23844027.536   125301213.57046      3184.187    23844030.371    97637315.58045
      2481.171  
  23477275.627   123373926.21847      3179.309    23477276.191    96135540.33845
      2477.383  
  20459932.828   107517674.16749        20.301    20459931.831    83780003.36548
        15.820  
  22952674.568   122350671.69405      1643.621    22952680.805    95161652.91104
      1278.367  
  23118565.488   123798867.67104     -3839.050    23118570.198    96288026.66305
     -2985.934  
  23155417.113   123605186.15105      4157.632    23155424.425    96137401.24902
      3233.719  
  20500259.008   109393314.80807      2589.711           0.000           0.0000 
         0.000  
  19558456.500   104551161.66309     -1624.059    19558460.304    81317587.52608
     -1263.159  
  20645573.994   110401165.03906     -3269.328    20645579.613    85867590.44708
     -2542.819  
  19814226.949   106029931.69809      1361.147    19814230.544    82467743.24708
      1058.668  
 20 10 02 05 06 40.0000000  0 16G15G 2G18G29G 5G30G23G20G13R14R 4R22
                                R 6R 5R20R21
  20635400.624   108439766.18849      2062.956    20635400.489    84498520.84349
      1607.500  
  24703985.735   129820317.90844     -3375.188    24703977.438   101158657.59953
     -2630.015  
  21170795.977   111253283.50649      2108.055    21170795.710    86690874.58447
      1642.636  
  22582704.628   118672909.32848     -2989.284    22582704.660    92472394.49149
     -2329.315  
  21943805.856   115315476.77848     -2665.698    21943805.809    89856214.34549
     -2077.124  
  23777906.860   124953732.88847      -434.265    23777909.423    97366564.29146
      -338.395  
  23840997.694   125285292.39646      3183.781    23841000.820    97624909.54544
      2480.875  
  23474250.959   123358031.13947      3178.612    23474251.522    96123154.57245
      2476.844  
  20459914.917   107517580.60449        16.839    20459913.943    83779930.46147
        13.121  
  22951134.671   122342462.67606      1639.734    22951141.251    95155268.14804
      1275.352  
  23122149.496   123818064.05504     -3839.601    23122155.392    96302957.24305
     -2986.347  
  23151523.055   123584399.71805      4156.624    23151530.392    96121234.04203
      3232.930  
  20497833.555   109380371.74807      2587.473           0.000           0.0000 
         0.000  
  19559976.780   104559288.68109     -1626.812    19559980.683    81323908.53608
     -1265.300  
  20648632.445   110417520.63906     -3273.081    20648638.290    85880311.46808
     -2545.734  
  19812957.146   106023136.59808      1356.835    19812960.753    82462458.16508
      1055.312  
 20 10 02 05 06 45.0000000  0 16G15G 2G18G29G 5G30G23G20G13R14R 4R22
                                R 6R 5R20R21
  20633438.910   108429457.81049      2060.116    20633438.972    84490488.35149
      1605.285  
  24707197.413   129837195.14304     -3375.308           0.000           0.0000 
         0.000  
  21168791.045   111242747.83349      2106.023    21168790.684    86682664.96547
      1641.059  
  22585549.520   118687859.71248     -2991.183    22585549.696    92484044.12749
     -2330.797  
  21946342.719   115328807.20848     -2666.769    21946342.459    89866601.68949
     -2078.008  
  23778321.370   124955911.58946      -437.695    23778324.015    97368262.00845
      -341.059  
  23837968.518   125269374.31045      3182.835    23837971.503    97612505.87445
      2480.137  
  23471226.631   123342138.87547      3177.973    23471227.503    96110771.00145
      2476.348  
  20459900.435   107517504.25349        13.516    20459899.246    83779870.96748
        10.527  
  22949598.364   122334272.64106      1635.816    22949604.969    95148898.11104
      1272.301  
  23125734.073   123837261.92904     -3839.965    23125740.402    96317888.84005
     -2986.652  
  23147630.586   123563619.95105      4154.819    23147637.668    96105072.01603
      3231.531  
  20495410.358   109367440.41807      2585.164           0.000           0.0000 
         0.000  
  19561499.482   104567428.95408     -1629.429    19561503.467    81330239.86208
     -1267.336  
  20651693.927   110433891.91506     -3276.102    20651699.835    85893044.66908
     -2548.082  
  19811691.288   106016362.67709      1352.550    19811694.870    82457189.56208
      1051.983  
 20 10 02 05 06 50.0000000  0 16G15G 2G18G29G 5G30G23G20G13R14R 4R22
                                R 6R 5R20R21
  20631480.225   108419164.44649      2057.520    20631480.142    84482467.55449
      1603.262  
  24710409.840   129854076.55605     -3376.472           0.000           0.0000 
         0.000  
  21166788.359   111232223.70948      2103.949    21166788.102    86674464.34947
      1639.437  
  22588396.504   118702820.92948     -2992.847    22588396.673    92495702.20849
     -2332.094  
  21948880.737   115342144.36448     -2667.898    21948880.567    89876994.28449
     -2078.886  
  23778739.009   124958106.45146      -440.246    23778741.739    97369972.26645
      -343.058  
  23834939.995   125253459.65645      3182.765    23834943.253    97600104.79146
      2480.070  
  23468203.141   123326249.98547      3177.758    23468204.010    96098390.02244
      2476.172  
  20459889.183   107517445.68549        10.254    20459888.255    83779825.33347
         7.987  
  22948065.655   122326102.18506      1632.297    22948072.394    95142543.28204
      1269.555  
  23129319.537   123856461.51905     -3839.813    23129326.018    96332821.83305
     -2986.526  
  23143739.403   123542847.42604      4153.980    23143746.180    96088915.62102
      3230.875  
  20492989.396   109354521.39107      2582.832           0.000           0.0000 
         0.000  
  19563024.808   104575582.97708     -1631.797    19563028.844    81336581.87108
     -1269.179  
  20654758.528   110450279.21305     -3278.776    20654764.488    85905790.32208
     -2550.168  
  19810429.517   106009610.68509      1348.483    19810433.295    82451938.01808
      1048.819  
 20 10 02 05 06 55.0000000  0 15G15G18G29G 5G30G23G20G13R14R 4R22R 6
                                R 5R20R21
  20629523.835   108408883.11149      2054.984    20629523.769    84474456.12749
      1601.280  
  21164787.431   111221708.13549      2102.183    21164786.949    86666270.40247
      1638.065  
  22591245.023   118717789.97048     -2994.652    22591245.087    92507366.39649
     -2333.500  
  21951419.482   115355485.24448     -2668.722    21951419.158    89887389.76849
     -2079.527  
  23779159.187   124960314.37647      -442.925    23779161.840    97371692.72745
      -345.140  
  23831911.619   125237545.49646      3182.769    23831915.093    97587704.20146
      2480.085  
  23465179.827   123310361.51847      3177.473    23465180.620    96086009.40144
      2475.949  
  20459880.806   107517401.88149         7.159    20459879.948    83779791.19347
         5.574  
  22946536.089   122317948.23706      1628.886    22946543.045    95136201.33004
      1266.909  
  23132904.363   123875660.03605     -3839.694    23132911.069    96347754.00904
     -2986.433  
  23139848.810   123522078.96104      4152.972    23139855.552    96072762.39503
      3230.094  
  20490570.130   109341611.68807      2580.660           0.000           0.0000 
         0.000  
  19564552.190   104583747.68209     -1634.105    19564556.264    81342932.19108
     -1270.977  
  20657825.291   110466679.57305     -3281.164    20657831.513    85918546.16008
     -2552.020  
  19809171.310   106002877.48409      1344.719    19809175.066    82446701.08608
      1045.890  
 20 10 02 05 07  0.0000000  0 15G15G18G29G 5G30G23G20G13R14R 4R22R 6
                                R 5R20R21
  20627570.306   108398617.52549      2051.683    20627570.055    84466456.96449
      1598.711  
  21162788.572   111211204.84348      2099.438    21162788.278    86658086.02347
      1635.926  
  22594095.870   118732770.49248     -2997.078    22594095.749    92519039.53649
     -2335.387  
  21953959.534   115368833.62248     -2670.319    21953959.442    89897791.11849
     -2080.828  
  23779582.575   124962539.20146      -446.718    23779585.264    97373426.33045
      -348.097  
  23828884.062   125221635.61246      3181.684    23828887.310    97575306.93546
      2479.241  
  23462157.324   123294477.12447      3176.379    23462157.921    96073631.98545
      2475.101  
  20459876.066   107517376.53549         3.507    20459875.062    83779771.43747
         2.730  
  22945010.178   122309814.80706      1624.609    22945017.551    95129875.30204
      1263.578  
  23136490.287   123894861.09404     -3840.707    23136495.692    96362688.15004
     -2987.218  
  23135959.980   123501318.55605      4151.148    23135966.425    96056615.42803
      3228.671  
  20488153.466   109328715.21907      2577.969           0.000           0.0000 
         0.000  
  19566082.229   104591926.89809     -1637.179    19566086.103    81349293.81508
     -1273.363  
  20660895.363   110483096.81905     -3284.823    20660901.694    85931315.12008
     -2554.866  
  19807917.203   105996166.87809      1340.046    19807920.925    82441481.72908
      1042.258  
 20 10 02 05 07  5.0000000  0 15G15G18G29G 5G30G23G20G13R14R 4R22R 6
                                R 5R20R21
  20625619.235   108388364.83049      2049.043    20625619.042    84458467.85849
      1596.656  
  21160791.792   111200711.00549      2097.714    21160791.113    86649908.99747
      1634.577  
  22596948.271   118747759.67649     -2998.777    22596948.117    92530719.41249
     -2336.715  
  21956500.497   115382186.62748     -2671.352    21956500.450    89908196.05749
     -2081.578  
  23780008.690   124964778.04547      -449.512    23780011.035    97375170.88444
      -350.273  
  23825856.980   125205727.15347      3181.374    23825860.180    97562910.75045
      2478.991  
  23459134.978   123278594.02648      3176.394    23459135.596    96061255.57245
      2475.117  
  20459874.159   107517366.82849         0.241    20459873.078    83779763.87747
         0.188  
  22943487.584   122301698.67706      1620.862    22943494.889    95123562.76204
      1260.675  
  23140075.774   123914061.80405     -3840.401    23140080.284    96377621.97404
     -2986.987  
  23132072.027   123480563.37104      4150.301    23132078.383    96040472.50103
      3228.008  
  20485738.532   109315828.89007      2576.229           0.000           0.0000 
         0.000  
  19567614.503   104600117.65409     -1639.526    19567618.423    81355664.40908
     -1275.188  
  20663967.986   110499527.88606     -3287.644    20663974.282    85944094.84108
     -2557.062  
  19806666.973   105989476.01908      1335.887    19806670.629    82436277.72308
      1039.023  
 20 10 02 05 07 10.0000000  0 15G15G18G29G 5G30G23G20G13R14R 4R22R 6
                                R 5R20R21
  20623671.192   108378127.26149      2046.101    20623670.967    84450490.53849
      1594.363  
  21158796.920   111190228.81749      2095.390    21158796.616    86641741.05147
      1632.769  
  22599802.758   118762759.67049     -3001.070    22599802.405    92542407.71249
     -2338.499  
  21959042.772   115395546.40448     -2672.617    21959042.694    89918606.24649
     -2082.563  
  23780437.854   124967033.00847      -452.456    23780440.100    97376927.99044
      -352.563  
  23822830.488   125189822.24047      3180.793    23822833.683    97550517.31446
      2478.543  
  23456113.235   123262714.40948      3175.804    23456113.794    96048881.82845
      2474.647  
  20459875.690   107517374.90549        -3.237    20459874.762    83779770.17647
        -2.522  
  22941968.645   122293602.25505      1617.526    22941975.901    95117265.57504
      1258.082  
  23143662.160   123933264.46005     -3840.722    23143665.950    96392557.39304
     -2987.234  
  23128185.287   123459815.49804      4148.539    23128191.679    96024335.28103
      3226.640  
  20483326.021   109302954.98907      2573.578           0.000           0.0000 
         0.000  
  19569149.418   104608322.22009     -1642.266    19569153.189    81362045.73808
     -1277.319  
  20667043.891   110515975.13406     -3290.597    20667050.152    85956887.15408
     -2559.354  
  19805420.668   105982807.13508      1331.746    19805424.450    82431090.81808
      1035.773  
 20 10 02 05 07 15.0000000  0 15G15G18G29G 5G30G23G20G13R14R 4R22R 6
                                R 5R20R21
  20621726.010   108367905.32349      2043.121    20621725.823    84442525.40249
      1592.042  
  21156804.547   111179758.76448      2093.104    21156804.120    86633582.58147
      1630.992  
  22602659.333   118777770.97849     -3003.168    22602658.924    92554104.83749
     -2340.137  
  21961586.354   115408913.42248     -2673.910    21961586.411    89929022.09449
     -2083.574  
  23780870.040   124969304.68847      -455.507    23780872.386    97378698.12744
      -354.940  
  23819804.816   125173921.47647      3179.780    23819807.914    97538127.10845
      2477.745  
  23453092.287   123246838.81648      3174.901    23453093.057    96036511.25844
      2473.949  
  20459880.854   107517401.29149        -7.116    20459879.631    83779790.74147
        -5.547  
  22940453.520   122285526.19206      1613.379    22940460.417    95110984.14104
      1254.839  
  23147248.780   123952469.45505     -3841.366    23147252.128    96407494.60504
     -2987.733  
  23124299.900   123439075.50705      4147.289    23124306.459    96008204.19203
      3225.667  
  20480916.098   109290094.14407      2571.249           0.000           0.0000 
         0.000  
  19570686.998   104616541.02709     -1645.031    19570690.843    81368438.13908
     -1279.473  
  20670122.635   110532439.00106     -3294.202    20670128.909    85969692.37408
     -2562.160  
  19804178.471   105976160.72808      1327.195    19804182.584    82425921.39608
      1032.261  
 20 10 02 05 07 20.0000000  0 15G15G18G29G 5G30G23G20G13R14R 4R22R 6
                                R 5R20R21
  20619783.475   108357697.35849      2040.305    20619783.389    84434571.14949
      1589.848  
  21154814.265   111169299.26049      2090.906    21154813.833    86625432.31547
      1629.273  
  22605517.841   118792791.94848     -3004.933    22605517.408    92565809.47449
     -2341.512  
  21964131.026   115422286.10948     -2675.069    21964131.124    89939442.39049
     -2084.468  
  23781305.306   124971591.43247      -459.016    23781307.308    97380480.03245
      -357.675  
  23816779.654   125158023.11147      3179.577    23816782.299    97525738.78445
      2477.594  
  23450071.895   123230965.58147      3174.554    23450072.473    96024142.50244
      2473.679  
  20459889.058   107517444.33749       -10.249    20459887.914    83779824.28347
        -7.987  
  22938941.781   122277468.71005      1609.718    22938948.077    95104717.17504
      1251.996  
  23150835.665   123971675.18705     -3841.172    23150838.927    96422432.40304
     -2987.578  
  23120415.944   123418341.81405      4146.375    23120422.142    95992077.98302
      3224.953  
  20478508.075   109277244.53307      2568.858           0.000           0.0000 
         0.000  
  19572226.825   104624772.44009     -1647.395    19572230.649    81374840.35908
     -1281.308  
  20673204.159   110548917.76106     -3297.612    20673210.580    85982509.18808
     -2564.813  
  19802940.380   105969535.17409      1323.257    19802944.494    82420768.18708
      1029.199  
 20 10 02 05 07 25.0000000  0 15G15G18G29G 5G30G23G20G13R14R 4R22R 6
                                R 5R20R21
  20617843.390   108347502.36349      2037.589    20617843.133    84426626.99949
      1587.727  
  21152825.687   111158849.24649      2088.944    21152825.214    86617289.44147
      1627.745  
  22608378.011   118807821.52149     -3006.851    22608377.308    92577520.82049
     -2343.004  
  21966676.488   115435663.41648     -2675.973    21966676.779    89949866.26949
     -2085.172  
  23781743.244   124973892.16047      -461.637    23781744.752    97382272.78944
      -359.722  
  23813754.680   125142126.20346      3179.319    23813757.203    97513351.61445
      2477.395  
  23447051.637   123215093.64547      3174.242    23447052.134    96011774.78345
      2473.437  
  20459900.305   107517503.00749       -13.261    20459899.134    83779870.00848
       -10.332  
  22937433.369   122269428.71406      1606.128    22937439.002    95098463.84403
      1249.207  
  23154422.029   123990880.50505     -3841.065    23154425.396    96437369.85804
     -2987.499  
  23116532.980   123397613.32004      4145.316    23116539.164    95975955.82702
      3224.137  
  20476101.861   109264404.92007      2566.917           0.000           0.0000 
         0.000  
  19573768.870   104633015.43109     -1649.805    19573772.582    81381251.58108
     -1283.180  
  20676288.455   110565410.47106     -3300.168    20676294.733    85995336.85208
     -2566.797  
  19801705.862   105962929.36208      1319.163    19801710.011    82415630.33708
      1026.015  
 20 10 02 05 07 30.0000000  0 15G15G18G29G 5G30G23G20G13R14R 4R22R 6
                                R 5R20R21
  20615906.349   108337323.92249      2034.159    20615906.295    84418695.75249
      1585.058  
  21150839.622   111148412.33949      2086.227    21150839.061    86609156.78947
      1625.632  
  22611240.467   118822863.27048     -3009.210    22611239.637    92589241.67249
     -2344.840  
  21969223.485   115449048.94448     -2677.733    21969223.886    89960296.55849
     -2086.547  
  23782184.366   124976210.48847      -465.180    23782185.855    97384079.28445
      -362.479  
  23810730.663   125126234.35746      3177.969    23810733.038    97500968.35145
      2476.340  
  23444032.316   123199226.66247      3173.026    23444032.798    95999410.88545
      2472.483  
  20459914.977   107517580.95149       -17.270    20459913.783    83779930.74447
       -13.461  
  22935929.149   122261410.03206      1601.691    22935934.445    95092227.05604
      1245.754  
  23158009.278   124010089.09305     -3841.690    23158012.561    96452309.86804
     -2987.984  
  23112651.473   123376893.69804      4143.926    23112657.782    95959840.51702
      3223.047  
  20473698.435   109251579.43607      2563.995           0.000           0.0000 
         0.000  
  19575313.725   104641273.56509     -1652.952    19575317.405    81387674.56408
     -1285.633  
  20679375.901   110581920.61906     -3303.569    20679382.456    86008178.08608
     -2569.445  
  19800475.827   105956347.07508      1314.395    19800479.884    82410510.77608
      1022.305  
 20 10 02 05 07 35.0000000  0 15G15G18G29G 5G30G23G20G13R14R 4R22R 6
                                R 5R20R21
  20613972.178   108327159.22649      2031.520    20613972.146    84410775.20549
      1583.004  
  21148855.476   111137985.73849      2084.202    21148855.084    86601032.17347
      1624.055  
  22614104.610   118837914.41048     -3011.164    22614103.665    92600969.82449
     -2346.367  
  21971771.659   115462439.84548     -2678.648    21971772.228    89970731.03049
     -2087.261  
  23782628.335   124978543.65347      -468.085    23782629.682    97385897.30744
      -364.750  
  23807707.009   125110344.72746      3177.691    23807709.197    97488586.82245
      2476.120  
  23441013.325   123183361.78747      3172.585    23441013.930    95987048.65745
      2472.145  
  20459933.057   107517675.33749       -20.605    20459931.866    83780004.28947
       -16.055  
  22934428.180   122253409.64605      1598.370    22934433.635    95086004.51904
      1243.172  
  23161596.058   124029298.23005     -3841.723    23161600.050    96467250.31804
     -2988.007  
  23108771.148   123356180.16704      4142.132    23108777.567    95943730.02002
      3221.659  
  20471296.878   109238764.86307      2561.785           0.000           0.0000 
         0.000  
  19576861.010   104649544.06509     -1655.496    19576864.676    81394107.16508
     -1287.613  
  20682466.149   110598445.44405     -3306.055    20682472.537    86021030.71908
     -2571.379  
  19799249.535   105949785.40708      1310.055    19799253.821    82405407.25208
      1018.925  
 20 10 02 05 07 40.0000000  0 15G15G18G29G 5G30G23G20G13R14R 4R22R 6
                                R 5R20R21
  20612040.684   108317009.09149      2028.370    20612040.695    84402866.01749
      1580.546  
  21146873.607   111127570.22849      2081.660    21146873.065    86592916.19747
      1622.074  
  22616970.614   118852975.61348     -3013.461    22616969.670    92612705.82249
     -2348.155  
  21974320.963   115475836.87348     -2680.211    21974321.582    89981170.27149
     -2088.479  
  23783075.316   124980892.37047      -471.387    23783076.563    97387727.49245
      -367.312  
  23804684.079   125094458.06046      3176.945    23804686.028    97476207.60846
      2475.542  
  23437994.885   123167499.74647      3171.660    23437995.485    95974688.63245
      2471.421  
  20459954.186   107517786.90449       -24.233    20459953.090    83780091.23247
       -18.883  
  22932931.061   122245428.37706      1594.046    22932936.544    95079796.80704
      1239.804  
  23165183.288   124048508.62304     -3843.105    23165187.329    96482191.70904
     -2989.085  
  23104892.290   123335473.55704      4140.581    23104898.223    95927624.86302
      3220.448  
  20468897.748   109225962.36507      2559.128           0.000           0.0000 
         0.000  
  19578410.536   104657827.72909     -1658.191    19578414.384    81400550.02608
     -1289.702  
  20685559.228   110614985.71406     -3309.683    20685565.733    86033895.37208
     -2574.199  
  19798027.383   105943245.08008      1305.793    19798031.636    82400320.33508
      1015.617  
 20 10 02 05 07 45.0000000  0 15G15G18G29G 5G30G23G20G13R14R 4R22R 6
                                R 5R20R21
  20610112.045   108306874.30949      2025.359    20610111.934    84394968.78249
      1578.203  
  21144893.835   111117166.58249      2079.558    21144893.186    86584809.45347
      1620.430  
  22619838.714   118868047.70548     -3015.390    22619837.892    92624450.30749
     -2349.660  
  21976871.560   115489240.85148     -2681.379    21976872.145    89991614.93149
     -2089.390  
  23783525.353   124983257.39046      -474.680    23783526.688    97389570.39645
      -369.875  
  23801661.663   125078575.24946      3176.094    23801663.698    97463831.41846
      2474.883  
  23434977.160   123151641.37047      3171.246    23434977.692    95962331.49145
      2471.104  
  20459978.943   107517916.40649       -27.749    20459977.734    83780192.14447
       -21.625  
  22931437.727   122237467.10105      1590.499    22931443.174    95073604.74404
      1237.054  
  23168770.985   124067720.95305     -3842.883    23168774.860    96497134.65004
     -2988.910  
  23101014.774   123314774.52005      4138.543    23101020.577    95911525.62402
      3218.866  
  20466500.880   109213172.37507      2556.629           0.000           0.0000 
         0.000  
  19579962.872   104666125.17109     -1660.866    19579966.509    81407003.59208
     -1291.785  
  20688655.382   110631542.01905     -3312.944    20688661.799    86046772.49308
     -2576.738  
  19796809.160   105936726.96708      1301.374    19796813.541    82395250.69508
      1012.179  
 20 10 02 05 07 50.0000000  0 15G15G18G29G 5G30G23G20G13R14R 4R22R 6
                                R 5R20R21
  20608186.273   108296754.05649      2022.410    20608186.069    84387082.87449
      1575.901  
  21142916.359   111106774.03149      2077.273    21142915.559    86576711.37047
      1618.656  
  22622708.665   118883129.90048     -3017.604    22622707.831    92636202.66649
     -2351.387  
  21979423.323   115502650.95548     -2682.824    21979424.146    90002064.35549
     -2090.512  
  23783978.388   124985638.01247      -477.960    23783979.898    97391425.43545
      -372.437  
  23798639.879   125062695.44747      3175.229    23798641.931    97451457.53945
      2474.206  
  23431959.792   123135785.93147      3170.504    23431960.475    95949976.58544
      2470.520  
  20460006.921   107518063.08649       -31.308    20460005.562    83780306.43847
       -24.398  
  22929947.970   122229525.07605      1586.624    22929953.464    95067427.63305
      1234.046  
  23172358.976   124086934.57504     -3843.226    23172362.538    96512078.57604
     -2989.180  
  23097138.542   123294082.27405      4137.664    23097144.142    95895431.63502
      3218.180  
  20464106.289   109200394.28507      2554.297           0.000           0.0000 
         0.000  
  19581517.474   104674435.69009     -1663.636    19581521.282    81413467.31908
     -1293.945  
  20691754.199   110648113.84906     -3315.854    20691760.797    86059661.68508
     -2579.004  
  19795595.244   105930230.33909      1296.918    19795599.513    82390197.76108
      1008.710  
 20 10 02 05 07 55.0000000  0 15G15G18G29G 5G30G23G20G13R14R 4R22R 6
                                R 5R20R21
  20606263.713   108286651.12649      2019.401    20606263.599    84379210.46349
      1573.555  
  21140941.317   111096395.36749      2074.781    21140940.627    86568624.10547
      1616.707  
  22625581.092   118898224.91948     -3020.082    22625580.439    92647965.01649
     -2353.316  
  21981976.817   115516069.96848     -2684.378    21981977.595    90012520.74149
     -2091.723  
  23784434.633   124988036.93947      -481.160    23784436.475    97393294.69845
      -374.934  
  23795619.252   125046821.29047      3174.690    23795621.261    97439088.08744
      2473.789  
  23428943.838   123119936.13947      3170.066    23428944.540    95937626.12044
      2470.175  
  20460038.528   107518229.68549       -34.953    20460037.257    83780436.25647
       -27.237  
  22928462.021   122221604.91005      1581.926    22928467.642    95061267.64406
      1230.288  
  23175947.887   124106152.02805     -3843.039    23175951.084    96527025.52504
     -2989.027  
  23093263.842   123273399.92504      4135.479    23093269.551    95879345.36602
      3216.480  
  20461714.306   109187630.82707      2551.499           0.000           0.0000 
         0.000  
  19583075.247   104682762.19009     -1666.378    19583078.940    81419943.48308
     -1296.078  
  20694856.569   110664703.77106     -3319.160    20694863.181    86072564.95408
     -2581.573  
  19794385.670   105923757.97308      1292.531    19794390.028    82385163.70108
      1005.297  
 20 10 02 05 08  0.0000000  0 15G15G18G29G 5G30G23G20G13R14R 4R22R 6
                                R 5R20R21
  20604343.251   108276559.77949      2017.140    20604343.319    84371347.08149
      1571.796  
  21138967.798   111086024.85949      2073.308    21138967.169    86560543.18747
      1615.563  
  22628455.115   118913327.04048     -3021.202    22628454.085    92659732.89649
     -2354.187  
  21984531.084   115529492.16748     -2684.633    21984531.761    90022979.59149
     -2091.925  
  23784893.660   124990448.45847      -483.452    23784895.405    97395173.81444
      -376.714  
  23792598.563   125030947.27446      3174.715    23792600.245    97426718.75345
      2473.809  
  23425927.748   123104086.29347      3169.882    23425928.264    95925275.56444
      2470.035  
  20460072.979   107518410.50949       -37.520    20460071.651    83780577.15648
       -29.238  
  22926979.316   122213700.97905      1579.418    22926984.959    95055120.13805
      1228.437  
  23179536.249   124125367.76304     -3842.965    23179539.444    96541971.01104
     -2988.984  
  23089390.027   123252721.26605      4135.457    23089395.450    95863261.97201
      3216.465  
  20459324.211   109174876.07107      2550.215           0.000           0.0000 
         0.000  
  19584634.683   104691098.64809     -1668.249    19584638.479    81426427.40208
     -1297.527  
  20697961.290   110681306.04705     -3321.504    20697967.928    86085477.83708
     -2583.395  
  19793179.637   105917303.99609      1289.108    19793183.910    82380143.93908
      1002.637  
 20 10 02 05 08  5.0000000  0 15G15G18G29G 5G30G23G20G13R14R 4R22R 6
                                R 5R20R21
  20602425.067   108266479.56249      2014.483    20602424.989    84363492.36949
      1569.727  
  21136995.967   111075662.06949      2071.262    21136995.184    86552468.29947
      1613.968  
  22631330.045   118928435.80848     -3022.816    22631329.264    92671505.95949
     -2355.440  
  21987085.747   115542917.04748     -2685.715    21987086.386    90033440.53949
     -2092.769  
  23785354.942   124992872.10146      -486.344    23785356.794    97397062.40545
      -378.969  
  23789577.704   125015072.83347      3174.354    23789579.404    97414349.06744
      2473.523  
  23422911.418   123088235.90547      3169.672    23422911.972    95912924.60445
      2469.870  
  20460110.090   107518605.08749       -40.784    20460108.502    83780728.77348
       -31.785  
  22925499.619   122205812.76705      1576.012    22925505.083    95048984.83406
      1225.780  
  23183124.366   124144581.12105     -3842.863    23183127.077    96556914.78504
     -2988.891  
  23085516.870   123232046.12505      4133.832    23085522.189    95847181.32102
      3215.202  
  20456935.460   109162129.95807      2547.769           0.000           0.0000 
         0.000  
  19586196.002   104699444.76009     -1670.703    19586199.692    81432918.81408
     -1299.440  
  20701068.207   110697920.09905     -3324.465    20701074.814    86098399.86608
     -2585.699  
  19791976.989   105910867.94909      1284.792    19791981.346    82375138.12608
       999.285  
 20 10 02 05 08 10.0000000  0 15G15G18G29G 5G30G23G20G13R14R 4R22R 6
                                R 5R20R21
  20600510.117   108256416.68049      2010.694    20600510.130    84355651.15549
      1566.772  
  21135026.598   111065313.09149      2068.398    21135025.900    86544404.16148
      1611.737  
  22634207.624   118943557.27548     -3025.563    22634206.875    92683288.92249
     -2357.581  
  21989641.965   115556350.71948     -2687.788    21989642.717    90043908.31849
     -2094.387  
  23785819.417   124995313.96646      -489.977    23785821.608    97398965.14945
      -381.800  
  23786558.116   124999204.10747      3173.159    23786559.449    97401983.82745
      2472.589  
  23419896.347   123072391.16147      3168.254    23419896.823    95900578.07545
      2468.765  
  20460150.819   107518819.49749       -45.031    20460149.288    83780895.84748
       -35.094  
  22924024.146   122197946.57405      1570.847    22924029.493    95042866.73606
      1221.769  
  23186713.223   124163798.38405     -3844.026    23186715.418    96571861.56603
     -2989.800  
  23081645.258   123211380.72605      4131.948    23081650.686    95831108.24301
      3213.741  
  20454549.747   109149398.52607      2544.761           0.000           0.0000 
         0.000  
  19587760.314   104707806.52709     -1674.144    19587764.030    81439422.40808
     -1302.117  
  20704178.437   110714552.33306     -3328.448    20704185.274    86111336.04108
     -2588.796  
  19790778.965   105904456.04709      1279.906    19790783.122    82370151.09208
       995.480  
 20 10 02 05 08 15.0000000  0 15G15G18G29G 5G30G23G20G13R14R 4R22R 6
                                R 5R20R21
  20598598.036   108246368.94149      2008.234    20598597.952    84347821.76449
      1564.858  
  21133059.337   111054975.87549      2066.535    21133058.792    86536349.18347
      1610.288  
  22637087.123   118958689.39148     -3027.394    22637086.698    92695080.15949
     -2359.011  
  21992199.714   115569791.09148     -2688.402    21992200.300    90054381.35249
     -2094.859  
  23786287.155   124997771.97647      -492.647    23786289.433    97400880.50145
      -383.882  
  23783539.075   124983339.00247      3172.940    23783540.327    97389621.40145
      2472.418  
  23416881.711   123056549.92247      3168.160    23416882.135    95888234.24144
      2468.690  
  20460194.960   107519051.67649       -48.011    20460193.486    83781076.76948
       -37.410  
  22922552.398   122190100.20205      1567.641    22922557.743    95036764.02706
      1219.276  
  23190302.305   124183017.43905     -3843.770    23190304.089    96586809.78404
     -2989.594  
  23077775.339   123190722.83604      4130.573    23077780.574    95815041.03702
      3212.672  
  20452166.269   109136679.35907      2543.051           0.000           0.0000 
         0.000  
  19589327.047   104716181.99209     -1676.188    19589330.745    81445936.66308
     -1303.702  
  20707291.721   110731200.49106     -3331.276    20707298.392    86124284.61408
     -2590.991  
  19789584.890   105898066.37409      1275.961    19789588.981    82365181.33808
       992.409  
 20 10 02 05 08 20.0000000  0 15G15G18G29G 5G30G23G20G13R14R 4R22R 6
                                R 5R20R21
  20596689.202   108236337.44649      2004.874    20596689.213    84340005.01549
      1562.238  
  21131094.731   111044651.48949      2063.945    21131094.144    86528304.21447
      1608.265  
  22639968.894   118973833.17248     -3029.765    22639968.481    92706880.51449
     -2360.855  
  21994758.807   115583239.31248     -2690.402    21994759.400    90064860.46849
     -2096.421  
  23786758.310   125000247.25547      -496.738    23786760.585    97402809.28845
      -387.074  
  23780520.908   124967478.61247      3171.823    23780521.858    97377262.64944
      2471.550  
  23413868.276   123040713.28047      3167.113    23413868.526    95875894.05045
      2467.883  
  20460242.700   107519302.68049       -52.003    20460241.359    83781272.36247
       -40.523  
  22921084.319   122182274.88804      1563.074    22921089.614    95030677.64306
      1215.715  
  23193891.828   124202239.29706     -3844.616    23193893.605    96601760.08704
     -2990.266  
  23073906.964   123170073.71904      4128.343    23073911.794    95798980.58401
      3210.930  
  20449785.224   109123973.71107      2539.809           0.000           0.0000 
         0.000  
  19590896.729   104724572.18509     -1679.261    19590900.342    81452462.37008
     -1306.097  
  20710408.217   110747865.61206     -3334.761    20710414.948    86137246.36008
     -2593.707  
  19788395.116   105891699.81009      1271.300    19788399.178    82360229.57108
       988.788  
 20 10 02 05 08 25.0000000  0 15G15G18G29G 5G30G23G20G13R14R 4R22R 6
                                R 5R20R21
  20594782.834   108226319.07349      2002.733    20594782.682    84332198.49449
      1560.569  
  21129131.813   111034336.81649      2062.063    21129131.200    86520266.81848
      1606.800  
  22642852.184   118988985.49148     -3030.984    22642852.013    92718687.50549
     -2361.808  
  21997318.931   115596692.25748     -2690.840    21997319.444    90075343.26349
     -2096.761  
  23787232.017   125002736.57547      -498.901    23787234.322    97404749.00745
      -388.758  
  23777503.121   124951619.78747      3171.862    23777504.105    97364905.14345
      2471.581  
  23410854.920   123024878.11347      3167.042    23410854.930    95863554.93945
      2467.824  
  20460293.498   107519569.37549       -54.734    20460292.154    83781480.17147
       -42.651  
  22919619.552   122174467.19904      1560.215    22919625.121    95024605.02006
      1213.499  
  23197481.320   124221460.71106     -3843.816    23197482.548    96616710.00004
     -2989.645  
  23070039.732   123149430.01404      4128.983    23070044.640    95782924.37401
      3211.433  
  20447406.169   109111278.62007      2538.254           0.000           0.0000 
         0.000  
  19592468.284   104732973.82609     -1681.156    19592471.907    81458996.97508
     -1307.570  
  20713527.399   110764544.56206     -3336.987    20713533.927    86150218.87308
     -2595.438  
  19787209.240   105885353.29509      1267.542    19787213.156    82355293.38708
       985.863  
 20 10 02 05 08 30.0000000  0 15G15G18G29G 5G30G23G20G13R14R 4R22R 6
                                R 5R20R21
  20592878.913   108216314.77549      1999.300    20592878.829    84324402.94349
      1557.898  
  21127171.001   111024032.83749      2059.456    21127170.433    86512237.74247
      1604.770  
  22645737.364   119004147.30848     -3033.535    22645737.249    92730501.90649
     -2363.797  
  21999880.025   115610150.77448     -2692.363    21999880.441    90085830.43449
     -2097.944  
  23787708.712   125005241.03047      -502.391    23787710.734    97406700.52144
      -391.473  
  23774485.833   124935763.54747      3170.792    23774486.547    97352549.65344
      2470.750  
  23407842.019   123009045.39447      3166.081    23407842.015    95851217.74244
      2467.074  
  20460347.329   107519852.75749       -58.530    20460345.897    83781700.99248
       -45.608  
  22918158.297   122166678.32904      1556.449    22918163.636    95018546.99606
      1210.566  
  23201071.051   124240682.83706     -3844.652    23201071.995    96631660.60904
     -2990.280  
  23066173.565   123128793.02805      4127.012    23066178.491    95766873.37403
      3209.891  
  20445029.218   109098594.78107      2535.613           0.000           0.0000 
         0.000  
  19594042.498   104741388.02709     -1684.312    19594046.176    81465541.35708
     -1310.020  
  20716649.357   110781238.16506     -3340.269    20716655.702    86163202.79207
     -2597.991  
  19786027.070   105879027.79309      1262.902    19786031.034    82350373.56008
       982.258  
 20 10 02 05 08 35.0000000  0 15G15G18G29G 5G30G23G20G13R14R 4R22R 6
                                R 5R20R21
  20590977.864   108206324.91449      1996.546    20590977.884    84316618.64049
      1555.750  
  21125212.280   111013739.90649      2057.391    21125211.850    86504217.26947
      1603.156  
  22648624.280   119019318.93548     -3035.495    22648624.360    92742323.95449
     -2365.324  
  22002442.423   115623615.23648     -2693.577    22002442.750    90096322.22149
     -2098.894  
  23788187.989   125007760.86547      -505.926    23788190.452    97408664.04145
      -394.227  
  23771469.140   124919910.18747      3170.070    23771469.714    97340196.38344
      2470.179  
  23404829.668   122993215.44947      3165.434    23404829.773    95838882.73944
      2466.569  
  20460404.583   107520153.13149       -61.944    20460403.337    83781935.04048
       -48.272  
  22916700.466   122158908.70605      1551.968    22916705.985    95012503.92606
      1207.082  
  23204660.876   124259905.99806     -3844.551    23204661.260    96646611.98904
     -2990.206  
  23062308.720   123108162.78805      4125.456    23062313.528    95750827.67001
      3208.691  
  20442654.479   109085922.68907      2533.323           0.000           0.0000 
         0.000  
  19595618.968   104749815.00609     -1686.848    19595622.589    81472095.68708
     -1311.991  
  20719773.831   110797946.85206     -3343.366    20719780.325    86176198.43607
     -2600.402  
  19784849.033   105872723.66009      1258.613    19784852.996    82345470.35408
       978.922  
 20 10 02 05 08 40.0000000  0 15G15G18G29G 5G30G23G20G13R14R 4R22R 6
                                R 5R20R21
  20589079.698   108196349.66949      1993.706    20589079.623    84308845.73349
      1553.539  
  21123255.802   111003458.13848      2055.313    21123255.314    86496205.51847
      1601.543  
  22651513.229   119034500.49848     -3037.184    22651513.408    92754153.71949
     -2366.644  
  22005005.758   115637085.71448     -2694.651    22005006.028    90106818.69949
     -2099.730  
  23788670.543   125010296.20446      -508.769    23788672.771    97410639.62145
      -396.444  
  23768452.852   124904059.80347      3169.914    23768453.450    97327845.41444
      2470.059  
  23401817.910   122977388.39448      3165.324    23401817.777    95826549.99444
      2466.492  
  20460464.864   107520470.62549       -65.180    20460463.693    83782182.43748
       -50.792  
  22915246.424   122151158.25105      1548.378    22915251.957    95006475.88006
      1204.300  
  23208250.982   124279130.23105     -3844.734    23208251.048    96661564.07705
     -2990.354  
  23058445.469   123087539.61505      4124.042    23058449.954    95734787.42302
      3207.590  
  20440281.917   109073262.62107      2531.148           0.000           0.0000 
         0.000  
  19597197.634   104758254.91309     -1689.151    19597201.663    81478660.04508
     -1313.789  
  20722901.268   110814670.85306     -3346.433    20722907.611    86189206.00008
     -2602.781  
  19783675.080   105866441.10309      1254.660    19783678.829    82340583.91908
       975.848  
