     2.11           OBSERVATION DATA    G                   RINEX VERSION / TYPE
LEICA GEO OFFICE 8.4                    4-10-20 09:12       PGM / RUN BY / DATE
                                                            OBSERVER / AGENCY
mxb2                                                        MARKER NAME
mxb2                                                        MARKER NUMBER
457569              LEICA GX1220        2.14                REC # / TYPE / VERS
                    LEIAX1202                               ANT # / TYPE
 -1232070.3243  3822163.2518  4939712.4265                  APPROX POSITION XYZ
        1.2960        0.0000        0.0000                  ANTENNA: DELTA H/E/N
L1PhaOff:   0.0648  L2PhaOff:   0.0622                      COMMENT
     1     1                                                WAVELENGTH FACT L1/2
     6    C1    L1    D1    P2    L2    D2                  # / TYPES OF OBSERV
  2020    10     3     8    18   35.0000000     GPS         TIME OF FIRST OBS
  2020    10     3     9    52    5.0000000     GPS         TIME OF LAST OBS
    18                                                      LEAP SECONDS
    13                                                      # OF SATELLITES
          C1    L1    D1    P2    L2    D2                  COMMENT
   G 1   501   501   501   500   500   500                  PRN / # OF OBS
   G 2     0     0     0     0     0     0                  PRN / # OF OBS
   G 3     0     0     0     0     0     0                  PRN / # OF OBS
   G 4     0     0     0     0     0     0                  PRN / # OF OBS
   G 5     0     0     0     0     0     0                  PRN / # OF OBS
   G 6     0     0     0     0     0     0                  PRN / # OF OBS
   G 7     0     0     0     0     0     0                  PRN / # OF OBS
   G 8     0     0     0     0     0     0                  PRN / # OF OBS
   G 9     0     0     0     0     0     0                  PRN / # OF OBS
   G10  1123  1123  1123  1123  1123  1123                  PRN / # OF OBS
   G11  1036  1036  1036  1036  1036  1036                  PRN / # OF OBS
   G12  1023  1023  1023  1022  1022  1022                  PRN / # OF OBS
   G13     0     0     0     0     0     0                  PRN / # OF OBS
   G14     0     0     0     0     0     0                  PRN / # OF OBS
   G15   476   476   476   476   476   476                  PRN / # OF OBS
   G16     0     0     0     0     0     0                  PRN / # OF OBS
   G17     0     0     0     0     0     0                  PRN / # OF OBS
   G18   217   217   217   217   217   217                  PRN / # OF OBS
   G19     0     0     0     0     0     0                  PRN / # OF OBS
   G20  1123  1123  1123  1123  1123  1123                  PRN / # OF OBS
   G21  1123  1123  1123  1123  1123  1123                  PRN / # OF OBS
   G22     0     0     0     0     0     0                  PRN / # OF OBS
   G23  1123  1123  1123  1123  1123  1123                  PRN / # OF OBS
   G24  1123  1123  1123  1123  1123  1123                  PRN / # OF OBS
   G25   605   605   605   605   605   605                  PRN / # OF OBS
   G26     0     0     0     0     0     0                  PRN / # OF OBS
   G27     0     0     0     0     0     0                  PRN / # OF OBS
   G28     0     0     0     0     0     0                  PRN / # OF OBS
   G29     0     0     0     0     0     0                  PRN / # OF OBS
   G30     0     0     0     0     0     0                  PRN / # OF OBS
   G31   382   382   382   381   381   381                  PRN / # OF OBS
   G32  1123  1123  1123  1123  1123  1123                  PRN / # OF OBS
                                                            END OF HEADER
 20 10 03 08 18 35.0000000  0  8G15G21G18G24G32G20G23G10
  23287389.855   122376063.43848     -3328.090    23287390.141    95357975.73846
     -2593.320  
  23471485.165   123343515.04047      1370.976    23471484.352    96111812.28646
      1068.288  
  23802515.602   125083062.38747     -3785.145    23802517.340    97467331.18945
     -2949.464  
  20657062.309   108553628.51549      -860.633    20657064.804    84587269.65249
      -670.624  
  22798833.999   119808705.52348      2864.097    22798836.350    93357449.50949
      2231.761  
  20245719.493   106392000.86448     -1338.570    20245718.801    82902874.88248
     -1043.047  
  20316562.202   106764290.81648      -983.695    20316562.554    83192975.33048
      -766.519  
  20683258.799   108691285.46949      1262.843    20683260.702    84694530.19649
       984.031  
 20 10 03 08 18 40.0000000  0  8G15G21G18G24G32G20G23G10
  23290556.361   122392703.85347     -3328.156    23290556.813    95370942.29246
     -2593.370  
  23470181.638   123336665.40147      1368.776    23470180.780    96106474.91145
      1066.577  
  23806117.154   125101988.98247     -3785.355    23806118.987    97482079.17945
     -2949.629  
  20657882.654   108557939.33549      -863.750    20657885.102    84590628.73349
      -673.054  
  22796109.352   119794387.59648      2863.069    22796111.679    93346292.68549
      2230.960  
  20246994.253   106398699.36748     -1341.233    20246993.561    82908094.49648
     -1045.121  
  20317499.391   106769215.27749      -986.359    20317499.593    83196812.56748
      -768.593  
  20682058.246   108684976.64849      1260.659    20682060.173    84689614.23149
       982.328  
 20 10 03 08 18 45.0000000  0  8G15G21G18G24G32G20G23G10
  23293723.681   122409347.51347     -3329.175    23293723.986    95383911.39646
     -2594.168  
  23468880.584   123329828.09447      1366.098    23468879.889    96101147.13346
      1064.488  
  23809719.398   125120918.77646     -3785.969    23809721.184    97496829.66745
     -2950.108  
  20658706.247   108562267.06348      -867.304    20658708.558    84594000.98849
      -675.824  
  22793385.702   119780074.74948      2862.074    22793387.998    93335139.82549
      2230.183  
  20248271.510   106405411.86848     -1343.918    20248271.022    82913325.01748
     -1047.211  
  20318439.075   106774153.16349      -989.065    20318439.301    83200660.26648
      -770.703  
  20680859.976   108678679.82249      1258.160    20680861.827    84684707.61249
       980.382  
 20 10 03 08 18 50.0000000  0  8G15G21G18G24G32G20G23G10
  23296891.300   122425993.96348     -3329.651    23296891.650    95396882.63946
     -2594.538  
  23467581.655   123323002.73947      1363.839    23467580.931    96095828.68045
      1062.729  
  23813322.223   125139851.40747     -3787.105    23813324.023    97511582.34745
     -2950.996  
  20659532.882   108566611.24749      -870.617    20659535.435    84597386.07149
      -678.406  
  22790662.976   119765766.60248      2861.051    22790665.265    93323990.62549
      2229.387  
  20249551.605   106412138.03248     -1346.780    20249550.915    82918566.18148
     -1049.440  
  20319381.225   106779104.10049      -991.719    20319381.464    83204518.14048
      -772.770  
  20679663.991   108672394.59549      1255.762    20679665.926    84679810.03549
       978.511  
 20 10 03 08 18 55.0000000  0  8G15G21G18G24G32G20G23G10
  23300059.698   122442643.72647     -3330.297    23300060.037    95409856.46746
     -2595.039  
  23466285.182   123316189.79047      1361.586    23466284.392    96090519.88146
      1060.973  
  23816925.679   125158787.22646     -3787.590    23816927.373    97526337.52446
     -2951.370  
  20660362.739   108570972.42448      -873.862    20660365.255    84600784.38749
      -680.937  
  22787941.204   119751463.62748      2860.137    22787943.530    93312845.44949
      2228.675  
  20250834.183   106418878.30648     -1349.297    20250833.488    82923818.32648
     -1051.401  
  20320325.831   106784068.57048      -994.289    20320326.065    83208386.55848
      -774.772  
  20678470.290   108666121.43749      1253.464    20678471.985    84674921.85649
       976.723  
 20 10 03 08 19  0.0000000  0  8G15G21G18G24G32G20G23G10
  23303228.865   122459297.02947     -3331.222    23303229.174    95422833.05246
     -2595.761  
  23464991.184   123309389.53547      1358.602    23464990.307    96085220.97845
      1058.648  
  23820529.654   125177726.52546     -3787.815    23820531.520    97541095.40346
     -2951.547  
  20661195.855   108575350.76249      -877.477    20661198.486    84604196.07749
      -683.749  
  22785220.565   119737166.03848      2858.977    22785222.764    93301704.49049
      2227.769  
  20252119.433   106425632.93548     -1352.496    20252118.777    82929081.67948
     -1053.894  
  20321273.124   106789046.78249      -997.223    20321273.363    83212265.67948
      -777.058  
  20677278.865   108659860.60949      1250.875    20677280.734    84670043.29049
       974.702  
 20 10 03 08 19  5.0000000  0  8G15G21G18G24G32G20G23G10
  23306398.603   122475954.02147     -3331.582    23306398.795    95435812.52646
     -2596.043  
  23463699.654   123302602.09347      1356.585    23463698.895    96079932.07945
      1057.077  
  23824134.379   125196669.48146     -3788.664    23824136.265    97555856.13646
     -2952.206  
  20662032.377   108579746.33749      -880.703    20662034.898    84607621.20349
      -686.266  
  22782500.878   119722874.08348      2858.042    22782502.978    93290567.89349
      2227.042  
  20253407.725   106432402.10848     -1355.167    20253407.006    82934356.35648
     -1055.976  
  20322223.055   106794038.92148      -999.715    20322223.343    83216155.65848
      -779.000  
  20676089.913   108653612.28149      1248.516    20676091.680    84665174.46849
       972.867  
 20 10 03 08 19 10.0000000  0  8G15G21G18G24G32G20G23G10
  23309568.689   122492613.46947     -3332.120    23309568.913    95448793.91446
     -2596.460  
  23462410.231   123295826.25347      1353.832    23462409.478    96074652.19746
      1054.929  
  23827739.498   125215614.82446     -3789.492    23827741.218    97570618.72245
     -2952.858  
  20662871.755   108584157.95748      -883.972    20662874.227    84611058.83449
      -688.812  
  22779781.960   119708586.47848      2857.031    22779784.178    93279434.70549
      2226.254  
  20254698.301   106439184.57048     -1357.944    20254697.642    82939641.39048
     -1058.141  
  20323175.468   106799043.76448     -1002.249    20323175.749    83220055.53948
      -780.977  
  20674903.053   108647375.22749      1246.331    20674904.824    84660314.43049
       971.163  
 20 10 03 08 19 15.0000000  0  8G15G21G18G24G32G20G23G10
  23312739.546   122509276.71447     -3332.746    23312739.974    95461778.25246
     -2596.949  
  23461123.303   123289063.27947      1351.683    23461122.468    96069382.35345
      1053.257  
  23831345.387   125234563.77346     -3790.108    23831347.157    97585384.12846
     -2953.336  
  20663714.542   108588586.92248      -887.511    20663716.986    84614509.97749
      -691.570  
  22777064.176   119694304.49148      2856.077    22777066.362    93268305.88849
      2225.511  
  20255991.744   106445981.56448     -1360.815    20255990.959    82944937.74548
     -1060.378  
  20324130.549   106804062.55948     -1005.030    20324130.854    83223966.28648
      -783.144  
  20673718.473   108641150.71649      1243.707    20673720.408    84655464.16049
       969.120  
 20 10 03 08 19 20.0000000  0  8G15G21G18G24G32G20G23G10
  23315910.945   122525942.09247     -3333.433    23315911.298    95474764.26346
     -2597.484  
  23459838.433   123282311.73947      1349.007    23459837.746    96064121.41445
      1051.172  
  23834951.625   125253514.83646     -3790.312    23834953.415    97600151.18346
     -2953.491  
  20664560.416   108593031.55448      -890.629    20664562.924    84617973.32749
      -693.999  
  22774347.162   119680026.60948      2855.144    22774349.502    93257180.27049
      2224.784  
  20257287.653   106452791.58348     -1363.453    20257287.015    82950244.25148
     -1062.433  
  20325087.916   106809093.77848     -1007.679    20325088.149    83227886.71548
      -785.206  
  20672536.177   108634937.24149      1241.421    20672537.946    84650622.49349
       967.339  
 20 10 03 08 19 25.0000000  0  8G15G21G18G24G32G20G23G10
  23319082.970   122542611.53747     -3334.211    23319083.362    95487753.42746
     -2598.090  
  23458556.233   123275573.48247      1346.348    23458555.412    96058870.81346
      1049.097  
  23838558.627   125272469.91946     -3791.272    23838560.473    97614921.35945
     -2954.246  
  20665409.529   108597493.95248      -894.198    20665412.021    84621450.51749
      -696.781  
  22771631.304   119665754.77348      2853.758    22771633.640    93246059.36349
      2223.703  
  20258586.404   106459616.56548     -1366.492    20258585.742    82955562.41448
     -1064.800  
  20326048.136   106814139.35848     -1010.500    20326048.390    83231818.33548
      -787.405  
  20671356.169   108628736.72849      1238.788    20671357.928    84645790.92049
       965.285  
 20 10 03 08 19 30.0000000  0  8G15G21G18G24G32G20G23G10
  23322255.715   122559284.51947     -3335.102    23322256.120    95500745.37446
     -2598.785  
  23457276.298   123268847.97547      1343.886    23457275.715    96053630.16846
      1047.180  
  23842166.421   125291428.47346     -3792.328    23842168.159    97629694.26145
     -2955.062  
  20666262.048   108601973.62748      -897.805    20666264.552    84624941.17749
      -699.589  
  22768916.575   119651488.43548      2852.664    22768918.740    93234942.73849
      2222.852  
  20259887.830   106466455.95048     -1369.340    20259887.150    82960891.80548
     -1067.019  
  20327010.822   106819198.74448     -1013.218    20327011.075    83235760.71548
      -789.523  
  20670178.623   108622548.64849      1236.363    20670180.590    84640969.04549
       963.398  
 20 10 03 08 19 35.0000000  0  8G15G21G18G24G32G20G23G10
  23325429.066   122575960.34347     -3335.507    23325429.405    95513739.50846
     -2599.102  
  23455998.902   123262134.52447      1341.531    23455997.974    96048398.90645
      1045.348  
  23845774.519   125310389.77746     -3792.796    23845776.357    97644469.29045
     -2955.429  
  20667117.620   108606469.69048      -900.800    20667120.010    84628444.60449
      -701.926  
  22766202.613   119637226.90348      2851.815    22766204.809    93223829.86649
      2222.190  
  20261192.140   106473309.01648     -1371.870    20261191.245    82966231.85648
     -1068.991  
  20327976.178   106824271.25748     -1015.726    20327976.433    83239713.32048
      -791.477  
  20669003.362   108616372.29649      1234.194    20669005.201    84636156.30249
       961.706  
 20 10 03 08 19 40.0000000  0  8G15G21G18G24G32G20G23G10
  23328602.803   122592638.91047     -3335.874    23328603.164    95526735.79946
     -2599.387  
  23454723.732   123255433.08647      1339.074    23454723.000    96043177.00945
      1043.430  
  23849383.273   125329353.75546     -3793.070    23849384.980    97659246.40445
     -2955.640  
  20667976.429   108610982.20049      -903.983    20667978.636    84631960.84749
      -704.405  
  22763489.774   119622970.09048      2851.176    22763491.875    93212720.66549
      2221.691  
  20262498.720   106480175.70748     -1374.586    20262498.015    82971582.52048
     -1071.108  
  20328943.827   106829356.81948     -1018.414    20328944.260    83243676.09548
      -793.574  
  20667830.190   108610207.64349      1231.792    20667832.014    84631352.67549
       959.835  
 20 10 03 08 19 45.0000000  0  8G15G21G18G24G32G20G23G10
  23331777.291   122609320.20747     -3336.792    23331777.665    95539734.19746
     -2600.102  
  23453450.657   123248743.56147      1336.464    23453449.928    96037964.39645
      1041.397  
  23852992.601   125348320.24346     -3793.941    23852994.203    97674025.47845
     -2956.320  
  20668838.085   108615510.98149      -907.530    20668840.443    84635489.76949
      -707.171  
  22760777.546   119608717.95148      2849.640    22760779.913    93201615.10449
      2220.495  
  20263807.952   106487055.92048     -1377.621    20263807.238    82976943.72648
     -1073.472  
  20329914.143   106834455.33148     -1021.226    20329914.269    83247648.96448
      -795.765  
  20666659.315   108604054.56349      1229.253    20666661.282    84626558.06749
       957.855  
 20 10 03 08 19 50.0000000  0  8G15G21G18G24G32G20G23G10
  23334952.353   122626005.71047     -3337.015    23334952.657    95552735.88346
     -2600.272  
  23452180.266   123242067.54947      1334.214    23452179.524    96032762.30545
      1039.645  
  23856602.438   125367290.90746     -3794.211    23856604.203    97688807.79346
     -2956.534  
  20669703.350   108620057.57549      -910.875    20669705.677    84639032.57149
      -709.776  
  22758066.802   119594472.05548      2848.831    22758068.912    93190514.41349
      2219.867  
  20265120.226   106493951.25048     -1380.289    20265119.361    82982316.70948
     -1075.554  
  20330887.128   106839568.37349     -1023.835    20330887.454    83251633.14948
      -797.796  
  20665490.897   108597914.67249      1226.976    20665492.725    84621773.73849
       956.082  
 20 10 03 08 19 55.0000000  0  8G15G21G18G24G32G20G23G10
  23338128.148   122642694.43847     -3338.289    23338128.629    95565740.08246
     -2601.265  
  23450912.322   123235404.05147      1331.508    23450911.296    96027569.96745
      1037.534  
  23860213.016   125386264.65446     -3795.284    23860214.821    97703592.54445
     -2957.367  
  20670571.842   108624621.09149      -914.438    20670574.070    84642588.55849
      -712.550  
  22755356.827   119580231.34848      2847.508    22755358.905    93179417.76449
      2218.836  
  20266434.975   106500860.64748     -1383.370    20266434.213    82987700.65448
     -1077.952  
  20331862.589   106844694.92349     -1026.641    20331862.836    83255627.86548
      -799.983  
  20664324.787   108591786.93949      1224.151    20664326.633    84616998.88249
       953.882  
 20 10 03 08 20  0.0000000  0  8G15G21G18G24G32G20G23G10
  23341304.355   122659385.89247     -3338.546    23341304.808    95578746.40846
     -2601.468  
  23449646.490   123228752.56047      1329.276    23449645.607    96022386.99446
      1035.797  
  23863824.191   125405241.00946     -3795.749    23863825.952    97718379.27045
     -2957.734  
  20671443.201   108629200.92449      -917.418    20671445.652    84646157.26149
      -714.874  
  22752647.802   119565995.42248      2846.676    22752649.868    93168324.83449
      2218.187  
  20267752.378   106507783.64548     -1385.753    20267751.753    82993095.19848
     -1079.812  
  20332840.721   106849834.51149     -1029.082    20332840.905    83259632.73748
      -801.887  
  20663160.952   108585670.91549      1222.229    20663162.968    84612233.14749
       952.382  
 20 10 03 08 20  5.0000000  0  8G15G21G18G24G32G20G23G10
  23344481.291   122676080.33547     -3339.164    23344481.737    95591755.06046
     -2601.948  
  23448383.093   123222113.36447      1326.668    23448382.210    96017213.59445
      1033.766  
  23867435.822   125424220.22446     -3795.961    23867437.652    97733168.26545
     -2957.895  
  20672317.992   108633797.51649      -920.926    20672320.401    84649739.02249
      -717.609  
  22749939.719   119551764.47548      2845.729    22749941.827    93157235.79549
      2217.448  
  20269072.468   106514720.54648     -1388.766    20269071.733    82998500.57548
     -1082.160  
  20333821.294   106854987.39149     -1031.827    20333821.412    83263647.96948
      -804.023  
  20661999.394   108579566.85549      1219.633    20662001.252    84607476.73949
       950.358  
 20 10 03 08 20 10.0000000  0  8G15G21G18G24G32G20G23G10
  23347658.804   122692778.30947     -3340.059    23347659.185    95604766.46046
     -2602.644  
  23447122.218   123215487.01747      1323.746    23447121.364    96012050.20446
      1031.488  
  23871047.986   125443202.77446     -3796.965    23871049.837    97747959.84246
     -2958.675  
  20673196.034   108638411.21849      -924.461    20673198.336    84653334.11349
      -720.363  
  22747232.754   119537539.09248      2844.340    22747234.979    93146151.08249
      2216.367  
  20270395.205   106521671.82548     -1391.723    20270394.615    83003917.15048
     -1084.460  
  20334804.540   106860154.10448     -1034.776    20334804.604    83267673.97748
      -806.324  
  20660840.317   108573475.30049      1216.977    20660842.227    84602730.07049
       948.289  
 20 10 03 08 20 15.0000000  0  8G15G21G18G24G32G20G23G10
  23350836.876   122709479.28347     -3340.073    23350837.344    95617780.20646
     -2602.659  
  23445863.427   123208872.96247      1321.690    23445862.723    96006896.40645
      1029.886  
  23874660.952   125462188.19546     -3797.098    23874662.659    97762753.67945
     -2958.780  
  20674077.097   108643041.39449      -927.526    20674079.446    84656942.04949
      -722.749  
  22744526.575   119523318.74348      2843.604    22744528.885    93135070.29749
      2215.792  
  20271720.592   106528636.97148     -1394.132    20271719.955    83009344.53948
     -1086.340  
  20335790.267   106865334.10148     -1036.996    20335790.485    83271710.33648
      -808.051  
  20659683.325   108567395.73749      1214.897    20659685.157    84597992.75049
       946.671  
 20 10 03 08 20 20.0000000  0  8G15G21G18G24G32G20G23G10
  23354015.354   122726182.92847     -3341.011    23354015.995    95630796.03546
     -2603.391  
  23444607.119   123202270.92747      1319.262    23444606.245    96001751.96245
      1027.991  
  23878274.254   125481176.13346     -3797.594    23878275.984    97777549.45745
     -2959.168  
  20674961.203   108647687.81049      -930.922    20674963.491    84660562.63049
      -725.397  
  22741821.555   119509103.11148      2842.644    22741823.771    93123993.18549
      2215.042  
  20273048.688   106535615.69348     -1396.969    20273047.992    83014782.50348
     -1088.550  
  20336778.470   106870527.11548     -1039.909    20336778.553    83275756.84148
      -810.323  
  20658528.618   108561327.86349      1212.413    20658530.533    84593264.53749
       944.734  
 20 10 03 08 20 25.0000000  0  8G15G21G18G24G32G20G23G10
  23357194.604   122742889.40447     -3341.687    23357195.106    95643814.05546
     -2603.913  
  23443353.266   123195681.01147      1316.796    23443352.232    95996616.96045
      1026.074  
  23881887.960   125500166.72246     -3798.722    23881889.835    97792347.32245
     -2960.046  
  20675848.551   108652350.66449      -934.477    20675850.954    84664196.01849
      -728.167  
  22739117.268   119494892.36148      2841.305    22739119.389    93112919.87949
      2213.999  
  20274379.403   106542608.11448     -1400.022    20274378.702    83020231.13548
     -1090.929  
  20337769.152   106875733.24648     -1042.745    20337769.314    83279813.56348
      -812.531  
  20657376.198   108555271.82849      1209.804    20657378.092    84588545.54749
       942.702  
 20 10 03 08 20 30.0000000  0  8G15G21G18G24G32G20G23G10
  23360374.396   122759599.85447     -3342.266    23360374.954    95656835.18946
     -2604.366  
  23442101.687   123189104.41947      1314.309    23442100.925    95991492.34545
      1024.133  
  23885502.619   125519161.10446     -3799.065    23885504.440    97807148.12045
     -2960.316  
  20676739.325   108657031.12349      -937.729    20676741.602    84667843.13449
      -730.702  
  22736414.128   119480687.61048      2840.621    22736416.462    93101851.24949
      2213.469  
  20275712.786   106549615.40248     -1402.770    20275712.091    83025691.35748
     -1093.070  
  20338762.493   106880953.66248     -1045.305    20338762.772    83283881.41848
      -814.526  
  20656226.242   108549228.80049      1207.542    20656228.119    84583836.69649
       940.937  
 20 10 03 08 20 35.0000000  0  8G15G21G18G24G32G20G23G10
  23363554.766   122776312.77847     -3343.164    23363555.292    95669858.23646
     -2605.066  
  23440852.396   123182539.72647      1311.578    23440851.505    95986376.99446
      1022.003  
  23889117.464   125538157.80646     -3799.949    23889119.280    97821950.72246
     -2961.004  
  20677632.941   108661727.72749      -940.999    20677635.153    84671502.82649
      -733.249  
  22733711.953   119466487.49148      2839.390    22733714.269    93090786.22349
      2212.508  
  20277048.837   106556636.11848     -1405.512    20277048.180    83031162.04248
     -1095.207  
  20339758.288   106886186.94449     -1048.035    20339758.656    83287959.30148
      -816.652  
  20655078.576   108543197.36649      1205.031    20655080.323    84579136.87849
       938.980  
 20 10 03 08 20 40.0000000  0  8G15G21G18G24G32G20G23G10
  23366735.900   122793029.03347     -3343.773    23366736.158    95682883.88047
     -2605.539  
  23439605.598   123175987.72347      1309.159    23439604.839    95981271.54245
      1020.121  
  23892733.041   125557157.69546     -3800.238    23892734.752    97836755.82045
     -2961.229  
  20678529.975   108666441.36549      -944.477    20678532.136    84675175.79249
      -735.957  
  22731010.737   119452292.78748      2838.425    22731013.055    93079725.42249
      2211.758  
  20278387.574   106563671.04348     -1408.438    20278386.706    83036643.80248
     -1097.488  
  20340756.750   106891433.89849     -1050.753    20340756.987    83292047.83248
      -818.772  
  20653933.201   108537178.31849      1202.526    20653934.982    84574446.71149
       937.030  
 20 10 03 08 20 45.0000000  0  8G15G21G18G24G32G20G23G10
  23369917.406   122809748.52347     -3344.444    23369917.960    95695912.04746
     -2606.066  
  23438361.285   123169448.34647      1306.602    23438360.353    95976175.92445
      1018.129  
  23896349.150   125576160.63446     -3801.219    23896350.956    97851563.28945
     -2961.992  
  20679430.068   108671171.75649      -947.976    20679432.292    84678861.80949
      -738.688  
  22728310.643   119438103.41548      2837.229    22728312.816    93068668.77049
      2210.824  
  20279728.966   106570720.07448     -1411.460    20279728.166    83042136.54548
     -1099.844  
  20341757.897   106896694.42949     -1053.688    20341758.009    83296146.94348
      -821.059  
  20652790.110   108531171.58349      1199.996    20652792.083    84569766.13949
       935.059  
 20 10 03 08 20 50.0000000  0  8G15G21G18G24G32G20G23G10
  23373099.495   122826470.91947     -3344.715    23373099.991    95708942.49546
     -2606.272  
  23437119.253   123162921.23947      1304.211    23437118.280    95971089.87346
      1016.266  
  23899965.894   125595166.15846     -3801.124    23899967.450    97866372.79045
     -2961.918  
  20680333.403   108675918.53449      -950.836    20680335.628    84682560.60149
      -740.914  
  22725611.332   119423918.99848      2836.483    22725613.561    93057615.98849
      2210.245  
  20281072.815   106577782.85748     -1413.867    20281072.315    83047640.01448
     -1101.718  
  20342761.509   106901968.16649     -1056.031    20342761.714    83300256.35448
      -822.883  
  20651649.288   108525176.80849      1197.831    20651651.133    84565094.88749
       933.370  
 20 10 03 08 20 55.0000000  0  8G15G21G18G24G32G20G23G10
  23376282.909   122843199.21647     -3345.397    23376283.293    95721977.52246
     -2606.808  
  23435880.081   123156409.46947      1301.351    23435879.140    95966015.77245
      1014.034  
  23903583.567   125614177.44146     -3802.101    23903585.196    97881186.76045
     -2962.680  
  20681240.333   108680684.88949      -954.609    20681242.613    84686274.64549
      -743.855  
  22722913.728   119409742.61948      2835.261    22722916.009    93046569.46449
      2209.293  
  20282420.106   106584862.48148     -1416.949    20282419.384    83053156.60148
     -1104.120  
  20343768.149   106907258.15849     -1058.987    20343768.349    83304378.42148
      -825.187  
  20650511.531   108519197.04049      1195.144    20650513.358    84560435.32849
       931.277  
 20 10 03 08 21  0.0000000  0  8G15G21G18G24G32G20G23G10
  23379466.124   122859927.31447     -3345.796    23379466.589    95735012.39946
     -2607.116  
  23434642.602   123149906.87947      1299.496    23434641.713    95960948.80846
      1012.589  
  23907201.268   125633188.27546     -3802.098    23907202.906    97896000.39545
     -2962.676  
  20682149.941   108685464.66449      -957.331    20682152.296    84689999.14649
      -745.976  
  22720216.504   119395568.14548      2834.641    22720218.705    93035524.42349
      2208.809  
  20283769.293   106591952.78948     -1419.214    20283768.655    83058681.51648
     -1105.886  
  20344776.707   106912558.28748     -1061.015    20344776.930    83308508.39148
      -826.769  
  20649375.285   108513226.18449      1193.113    20649377.035    84555782.71449
       929.695  
 20 10 03 08 21  5.0000000  0  8G15G21G18G24G32G20G23G10
  23382650.119   122876659.81647     -3346.651    23382650.569    95748050.70246
     -2607.785  
  23433407.983   123143418.19447      1296.586    23433406.988    95955892.69045
      1010.323  
  23910819.724   125652203.35746     -3803.761    23910821.404    97910817.32345
     -2963.977  
  20683062.974   108690262.56049      -961.113    20683065.152    84693737.76549
      -748.921  
  22717520.425   119381400.28148      2833.124    22717522.621    93024484.53549
      2207.625  
  20285121.516   106599058.48648     -1422.520    20285120.877    83064218.41948
     -1108.460  
  20345788.105   106917873.25549     -1064.160    20345788.197    83312649.92248
      -829.219  
  20648241.524   108507268.91649      1190.444    20648243.412    84551140.68749
       927.616  
 20 10 03 08 21 10.0000000  0  9G11G15G21G18G24G32G20G23G10
  24339517.607   127905037.49855      1684.792    24339520.659    99666258.82455
      1312.823  
  23385834.503   122893393.74347     -3347.188    23385835.037    95761090.12846
     -2608.202  
  23432175.239   123136940.36047      1294.297    23432174.498    95950845.03545
      1008.538  
  23914438.303   125671219.62046     -3803.136    23914440.260    97925635.18345
     -2963.488  
  20683978.871   108695075.47149      -964.141    20683981.172    84697488.08749
      -751.280  
  22714824.901   119367235.98748      2832.500    22714827.277    93013447.42949
      2207.141  
  20286476.020   106606176.51748     -1424.945    20286475.263    83069764.93648
     -1110.351  
  20346801.801   106923200.01349     -1066.733    20346801.907    83316800.64348
      -831.227  
  20647110.033   108501322.23349      1188.233    20647111.743    84546506.90849
       925.894  
 20 10 03 08 21 15.0000000  0  9G11G15G21G18G24G32G20G23G10
  24337917.374   127896621.97046      1681.737    24337916.952    99659701.25944
      1310.440  
  23389019.464   122910130.23547     -3347.483    23389019.785    95774131.54746
     -2608.433  
  23430944.826   123130474.59047      1292.003    23430943.942    95945806.77145
      1006.754  
  23918057.494   125690238.22246     -3804.112    23918059.166    97940454.87445
     -2964.245  
  20684897.805   108699904.47449      -967.495    20684899.894    84701250.94549
      -753.895  
  22712130.510   119353076.39648      2831.363    22712132.660    93002413.98549
      2206.253  
  20287833.201   106613308.05048     -1427.629    20287832.354    83075321.96648
     -1112.441  
  20347817.769   106928539.71049     -1069.293    20347818.070    83320961.44348
      -833.219  
  20645980.633   108495387.26249      1185.879    20645982.515    84541882.25449
       924.059  
 20 10 03 08 21 20.0000000  0  9G11G15G21G18G24G32G20G23G10
  24336317.981   127888222.04245      1678.746    24336320.323    99653155.82845
      1308.105  
  23392204.980   122926870.26547     -3348.175    23392205.299    95787175.72346
     -2608.972  
  23429716.862   123124021.81847      1289.487    23429716.037    95940778.64346
      1004.793  
  23921677.218   125709260.12246     -3804.676    23921679.015    97955277.11345
     -2964.687  
  20685819.970   108704750.54649      -970.948    20685822.277    84705027.10649
      -756.585  
  22709437.091   119338922.51048      2830.519    22709439.267    92991384.98949
      2205.597  
  20289193.048   106620454.03548     -1430.413    20289192.366    83080890.26848
     -1114.613  
  20348836.611   106933893.32148     -1071.969    20348836.912    83325133.08948
      -835.304  
  20644853.708   108489465.01249      1183.250    20644855.481    84537267.51949
       922.011  
 20 10 03 08 21 25.0000000  0  9G11G15G21G18G24G32G20G23G10
  24334722.245   127879837.85845      1675.316    24334724.687    99646622.74544
      1305.438  
  23395391.034   122943613.71447     -3348.867    23395391.479    95800222.56646
     -2609.511  
  23428491.358   123117581.90647      1286.733    23428490.583    95935760.52245
      1002.648  
  23925297.567   125728285.18646     -3805.448    23925299.127    97970101.83546
     -2965.288  
  20686745.355   108709613.75649      -974.320    20686747.586    84708816.62349
      -759.215  
  22706744.809   119324774.19148      2829.238    22706747.093    92980360.33449
      2204.597  
  20290555.557   106627614.34948     -1433.391    20290554.829    83086469.73048
     -1116.929  
  20349857.918   106939260.70049     -1074.772    20349858.199    83329315.46248
      -837.488  
  20643729.048   108483555.32149      1180.788    20643730.897    84532662.56649
       920.093  
 20 10 03 08 21 30.0000000  0  9G11G15G21G18G24G32G20G23G10
  24333130.183   127871469.23345      1672.098    24333131.119    99640101.72644
      1302.930  
  23398577.878   122960360.38147     -3349.699    23398578.154    95813271.90546
     -2610.160  
  23427268.331   123111154.69647      1284.105    23427267.549    95930752.31046
      1000.598  
  23928918.476   125747313.15746     -3805.862    23928919.987    97984928.80745
     -2965.609  
  20687674.000   108714493.75949      -977.730    20687676.318    84712619.21849
      -761.870  
  22704053.460   119310631.27748      2828.077    22704055.665    92969339.88249
      2203.695  
  20291920.723   106634788.81348     -1436.305    20291920.213    83092060.22148
     -1119.202  
  20350881.897   106944641.68449     -1077.569    20350882.172    83333508.43148
      -839.668  
  20642606.878   108477658.05949      1178.121    20642608.746    84528067.29349
       918.011  
 20 10 03 08 21 35.0000000  0  9G11G15G21G18G24G32G20G23G10
  24331540.904   127863116.32845      1668.745    24331540.858    99633592.96944
      1300.320  
  23401765.281   122977110.61247     -3350.362    23401765.865    95826324.01846
     -2610.676  
  23426047.774   123104740.53347      1281.434    23426047.005    95925754.25846
       998.516  
  23932539.886   125766344.45646     -3806.418    23932541.629    97999758.38845
     -2966.043  
  20688605.869   108719390.85849      -981.078    20688608.228    84716435.13949
      -764.480  
  22701363.275   119296494.09948      2827.016    22701365.442    92958323.90049
      2202.866  
  20293288.751   106641977.75648     -1439.194    20293288.047    83097661.98948
     -1121.452  
  20351908.545   106950036.60349     -1080.316    20351908.838    83337712.26648
      -841.809  
  20641486.991   108471773.54449      1175.762    20641488.792    84523481.95849
       916.176  
 20 10 03 08 21 40.0000000  0  9G11G15G21G18G24G32G20G23G10
  24329954.410   127854780.06146      1664.195    24329955.036    99627097.23244
      1296.780  
  23404953.648   122993865.18847     -3352.878    23404954.024    95839379.52846
     -2612.637  
  23424829.898   123098340.24347      1277.484    23424829.102    95920767.02545
       995.438  
  23936162.135   125785379.84646     -3809.093    23936164.036    98014591.13146
     -2968.129  
  20689541.145   108724305.92349      -986.180    20689543.534    84720265.06149
      -768.453  
  22698674.212   119282363.51148      2824.097    22698676.689    92947313.06449
      2200.594  
  20294659.642   106649181.99448     -1443.746    20294659.059    83103275.68148
     -1124.999  
  20352938.024   106955446.30248     -1084.808    20352938.171    83341927.62048
      -845.309  
  20640369.776   108465902.63449      1171.417    20640371.778    84518907.22349
       912.789  
 20 10 03 08 21 45.0000000  0  9G11G15G21G18G24G32G20G23G10
  24328371.891   127846463.52445      1662.449    24328372.261    99620616.75045
      1295.406  
  23408143.388   123010627.22847     -3351.585    23408143.666    95852440.85846
     -2611.628  
  23423615.060   123091956.94047      1276.250    23423614.420    95915793.01345
       994.476  
  23939785.907   125804422.36246     -3807.445    23939787.696    98029429.44545
     -2966.844  
  20690480.624   108729242.16749      -987.968    20690482.765    84724111.49149
      -769.847  
  22695987.058   119268242.54548      2824.613    22695989.400    92936309.72049
      2200.996  
  20296034.151   106656404.58448     -1445.086    20296033.472    83108903.67248
     -1126.042  
  20353970.762   106960873.81149     -1085.960    20353970.936    83346156.84048
      -846.207  
  20639255.773   108460048.38349      1170.460    20639257.683    84514345.47249
       912.043  
 20 10 03 08 21 50.0000000  0  9G11G15G21G18G24G32G20G23G10
  24326790.970   127838155.19446      1660.628    24326791.199    99614142.75345
      1293.991  
  23411332.299   123027385.16047     -3351.684    23411332.579    95865498.98746
     -2611.702  
  23422401.561   123085579.05647      1274.688    23422400.690    95910823.24145
       993.261  
  23943408.735   125823460.51646     -3807.835    23943410.535    98044264.36545
     -2967.148  
  20691421.628   108734187.89449      -990.628    20691423.943    84727965.30249
      -771.921  
  22693299.526   119254119.72248      2824.339    22693301.864    92925304.92849
      2200.780  
  20297409.978   106663634.04548     -1446.979    20297409.353    83114537.01848
     -1127.519  
  20355004.810   106966307.64849     -1087.909    20355005.160    83350391.00148
      -847.726  
  20638142.741   108454199.29649      1168.784    20638144.556    84509787.74349
       910.738  
 20 10 03 08 21 55.0000000  0  9G11G15G21G18G24G32G20G23G10
  24325212.840   127829862.35045      1656.801    24325213.041    99607680.80244
      1291.012  
  23414521.829   123044146.18947     -3352.738    23414522.263    95878559.52447
     -2612.526  
  23421190.152   123079213.84247      1271.632    23421189.384    95905863.33345
       990.878  
  23947032.141   125842501.48846     -3808.828    23947033.831    98059101.46845
     -2967.921  
  20692366.045   108739150.27749      -994.522    20692368.299    84731832.09549
      -774.957  
  22690613.146   119240002.23048      2822.863    22690615.549    92914304.29149
      2199.629  
  20298788.288   106670877.54548     -1450.468    20298787.698    83120181.29648
     -1130.238  
  20356041.351   106971754.98549     -1091.159    20356041.586    83354635.68048
      -850.258  
  20637031.986   108448362.58249      1165.746    20637033.881    84505239.65549
       908.370  
 20 10 03 08 22  0.0000000  0  9G11G15G21G18G24G32G20G23G10
  24323637.632   127821585.29446      1653.573    24323637.990    99601231.16944
      1288.499  
  23417711.921   123060910.70947     -3353.132    23417712.444    95891622.78346
     -2612.831  
  23419981.432   123072861.78847      1269.266    23419980.554    95900913.68845
       989.034  
  23950656.069   125861545.67246     -3809.195    23950657.946    98073941.08345
     -2968.206  
  20693313.510   108744129.80049      -997.573    20693315.832    84735712.24349
      -777.332  
  22687927.706   119225890.49148      2822.055    22687930.214    92903308.13849
      2198.999  
  20300169.419   106678135.50248     -1452.851    20300168.719    83125836.84648
     -1132.093  
  20357080.723   106977216.26749     -1093.616    20357080.962    83358891.22048
      -852.171  
  20635923.709   108442538.64549      1163.652    20635925.646    84500701.52349
       906.738  
 20 10 03 08 22  5.0000000  0  9G11G15G21G18G24G32G20G23G10
  24322065.397   127813323.76745      1650.940    24322065.749    99594793.60444
      1286.445  
  23420902.785   123077678.34047     -3353.918    23420903.277    95904688.46146
     -2613.445  
  23418775.149   123066522.38347      1266.737    23418774.135    95895973.88645
       987.065  
  23954280.588   125880592.64646     -3809.309    23954282.288    98088782.87845
     -2968.297  
  20694264.398   108749126.03149     -1000.730    20694266.537    84739605.40749
      -779.793  
  22685243.414   119211784.12848      2820.742    22685245.855    92892316.17149
      2197.976  
  20301553.241   106685407.50748     -1455.675    20301552.656    83131503.33848
     -1134.297  
  20358122.600   106982691.05549     -1096.210    20358122.763    83363157.28148
      -854.195  
  20634817.907   108436727.11349      1161.184    20634819.862    84496173.05349
       904.816  
 20 10 03 08 22 10.0000000  0  9G11G15G21G18G24G32G20G23G10
  24320496.155   127805077.15745      1647.870    24320496.727    99588367.66245
      1284.050  
  23424093.983   123094448.57647     -3354.468    23424094.576    95917756.17146
     -2613.874  
  23417571.173   123060195.13147      1264.269    23417570.178    95891043.57145
       985.141  
  23957905.553   125899641.93546     -3810.309    23957907.267    98103626.46644
     -2969.073  
  20695218.154   108754138.49349     -1004.324    20695220.432    84743511.22749
      -782.593  
  22682559.898   119197682.62448      2819.762    22682562.224    92881327.99349
      2197.215  
  20302939.718   106692693.05248     -1458.526    20302939.072    83137180.38748
     -1136.520  
  20359166.739   106988178.88849     -1098.891    20359167.010    83367433.51848
      -856.280  
  20633714.203   108430927.48849      1158.523    20633716.025    84491653.87149
       902.742  
 20 10 03 08 22 15.0000000  0  9G11G15G21G18G24G32G20G23G10
  24318929.899   127796846.64846      1644.723    24318930.342    99581954.32644
      1281.602  
  23427285.947   123111222.46047     -3354.836    23427286.393    95930826.72046
     -2614.159  
  23416369.663   123053881.15547      1261.569    23416368.627    95886123.57645
       983.038  
  23961531.264   125918694.55146     -3810.565    23961532.901    98118472.64445
     -2969.277  
  20696175.340   108759168.19349     -1007.636    20696177.491    84747430.47549
      -785.175  
  22679877.680   119183587.06748      2818.688    22679880.061    92870344.45149
      2196.374  
  20304328.850   106699993.27148     -1461.387    20304328.142    83142868.86648
     -1138.745  
  20360213.728   106993680.81949     -1101.612    20360213.968    83371720.73248
      -858.401  
  20632612.972   108425140.85249      1156.194    20632614.865    84487144.80349
       900.930  
 20 10 03 08 22 20.0000000  0  9G11G15G21G18G24G32G20G23G10
  24317366.790   127788631.17245      1641.909    24317366.976    99575552.63546
      1279.405  
  23430478.489   123127999.10147     -3355.703    23430479.001    95943899.41846
     -2614.835  
  23415170.425   123047579.49247      1259.370    23415169.521    95881213.18846
       981.324  
  23965157.364   125937749.61546     -3810.972    23965158.974    98133320.74645
     -2969.594  
  20697135.547   108764214.17849     -1010.698    20697137.717    84751362.40849
      -787.563  
  22677196.238   119169496.52748      2817.730    22677198.637    92859364.81149
      2195.633  
  20305720.646   106707307.17648     -1464.034    20305720.167    83148568.00448
     -1140.808  
  20361263.189   106999195.92848     -1104.152    20361263.573    83376018.21848
      -860.383  
  20631514.210   108419366.28849      1153.871    20631516.154    84482645.14249
       899.116  
 20 10 03 08 22 25.0000000  0  9G11G15G21G18G24G32G20G23G10
  24315806.107   127780430.44445      1638.292    24315806.427    99569162.44845
      1276.590  
  23433671.211   123144777.96947     -3356.141    23433671.754    95956973.86146
     -2615.176  
  23413973.489   123041289.64547      1256.910    23413972.651    95876312.01845
       979.406  
  23968783.817   125956806.56846     -3811.707    23968785.512    98148170.31045
     -2970.164  
  20698098.618   108769275.99549     -1014.206    20698100.889    84755306.68749
      -790.293  
  22674515.739   119155410.50648      2816.680    22674518.188    92848388.69849
      2194.812  
  20307114.915   106714634.27048     -1466.945    20307114.368    83154277.43148
     -1143.078  
  20362315.134   107004723.72249     -1106.941    20362315.401    83380325.58948
      -862.555  
  20630417.546   108413603.31149      1151.293    20630419.405    84478154.51349
       897.108  
 20 10 03 08 22 30.0000000  0  9G11G15G21G18G24G32G20G23G10
  24314248.738   127772246.72646      1634.855    24314248.928    99562785.59343
      1273.913  
  23436865.069   123161561.36447     -3357.050    23436865.526    95970051.82646
     -2615.886  
  23412779.414   123035014.01847      1253.855    23412778.209    95871421.91446
       977.026  
  23972410.966   125975867.70446     -3812.394    23972412.799    98163023.13145
     -2970.699  
  20699065.298   108774355.83949     -1017.687    20699067.719    84759265.00849
      -793.008  
  22671836.583   119141331.34948      2815.335    22671838.948    92837417.93749
      2193.766  
  20308512.041   106721976.86848     -1469.913    20308511.494    83159998.92948
     -1145.391  
  20363369.926   107010266.50248     -1109.987    20363370.156    83384644.63548
      -864.930  
  20629323.543   108407854.22549      1148.491    20629325.337    84473674.70649
       894.926  
 20 10 03 08 22 35.0000000  0  9G11G15G21G18G24G32G20G23G10
  24312694.331   127764077.60745      1632.862    24312694.439    99556419.97045
      1272.354  
  23440059.334   123178347.03147     -3357.312    23440059.836    95983131.55346
     -2616.089  
  23411587.389   123028750.29347      1251.480    23411586.438    95866541.09145
       975.176  
  23976038.543   125994930.78346     -3812.719    23976040.279    98177877.46445
     -2970.953  
  20700035.036   108779451.78449     -1020.819    20700037.239    84763235.87249
      -795.448  
  22669158.201   119127256.76448      2814.261    22669160.690    92826450.73149
      2192.930  
  20309911.833   106729332.70148     -1472.565    20309911.331    83165730.74548
     -1147.457  
  20364426.993   107015821.98948     -1112.469    20364427.353    83388973.58648
      -866.863  
  20628231.625   108402116.77849      1146.305    20628233.461    84469203.97049
       893.222  
 20 10 03 08 22 40.0000000  0  9G11G15G21G18G24G32G20G23G10
  24311142.678   127755923.58446      1629.438    24311142.986    99550066.24945
      1269.690  
  23443253.994   123195135.23747     -3357.672    23443254.571    95996213.27346
     -2616.370  
  23410397.675   123022498.83447      1249.046    23410396.620    95861669.83245
       973.281  
  23979666.661   126013996.08046     -3813.309    23979668.230    98192733.53345
     -2971.413  
  20701007.807   108784563.79449     -1023.816    20701010.182    84767219.25749
      -797.780  
  22666480.942   119113187.07948      2813.390    22666483.403    92815487.34849
      2192.249  
  20311314.292   106736702.07848     -1475.210    20311313.821    83171473.11648
     -1149.519  
  20365486.739   107021390.52148     -1114.938    20365486.985    83393312.69848
      -868.785  
  20627142.190   108396391.29149      1144.039    20627144.037    84464742.55249
       891.456  
 20 10 03 08 22 45.0000000  0  9G11G15G21G18G24G32G20G23G10
  24309593.877   127747784.98845      1626.108    24309594.213    99543724.43944
      1267.089  
  23446449.219   123211926.38247     -3358.601    23446449.825    96009297.27046
     -2617.094  
  23409210.428   123016259.93347      1246.348    23409209.571    95856808.34545
       971.176  
  23983295.010   126033063.93046     -3813.781    23983296.783    98207591.57045
     -2971.780  
  20701983.823   108789692.29049     -1027.313    20701986.057    84771215.48749
      -800.508  
  22663804.441   119099122.62748      2812.293    22663807.105    92804528.03949
      2191.395  
  20312719.217   106744085.35448     -1478.081    20312718.773    83177226.31548
     -1151.754  
  20366548.949   107026972.41048     -1117.594    20366549.313    83397662.22048
      -870.854  
  20626055.036   108390678.10649      1141.402    20626056.801    84460290.72049
       889.402  
 20 10 03 08 22 50.0000000  0  9G11G15G21G18G24G32G20G23G10
  24308048.079   127739661.63946      1622.999    24308048.225    99537394.59445
      1264.672  
  23449645.017   123228720.41647     -3358.758    23449645.647    96022383.53346
     -2617.219  
  23408025.626   123010033.60247      1243.983    23408024.664    95851956.66145
       969.336  
  23986924.068   126052134.35146     -3814.429    23986925.702    98222451.63846
     -2972.284  
  20702962.872   108794837.32249     -1030.602    20702965.108    84775224.60249
      -803.069  
  22661129.050   119085063.44848      2811.375    22661131.520    92793572.84049
      2190.679  
  20314126.804   106751482.52648     -1480.628    20314126.407    83182990.34148
     -1153.737  
  20367613.637   107032567.69748     -1120.249    20367614.083    83402022.18348
      -872.926  
  20624970.166   108384977.26049      1139.059    20624972.019    84455848.50349
       887.573  
 20 10 03 08 22 55.0000000  0  9G11G15G21G18G24G32G20G23G10
  24306505.161   127731553.86646      1619.565    24306505.297    99531076.84245
      1261.995  
  23452841.358   123245517.45447     -3359.926    23452842.107    96035472.13146
     -2618.129  
  23406843.127   123003819.90547      1241.362    23406842.114    95847114.81646
       967.293  
  23990553.546   126071207.36046     -3815.180    23990555.151    98237313.71945
     -2972.871  
  20703945.165   108799999.02649     -1034.500    20703947.325    84779246.71049
      -806.105  
  22658454.634   119071009.57748      2809.910    22658457.158    92782621.77849
      2189.539  
  20315537.064   106758893.64948     -1483.957    20315536.743    83188765.24248
     -1156.331  
  20368680.994   107038176.41448     -1123.387    20368681.288    83406392.61448
      -875.371  
  20623887.584   108379288.81749      1136.043    20623889.430    84451415.95049
       885.226  
 20 10 03 08 23  0.0000000  0  9G11G15G21G18G24G32G20G23G10
  24304965.478   127723462.83946      1616.839    24304965.756    99524772.18244
      1259.875  
  23456038.466   123262318.78047     -3360.469    23456039.369    96048564.06846
     -2618.551  
  23405663.492   122997620.22347      1238.812    23405662.316    95842283.89745
       965.304  
  23994183.817   126090284.27946     -3815.555    23994185.349    98252178.83544
     -2973.163  
  20704930.686   108805178.62749     -1037.531    20704932.971    84783282.76549
      -808.468  
  22655781.542   119056962.38548      2808.804    22655784.030    92771675.92149
      2188.676  
  20316950.379   106766320.04148     -1486.604    20316949.991    83194552.03948
     -1158.398  
  20369751.011   107043799.92548     -1125.979    20369751.444    83410774.56948
      -877.390  
  20622807.843   108373614.11449      1133.706    20622809.769    84446994.10649
       883.406  
 20 10 03 08 23  5.0000000  0  9G11G15G21G18G24G32G20G23G10
  24303428.455   127715385.91546      1613.788    24303428.511    99518478.48344
      1257.495  
  23459236.004   123279121.67347     -3360.847    23459236.842    96061657.21946
     -2618.844  
  23404485.726   122991431.83447      1236.547    23404484.728    95837461.77646
       963.538  
  23997814.271   126109362.38146     -3815.711    23997815.826    98267044.87445
     -2973.285  
  20705919.260   108810373.33749     -1040.597    20705921.544    84787330.58849
      -810.859  
  22653109.197   119042919.11548      2808.156    22653111.870    92760733.12249
      2188.171  
  20318365.763   106773758.99848     -1489.090    20318365.417    83200348.62648
     -1160.331  
  20370823.502   107049435.46748     -1128.409    20370823.767    83415165.89648
      -879.285  
  20621730.028   108367950.40549      1131.593    20621731.825    84442580.82649
       881.757  
 20 10 03 08 23 10.0000000  0  9G11G15G21G18G24G32G20G23G10
  24301894.544   127707324.50045      1610.836    24301894.519    99512196.85345
      1255.195  
  23462434.098   123295927.61247     -3361.222    23462434.784    96074752.75546
     -2619.136  
  23403310.644   122985256.23847      1233.999    23403309.575    95832649.62945
       961.554  
  24001445.292   126128443.11646     -3816.168    24001446.934    98281912.96645
     -2973.641  
  20706910.877   108815584.63649     -1043.800    20706913.291    84791391.34449
      -813.355  
  22650437.845   119028881.28348      2807.176    22650440.454    92749794.55849
      2187.406  
  20319784.022   106781211.97048     -1491.723    20319783.792    83206156.13648
     -1162.382  
  20371898.469   107055084.54648     -1131.019    20371898.797    83419567.77648
      -881.316  
  20620654.684   108362299.21649      1129.249    20620656.563    84438177.30449
       879.933  
 20 10 03 08 23 15.0000000  0  9G11G15G21G18G24G32G20G23G10
  24300363.304   127699277.81245      1607.800    24300363.374    99505926.66445
      1252.824  
  23465632.567   123312735.59047     -3361.992    23465633.150    96087849.87546
     -2619.738  
  23402137.660   122979092.41047      1231.479    23402136.651    95827846.63845
       959.593  
  24005076.580   126147525.51146     -3816.730    24005078.374    98296782.35745
     -2974.077  
  20707905.537   108820811.63849     -1047.266    20707907.964    84795464.33249
      -816.055  
  22647767.257   119014847.90548      2805.901    22647770.008    92738859.46449
      2186.413  
  20321204.939   106788678.03048     -1494.839    20321204.344    83211973.84148
     -1164.812  
  20372975.911   107060746.16848     -1133.800    20372976.243    83423979.42748
      -883.483  
  20619581.422   108356659.56149      1126.409    20619583.257    84433782.76649
       877.719  
 20 10 03 08 23 20.0000000  0  9G11G15G21G18G24G32G20G23G10
  24298835.301   127691247.91245      1604.488    24298835.399    99499669.64545
      1250.246  
  23468831.816   123329547.82047     -3362.625    23468832.509    96100950.30646
     -2620.229  
  23400967.336   122972942.60247      1228.840    23400966.361    95823054.59145
       957.534  
  24008708.511   126166611.81146     -3817.234    24008710.289    98311654.78745
     -2974.473  
  20708903.626   108826056.41349     -1050.547    20708906.072    84799551.16749
      -818.608  
  22645098.147   119000821.17248      2804.863    22645100.780    92727929.55049
      2185.605  
  20322628.532   106796159.34548     -1497.629    20322628.090    83217803.43648
     -1166.987  
  20374056.013   107066422.54848     -1136.566    20374056.385    83428402.58248
      -885.640  
  20618510.829   108351033.65449      1124.000    20618512.645    84429398.94449
       875.840  
 20 10 03 08 23 25.0000000  0  9G11G15G21G18G24G32G20G23G10
  24297310.111   127683232.26846      1601.734    24297310.081    99493423.69044
      1248.102  
  23472031.398   123346361.73447     -3362.944    23472032.162    96114052.04246
     -2620.480  
  23399799.335   122966804.24447      1226.340    23399798.307    95818271.44946
       955.586  
  24012340.800   126185699.36846     -3817.414    24012342.576    98326528.20745
     -2974.613  
  20709904.555   108831316.48549     -1053.508    20709906.855    84803649.92749
      -820.917  
  22642429.660   118986798.55148      2804.113    22642432.296    92717002.83449
      2185.019  
  20324054.579   106803653.36348     -1500.059    20324054.032    83223642.92948
     -1168.879  
  20375138.581   107072111.13848     -1139.117    20375138.971    83432835.24748
      -887.629  
  20617442.327   108345418.95249      1121.866    20617444.218    84425023.85249
       874.180  
 20 10 03 08 23 30.0000000  0  9G11G15G21G18G24G32G20G23G10
  24295787.969   127675233.20446      1598.429    24295788.067    99487190.67144
      1245.530  
  23475231.773   123363179.57047     -3363.956    23475232.257    96127156.86146
     -2621.270  
  23398633.797   122960679.52047      1223.698    23398632.728    95813498.94045
       953.526  
  24015973.706   126204790.38646     -3818.285    24015975.463    98341404.30445
     -2975.288  
  20710908.735   108836593.98649     -1057.163    20710911.313    84807762.26449
      -823.766  
  22639762.498   118972782.23948      2802.680    22639765.282    92706081.04349
      2183.901  
  20325483.466   106811162.27848     -1503.234    20325483.137    83229494.03148
     -1171.355  
  20376223.793   107077814.09048     -1142.074    20376224.229    83437279.10448
      -889.930  
  20616376.492   108339817.63749      1119.042    20616378.483    84420659.19249
       871.977  
 20 10 03 08 23 35.0000000  0  9G11G15G21G18G24G32G20G23G10
  24294268.736   127667249.14245      1595.375    24294268.947    99480969.28645
      1243.141  
  23478432.553   123379999.90447     -3364.289    23478433.162    96140263.59746
     -2621.526  
  23397470.722   122954567.11147      1221.327    23397469.811    95808736.02245
       951.679  
  24019606.989   126223883.50946     -3818.999    24019608.868    98356282.05345
     -2975.847  
  20711916.146   108841887.59449     -1060.331    20711918.699    84811887.15549
      -826.233  
  22637096.107   118958770.88548      2801.688    22637098.987    92695163.10749
      2183.129  
  20326914.861   106818684.71648     -1505.772    20326914.455    83235355.66448
     -1173.332  
  20377311.505   107083530.08948     -1144.499    20377311.940    83441733.12948
      -891.819  
  20615312.933   108334228.37749      1116.628    20615314.699    84416303.92449
       870.098  
 20 10 03 08 23 40.0000000  0  9G11G15G21G18G24G32G20G23G10
  24292752.285   127659280.19746      1591.914    24292752.358    99474759.76445
      1240.448  
  23481633.871   123396822.66747     -3365.078    23481634.548    96153372.23546
     -2622.140  
  23396309.718   122948466.90447      1218.585    23396308.814    95803982.61946
       949.543  
  24023240.651   126242978.59946     -3819.902    24023242.510    98371161.33544
     -2976.551  
  20712926.585   108847197.23649     -1063.866    20712929.007    84816024.53849
      -828.992  
  22634430.843   118944764.38948      2800.492    22634433.405    92684248.96249
      2182.199  
  20328348.905   106826220.57748     -1508.726    20328348.452    83241227.76748
     -1175.632  
  20378401.706   107089259.00948     -1147.305    20378402.102    83446197.22348
      -894.007  
  20614251.659   108328651.09749      1113.934    20614253.356    84411957.99349
       867.995  
 20 10 03 08 23 45.0000000  0  9G11G15G21G18G24G32G20G23G10
  24291238.877   127651327.62746      1589.074    24291239.009    99468562.94645
      1238.238  
  23484835.980   123413649.23547     -3365.535    23484836.414    96166483.84346
     -2622.499  
  23395151.583   122942380.26847      1215.964    23395150.487    95799239.77746
       947.499  
  24026875.083   126262077.00946     -3819.937    24026876.820    98386043.19245
     -2976.582  
  20713940.274   108852524.23949     -1067.187    20713942.746    84820175.44549
      -831.577  
  22631766.733   118930764.11848      2799.429    22631769.327    92673339.66349
      2181.370  
  20329785.789   106833771.23648     -1511.758    20329785.384    83247111.39048
     -1177.996  
  20379494.561   107095002.25248     -1150.187    20379494.957    83450672.47048
      -896.254  
  20613192.868   108323087.14249      1111.276    20613194.699    84407622.44149
       865.926  
 20 10 03 08 23 50.0000000  0  9G11G15G21G18G24G32G20G23G10
  24289728.527   127643390.33646      1585.961    24289728.763    99462378.05545
      1235.809  
  23488038.431   123430478.45047     -3366.043    23488039.013    96179597.51246
     -2622.895  
  23393995.763   122936306.14447      1213.479    23393994.667    95794506.69946
       945.566  
  24030509.721   126281177.69246     -3820.168    24030511.370    98400926.85145
     -2976.757  
  20714957.015   108857867.59349     -1070.227    20714959.645    84824339.10249
      -833.944  
  22629103.588   118916769.00848      2798.530    22629106.201    92662434.38849
      2180.672  
  20331225.174   106841335.56548     -1514.172    20331224.760    83253005.67448
     -1179.879  
  20380589.884   107100758.68248     -1152.484    20380590.470    83455158.00548
      -898.042  
  20612136.365   108317535.43149      1109.164    20612138.245    84403296.43849
       864.281  
 20 10 03 08 23 55.0000000  0  9G11G15G21G18G24G32G20G23G10
  24288221.076   127635468.28545      1582.836    24288221.255    99456205.02944
      1233.374  
  23491241.431   123447310.23547     -3366.602    23491242.169    96192713.18046
     -2623.327  
  23392842.191   122930244.42747      1211.227    23392841.297    95789783.27845
       943.809  
  24034144.868   126300280.51746     -3820.675    24034146.689    98415812.15345
     -2977.152  
  20715976.988   108863227.02549     -1073.516    20715979.480    84828515.27849
      -836.508  
  22626441.143   118902778.92348      2797.559    22626444.046    92651533.02749
      2179.914  
  20332667.220   106848913.47748     -1516.891    20332666.802    83258910.53348
     -1181.995  
  20381687.904   107106528.22048     -1155.254    20381688.191    83459653.74048
      -900.199  
  20611082.140   108311995.87849      1106.671    20611083.988    84398979.89949
       862.339  
 20 10 03 08 24  0.0000000  0  9G11G15G21G18G24G32G20G23G10
  24286716.458   127627561.46346      1579.973    24286716.434    99450043.88344
      1231.145  
  23494444.857   123464144.56847     -3367.159    23494445.474    96205830.83946
     -2623.766  
  23391691.116   122924195.10747      1208.715    23391690.112    95785069.52446
       941.851  
  24037780.405   126319385.39646     -3821.292    24037782.313    98430699.05145
     -2977.632  
  20716999.818   108868602.53549     -1076.836    20717002.238    84832703.98949
      -839.097  
  22623779.875   118888793.86648      2796.542    22623782.642    92640635.58649
      2179.121  
  20334111.742   106856504.98648     -1519.780    20334111.312    83264825.99848
     -1184.249  
  20382788.195   107112310.85248     -1157.957    20382788.605    83464159.68848
      -902.309  
  20610030.371   108306468.48549      1104.223    20610032.161    84394672.84249
       860.429  
 20 10 03 08 24  5.0000000  0  9G11G15G21G18G24G32G20G23G10
  24285214.867   127619670.70946      1576.656    24285215.137    99443895.22945
      1228.558  
  23497649.031   123480982.30647     -3368.094    23497649.756    96218951.14746
     -2624.491  
  23390542.532   122918159.04347      1205.995    23390541.627    95780366.11046
       939.734  
  24041416.561   126338493.24146     -3822.163    24041418.367    98445588.27344
     -2978.313  
  20718026.091   108873995.04249     -1080.163    20718028.413    84836905.94449
      -841.690  
  22621119.764   118874814.73248      2795.124    22621122.458    92629742.76549
      2178.016  
  20335559.133   106864110.89048     -1522.656    20335558.728    83270752.67448
     -1186.488  
  20383891.341   107118107.42048     -1160.809    20383891.701    83468676.49548
      -904.530  
  20608981.089   108300954.09649      1101.499    20608982.786    84390375.92149
       858.309  
 20 10 03 08 24 10.0000000  0  9G11G15G21G18G24G32G20G23G10
  24283716.343   127611795.75346      1573.652    24283716.508    99437758.90445
      1226.218  
  23500853.777   123497823.10847     -3368.409    23500854.268    96232073.84146
     -2624.738  
  23389396.197   122912135.91647      1203.515    23389395.341    95775672.75845
       937.800  
  24045053.122   126357603.65546     -3822.206    24045054.969    98460479.48945
     -2978.347  
  20719055.390   108879404.23449     -1083.449    20719057.764    84841120.89949
      -844.249  
  22618460.793   118860841.15148      2794.272    22618463.482    92618854.26649
      2177.352  
  20337009.137   106871730.93548     -1525.394    20337008.842    83276690.36848
     -1188.620  
  20384996.947   107123917.61048     -1163.250    20384997.243    83473203.91248
      -906.433  
  20607934.089   108295452.41849      1098.976    20607935.851    84386088.89849
       856.343  
 20 10 03 08 24 15.0000000  0  9G11G15G21G18G24G32G20G23G10
  24282220.661   127603935.07846      1570.359    24282220.640    99431633.73144
      1223.655  
  23504058.689   123514665.50647     -3369.062    23504059.299    96245197.78146
     -2625.246  
  23388252.323   122906124.19247      1200.684    23388251.446    95770988.29645
       935.594  
  24048689.979   126376715.15646     -3822.480    24048691.777    98475371.54645
     -2978.563  
  20720087.549   108884828.57849     -1086.870    20720090.042    84845347.65449
      -846.913  
  22615802.392   118846871.65748      2793.023    22615805.015    92607968.94549
      2176.379  
  20338461.661   106879363.59148     -1528.179    20338461.180    83282637.88548
     -1190.792  
  20386104.845   107129739.90348     -1165.944    20386105.232    83477740.75448
      -908.530  
  20606889.187   108289961.92049      1096.641    20606891.119    84381810.58549
       854.522  
 20 10 03 08 24 20.0000000  0  9G11G15G21G18G24G32G20G23G10
  24280727.858   127596090.62946      1567.058    24280728.143    99425521.14644
      1221.082  
  23507264.380   123531511.43247     -3369.621    23507265.002    96258324.47346
     -2625.683  
  23387110.749   122900125.93347      1198.324    23387109.994    95766314.33246
       933.757  
  24052327.301   126395829.75646     -3823.488    24052329.319    98490266.04645
     -2979.344  
  20721122.950   108890269.99049     -1090.055    20721125.494    84849587.72149
      -849.394  
  22613145.352   118832908.22548      2791.813    22613148.002    92597088.35749
      2175.434  
  20339916.805   106887010.80348     -1530.999    20339916.403    83288596.75248
     -1192.988  
  20387215.596   107135576.31248     -1168.797    20387215.917    83482288.60248
      -910.753  
  20605846.948   108284484.63749      1094.097    20605848.827    84377542.57349
       852.538  
 20 10 03 08 24 25.0000000  0  9G11G15G21G18G24G32G20G23G10
  24279238.258   127588262.07246      1563.941    24279238.322    99419420.98345
      1218.652  
  23510470.637   123548360.54947     -3370.026    23510471.236    96271453.65246
     -2626.000  
  23385971.805   122894140.74047      1195.523    23385971.024    95761650.53446
       931.574  
  24055965.160   126414946.99246     -3823.699    24055967.106    98505162.58245
     -2979.507  
  20722161.767   108895728.13249     -1093.375    20722164.121    84853840.82049
      -851.984  
  22610489.244   118818950.47148      2791.027    22610491.963    92586212.19449
      2174.823  
  20341374.852   106894672.20348     -1533.703    20341374.342    83294566.67448
     -1195.097  
  20388328.807   107141426.43048     -1171.484    20388329.287    83486847.13748
      -912.848  
  20604807.188   108279020.15849      1091.569    20604808.980    84373284.54249
       850.569  
 20 10 03 08 24 30.0000000  0  9G11G15G21G18G24G32G20G23G10
  24277751.301   127580448.87346      1561.359    24277751.466    99413332.77445
      1216.640  
  23513677.514   123565212.17447     -3370.434    23513677.986    96284584.78946
     -2626.316  
  23384835.183   122888167.96947      1193.285    23384834.406    95756996.43246
       929.828  
  24059603.582   126434066.27846     -3824.531    24059605.236    98520060.71144
     -2980.156  
  20723203.430   108901202.42149     -1096.516    20723205.912    84858106.49849
      -854.430  
  22607834.078   118804997.82448      2789.878    22607836.901    92575340.00549
      2173.929  
  20342835.365   106902347.15648     -1536.387    20342834.981    83300547.15048
     -1197.188  
  20389444.506   107147289.65548     -1174.016    20389444.853    83491415.88048
      -914.819  
  20603769.516   108273567.90449      1089.269    20603771.573    84369036.03349
       848.776  
 20 10 03 08 24 35.0000000  0  9G11G15G21G18G24G32G20G23G10
  24276267.596   127572651.60546      1557.898    24276267.955    99407257.01545
      1213.949  
  23516884.751   123582066.97547     -3371.097    23516885.446    96297718.39446
     -2626.831  
  23383701.237   122882208.29347      1190.891    23383700.273    95752352.53345
       927.965  
  24063242.345   126453188.20046     -3824.522    24063243.986    98534960.90945
     -2980.151  
  20724248.342   108906693.50449     -1099.727    20724250.898    84862385.26149
      -856.934  
  22605180.057   118791050.87848      2788.960    22605182.826    92564472.26149
      2173.214  
  20344298.530   106910036.29648     -1539.133    20344298.045    83306538.68548
     -1199.328  
  20390562.863   107153166.60148     -1176.616    20390563.351    83495995.31748
      -916.848  
  20602734.513   108268128.49249      1086.788    20602736.358    84364797.53049
       846.843  
 20 10 03 08 24 40.0000000  0  9G11G15G21G18G24G32G20G23G10
  24274786.765   127564869.38046      1554.593    24274786.814    99401192.92645
      1211.367  
  23520092.739   123598924.03747     -3371.742    23520093.173    96310853.75046
     -2627.335  
  23382569.363   122876260.81647      1188.230    23382568.631    95747718.14645
       925.891  
  24066881.356   126472311.92446     -3825.198    24066883.187    98549862.48644
     -2980.684  
  20725296.292   108912200.33049     -1103.050    20725298.805    84866676.29649
      -859.523  
  22602526.996   118777108.79148      2787.718    22602529.713    92553608.30249
      2172.245  
  20345764.194   106917738.78748     -1541.984    20345763.780    83312540.62448
     -1201.550  
  20391683.711   107159056.41748     -1179.324    20391684.039    83500584.78648
      -918.956  
  20601701.801   108262701.08449      1084.254    20601703.595    84360568.38349
       844.871  
 20 10 03 08 24 45.0000000  0  9G11G15G21G18G24G32G20G23G10
  24273308.797   127557102.66747      1551.706    24273308.856    99395140.96844
      1209.124  
  23523300.899   123615783.81347     -3372.104    23523301.573    96323991.23846
     -2627.617  
  23381439.996   122870325.98347      1185.753    23381439.137    95743093.59246
       923.961  
  24070520.930   126491437.79946     -3825.335    24070522.749    98564765.76045
     -2980.784  
  20726347.287   108917723.44249     -1106.254    20726349.878    84870980.01549
      -862.020  
  22599874.880   118763171.95348      2786.843    22599877.591    92542748.43149
      2171.563  
  20347232.687   106925455.02048     -1544.522    20347232.211    83318553.26148
     -1203.526  
  20392807.015   107164959.51248     -1181.945    20392807.420    83505184.59348
      -920.999  
  20600671.360   108257286.07849      1081.789    20600673.023    84356348.89349
       842.949  
 20 10 03 08 24 50.0000000  0  9G11G15G21G18G24G32G20G23G10
  24271833.884   127549351.54146      1548.809    24271834.113    99389101.11143
      1206.859  
  23526509.843   123632646.36547     -3372.819    23526510.308    96337130.88046
     -2628.176  
  23380313.091   122864403.84147      1183.241    23380312.086    95738478.94346
       922.003  
  24074160.884   126510565.91546     -3825.749    24074162.816    98579670.78446
     -2981.105  
  20727401.334   108923262.96249     -1109.570    20727403.894    84875296.53149
      -864.601  
  22597223.909   118749240.44448      2785.855    22597226.447    92531892.72049
      2170.793  
  20348703.677   106933185.06348     -1547.448    20348703.084    83324576.67748
     -1205.808  
  20393932.796   107170875.93848     -1184.605    20393933.242    83509794.80148
      -923.073  
  20599643.198   108251883.55049      1079.378    20599645.133    84352139.13749
       841.070  
 20 10 03 08 24 55.0000000  0  9G11G15G21G18G24G32G20G23G10
  24270361.914   127541616.35146      1545.405    24270362.046    99383073.67745
      1204.210  
  23529719.319   123649512.14747     -3373.409    23529719.943    96350273.04646
     -2628.632  
  23379188.637   122858494.85847      1180.702    23379187.749    95733874.53346
       920.023  
  24077801.402   126529696.71746     -3826.453    24077803.344    98594577.88844
     -2981.655  
  20728458.803   108928819.21849     -1112.813    20728461.321    84879626.08149
      -867.128  
  22594573.884   118735314.74948      2784.590    22594576.515    92521041.53449
      2169.808  
  20350177.319   106940929.35648     -1550.340    20350176.887    83330611.18448
     -1208.058  
  20395061.456   107176806.14848     -1187.418    20395061.739    83514415.74448
      -925.266  
  20598617.519   108246493.98049      1076.613    20598619.448    84347939.47249
       838.917  
 20 10 03 08 25  0.0000000  0  9G11G15G21G18G24G32G20G23G10
  24268892.884   127533896.82546      1542.565    24268893.146    99377058.46845
      1201.996  
  23532929.223   123666380.71747     -3373.789    23532929.855    96363417.38246
     -2628.929  
  23378066.677   122852598.60547      1178.097    23378065.785    95729280.05945
       917.995  
  24081442.299   126548829.72746     -3826.550    24081444.254    98609486.71545
     -2981.729  
  20729519.110   108934391.79449     -1115.874    20729521.678    84883968.34849
      -869.515  
  22591925.005   118721394.42548      2783.691    22591927.566    92510194.53249
      2169.105  
  20351653.621   106948687.59248     -1552.852    20351653.122    83336656.56148
     -1210.015  
  20396192.367   107182749.72148     -1189.941    20396192.916    83519047.09948
      -927.229  
  20597594.307   108241116.93349      1074.249    20597596.207    84343749.56649
       837.073  
 20 10 03 08 25  5.0000000  0  9G11G15G21G18G24G32G20G23G10
  24267426.873   127526192.85446      1538.910    24267427.146    99371055.40845
      1199.151  
  23536139.683   123683251.98447     -3374.651    23536140.273    96376563.81846
     -2629.601  
  23376947.187   122846715.02247      1175.354    23376946.113    95724695.44145
       915.859  
  24085083.607   126567964.87046     -3827.133    24085085.700    98624397.20145
     -2982.183  
  20730582.672   108939980.63249     -1119.582    20730585.207    84888323.28849
      -872.406  
  22589277.082   118707479.39948      2782.484    22589279.588    92499351.66249
      2168.168  
  20353132.587   106956459.54748     -1555.858    20353132.060    83342712.62648
     -1212.359  
  20397325.940   107188706.59048     -1192.770    20397326.302    83523688.81648
      -929.433  
  20596573.573   108235752.34349      1071.488    20596575.405    84339569.36649
       834.922  
 20 10 03 08 25 10.0000000  0  9G11G15G21G18G24G32G20G23G10
  24265963.671   127518503.42846      1536.457    24265963.733    99365063.60244
      1197.230  
  23539350.519   123700124.91447     -3374.788    23539351.168    96389711.55346
     -2629.706  
  23375829.805   122840843.10747      1173.102    23375828.657    95720119.92346
       914.102  
  24088725.315   126587101.17346     -3827.472    24088727.132    98639308.60044
     -2982.448  
  20731649.074   108945584.76749     -1122.487    20731651.668    84892690.14449
      -874.667  
  22586629.928   118693568.66748      2781.770    22586632.594    92488512.13149
      2167.609  
  20354614.035   106964244.20348     -1558.218    20354613.423    83348778.58948
     -1214.198  
  20398461.801   107194675.73748     -1195.211    20398462.375    83528340.09448
      -931.335  
  20595554.933   108230399.20149      1069.343    20595556.806    84335398.08949
       833.249  
 20 10 03 08 25 15.0000000  0  9G11G15G21G18G24G32G20G23G10
  24264503.729   127510831.03546      1532.699    24264503.793    99359085.14345
      1194.308  
  23542562.284   123717002.13547     -3376.116    23542562.787    96402862.62946
     -2630.741  
  23374715.049   122834985.43147      1169.937    23374714.100    95715555.49946
       911.636  
  24092367.566   126606241.14546     -3828.359    24092369.309    98654222.86544
     -2983.141  
  20732718.904   108951206.66949     -1126.207    20732721.305    84897070.84849
      -877.566  
  22583984.108   118679664.82048      2780.172    22583986.568    92477677.97249
      2166.362  
  20356098.321   106972044.17948     -1561.656    20356097.731    83354856.48948
     -1216.878  
  20399600.512   107200659.73648     -1198.394    20399600.894    83533002.95148
      -933.815  
  20594538.959   108225060.12349      1066.347    20594540.645    84331237.76949
       830.918  
 20 10 03 08 25 20.0000000  0  9G11G15G21G18G24G32G20G23G10
  24263046.655   127503174.34046      1529.960    24263046.480    99353118.88045
      1192.176  
  23545774.439   123733882.15847     -3376.438    23545774.848    96416015.88746
     -2630.991  
  23373602.825   122829140.59447      1167.613    23373601.996    95711001.09145
       909.824  
  24096010.205   126625383.37146     -3828.343    24096011.934    98669138.86645
     -2983.129  
  20733791.788   108956844.96149     -1129.202    20733794.366    84901464.32349
      -879.901  
  22581339.418   118665766.44248      2779.183    22581342.017    92466848.07249
      2165.593  
  20357585.306   106979858.02548     -1564.090    20357584.725    83360945.19948
     -1218.773  
  20400741.891   107206657.16048     -1200.812    20400742.333    83537676.26448
      -935.702  
  20593525.267   108219733.63849      1064.085    20593527.186    84327087.26049
       829.155  
 20 10 03 08 25 25.0000000  0  9G11G15G21G18G24G32G20G23G10
  24261592.417   127495532.67846      1526.820    24261592.505    99347164.37445
      1189.730  
  23548986.983   123750764.25247     -3376.421    23548987.486    96429170.75946
     -2630.980  
  23372492.850   122823307.85647      1165.445    23372492.048    95706456.09946
       908.136  
  24099653.166   126644527.13546     -3829.022    24099655.095    98684056.06445
     -2983.659  
  20734867.702   108962498.89749     -1132.413    20734870.114    84905869.98449
      -882.402  
  22578695.486   118651872.76948      2778.293    22578697.942    92456021.83749
      2164.902  
  20359074.749   106987685.00948     -1566.741    20359074.150    83367044.14548
     -1220.840  
  20401885.574   107212667.28848     -1203.395    20401885.967    83542359.47648
      -937.715  
  20592514.040   108214419.07249      1061.675    20592515.911    84322946.03949
       827.276  
 20 10 03 08 25 30.0000000  0  9G11G15G21G18G24G32G20G23G10
  24260141.261   127487906.82946      1523.652    24260141.332    99341222.12444
      1187.258  
  23552200.133   123767649.27947     -3377.355    23552200.576    96442327.91946
     -2631.707  
  23371385.506   122817488.19147      1162.667    23371384.562    95701921.28545
       905.972  
  24103296.582   126663673.22946     -3829.234    24103298.532    98698975.08045
     -2983.819  
  20735946.872   108968169.38049     -1135.629    20735949.277    84910288.54349
      -884.909  
  22576052.706   118637984.70848      2777.062    22576055.101    92445199.97249
      2163.941  
  20360566.854   106995526.04148     -1569.589    20360566.270    83373154.03648
     -1223.059  
  20403031.727   107218690.95248     -1206.016    20403032.285    83547053.23448
      -939.753  
  20591505.112   108209117.27549      1059.227    20591506.836    84318814.76649
       825.366  
 20 10 03 08 25 35.0000000  0  9G11G15G21G18G24G32G20G23G10
  24258693.128   127480296.43246      1520.453    24258692.842    99335291.95645
      1184.766  
  23555413.609   123784536.80647     -3377.754    23555414.380    96455487.03246
     -2632.020  
  23370280.457   122811681.08647      1160.004    23370279.478    95697396.27946
       903.895  
  24106940.341   126682821.31246     -3829.867    24106942.188    98713895.68145
     -2984.315  
  20737028.890   108973855.95349     -1139.016    20737031.397    84914719.64049
      -887.547  
  22573410.870   118624101.86148      2775.930    22573413.468    92434382.17849
      2163.059  
  20362061.406   107003380.65448     -1572.386    20362060.824    83379274.51548
     -1225.237  
  20404180.528   107224727.79048     -1208.785    20404181.050    83551757.26948
      -941.914  
  20590498.469   108203827.86249      1056.426    20590500.448    84314693.15149
       823.187  
 20 10 03 08 25 40.0000000  0  9G11G15G21G18G24G32G20G23G10
  24257247.998   127472702.03945      1517.354    24257247.930    99329374.22445
      1182.347  
  23558627.844   123801427.41147     -3378.449    23558628.431    96468648.53646
     -2632.562  
  23369177.885   122805887.12647      1157.405    23369176.870    95692881.50245
       901.871  
  24110584.484   126701971.82046     -3830.179    24110586.501    98728818.12446
     -2984.563  
  20738114.318   108979559.13949     -1142.242    20738116.669    84919163.67949
      -890.062  
  22570770.198   118610224.75548      2774.979    22570772.583    92423568.85149
      2162.320  
  20363558.819   107011249.39348     -1574.944    20363558.073    83385405.99848
     -1227.233  
  20405332.009   107230778.33249     -1211.363    20405332.253    83556471.97048
      -943.922  
  20589494.482   108198551.37549      1054.195    20589496.251    84310581.59949
       821.449  
 20 10 03 08 25 45.0000000  0  9G11G15G21G18G24G32G20G23G10
  24255805.571   127465122.81246      1514.410    24255805.706    99323468.36945
      1180.059  
  23561842.476   123818320.25947     -3378.824    23561842.993    96481811.78546
     -2632.851  
  23368077.596   122800105.44247      1155.078    23368076.736    95688376.29346
       900.058  
  24114229.016   126721123.93146     -3830.468    24114230.878    98743741.83545
     -2984.785  
  20739202.626   108985278.17049     -1145.383    20739205.133    84923620.06949
      -892.507  
  22568130.449   118596352.56348      2773.898    22568132.909    92412759.35849
      2161.477  
  20365058.736   107019131.44848     -1577.660    20365058.023    83391547.85648
     -1229.347  
  20406485.768   107236841.71848     -1213.964    20406486.146    83561196.68648
      -945.949  
  20588492.593   108193286.97749      1051.672    20588494.508    84306479.47449
       819.480  
 20 10 03 08 25 50.0000000  0  9G11G15G21G18G24G32G20G23G10
  24254366.590   127457560.13746      1511.171    24254366.557    99317575.38744
      1177.534  
  23565057.710   123835216.64647     -3379.281    23565058.246    96494977.80346
     -2633.211  
  23366980.012   122794337.38247      1152.659    23366979.003    95683881.69846
       898.171  
  24117874.292   126740279.04946     -3831.301    24117875.915    98758667.90144
     -2985.433  
  20740294.140   108991014.30449     -1148.636    20740296.515    84928089.78649
      -895.042  
  22565491.840   118582486.61248      2772.762    22565494.208    92401954.72549
      2160.590  
  20366561.515   107027028.10348     -1580.355    20366560.867    83397701.09648
     -1231.449  
  20407642.381   107242919.29148     -1216.593    20407642.714    83565932.45448
      -947.999  
  20587493.542   108188036.02049      1049.112    20587495.200    84302387.81949
       817.488  
 20 10 03 08 25 55.0000000  0  9G11G15G21G18G24G32G20G23G10
  24252930.225   127450012.26847      1507.867    24252930.063    99311693.93544
      1174.956  
  23568273.257   123852114.86947     -3380.152    23568273.959    96508145.23646
     -2633.887  
  23365884.703   122788581.24647      1149.785    23365883.732    95679396.40146
       895.933  
  24121519.531   126759435.37846     -3831.312    24121521.331    98773594.89645
     -2985.440  
  20741388.516   108996765.69649     -1151.883    20741391.082    84932571.38749
      -897.574  
  22562854.195   118568625.22448      2771.726    22562856.505    92391153.64549
      2159.784  
  20368066.561   107034937.70348     -1583.433    20368065.936    83403864.41448
     -1233.848  
  20408801.279   107249009.37549     -1219.605    20408801.503    83570677.97048
      -950.343  
  20586496.411   108182796.81549      1046.409    20586498.326    84298305.31949
       815.383  
 20 10 03 08 26  0.0000000  0  9G11G15G21G18G24G32G20G23G10
  24251497.154   127442481.15046      1504.788    24251497.021    99305825.52445
      1172.559  
  23571489.602   123869016.84347     -3380.577    23571490.184    96521315.60746
     -2634.218  
  23364791.833   122782838.98547      1147.390    23364790.926    95674921.91745
       894.066  
  24125165.375   126778594.82646     -3831.710    24125167.463    98788524.32245
     -2985.754  
  20742486.310   109002534.39349     -1155.288    20742488.814    84937066.47749
      -900.227  
  22560217.691   118554770.30348      2770.691    22560220.003    92380357.61049
      2158.977  
  20369574.628   107042862.12148     -1586.004    20369573.926    83410039.28748
     -1235.852  
  20409962.851   107255113.85048     -1222.069    20409963.216    83575434.70948
      -952.266  
  20585502.130   108177571.26949      1044.059    20585503.901    84294233.46949
       813.551  
 20 10 03 08 26  5.0000000  0  9G11G15G21G18G24G32G20G23G10
  24250066.653   127434964.56546      1502.000    24250066.684    99299968.44145
      1170.387  
  23574706.325   123885920.39847     -3381.190    23574706.921    96534487.20146
     -2634.699  
  23363701.461   122777108.38447      1144.684    23363700.492    95670456.52246
       891.956  
  24128811.622   126797755.23446     -3832.293    24128813.550    98803454.50045
     -2986.207  
  20743586.964   109008318.30248     -1158.684    20743589.479    84941573.42049
      -902.875  
  22557581.928   118540919.68048      2769.574    22557584.242    92369564.92249
      2158.104  
  20371084.984   107050799.18748     -1588.832    20371084.367    83416224.01148
     -1238.055  
  20411126.905   107261230.52848     -1224.890    20411127.120    83580200.95148
      -954.464  
  20584509.934   108172357.21449      1041.319    20584511.676    84290170.56649
       811.413  
 20 10 03 08 26 10.0000000  0  9G11G15G21G18G24G32G20G23G10
  24248639.425   127427464.12046      1498.979    24248639.344    99294123.93945
      1168.035  
  23577923.634   123902827.12847     -3381.495    23577924.140    96547661.26946
     -2634.934  
  23362613.582   122771391.10447      1142.199    23362612.557    95666001.48845
       890.023  
  24132458.225   126816918.16846     -3832.534    24132460.161    98818386.63946
     -2986.394  
  20744690.667   109014118.99249     -1161.601    20744693.297    84946093.43449
      -905.148  
  22554947.329   118527074.95748      2768.680    22554949.709    92358776.82849
      2157.409  
  20372598.022   107058750.53548     -1591.581    20372597.230    83422419.86648
     -1240.194  
  20412293.616   107267361.04248     -1227.214    20412293.717    83584977.97048
      -956.272  
  20583520.215   108167156.26749      1038.969    20583521.892    84286117.87949
       809.582  
 20 10 03 08 26 15.0000000  0  9G11G15G21G18G24G32G20G23G10
  24247215.238   127419980.06146      1495.241    24247215.322    99288292.21245
      1165.121  
  23581141.487   123919737.18447     -3382.336    23581141.839    96560837.92846
     -2635.589  
  23361528.119   122765687.26947      1139.479    23361527.047    95661556.94045
       887.902  
  24136105.215   126836083.79246     -3833.437    24136107.090    98833320.88844
     -2987.097  
  20745797.798   109019936.56749     -1164.883    20745800.300    84950626.61349
      -907.703  
  22552314.073   118513236.32148      2766.983    22552316.390    92347993.48349
      2156.090  
  20374113.907   107066716.31448     -1594.585    20374113.059    83428626.96448
     -1242.539  
  20413462.789   107273505.52548     -1230.070    20413462.996    83589765.87948
      -958.499  
  20582532.984   108161968.58149      1036.288    20582534.785    84282075.52949
       807.495  
 20 10 03 08 26 20.0000000  0  9G11G15G21G18G24G32G20G23G10
  24245793.759   127412510.41846      1492.229    24245793.657    99282471.70145
      1162.773  
  23584359.550   123936648.62547     -3382.836    23584360.071    96574015.67346
     -2635.979  
  23360444.788   122759994.95247      1136.965    23360443.934    95657121.36845
       885.944  
  24139752.554   126855250.12246     -3833.578    24139754.295    98848255.67845
     -2987.207  
  20746907.591   109025768.94149     -1168.258    20746910.240    84955171.32049
      -910.331  
  22549681.351   118499401.80548      2766.226    22549683.801    92337213.34349
      2155.496  
  20375632.083   107074694.57248     -1597.218    20375631.317    83434843.78948
     -1244.590  
  20414634.444   107279662.04849     -1232.683    20414634.711    83594563.17048
      -960.534  
  20581548.034   108156792.23049      1033.910    20581549.888    84278042.01049
       805.640  
 20 10 03 08 26 25.0000000  0  9G11G15G21G18G24G32G20G23G10
  24244375.492   127405057.84346      1488.730    24244375.506    99276664.51943
      1160.046  
  23587578.560   123953564.07847     -3383.344    23587579.057    96587196.53946
     -2636.375  
  23359364.289   122754316.82847      1134.210    23359363.349    95652696.86645
       883.797  
  24143400.290   126874419.82546     -3833.949    24143402.306    98863193.11044
     -2987.496  
  20748020.816   109031618.72749     -1171.655    20748023.348    84959729.59549
      -912.979  
  22547050.162   118485574.06548      2764.965    22547052.433    92326438.48949
      2154.516  
  20377153.111   107082687.94348     -1600.215    20377152.503    83441072.38548
     -1246.926  
  20415808.767   107285833.25449     -1235.543    20415808.862    83599371.90148
      -962.766  
  20580565.548   108151629.85749      1031.241    20580567.430    84274019.38449
       803.563  
 20 10 03 08 26 30.0000000  0  9G11G15G21G18G24G32G20G23G10
  24242960.292   127397620.00946      1486.351    24242960.035    99270868.80544
      1158.190  
  23590797.765   123970481.23747     -3383.632    23590798.259    96600378.72946
     -2636.601  
  23358286.101   122748650.53747      1132.335    23358285.171    95648281.56645
       882.336  
  24147048.388   126893590.52246     -3833.894    24147050.350    98878131.30345
     -2987.453  
  20749136.891   109037483.93149     -1174.640    20749139.390    84964299.88149
      -915.309  
  22544419.559   118471750.77548      2764.405    22544422.040    92315667.09449
      2154.077  
  20378676.804   107090694.09348     -1602.520    20378675.869    83447310.94148
     -1248.718  
  20416985.365   107292016.81948     -1237.839    20416985.715    83604190.26148
      -964.555  
  20579585.545   108146479.15549      1028.984    20579587.169    84270005.84749
       801.805  
 20 10 03 08 26 35.0000000  0  9G11G15G21G18G24G32G20G23G10
  24241547.902   127390198.60346      1482.699    24241547.730    99265085.90544
      1155.348  
  23594017.519   123987401.75447     -3384.504    23594018.164    96613563.54646
     -2637.276  
  23357210.376   122742997.78447      1129.211    23357209.412    95643876.82546
       879.901  
  24150696.912   126912763.96046     -3834.828    24150698.830    98893071.62745
     -2988.180  
  20750256.210   109043365.92748     -1177.996    20750258.843    84968883.25949
      -917.921  
  22541790.290   118457933.62548      2762.699    22541792.619    92304900.49049
      2152.749  
  20380202.958   107098714.68248     -1605.585    20380202.182    83453560.75248
     -1251.109  
  20418164.803   107298214.40048     -1240.925    20418165.000    83609019.55148
      -966.956  
  20578607.814   108141341.79949      1026.124    20578609.594    84266002.71449
       799.574  
 20 10 03 08 26 40.0000000  0  9G11G15G21G18G24G32G20G23G10
  24240138.626   127382792.21346      1480.000    24240138.415    99259314.65145
      1153.238  
  23597237.846   124004324.18347     -3384.801    23597238.327    96626749.85446
     -2637.512  
  23356137.097   122737357.10447      1126.890    23356136.105    95639481.49745
       878.094  
  24154345.782   126931938.52446     -3834.655    24154347.593    98908012.82545
     -2988.051  
  20751378.578   109049263.44749     -1181.128    20751380.990    84973478.73149
      -920.363  
  22539161.959   118444121.15448      2761.921    22539164.187    92294137.53349
      2152.145  
  20381731.785   107106748.25148     -1608.151    20381730.934    83459820.67248
     -1253.108  
  20419346.533   107304424.52748     -1243.425    20419346.741    83613858.61148
      -968.906  
  20577632.562   108136216.34649      1023.737    20577634.214    84262008.85549
       797.715  
 20 10 03 08 26 45.0000000  0  9G11G15G21G18G24G32G20G23G10
  24238732.387   127375402.06146      1476.288    24238732.212    99253556.14144
      1150.352  
  23600458.593   124021249.82447     -3385.491    23600459.198    96639938.65746
     -2638.051  
  23355066.139   122731729.77547      1124.113    23355065.251    95635096.56145
       875.930  
  24157995.029   126951115.60446     -3835.683    24157997.147    98922956.01245
     -2988.847  
  20752503.983   109055177.55348     -1184.500    20752506.552    84978087.12549
      -922.988  
  22536534.601   118430314.63848      2760.723    22536536.956    92283379.21149
      2151.210  
  20383263.268   107114796.09748     -1610.851    20383262.381    83466091.72248
     -1255.211  
  20420530.935   107310648.50648     -1245.996    20420531.177    83618708.46248
      -970.909  
  20576659.775   108131104.06949      1021.214    20576661.526    84258025.26549
       795.749  
 20 10 03 08 26 50.0000000  0  9G11G15G21G18G24G32G20G23G10
  24237328.986   127368027.39046      1473.155    24237328.753    99247809.61545
      1147.910  
  23603679.881   124038177.84147     -3385.988    23603680.635    96653129.31046
     -2638.437  
  23353997.826   122726115.03347      1121.656    23353996.825    95630721.44246
       874.016  
  24161644.681   126970294.36946     -3836.054    24161646.526    98937900.48745
     -2989.137  
  20753632.428   109061107.60448     -1187.808    20753634.797    84982707.94449
      -925.566  
  22533908.362   118416513.31448      2759.597    22533910.477    92272624.93849
      2150.332  
  20384797.226   107122857.40948     -1613.840    20384796.534    83472373.25948
     -1257.538  
  20421717.796   107316885.56448     -1248.918    20421718.034    83623568.50648
      -973.187  
  20575689.273   108126004.20149      1018.554    20575691.038    84254051.34249
       793.675  
 20 10 03 08 26 55.0000000  0 10G11G12G15G21G18G24G32G20G23G10
  24235929.945   127360675.09846      1469.340    24235929.664    99242080.58345
      1144.940  
  24599413.772   129270792.40716      3404.164           0.000           0.0000 
         0.000  
  23606903.073   124055115.10747     -3387.456    23606903.719    96666327.17646
     -2639.582  
  23352932.918   122720519.83947      1118.120    23352932.020    95626361.55445
       871.262  
  24165295.879   126989481.73546     -3837.398    24165297.706    98952851.67746
     -2990.184  
  20754765.232   109067060.56249     -1191.815    20754767.676    84987346.61349
      -928.691  
  22531284.420   118402724.12148      2757.715    22531286.680    92261880.11549
      2148.867  
  20386335.172   107130939.12048     -1617.417    20386334.318    83478670.69648
     -1260.328  
  20422908.463   107323142.59248     -1252.441    20422908.806    83628444.11048
      -975.930  
  20574722.379   108120923.70049      1015.140    20574724.205    84250092.50949
       791.015  
 20 10 03 08 27  0.0000000  0 10G11G12G15G21G18G24G32G20G23G10
  24234532.605   127353332.24746      1467.582    24234532.329    99236358.88444
      1143.566  
  24596172.767   129253769.62745      3404.945    24596174.799   100717209.43955
      2653.199  
  23610125.316   124072048.60947     -3386.379    23610126.140    96679522.10846
     -2638.738  
  23351869.577   122714931.07547      1117.156    23351868.490    95622006.67145
       870.508  
  24168946.244   127008664.56146     -3836.452    24168948.210    98967799.31745
     -2989.445  
  20755899.953   109073023.24648     -1193.390    20755902.268    84991992.86049
      -929.917  
  22528660.099   118388933.94248      2758.265    22528662.390    92251134.52449
      2149.292  
  20387874.447   107139028.13048     -1618.457    20387873.605    83484973.81948
     -1261.136  
  20424100.443   107329406.49348     -1253.241    20424100.794    83633325.07048
      -976.555  
  20573756.830   108115849.42849      1014.285    20573758.595    84246138.53149
       790.348  
 20 10 03 08 27  5.0000000  0 10G11G12G15G21G18G24G32G20G23G10
  24233137.531   127346001.99246      1464.710    24233137.583    99230647.00644
      1141.328  
  24592934.284   129236747.12746      3403.937    24592938.473   100703945.16045
      2652.413  
  23613347.551   124088981.66247     -3386.883    23613348.271    96692716.69346
     -2639.132  
  23350807.940   122709352.13447      1114.527    23350806.890    95617659.44045
       868.461  
  24172596.529   127027846.28646     -3836.488    24172598.489    98982746.10145
     -2989.472  
  20757036.943   109078998.98348     -1196.726    20757039.558    84996649.27849
      -932.516  
  22526036.490   118375146.16048      2757.085    22526038.588    92240390.80649
      2148.374  
  20389415.623   107147127.78548     -1621.277    20389415.055    83491285.23748
     -1263.335  
  20425294.345   107335680.67748     -1256.147    20425294.730    83638214.04148
      -978.820  
  20572792.986   108110784.79749      1011.719    20572794.943    84242192.06749
       788.348  
 20 10 03 08 27 10.0000000  0 10G11G12G15G21G18G24G32G20G23G10
  24231746.077   127338689.06946      1460.886    24231745.828    99224948.59545
      1138.351  
  24589696.083   129219729.36145      3403.011    24589697.944   100690684.60945
      2651.698  
  23616570.581   124105918.85947     -3387.440    23616571.356    96705914.50346
     -2639.565  
  23349748.950   122703787.53847      1111.772    23349747.959    95613323.39145
       866.313  
  24176247.360   127047031.34347     -3837.085    24176249.251    98997695.48645
     -2989.941  
  20758177.558   109084992.39249     -1200.112    20758180.013    85001319.46949
      -935.156  
  22523414.054   118361365.38148      2755.558    22523416.247    92229652.54049
      2147.183  
  20390959.864   107155242.72848     -1624.229    20390959.201    83497608.56848
     -1265.637  
  20426491.108   107341969.67848     -1258.890    20426491.357    83643114.55748
      -980.956  
  20571832.000   108105734.37349      1009.004    20571833.734    84238256.67249
       786.234  
 20 10 03 08 27 15.0000000  0 10G11G12G15G21G18G24G32G20G23G10
  24230357.466   127331392.40046      1457.574    24230357.034    99219262.90444
      1135.769  
  24586458.617   129202715.36246      3402.233    24586458.500   100677426.91244
      2651.085  
  23619794.347   124122859.14947     -3388.410    23619794.854    96719114.71946
     -2640.323  
  23348692.615   122698236.27647      1108.687    23348691.507    95608997.74046
       863.909  
  24179898.522   127066218.89046     -3837.847    24179900.420    99012646.81945
     -2990.534  
  20759321.222   109091002.32548     -1203.656    20759323.643    85006002.53649
      -937.918  
  22520792.751   118347590.52948      2754.054    22520794.875    92218918.89549
      2146.012  
  20392506.757   107163371.89548     -1627.421    20392506.031    83503942.98448
     -1268.125  
  20427690.516   107348272.48548     -1262.109    20427690.673    83648025.83648
      -983.465  
  20570873.482   108100697.14449      1005.937    20570875.220    84234331.55949
       783.844  
 20 10 03 08 27 20.0000000  0 10G11G12G15G21G18G24G32G20G23G10
  24228972.076   127324112.37946      1454.354    24228972.002    99213590.15044
      1133.262  
  24583221.392   129185705.46945      3401.897    24583223.185   100664172.46246
      2650.828  
  23623018.477   124139802.94247     -3388.980    23623019.188    96732317.67046
     -2640.765  
  23347638.768   122692698.77147      1105.996    23347637.717    95604682.80246
       861.812  
  24183550.218   127085408.99347     -3837.926    24183552.329    99027600.12045
     -2990.597  
  20760468.122   109097029.17148     -1206.934    20760470.452    85010698.77849
      -940.473  
  22518172.780   118333822.02348      2752.960    22518174.976    92208190.19449
      2145.159  
  20394056.510   107171515.65248     -1630.324    20394055.788    83510288.76348
     -1270.387  
  20428892.623   107354589.44548     -1264.688    20428892.932    83652948.13848
      -985.473  
  20569917.452   108095673.48349      1003.527    20569919.386    84230417.01749
       781.965  
 20 10 03 08 27 25.0000000  0 10G11G12G15G21G18G24G32G20G23G10
  24227589.409   127316846.22546      1451.645    24227589.409    99207928.25644
      1131.151  
  24579984.891   129168697.10446      3401.444    24579986.834   100650919.27144
      2650.480  
  23626243.007   124156747.39647     -3389.023    23626243.739    96745521.13646
     -2640.801  
  23346587.208   122687172.22547      1103.883    23346586.171    95600376.39646
       860.164  
  24187202.094   127104599.23445     -3838.042    24187204.011    99042553.55344
     -2990.688  
  20761617.684   109103070.16048     -1209.808    20761620.190    85015406.04349
      -942.710  
  22515553.394   118320057.05648      2752.437    22515555.568    92197464.24849
      2144.754  
  20395608.544   107179671.17748     -1632.477    20395607.757    83516643.72348
     -1272.063  
  20430096.787   107360917.80348     -1266.956    20430097.125    83657879.32648
      -987.241  
  20568963.508   108090660.62949      1001.304    20568965.266    84226510.89849
       780.233  
 20 10 03 08 27 30.0000000  0  9G11G12G15G21G24G32G20G23G10
  24226209.623   127309595.80746      1448.565    24226209.614    99202278.53945
      1128.750  
  24576749.066   129151691.95045      3401.335    24576749.960   100637668.40845
      2650.378  
  23629467.908   124173694.33747     -3389.116    23629468.539    96758726.53046
     -2640.875  
  23345537.914   122681658.42947      1101.913    23345536.778    95596079.93346
       858.633  
  20762770.278   109109127.33048     -1212.616    20762772.610    85020125.91749
      -944.897  
  22512934.963   118306297.48248      2751.746    22512937.140    92186742.50649
      2144.214  
  20397163.042   107187840.30848     -1634.770    20397162.412    83523009.27748
     -1273.848  
  20431303.637   107367259.37348     -1269.179    20431303.748    83662820.80948
      -988.973  
  20568012.026   108085660.40249       999.229    20568013.823    84222614.61749
       778.617  
 20 10 03 08 27 35.0000000  0 10G11G12G15G21G18G24G32G20G23G10
  24224833.615   127302364.24046      1444.843    24224833.451    99196643.59943
      1125.852  
  24573513.874   129134693.15246      3399.535    24573515.309   100624422.70644
      2648.996  
  23632693.782   124190646.91847     -3391.168    23632694.546    96771936.33146
     -2642.472  
  23344491.700   122676160.59647      1098.344    23344490.577    95591795.91445
       855.848  
  24194507.100   127142990.86256     -3840.276    24194507.809    99072465.72854
     -2992.433  
  20763926.502   109115203.64348     -1216.949    20763928.932    85024860.70649
      -948.273  
  22510318.241   118292546.45348      2749.582    22510320.408    92176027.42549
      2142.526  
  20398720.791   107196026.23648     -1638.832    20398720.020    83529387.91848
     -1277.016  
  20432513.514   107373617.32248     -1272.988    20432513.793    83667775.05148
      -991.940  
  20567063.413   108080675.97149       995.547    20567065.317    84218730.64649
       775.745  
 20 10 03 08 27 40.0000000  0 10G11G12G15G21G18G24G32G20G23G10
  24223460.456   127295148.55646      1442.070    24223460.277    99191020.96344
      1123.687  
  24570280.007   129117697.87946      3399.042    24570281.148   100611179.57745
      2648.597  
  23635920.443   124207602.07347     -3391.042    23635921.048    96785148.13146
     -2642.375  
  23343447.912   122670675.67247      1095.851    23343446.824    95587521.94946
       853.905  
  24198160.647   127162189.47246     -3839.507    24198162.361    99087425.69545
     -2991.828  
  20765085.948   109121296.10148     -1219.862    20765088.441    85029608.07749
      -950.546  
  22507702.447   118278800.92448      2748.894    22507704.668    92165316.62549
      2141.992  
  20400280.998   107204225.87048     -1640.882    20400280.517    83535777.23948
     -1278.613  
  20433725.863   107379988.60248     -1275.371    20433726.030    83672739.68048
      -993.801  
  20566117.447   108075704.32149       993.276    20566119.258    84214856.63049
       773.979  
 20 10 03 08 27 45.0000000  0 10G11G12G15G21G18G24G32G20G23G10
  24222090.171   127287947.12946      1438.367    24222089.940    99185409.47444
      1120.804  
  24567045.930   129100704.34345      3398.023    24567047.356   100597937.89745
      2647.813  
  23639147.060   124224558.30747     -3391.621    23639147.574    96798360.77846
     -2642.823  
  23342406.430   122665202.15147      1093.223    23342405.264    95583256.87446
       851.859  
  24201814.212   127181388.33746     -3840.086    24201815.511    99102385.85944
     -2992.277  
  20766248.062   109127403.08648     -1223.148    20766250.379    85034366.77049
      -953.104  
  22505087.605   118265059.39948      2747.598    22505089.653    92154608.95149
      2140.980  
  20401843.692   107212437.72548     -1643.770    20401843.235    83542176.08848
     -1280.863  
  20434940.510   107386371.67748     -1278.043    20434940.736    83677713.51148
      -995.878  
  20565173.390   108070743.89749       990.746    20565175.384    84210991.37249
       772.008  
 20 10 03 08 27 50.0000000  0 10G11G12G15G21G18G24G32G20G23G10
  24220722.728   127280761.76346      1435.332    24220722.621    99179810.46844
      1118.437  
  24563812.988   129083714.49746      3397.577    24563814.330   100584699.09945
      2647.465  
  23642374.233   124241517.31047     -3392.102    23642374.840    96811575.58146
     -2643.198  
  23341367.244   122659741.75047      1090.676    23341366.411    95579002.00945
       849.875  
  24205468.201   127200589.30245     -3840.289    24205469.564    99117347.62445
     -2992.438  
  20767413.229   109133526.35848     -1226.308    20767415.743    85039138.14749
      -955.565  
  22502473.728   118251323.54248      2746.594    22502475.860    92143905.68649
      2140.199  
  20403409.030   107220663.44748     -1646.543    20403408.384    83548585.73848
     -1283.022  
  20436157.814   107392768.24748     -1280.828    20436157.870    83682697.84348
      -998.050  
  20564232.012   108065796.41949       988.035    20564233.971    84207136.19349
       769.895  
 20 10 03 08 27 55.0000000  0 10G11G12G15G21G18G24G32G20G23G10
  24219358.492   127273592.15246      1432.559    24219358.258    99174223.78845
      1116.280  
  24560580.456   129066727.92345      3397.155    24560581.634   100571462.75346
      2647.132  
  23645601.806   124258478.79047     -3392.426    23645602.569    96824792.31145
     -2643.452  
  23340330.728   122654294.17047      1088.155    23340329.728    95574757.15046
       847.909  
  24209122.133   127219791.84546     -3840.624    24209123.762    99132310.64244
     -2992.699  
  20768581.444   109139665.71648     -1229.530    20768584.040    85043922.06549
      -958.077  
  22499860.989   118237593.13148      2745.543    22499863.044    92133206.67249
      2139.382  
  20404976.853   107228902.78648     -1649.289    20404976.477    83555006.00248
     -1285.163  
  20437377.563   107399178.04248     -1283.304    20437377.698    83687692.49048
      -999.980  
  20563292.911   108060861.63049       985.703    20563294.737    84203290.90449
       768.078  
 20 10 03 08 28  0.0000000  0 10G11G12G15G21G18G24G32G20G23G10
  24217997.261   127266439.64647      1428.772    24217997.271    99168650.42954
      1113.328  
  24557349.046   129049746.09646      3396.108    24557350.486   100558230.24145
      2646.323  
  23648830.308   124275444.09047     -3393.354    23648831.041    96838012.02046
     -2644.176  
  23339296.686   122648860.80347      1085.069    23339295.783    95570523.35046
       845.508  
  24212776.625   127238997.51746     -3841.448    24212778.665    99147276.07954
     -2993.339  
  20769753.065   109145822.37548     -1232.956    20769755.498    85048719.45949
      -960.750  
  22497249.395   118223869.48448      2744.059    22497251.461    92122512.92749
      2138.222  
  20406547.727   107237157.09548     -1652.367    20406547.005    83561437.92648
     -1287.563  
  20438600.004   107405602.41948     -1286.359    20438600.216    83692698.49748
     -1002.358  
  20562356.477   108055940.88549       982.687    20562358.442    84199456.56049
       765.726  
 20 10 03 08 28  5.0000000  0 10G11G12G15G21G18G24G32G20G23G10
  24216639.112   127259302.90146      1425.776    24216639.304    99163089.28244
      1110.988  
  24554118.283   129032767.66246      3395.531    24554119.045   100545000.24744
      2645.863  
  23652059.052   124292411.85047     -3393.547    23652059.783    96851233.64546
     -2644.324  
  23338265.289   122643440.27547      1083.136    23338264.254    95566299.56745
       843.999  
  24216431.319   127258204.84645     -3841.304    24216433.896    99162242.82545
     -2993.227  
  20770927.560   109151994.91748     -1235.914    20770930.148    85053529.23549
      -963.054  
  22494638.929   118210151.23848      2743.417    22494641.096    92111823.38949
      2137.727  
  20408120.869   107245424.98548     -1654.539    20408120.460    83567880.43148
     -1289.253  
  20439824.904   107412039.96948     -1288.679    20439825.171    83697714.76748
     -1004.167  
  20561422.506   108051032.80249       980.577    20561424.594    84195632.07749
       764.081  
 20 10 03 08 28 10.0000000  0 10G11G12G15G21G18G24G32G20G23G10
  24215284.037   127252181.71645      1422.456    24215284.215    99157540.32245
      1108.405  
  24550887.859   129015792.35846      3394.323    24550888.615   100531772.77145
      2644.929  
  23655288.334   124309381.93447     -3394.551    23655289.206    96864457.09446
     -2645.108  
  23337236.192   122638032.39747      1080.070    23337235.184    95562085.63545
       841.608  
  24220086.671   127277413.60146     -3842.147    24220089.424    99177210.66646
     -2993.891  
  20772105.272   109158183.33548     -1239.542    20772107.727    85058351.38149
      -965.878  
  22492029.431   118196438.26648      2741.781    22492031.445    92101137.95849
      2136.449  
  20409696.877   107253706.33348     -1657.875    20409696.355    83574333.42748
     -1291.855  
  20441052.473   107418490.57248     -1291.625    20441052.810    83702741.21248
     -1006.465  
  20560491.029   108046137.26449       977.577    20560492.936    84191817.37449
       761.745  
 20 10 03 08 28 15.0000000  0 10G11G12G15G21G18G24G32G20G23G10
  24213931.971   127245076.31046      1419.440    24213932.009    99152003.64344
      1106.050  
  24547658.225   128998820.45446      3394.090    24547659.429   100518547.95145
      2644.746  
  23658518.203   124326354.44647     -3394.710    23658518.819    96877682.41546
     -2645.233  
  23336209.564   122632637.36547      1077.733    23336208.527    95557881.71146
       839.789  
  24223742.459   127296624.02446     -3842.265    24223744.898    99192179.81344
     -2993.977  
  20773285.855   109164387.71948     -1242.519    20773288.244    85063185.96449
      -968.198  
  22489420.856   118182730.67448      2741.425    22489423.039    92090456.72149
      2136.171  
  20411275.362   107262001.23648     -1660.211    20411274.707    83580796.98148
     -1293.675  
  20442282.521   107424954.36548     -1294.101    20442282.645    83707777.93248
     -1008.394  
  20559561.813   108041254.39049       975.398    20559563.718    84188012.53649
       760.046  
 20 10 03 08 28 20.0000000  0 10G11G12G15G21G18G24G32G20G23G10
  24212582.780   127237986.01646      1416.448    24212582.816    99146478.73344
      1103.722  
  24544429.178   128981851.32545      3393.534    24544430.184   100505325.23145
      2644.308  
  23661748.264   124343328.81247     -3395.055    23661748.985    96890909.18346
     -2645.499  
  23335185.227   122627254.53247      1075.265    23335184.330    95553687.29346
       837.866  
  24227398.359   127315835.46946     -3842.074    24227400.468    99207149.76145
     -2993.828  
  20774469.473   109170607.29648     -1245.598    20774471.934    85068032.38349
      -970.598  
  22486813.255   118169027.94848      2739.870    22486815.605    92079779.27749
      2134.961  
  20412856.316   107270309.11148     -1662.941    20412855.725    83587270.64448
     -1295.800  
  20443514.859   107431430.74948     -1296.695    20443515.158    83712824.45848
     -1010.413  
  20558634.889   108036383.62149       972.815    20558636.948    84184217.13249
       758.035  
 20 10 03 08 28 25.0000000  0 10G11G12G15G21G18G24G32G20G23G10
  24211236.484   127230911.68046      1413.551    24211236.697    99140966.28943
      1101.464  
  24541200.465   128964885.69946      3393.011    24541201.575   100492105.30645
      2643.905  
  23664978.900   124360305.70147     -3395.406    23664979.374    96904137.93246
     -2645.772  
  23334163.345   122621884.66147      1072.957    23334162.264    95549502.98146
       836.065  
  24231054.498   127335048.60846     -3842.483    24231056.585    99222121.04345
     -2994.147  
  20775655.959   109176842.91448     -1248.608    20775658.549    85072891.31149
      -972.944  
  22484206.788   118155330.71548      2738.969    22484209.140    92069106.11449
      2134.258  
  20414439.745   107278630.67948     -1665.526    20414439.198    83593754.98148
     -1297.816  
  20444749.836   107437920.43848     -1299.125    20444750.151    83717881.36248
     -1012.308  
  20557710.457   108031525.66749       970.511    20557712.365    84180431.71549
       756.237  
 20 10 03 08 28 30.0000000  0 10G11G12G15G21G18G24G32G20G23G10
  24209893.403   127223853.96147      1409.937    24209893.498    99135466.77043
      1098.648  
  24537972.979   128947924.36046      3391.651    24537974.191   100478888.67745
      2642.843  
  23668210.071   124377285.80847     -3396.340    23668210.764    96917369.18446
     -2646.499  
  23333144.150   122616528.44647      1069.758    23333143.156    95545329.30946
       833.573  
  24234711.144   127354264.13046     -3843.206    24234712.929    99237094.16045
     -2994.710  
  20776845.851   109183095.18548     -1252.098    20776848.348    85077763.21349
      -975.664  
  22481601.477   118141639.71448      2737.671    22481603.648    92058437.81049
      2133.246  
  20416026.033   107286966.61748     -1668.569    20416025.589    83600250.51948
     -1300.188  
  20445987.506   107444424.09748     -1302.059    20445987.817    83722949.14748
     -1014.593  
  20556788.674   108026681.22749       967.546    20556790.477    84176656.83049
       753.929  
 20 10 03 08 28 35.0000000  0 10G11G12G15G21G18G24G32G20G23G10
  24208553.369   127216811.53346      1406.772    24208553.666    99129979.16343
      1096.183  
  24534745.672   128930965.93946      3390.902    24534747.011   100465674.35045
      2642.261  
  23671441.646   124394267.91347     -3396.863    23671442.172    96930601.97846
     -2646.909  
  23332127.218   122611184.62147      1067.332    23332126.245    95541165.29246
       831.683  
  24238367.746   127373480.86445     -3843.464    24238369.815    99252068.21545
     -2994.914  
  20778038.412   109189362.98148     -1255.190    20778041.071    85082647.21349
      -978.073  
  22478997.101   118127953.72048      2736.444    22478999.382    92047773.40349
      2132.293  
  20417614.802   107295315.68848     -1671.277    20417614.440    83606756.28548
     -1302.297  
  20447227.432   107450940.51648     -1304.683    20447227.690    83728026.87648
     -1016.640  
  20555869.173   108021849.05849       965.038    20555871.023    84172891.50649
       751.976  
 20 10 03 08 28 40.0000000  0 10G11G12G15G21G18G24G32G20G23G10
  24207216.327   127209785.48946      1403.621    24207216.493    99124504.32044
      1093.726  
  24531519.484   128914011.57846      3391.038    24531520.703   100452463.15945
      2642.363  
  23674673.989   124411253.02047     -3397.328    23674674.515    96943837.13246
     -2647.272  
  23331112.928   122605854.23847      1064.824    23331111.811    95537011.75846
       829.730  
  24242025.086   127392699.68646     -3843.891    24242026.908    99267043.93145
     -2995.242  
  20779234.400   109195647.37448     -1258.522    20779236.966    85087544.14149
      -980.671  
  22476393.888   118114273.74248      2735.621    22476396.094    92037113.68649
      2131.647  
  20419206.225   107303678.92048     -1673.987    20419205.970    83613273.08748
     -1304.410  
  20448470.032   107457470.73648     -1307.395    20448470.478    83733115.35448
     -1018.754  
  20554952.148   108017030.21649       962.460    20554954.020    84169136.56249
       749.965  
 20 10 03 08 28 45.0000000  0 10G11G12G15G21G18G24G32G20G23G10
  24205882.381   127202775.49046      1400.266    24205882.395    99119041.97355
      1091.108  
  24528294.041   128897061.04246      3390.343    24528295.246   100439254.95045
      2641.824  
  23677906.534   124428240.78147     -3397.921    23677907.144    96957074.33146
     -2647.733  
  23330100.919   122600536.96947      1062.199    23330100.067    95532868.43046
       827.683  
  24245682.744   127411920.34046     -3844.109    24245684.717    99282021.05044
     -2995.413  
  20780433.252   109201947.82049     -1261.636    20780435.794    85092453.57849
      -983.098  
  22473791.814   118100599.44048      2734.418    22473794.030    92026458.38849
      2130.710  
  20420800.305   107312055.99548     -1676.828    20420799.959    83619800.67048
     -1306.620  
  20449715.322   107464014.36948     -1310.039    20449715.689    83738214.28648
     -1020.812  
  20554037.598   108012224.35249       959.918    20554039.456    84165391.73349
       747.983  
 20 10 03 08 28 50.0000000  0 10G11G12G15G21G18G24G32G20G23G10
  24204551.276   127195780.80046      1397.152    24204551.352    99113591.57645
      1088.688  
  24525068.831   128880113.42246      3388.867    24525070.058   100426049.06445
      2640.679  
  23681139.636   124445230.50547     -3398.547    23681140.211    96970313.07546
     -2648.223  
  23329091.607   122595232.09747      1059.375    23329090.438    95528734.76245
       825.484  
  24249340.505   127431142.07045     -3844.828    24249342.685    99296999.00445
     -2995.976  
  20781635.145   109208263.62648     -1264.925    20781637.560    85097374.98549
      -985.660  
  22471190.681   118086930.11048      2732.941    22471192.684    92015806.96749
      2129.563  
  20422397.066   107320446.12448     -1679.804    20422396.638    83626338.43148
     -1308.941  
  20450962.871   107470570.69248     -1312.801    20450963.369    83743323.10648
     -1022.965  
  20553125.326   108007430.73249       957.073    20553127.337    84161656.44449
       745.770  
 20 10 03 08 28 55.0000000  0 10G11G12G15G21G18G24G32G20G23G10
  24203223.406   127188802.73446      1394.152    24203223.552    99108154.14444
      1086.347  
  24521844.771   128863170.21346      3388.511    24521845.511   100412846.55345
      2640.395  
  23684373.293   124462223.45747     -3398.676    23684373.814    96983554.32646
     -2648.320  
  23328084.551   122589940.88647      1057.238    23328083.577    95524611.74245
       823.819  
  24252998.632   127450366.09446     -3844.909    24253000.568    99311978.76645
     -2996.035  
  20782840.269   109214596.09348     -1267.871    20782842.749    85102309.37649
      -987.953  
  22468590.693   118073267.05148      2732.277    22468592.814    92005160.43549
      2129.042  
  20423996.287   107328850.73948     -1682.183    20423995.983    83632887.48248
     -1310.797  
  20452213.283   107477141.02348     -1315.160    20452213.486    83748442.84748
     -1024.805  
  20552215.708   108002650.66049       954.953    20552217.651    84157931.71449
       744.117  
 20 10 03 08 29  0.0000000  0 10G11G12G15G21G18G24G32G20G23G10
  24201898.448   127181839.75046      1391.254    24201898.577    99102728.43745
      1084.090  
  24518620.888   128846229.65945      3388.457    24518622.177   100399646.13345
      2640.354  
  23687607.315   124479218.04247     -3398.988    23687607.705    96996796.85346
     -2648.565  
  23327079.975   122584661.83747      1054.608    23327079.192    95520498.20346
       821.769  
  24256656.834   127469590.91946     -3844.914    24256659.119    99326959.14044
     -2996.038  
  20784048.074   109220943.78048     -1271.063    20784050.613    85107255.62849
      -990.440  
  22465991.468   118059608.68848      2731.351    22465993.669    91994517.55649
      2128.323  
  20425598.165   107337268.16948     -1684.706    20425597.766    83639446.51448
     -1312.761  
  20453465.798   107483723.78848     -1317.784    20453466.273    83753572.26848
     -1026.847  
  20551308.381   107997882.62549       952.402    20551310.415    84154216.36249
       742.128  
 20 10 03 08 29  5.0000000  0 10G11G12G15G21G18G24G32G20G23G10
  24200576.689   127174893.64046      1387.546    24200576.586    99097315.85644
      1081.198  
  24515398.092   128829293.78047      3387.031    24515399.309   100386449.40444
      2639.245  
  23690841.926   124496216.00847     -3399.733    23690842.510    97010042.02246
     -2649.147  
  23326078.063   122579396.66047      1051.652    23326077.177    95516395.46446
       819.465  
  24260315.776   127488818.28645     -3845.558    24260317.892    99341941.48545
     -2996.542  
  20785259.298   109227308.30548     -1274.542    20785261.658    85112214.99649
      -993.152  
  22463393.566   118045956.77748      2730.008    22463395.759    91983879.70749
      2127.277  
  20427202.702   107345700.06748     -1687.710    20427202.225    83646016.82048
     -1315.101  
  20454721.160   107490320.72548     -1320.711    20454721.506    83758712.73948
     -1029.129  
  20550403.727   107993128.32249       949.602    20550405.633    84150511.71149
       739.945  
 20 10 03 08 29 10.0000000  0 10G11G12G15G21G18G24G32G20G23G10
  24199257.764   127167962.48946      1384.703    24199257.669    99091914.98544
      1078.983  
  24512175.969   128812360.59745      3386.714    24512176.831   100373254.64445
      2638.992  
  23694076.743   124513215.52447     -3400.031    23694077.354    97023288.39046
     -2649.378  
  23325078.438   122574143.56447      1049.440    23325077.625    95512302.15045
       817.741  
  24263974.828   127508046.29946     -3845.574    24263976.962    99356924.35645
     -2996.554  
  20786473.197   109233687.76348     -1277.184    20786475.873    85117186.00649
      -995.211  
  22460796.627   118032309.52048      2728.895    22460798.813    91973245.49049
      2126.405  
  20428809.527   107354144.67648     -1690.207    20428809.378    83652597.03148
     -1317.046  
  20455978.982   107496930.03348     -1323.070    20455979.193    83763862.84748
     -1030.969  
  20549501.165   107988385.98249       947.242    20549503.281    84146816.38449
       738.108  
 20 10 03 08 29 15.0000000  0 10G11G12G15G21G18G24G32G20G23G10
  24197941.863   127161047.32046      1381.371    24197941.867    99086526.56045
      1076.390  
  24508954.339   128795431.03547      3385.534    24508955.374   100360062.87945
      2638.082  
  23697312.122   124530217.55447     -3400.520    23697312.710    97036536.72346
     -2649.757  
  23324081.305   122568903.49647      1046.625    23324080.235    95508218.97345
       815.546  
  24267634.038   127527275.88846     -3845.875    24267636.408    99371908.43045
     -2996.789  
  20787690.315   109240083.22948     -1280.719    20787692.776    85122169.48649
      -997.965  
  22458200.643   118018667.84348      2727.749    22458202.858    91962615.61549
      2125.516  
  20430419.034   107362602.94248     -1693.082    20430418.741    83659187.88548
     -1319.289  
  20457239.095   107503552.62648     -1325.933    20457239.552    83769023.30948
     -1033.198  
  20548601.251   107983656.52749       944.598    20548603.364    84143131.09549
       736.047  
 20 10 03 08 29 20.0000000  0 10G11G12G15G21G18G24G32G20G23G10
  24196628.997   127154148.63046      1378.323    24196629.052    99081150.95744
      1074.015  
  24505733.598   128778505.83346      3384.043    24505734.592   100346874.34445
      2636.909  
  23700548.061   124547222.58947     -3401.383    23700548.772    97049787.38946
     -2650.430  
  23323086.610   122563676.90347      1043.863    23323085.800    95504146.30646
       813.398  
  24271293.768   127546507.61946     -3846.542    24271296.233    99386894.17444
     -2997.309  
  20788910.487   109246495.11648     -1284.219    20788912.856    85127165.76149
     -1000.690  
  22455605.978   118005032.25548      2726.559    22455608.117    91951990.48849
      2124.590  
  20432031.386   107371075.34548     -1695.882    20432031.008    83665789.75348
     -1321.468  
  20458502.080   107510189.03248     -1328.805    20458502.372    83774194.53448
     -1035.434  
  20547703.807   107978940.49249       941.758    20547705.886    84139456.26249
       733.836  
 20 10 03 08 29 25.0000000  0 10G11G12G15G21G18G24G32G20G23G10
  24195319.425   127147266.43846      1375.015    24195319.544    99075788.21144
      1071.437  
  24502513.444   128761584.71847      3383.878    24502514.802   100333689.15745
      2636.797  
  23703784.625   124564230.57047     -3401.839    23703785.307    97063040.36546
     -2650.789  
  23322094.596   122558463.83547      1041.187    23322093.847    95500084.17446
       811.312  
  24274953.893   127565741.39446     -3846.801    24274956.131    99401881.53545
     -2997.511  
  20790133.698   109252923.51148     -1287.280    20790136.109    85132174.90249
     -1003.078  
  22453012.249   117991402.74748      2725.379    22453014.600    91941370.09449
      2123.667  
  20433646.224   107379561.87748     -1698.546    20433645.972    83672402.63448
     -1323.546  
  20459767.534   107516839.19448     -1331.347    20459767.871    83779376.47848
     -1037.418  
  20546808.839   107974237.83949       939.211    20546810.850    84135791.86149
       731.847  
 20 10 03 08 29 30.0000000  0 10G11G12G15G21G18G24G32G20G23G10
  24194012.666   127140399.28046      1371.711    24194012.704    99070437.19754
      1068.867  
  24499294.153   128744666.53946      3383.456    24499295.358   100320506.10445
      2636.452  
  23707021.526   124581240.09947     -3402.233    23707022.117    97076294.53046
     -2651.094  
  23321104.887   122553262.81547      1039.035    23321104.097    95496031.43945
       809.632  
  24278614.015   127584975.77945     -3847.172    24278616.364    99416869.35745
     -2997.800  
  20791359.770   109259366.87348     -1290.211    20791362.292    85137195.69849
     -1005.363  
  22450419.492   117977777.87248      2724.515    22450421.812    91930753.31049
      2122.996  
  20435263.722   107388061.10748     -1701.050    20435263.380    83679025.40348
     -1325.495  
  20461035.259   107523501.69748     -1333.824    20461035.809    83784568.03548
     -1039.347  
  20545916.354   107969547.14649       936.914    20545918.263    84132136.77349
       730.059  
 20 10 03 08 29 35.0000000  0 10G11G12G15G21G18G24G32G20G23G10
  24192708.962   127133548.02246      1368.477    24192708.859    99065098.54644
      1066.344  
  24496075.222   128727751.88346      3382.374    24496076.419   100307325.89846
      2635.617  
  23710258.831   124598252.03147     -3402.839    23710259.372    97089550.57845
     -2651.566  
  23320117.636   122548074.77947      1036.222    23320116.740    95491988.81246
       807.441  
  24282274.510   127604211.68446     -3847.397    24282276.809    99431858.36045
     -2997.976  
  20792589.074   109265826.15948     -1293.577    20792591.409    85142228.91649
     -1007.984  
  22447827.864   117964158.58548      2722.992    22447829.997    91920140.88949
      2121.809  
  20436883.485   107396573.92248     -1704.062    20436883.217    83685658.76748
     -1327.844  
  20462305.651   107530177.46748     -1336.698    20462305.945    83789769.93648
     -1041.585  
  20545026.158   107964869.34949       934.046    20545028.116    84128491.74049
       727.824  
 20 10 03 08 29 40.0000000  0 10G11G12G15G21G18G24G32G20G23G10
  24191408.324   127126713.27546      1365.116    24191408.136    99059772.77353
      1063.726  
  24492857.468   128710841.62846      3381.484    24492858.712   100294149.08045
      2634.917  
  23713496.488   124615266.97047     -3403.109    23713497.092    97102808.96946
     -2651.777  
  23319133.088   122542900.31647      1033.664    23319132.074    95487956.76946
       805.449  
  24285935.395   127623449.60646     -3847.543    24285937.520    99446848.95545
     -2998.090  
  20793821.406   109272302.01348     -1296.602    20793823.937    85147275.03549
     -1010.344  
  22445237.393   117950545.37948      2722.031    22445239.652    91909533.20049
      2121.059  
  20438506.119   107405100.89348     -1706.589    20438506.004    83692303.15648
     -1329.812  
  20463578.695   107536867.01048     -1339.160    20463579.014    83794982.56548
     -1043.503  
  20544138.426   107960204.97349       931.753    20544140.660    84124857.16149
       726.038  
 20 10 03 08 29 45.0000000  0 10G11G12G15G21G18G24G32G20G23G10
  24190110.668   127119894.14246      1362.269    24190110.735    99054459.16444
      1061.504  
  24489640.137   128693934.71846      3380.972    24489641.184   100280974.87645
      2634.520  
  23716734.905   124632284.03147     -3403.641    23716735.589    97116069.01146
     -2652.190  
  23318150.787   122537738.57447      1031.109    23318149.857    95483934.63246
       803.457  
  24289596.409   127642688.77246     -3847.906    24289598.722    99461840.49745
     -2998.371  
  20795056.602   109278793.41948     -1299.949    20795059.141    85152333.27249
     -1012.948  
  22442647.866   117936937.48048      2720.870    22442650.041    91898929.64649
      2120.155  
  20440131.419   107413641.21448     -1709.496    20440130.983    83698957.95148
     -1332.078  
  20464854.021   107543569.52148     -1341.863    20464854.520    83800205.29848
     -1045.609  
  20543253.370   107955553.22449       928.988    20543255.393    84121232.42349
       723.882  
 20 10 03 08 29 50.0000000  0 10G11G12G15G21G18G24G32G20G23G10
  24188816.108   127113091.46545      1358.867    24188816.099    99049158.34444
      1058.852  
  24486423.795   128677032.07046      3380.215    24486425.045   100267804.00945
      2633.933  
  23719973.512   124649303.99647     -3404.008    23719974.295    97129331.31646
     -2652.476  
  23317171.141   122532590.28047      1028.538    23317170.094    95479922.97746
       801.457  
  24293257.868   127661929.83846     -3848.195    24293260.187    99476833.52145
     -2998.597  
  20796295.024   109285301.18348     -1302.901    20796297.536    85157404.25949
     -1015.249  
  22440059.478   117923335.59648      2719.965    22440061.660    91888330.78449
      2119.448  
  20441759.210   107422195.53148     -1712.121    20441758.875    83705623.64848
     -1334.124  
  20466132.033   107550285.73548     -1344.483    20466132.467    83805438.71348
     -1047.651  
  20542370.583   107950914.80349       926.694    20542372.815    84117618.07049
       722.098  
 20 10 03 08 29 55.0000000  0 10G11G12G15G21G18G24G32G20G23G10
  24187524.569   127106304.47346      1355.750    24187524.560    99043869.80144
      1056.425  
  24483207.779   128660132.82547      3379.340    24483208.947   100254635.81445
      2633.254  
  23723212.874   124666326.05247     -3404.863    23723213.546    97142595.25546
     -2653.144  
  23316193.787   122527454.68647      1025.550    23316193.019    95475921.20645
       799.129  
  24296919.669   127681172.07846     -3848.944    24296921.817    99491827.47045
     -2999.179  
  20797536.308   109291824.45748     -1306.370    20797538.851    85162487.33249
     -1017.952  
  22437472.038   117909738.98048      2718.702    22437474.494    91877736.02249
      2118.465  
  20443389.657   107430763.11848     -1714.897    20443389.224    83712299.68848
     -1336.289  
  20467412.538   107557014.86848     -1347.378    20467413.099    83810682.18848
     -1049.909  
  20541490.472   107946289.00649       923.707    20541492.433    84114013.55349
       719.769  
 20 10 03 08 30  0.0000000  0 10G11G12G15G21G18G24G32G20G23G10
  24186236.087   127099533.76747      1352.691    24186236.048    99038593.93745
      1054.042  
  24479992.806   128643237.65546      3378.761    24479993.562   100241470.66445
      2632.789  
  23726452.462   124683350.76247     -3404.906    23726453.202    97155861.26045
     -2653.175  
  23315219.102   122522332.33947      1023.172    23315218.111    95471929.77745
       797.272  
  24300581.644   127700416.03846     -3848.987    24300583.809    99506822.74544
     -2999.215  
  20798780.642   109298363.82149     -1309.226    20798783.098    85167582.93949
     -1020.180  
  22434885.964   117896148.19248      2717.715    22434888.064    91867145.80249
      2117.695  
  20445022.578   107439344.55648     -1717.519    20445022.247    83718986.51648
     -1338.331  
  20468695.694   107563757.49248     -1349.729    20468696.185    83815936.17848
     -1051.742  
  20540612.626   107941676.36549       921.406    20540614.738    84110419.28849
       717.976  
 20 10 03 08 30  5.0000000  0 10G11G12G15G21G18G24G32G20G23G10
  24184950.682   127092778.45146      1348.983    24184950.693    99033330.06244
      1051.156  
  24476778.250   128626345.61047      3377.836    24476779.652   100228308.14545
      2632.089  
  23729692.588   124700377.33447     -3405.738    23729693.120    97169128.71646
     -2653.824  
  23314246.709   122517222.41247      1020.628    23314245.907    95467948.01645
       795.292  
  24304243.660   127719660.87545     -3849.699    24304246.004    99521818.72745
     -2999.769  
  20800028.009   109304918.43448     -1312.746    20800030.514    85172690.43149
     -1022.921  
  22432300.632   117882562.43248      2716.156    22432302.849    91856559.50149
      2116.480  
  20446657.984   107447938.98448     -1720.641    20446657.735    83725683.47348
     -1340.761  
  20469981.125   107570512.79148     -1352.675    20469981.712    83821200.04448
     -1054.035  
  20539737.275   107937076.08249       918.562    20539739.235    84106834.65449
       715.762  
 20 10 03 08 30 10.0000000  0 10G11G12G15G21G18G24G32G20G23G10
  24183668.269   127086039.66846      1346.313    24183668.412    99028079.08444
      1049.074  
  24473564.895   128609458.03246      3377.855    24473565.710   100215148.93145
      2632.086  
  23732933.117   124717406.77447     -3406.011    23732933.776    97182398.41245
     -2654.038  
  23313276.983   122512126.02847      1018.273    23313275.907    95463976.80746
       793.456  
  24307906.310   127738907.60745     -3849.229    24307908.643    99536816.15545
     -2999.401  
  20801278.424   109311489.40948     -1315.559    20801280.853    85177810.67349
     -1025.113  
  22429716.429   117868982.72748      2715.434    22429718.612    91845977.92049
      2115.917  
  20448296.233   107456547.50648     -1722.938    20448295.912    83732391.40948
     -1342.551  
  20471269.220   107577281.80648     -1355.015    20471269.668    83826474.60248
     -1055.859  
  20538864.409   107932489.20149       916.344    20538866.426    84103260.46149
       714.030  
 20 10 03 08 30 15.0000000  0 10G11G12G15G21G18G24G32G20G23G10
  24182388.905   127079316.75746      1342.796    24182389.082    99022840.41154
      1046.328  
  24470351.528   128592573.98847      3376.441    24470352.610   100201992.60745
      2630.995  
  23736174.194   124734438.49947     -3406.534    23736174.758    97195669.87646
     -2654.445  
  23312309.551   122507042.54447      1015.215    23312308.584    95460015.65646
       791.073  
  24311569.127   127758155.58946     -3849.663    24311571.279    99551814.56946
     -2999.745  
  20802531.876   109318076.09648     -1319.007    20802534.380    85182943.15549
     -1027.801  
  22427133.377   117855408.51048      2714.120    22427135.595    91835400.61549
      2114.894  
  20449936.981   107465169.53848     -1725.847    20449936.515    83739109.87548
     -1344.819  
  20472559.781   107584063.93648     -1357.780    20472560.310    83831759.37748
     -1058.016  
  20537994.010   107927915.16549       913.395    20537996.061    84099696.27749
       711.734  
 20 10 03 08 30 20.0000000  0 10G11G12G15G21G18G24G32G20G23G10
  24181112.800   127072610.40046      1339.550    24181112.790    99017614.70744
      1043.801  
  24467139.647   128575694.69146      3374.788    24467140.903   100188839.89045
      2629.703  
  23739415.865   124751473.18547     -3407.176    23739416.373    97208943.65346
     -2654.944  
  23311344.785   122501972.69647      1012.722    23311343.983    95456065.12346
       789.133  
  24315232.247   127777405.57046     -3850.160    24315234.468    99566814.55945
     -3000.128  
  20803788.376   109324679.10748     -1322.144    20803790.823    85188088.36149
     -1030.246  
  22424551.454   117841840.47648      2713.035    22424553.808    91824828.12649
      2114.050  
  20451580.367   107473805.71548     -1728.687    20451580.061    83745839.35748
     -1347.031  
  20473853.025   107590859.88548     -1360.535    20473853.407    83837054.92148
     -1060.160  
  20537126.067   107923354.62549       910.862    20537128.136    84096142.60949
       709.761  
 20 10 03 08 30 25.0000000  0 10G11G12G15G21G18G24G32G20G23G10
  24179839.547   127065919.38046      1336.722    24179839.393    99012400.92455
      1041.598  
  24463928.110   128558818.29646      3375.183    24463929.097   100175689.52045
      2630.022  
  23742657.678   124768509.56147     -3407.468    23742658.259    97222218.75946
     -2655.172  
  23310382.459   122496915.17347      1010.116    23310381.592    95452124.19946
       787.102  
  24318895.607   127796656.22347     -3850.132    24318897.780    99581815.05345
     -3000.104  
  20805047.720   109331297.16148     -1325.199    20805050.219    85193245.28649
     -1032.624  
  22421970.498   117828277.33748      2712.180    22421972.745    91814259.45049
      2113.383  
  20453226.233   107482454.73848     -1731.281    20453225.785    83752578.85548
     -1349.055  
  20475148.732   107597668.37148     -1362.999    20475149.171    83842360.23448
     -1062.081  
  20536260.612   107918806.34849       908.354    20536262.650    84092598.49949
       707.805  
 20 10 03 08 30 30.0000000  0 10G11G12G15G21G18G24G32G20G23G10
  24178569.297   127059244.64146      1333.819    24178569.241    99007199.83145
      1039.336  
  24460717.540   128541946.25847      3374.050    24460718.442   100162542.42445
      2629.125  
  23745900.085   124785548.58647     -3407.866    23745900.616    97235495.92145
     -2655.483  
  23309422.403   122491870.91947      1007.715    23309421.596    95448193.61146
       785.230  
  24322559.125   127815908.54347     -3850.690    24322561.077    99596816.85944
     -3000.543  
  20806310.120   109337931.40348     -1328.461    20806312.529    85198414.82649
     -1035.167  
  22419390.674   117814720.08148      2710.980    22419392.916    91803695.35849
      2112.448  
  20454874.769   107491117.57048     -1733.762    20454874.450    83759329.11248
     -1350.988  
  20476446.929   107604490.35148     -1365.839    20476447.396    83847676.06048
     -1064.293  
  20535397.636   107914271.31249       905.737    20535399.601    84089064.70549
       705.766  
 20 10 03 08 30 35.0000000  0 10G11G12G15G21G18G24G32G20G23G10
  24177302.318   127052586.02846      1329.960    24177302.296    99002011.30844
      1036.327  
  24457507.649   128525078.04546      3372.941    24457508.778   100149398.41846
      2628.270  
  23749143.070   124802590.08747     -3408.621    23749143.719    97248775.01246
     -2656.070  
  23308465.022   122486839.81547      1004.741    23308464.323    95444273.27046
       782.914  
  24326223.046   127835162.36246     -3851.003    24326224.908    99611819.82145
     -3000.789  
  20807575.587   109344581.50649     -1331.738    20807578.025    85203596.72649
     -1037.722  
  22416811.819   117801168.51448      2709.719    22416814.057    91793135.70249
      2111.465  
  20456525.965   107499794.03948     -1736.773    20456525.313    83766089.99448
     -1353.331  
  20477747.601   107611325.64848     -1368.391    20477748.086    83853002.26348
     -1066.280  
  20534537.129   107909749.31649       903.066    20534539.254    84085541.07249
       703.684  
 20 10 03 08 30 40.0000000  0 10G11G12G15G21G18G24G32G20G23G10
  24176038.218   127045943.57646      1327.102    24176038.167    98996835.35144
      1034.101  
  24454298.367   128508213.96747      3372.707    24454299.429   100136257.57544
      2628.081  
  23752386.412   124819634.05747     -3408.793    23752387.031    97262056.01946
     -2656.207  
  23307510.113   122481821.86147      1002.413    23307509.524    95440363.18346
       781.098  
  24329887.223   127854417.70845     -3851.207    24329889.118    99626823.96345
     -3000.945  
  20808844.095   109351247.49649     -1334.683    20808846.696    85208791.00449
     -1040.015  
  22414234.093   117787622.69348      2708.694    22414236.420    91782580.52549
      2110.667  
  20458179.644   107508484.18448     -1739.151    20458179.099    83772861.53248
     -1355.187  
  20479050.936   107618174.28448     -1370.859    20479051.201    83858338.86448
     -1068.206  
  20533679.107   107905240.41449       900.604    20533681.101    84082027.64249
       701.765  
 20 10 03 08 30 45.0000000  0 10G11G12G15G21G18G24G32G20G23G10
  24174777.128   127039316.19146      1323.781    24174777.144    98991671.17244
      1031.515  
  24451089.851   128491352.78846      3371.895    24451090.890   100123118.99045
      2627.445  
  23755629.979   124836679.46347     -3409.383    23755630.604    97275338.15945
     -2656.663  
  23306557.678   122476816.03047       999.789    23306556.832    95436462.53945
       779.055  
  24333551.618   127873673.35945     -3851.112    24333553.415    99641828.36545
     -3000.871  
  20810115.465   109357928.46748     -1337.816    20810117.806    85213996.95649
     -1042.457  
  22411657.305   117774081.54648      2707.574    22411659.504    91772028.98549
      2109.792  
  20459835.580   107517186.96748     -1741.827    20459835.098    83779642.91548
     -1357.272  
  20480356.556   107625035.20348     -1373.469    20480357.004    83863685.03348
     -1070.238  
  20532823.364   107900743.54649       897.965    20532825.391    84078523.58949
       699.710  
 20 10 03 08 30 50.0000000  0 10G11G12G15G21G18G24G32G20G23G10
  24173519.273   127032706.08546      1320.237    24173519.258    98986520.43444
      1028.753  
  24447882.266   128474496.81246      3370.675    24447883.354   100109984.50845
      2626.500  
  23758874.297   124853728.37747     -3410.022    23758874.955    97288623.01446
     -2657.164  
  23305607.748   122471824.42447       996.815    23305606.866    95432572.96246
       776.738  
  24337216.339   127892931.53846     -3851.897    24337218.071    99656834.73645
     -3001.484  
  20811390.062   109364626.36449     -1341.210    20811392.579    85219216.09649
     -1045.101  
  22409081.862   117760547.18848      2706.113    22409084.064    91761482.73749
      2108.655  
  20461494.585   107525904.47148     -1744.995    20461494.037    83786435.77548
     -1359.741  
  20481664.853   107631910.53848     -1376.652    20481665.236    83869042.43248
     -1072.718  
  20531970.286   107896260.84549       895.117    20531972.377    84075030.57549
       697.492  
 20 10 03 08 30 55.0000000  0 10G11G12G15G21G18G24G32G20G23G10
  24172264.220   127026111.77246      1317.352    24172264.336    98981382.04844
      1026.512  
  24444675.435   128457644.58446      3370.175    24444676.522   100096852.88245
      2626.109  
  23762119.022   124870779.48847     -3410.206    23762119.566    97301909.59246
     -2657.308  
  23304660.259   122466845.71147       994.629    23304659.557    95428693.45246
       775.031  
  24340881.231   127912190.83046     -3852.000    24340883.035    99671841.96645
     -3001.562  
  20812667.526   109371339.82749     -1344.104    20812670.040    85224447.36649
     -1047.359  
  22406507.376   117747018.30248      2705.378    22406509.596    91750940.75349
      2108.085  
  20463156.048   107534635.36248     -1747.476    20463155.660    83793239.06348
     -1361.672  
  20482975.607   107638798.91248     -1379.003    20482975.936    83874409.99648
     -1074.551  
  20531119.676   107891790.98149       892.749    20531121.798    84071547.56649
       695.644  
 20 10 03 08 31  0.0000000  0 10G11G12G15G21G18G24G32G20G23G10
  24171012.477   127019533.43947      1314.184    24171012.435    98976256.06754
      1024.035  
  24441469.391   128440796.17746      3369.542    24441470.445   100083724.28045
      2625.613  
  23765364.114   124887832.78247     -3410.796    23765364.610    97315197.87945
     -2657.766  
  23303715.261   122461879.93347       991.738    23303714.709    95424824.02146
       772.780  
  24344546.449   127931451.27446     -3852.226    24344548.441    99686850.09545
     -3001.738  
  20813948.016   109378068.97449     -1347.354    20813950.440    85229690.85849
     -1049.890  
  22403933.850   117733494.89248      2704.094    22403936.361    91740403.03649
      2107.081  
  20464820.008   107543379.62748     -1750.211    20464819.454    83800052.77348
     -1363.804  
  20484289.038   107645700.35048     -1381.558    20484289.304    83879787.73948
     -1076.543  
  20530271.530   107887333.94549       890.133    20530273.645    84068074.55249
       693.605  
 20 10 03 08 31  5.0000000  0 10G11G12G15G21G18G24G32G20G23G10
  24169763.550   127012970.84546      1310.542    24169763.624    98971142.30144
      1021.191  
  24438263.782   128423951.43446      3368.624    24438264.917   100070598.52446
      2624.901  
  23768609.786   124904888.18447     -3411.269    23768610.204    97328487.79345
     -2658.137  
  23302772.739   122456926.94847       989.352    23302772.043    95420964.55346
       770.922  
  24348211.703   127950712.78546     -3852.526    24348213.820    99701859.05344
     -3001.972  
  20815231.551   109384813.49349     -1350.566    20815233.994    85234946.32949
     -1052.395  
  22401361.457   117719976.84448      2702.968    22401363.841    91729869.49649
      2106.206  
  20466486.621   107552137.17148     -1753.034    20466485.950    83806876.82648
     -1366.003  
  20485604.731   107652614.73648     -1384.328    20485605.120    83885175.56748
     -1078.698  
  20529425.868   107882889.64849       887.452    20529427.954    84064611.46449
       691.519  
 20 10 03 08 31 10.0000000  0 10G11G12G15G21G18G24G32G20G23G10
  24168517.852   127006424.93947      1307.569    24168517.864    98966041.68553
      1018.886  
  24435059.321   128407111.44246      3367.594    24435060.631   100057476.47745
      2624.097  
  23771855.838   124921946.58047     -3412.101    23771856.484    97341780.05146
     -2658.784  
  23301832.875   122451987.67947       986.539    23301832.095    95417115.77946
       768.729  
  24351877.520   127969976.18846     -3852.563    24351879.475    99716869.48445
     -3002.000  
  20816518.137   109391574.48549     -1353.973    20816520.500    85240214.63749
     -1055.047  
  22398790.413   117706465.07248      2701.656    22398792.554    91719340.85049
      2105.184  
  20468155.681   107560908.89448     -1755.895    20468155.115    83813711.93248
     -1368.234  
  20486923.098   107659542.99048     -1387.082    20486923.623    83890574.20948
     -1080.848  
  20528582.866   107878459.01849       884.758    20528584.940    84061159.02749
       689.418  
 20 10 03 08 31 15.0000000  0 10G11G12G15G21G18G24G32G20G23G10
  24167275.262   126999894.77346      1304.176    24167275.292    98960953.18544
      1016.237  
  24431855.298   128390274.96746      3366.858    24431856.580   100044357.17245
      2623.527  
  23775102.233   124939006.87947     -3412.210    23775102.722    97355073.78946
     -2658.866  
  23300895.470   122447061.11447       984.043    23300894.607    95413276.89046
       766.784  
  24355543.359   127989240.48846     -3852.914    24355545.333    99731880.62544
     -3002.273  
  20817807.575   109398350.80849     -1356.637    20817809.930    85245494.88549
     -1057.120  
  22396220.102   117692958.52948      2701.011    22396222.475    91708816.27449
      2104.679  
  20469827.427   107569693.75648     -1758.359    20469826.978    83820557.27748
     -1370.151  
  20488244.133   107666484.04548     -1389.461    20488244.339    83895982.82148
     -1082.699  
  20527741.953   107874040.99049       882.332    20527744.118    84057716.40849
       687.526  
 20 10 03 08 31 20.0000000  0 10G11G12G15G21G18G24G32G20G23G10
  24166035.636   126993380.83846      1301.336    24166035.686    98955877.42544
      1014.023  
  24428652.342   128373442.84947      3366.546    24428653.684   100031241.19545
      2623.276  
  23778349.189   124956069.74747     -3412.766    23778349.732    97368369.53446
     -2659.300  
  23299960.383   122442147.85647       981.406    23299959.730    95409448.38345
       764.729  
  24359209.593   128008506.24346     -3853.296    24359211.382    99746892.88944
     -3002.570  
  20819100.261   109405143.01449     -1359.972    20819102.528    85250787.51549
     -1059.723  
  22393650.953   117679457.87248      2699.840    22393653.387    91698296.29049
      2103.770  
  20471501.834   107578492.35748     -1760.952    20471501.274    83827413.33048
     -1372.175  
  20489567.444   107673438.52948     -1392.167    20489567.717    83901401.89748
     -1084.808  
  20526903.902   107869636.22149       879.694    20526905.988    84054284.12449
       685.473  
 20 10 03 08 31 25.0000000  0 10G11G12G15G21G18G24G32G20G23G10
  24164799.105   126986882.32746      1298.116    24164799.059    98950813.64343
      1011.515  
  24425449.833   128356613.95946      3365.179    24425451.177   100018127.83746
      2622.222  
  23781596.556   124973134.21147     -3413.098    23781596.958    97381666.50746
     -2659.559  
  23299027.756   122437246.95847       978.753    23299027.150    95405629.49846
       762.663  
  24362875.835   128027772.53746     -3853.395    24362877.735    99761905.58645
     -3002.647  
  20820395.596   109411950.16949     -1362.961    20820397.825    85256091.79149
     -1062.050  
  22391082.939   117665962.14748      2698.508    22391085.282    91687780.14049
      2102.729  
  20473178.518   107587303.73748     -1763.554    20473178.015    83834279.33948
     -1374.203  
  20490893.233   107680405.50448     -1394.727    20490893.563    83906830.70148
     -1086.805  
  20526067.943   107865243.76049       877.206    20526070.061    84050861.42249
       683.535  
 20 10 03 08 31 30.0000000  0 10G11G12G15G21G18G24G32G20G23G10
  24163565.615   126980400.00946      1294.644    24163565.647    98945762.49845
      1008.815  
  24422248.395   128339789.41347      3364.465    24422249.285   100005017.78445
      2621.655  
  23784844.279   124990201.14347     -3413.608    23784844.683    97394965.42846
     -2659.957  
  23298097.789   122432359.29347       976.241    23298096.968    95401820.93346
       760.702  
  24366542.375   128047040.20646     -3853.425    24366544.398    99776919.33244
     -3002.672  
  20821693.976   109418773.23449     -1366.078    20821696.288    85261408.46849
     -1064.479  
  22388515.878   117652472.21548      2697.429    22388518.144    91677268.51349
      2101.891  
  20474857.858   107596128.78848     -1766.434    20474857.443    83841156.00348
     -1376.444  
  20492221.501   107687385.84648     -1397.366    20492221.817    83912269.93048
     -1088.859  
  20525234.644   107860864.49449       874.589    20525236.806    84047449.01149
       681.495  
 20 10 03 08 31 35.0000000  0 10G11G12G15G21G18G24G32G20G23G10
  24162335.118   126973934.57846      1291.160    24162335.308    98940724.52744
      1006.101  
  24419047.540   128322969.52846      3363.401    24419048.933    99991911.40546
      2620.836  
  23788092.581   125007271.11847     -3414.374    23788092.921    97408266.69946
     -2660.554  
  23297170.288   122427485.49347       973.351    23297169.766    95398023.16546
       758.453  
  24370209.142   128066309.85346     -3854.194    24370211.194    99791934.62445
     -3003.273  
  20822995.404   109425612.78349     -1369.508    20822997.682    85266737.98749
     -1067.151  
  22385949.947   117638988.68848      2696.082    22385952.216    91666761.87449
      2100.840  
  20476540.048   107604968.07048     -1769.190    20476539.311    83848043.75248
     -1378.594  
  20493552.608   107694380.11148     -1400.132    20493553.026    83917720.00548
     -1091.016  
  20524403.823   107856498.99749       871.949    20524406.004    84044047.32749
       679.438  
 20 10 03 08 31 40.0000000  0 10G11G12G15G21G18G24G32G20G23G10
  24161107.943   126967485.54546      1288.523    24161108.139    98935699.28844
      1004.042  
  24415847.782   128306154.18146      3362.897    24415848.976    99978808.55544
      2620.438  
  23791341.261   125024343.70247     -3414.792    23791341.877    97421570.00845
     -2660.878  
  23296245.448   122422625.05047       970.930    23296244.710    95394235.81146
       756.566  
  24373876.337   128085580.93946     -3854.019    24373878.542    99806951.05145
     -3003.137  
  20824300.048   109432468.32949     -1372.417    20824302.264    85272079.97349
     -1069.417  
  22383385.348   117625511.09648      2695.254    22383387.525    91656259.86049
      2100.195  
  20478224.730   107613821.16648     -1771.688    20478224.106    83854942.26948
     -1380.539  
  20494886.007   107701387.85848     -1402.808    20494886.410    83923180.58648
     -1093.101  
  20523575.672   107852146.84749       869.426    20523577.887    84040656.04449
       677.472  
 20 10 03 08 31 45.0000000  0 10G11G12G15G21G18G24G32G20G23G10
  24159883.783   126961052.44646      1285.058    24159884.046    98930686.48954
      1001.339  
  24412648.530   128289342.72046      3361.848    24412649.740    99965708.71745
      2619.616  
  23794590.520   125041418.36447     -3415.144    23794590.906    97434874.92646
     -2661.155  
  23295322.903   122417777.57547       968.327    23295322.328    95390458.56046
       754.538  
  24377543.921   128104853.06846     -3854.413    24377545.831    99821968.30045
     -3003.441  
  20825607.553   109439339.37749     -1375.702    20825610.018    85277434.03649
     -1071.979  
  22380821.700   117612039.00748      2693.961    22380824.055    91645762.13149
      2099.187  
  20479911.885   107622687.59848     -1774.499    20479911.362    83861851.17548
     -1382.730  
  20496222.075   107708408.63448     -1405.327    20496222.487    83928651.31748
     -1095.062  
  20522749.991   107847807.58649       866.590    20522751.954    84037274.79849
       675.261  
 20 10 03 08 31 50.0000000  0 10G11G12G15G21G18G24G32G20G23G10
  24158662.439   126954634.77046      1281.726    24158662.812    98925685.70844
       998.745  
  24409450.108   128272534.71246      3361.128    24409451.449    99952611.56545
      2619.058  
  23797839.954   125058494.65947     -3415.491    23797840.554    97448181.12845
     -2661.426  
  23294402.868   122412942.54247       965.714    23294402.166    95386690.99546
       752.500  
  24381211.281   128124125.70446     -3854.645    24381213.120    99836985.92045
     -3003.621  
  20826917.929   109446225.26249     -1378.902    20826920.205    85282799.66049
     -1074.472  
  22378258.818   117598571.90748      2692.897    22378261.307    91635268.29349
      2098.359  
  20481601.508   107631566.84848     -1777.293    20481601.050    83868770.06848
     -1384.906  
  20497560.421   107715441.94048     -1407.859    20497560.757    83934131.80748
     -1097.035  
  20521926.605   107843480.69249       864.003    20521928.718    84033903.19249
       673.246  
 20 10 03 08 31 55.0000000  0 10G11G12G15G21G18G24G32G20G23G10
  24157444.384   126948233.84946      1278.562    24157444.704    98920697.97654
       996.276  
  24406252.515   128255731.46547      3360.198    24406253.890    99939518.19045
      2618.340  
  23801089.991   125075573.87747     -3416.362    23801090.523    97461489.61545
     -2662.104  
  23293485.482   122408121.23947       962.858    23293484.934    95382934.14646
       750.276  
  24384879.235   128143400.12146     -3854.992    24384880.812    99852004.94445
     -3003.895  
  20828231.338   109453127.49249     -1382.125    20828233.816    85288178.02149
     -1076.984  
  22375697.465   117585111.09548      2691.473    22375699.785    91624779.35349
      2097.249  
  20483293.994   107640460.23148     -1780.090    20483293.183    83875699.97847
     -1387.085  
  20498901.635   107722489.06348     -1410.918    20498901.970    83939623.07048
     -1099.418  
  20521105.873   107839167.49949       861.375    20521107.908    84030542.26649
       671.199  
 20 10 03 08 32  0.0000000  0 10G11G12G15G21G18G24G32G20G23G10
  24156229.373   126941848.70745      1275.469    24156229.761    98915722.51944
       993.867  
  24403055.830   128238932.11845      3360.121    24403056.841    99926427.71546
      2618.266  
  23804340.551   125092655.02547     -3416.023    23804340.996    97474799.60045
     -2661.839  
  23292570.368   122403312.75147       960.465    23292569.818    95379187.27446
       748.410  
  24388547.191   128162675.35846     -3854.913    24388548.893    99867024.59346
     -3003.832  
  20829547.806   109460045.07849     -1385.027    20829550.121    85293568.35049
     -1079.246  
  22373136.880   117571655.63148      2690.675    22373139.228    91614294.58049
      2096.628  
  20484988.755   107649366.76448     -1782.519    20484988.238    83882640.13448
     -1388.979  
  20500245.139   107729549.03748     -1413.249    20500245.376    83945124.34548
     -1101.237  
  20520287.616   107834867.06149       858.938    20520289.554    84027191.27649
       669.296  
 20 10 03 08 32  5.0000000  0 10G11G12G15G21G18G24G32G20G23G10
  24155017.388   126935479.58846      1272.042    24155017.515    98910759.57655
       991.199  
  24399859.508   128222136.70547      3358.457    24399860.870    99913340.49644
      2616.983  
  23807591.351   125109738.37547     -3416.952    23807591.945    97488111.28946
     -2662.563  
  23291657.917   122398517.25947       957.616    23291657.181    95375450.52246
       746.191  
  24392215.314   128181951.60046     -3855.465    24392217.191    99882045.03445
     -3004.261  
  20830867.119   109466978.30249     -1388.300    20830869.347    85298970.86149
     -1081.797  
  22370577.413   117558205.72648      2689.246    22370579.920    91603814.14049
      2095.511  
  20486686.179   107658286.66348     -1785.453    20486685.485    83889590.70248
     -1391.265  
  20501591.098   107736622.07148     -1416.043    20501591.230    83950635.79648
     -1103.414  
  20519471.652   107830579.57649       856.070    20519473.642    84023850.37749
       667.066  
 20 10 03 08 32 10.0000000  0 10G11G12G15G21G18G24G32G20G23G10
  24153808.455   126929126.97746      1269.140    24153808.505    98905809.50743
       988.937  
  24396664.411   128205345.98145      3357.808    24396665.626    99900256.72646
      2616.465  
  23810842.746   125126824.35247     -3417.254    23810843.330    97501425.04046
     -2662.796  
  23290747.929   122393735.26747       955.430    23290747.229    95371724.29646
       744.488  
  24395883.788   128201229.37446     -3855.366    24395885.485    99897066.67745
     -3004.184  
  20832189.470   109473927.52149     -1391.148    20832191.748    85304385.84149
     -1084.016  
  22368019.111   117544761.85448      2688.402    22368021.569    91593338.40249
      2094.855  
  20488386.269   107667220.41448     -1787.879    20488385.675    83896552.06848
     -1393.156  
  20502939.525   107743708.66348     -1418.425    20502939.755    83956157.81348
     -1105.270  
  20518658.337   107826305.54549       853.750    20518660.161    84020519.96649
       665.258  
 20 10 03 08 32 15.0000000  0 10G11G12G15G21G18G24G32G20G23G10
  24152602.696   126922790.14046      1265.664    24152602.498    98900871.73644
       986.234  
  24393469.818   128188558.90847      3356.827    24393471.325    99887176.00244
      2615.718  
  23814094.477   125143912.25447     -3418.121    23814094.975    97514740.29845
     -2663.472  
  23289840.403   122388966.06347       952.624    23289839.728    95368008.04046
       742.301  
  24399552.263   128220507.87246     -3855.711    24399554.083    99912088.87844
     -3004.453  
  20833514.871   109480892.05149     -1394.609    20833517.077    85309812.74649
     -1086.710  
  22365461.938   117531323.34948      2687.047    22365464.185    91582866.84549
      2093.801  
  20490088.821   107676167.29248     -1790.886    20490088.048    83903523.65947
     -1395.499  
  20504290.616   107750808.10048     -1421.340    20504290.726    83961689.84248
     -1107.539  
  20517847.497   107822044.27349       850.933    20517849.375    84017199.49449
       663.063  
 20 10 03 08 32 20.0000000  0 10G11G12G15G21G18G24G32G20G23G10
  24151400.085   126916470.40445      1262.757    24151400.000    98895947.23944
       983.965  
  24390276.573   128171777.07046      3356.422    24390277.806    99874099.13746
      2615.382  
  23817346.773   125161003.27847     -3418.202    23817347.124    97528057.96045
     -2663.538  
  23288935.357   122384210.89147       949.742    23288934.658    95364302.71146
       740.054  
  24403221.360   128239788.38946     -3855.897    24403223.204    99927112.62844
     -3004.602  
  20834843.327   109487873.16749     -1397.608    20834845.585    85315252.57649
     -1089.051  
  22362905.908   117517891.41348      2685.957    22362908.280    91572400.40349
      2092.948  
  20491794.039   107685128.52148     -1793.492    20491793.358    83910506.43048
     -1397.531  
  20505644.187   107757921.60448     -1424.007    20505644.394    83967232.82648
     -1109.621  
  20517039.140   107817796.98749       848.272    20517041.036    84013889.91949
       660.988  
 20 10 03 08 32 25.0000000  0 10G11G12G15G21G18G24G32G20G23G10
  24150200.486   126910166.31646      1258.937    24150200.142    98891034.95744
       980.987  
  24387083.513   128154998.93147      3355.128    24387085.132    99861025.38945
      2614.395  
  23820599.425   125178096.04847     -3418.698    23820599.993    97541377.00946
     -2663.925  
  23288032.999   122379468.34347       947.198    23288032.310    95360607.21846
       738.074  
  24406890.440   128259069.50446     -3856.288    24406892.201    99942136.87344
     -3004.901  
  20836174.616   109494869.29449     -1400.734    20836177.010    85320704.10249
     -1091.484  
  22360350.847   117504464.66848      2684.858    22360353.356    91561938.01149
      2092.094  
  20493501.737   107694102.69348     -1796.145    20493501.116    83917499.28947
     -1399.598  
  20507000.249   107765047.78748     -1426.559    20507000.499    83972785.69148
     -1111.605  
  20516233.433   107813562.30849       845.621    20516235.379    84010590.17049
       658.921  
 20 10 03 08 32 30.0000000  0 10G11G12G15G21G18G24G32G20G23G10
  24149003.724   126903877.47745      1255.890    24149003.509    98886134.56954
       978.609  
  24383891.599   128138224.27946      3354.644    24383892.905    99847954.13245
      2613.996  
  23823852.284   125195190.22047     -3419.480    23823852.842    97554697.13245
     -2664.535  
  23287132.919   122374738.07547       944.668    23287132.116    95356921.29146
       736.101  
  24410559.539   128278350.81046     -3856.129    24410561.590    99957161.25145
     -3004.776  
  20837508.764   109501880.03949     -1403.797    20837511.119    85326167.02449
     -1093.870  
  22357796.717   117491042.77948      2683.688    22357799.150    91551479.40049
      2091.183  
  20495211.914   107703089.48248     -1798.855    20495211.085    83924501.98048
     -1401.707  
  20508358.780   107772186.29248     -1429.163    20508359.056    83978348.16148
     -1113.636  
  20515429.832   107809339.89049       843.058    20515431.674    84007299.97449
       656.925  
 20 10 03 08 32 35.0000000  0 10G11G12G15G21G18G24G32G20G23G10
  24147810.151   126897605.92546      1252.633    24147810.092    98881247.66444
       976.074  
  24380700.278   128121454.89547      3353.308    24380701.849    99834887.16645
      2612.973  
  23827105.709   125212287.70947     -3419.772    23827106.244    97568019.86045
     -2664.761  
  23286235.292   122370021.98247       941.972    23286234.637    95353246.42246
       733.999  
  24414229.175   128297634.25346     -3856.612    24414231.051    99972187.32845
     -3005.152  
  20838845.951   109508907.53449     -1406.898    20838848.154    85331642.99349
     -1096.288  
  22355243.941   117477627.63148      2682.651    22355246.425    91541026.04349
      2090.375  
  20496924.745   107712090.78348     -1801.526    20496923.975    83931515.98147
     -1403.789  
  20509719.944   107779339.03848     -1431.836    20509720.047    83983921.72648
     -1115.718  
  20514629.085   107805131.65549       840.491    20514630.896    84004020.83149
       654.925  
 20 10 03 08 32 40.0000000  0 10G11G12G15G21G18G24G32G20G23G10
  24146619.842   126891350.37045      1249.679    24146619.882    98876373.20555
       973.773  
  24377509.975   128104689.71346      3352.453    24377511.494    99821823.34946
      2612.297  
  23830359.722   125229387.32047     -3420.223    23830360.395    97581344.22345
     -2665.113  
  23285340.356   122365318.90547       939.234    23285339.608    95349581.68046
       731.867  
  24417898.822   128316918.62945     -3856.871    24417900.757    99987214.09845
     -3005.354  
  20840186.189   109515950.53449     -1410.086    20840188.615    85337131.04749
     -1098.770  
  22352692.282   117464218.07148      2681.210    22352694.657    91530577.04249
      2089.253  
  20498640.245   107721105.41848     -1804.276    20498639.547    83938540.36748
     -1405.934  
  20511083.411   107786504.82148     -1434.516    20511083.734    83989505.45048
     -1117.809  
  20513830.815   107800936.40649       837.715    20513832.566    84000751.80449
       652.761  
 20 10 03 08 32 45.0000000  0 10G11G12G15G21G18G24G32G20G23G10
  24145432.627   126885111.26646      1246.194    24145432.479    98871511.58144
       971.063  
  24374320.610   128087929.14147      3351.780    24374321.840    99808763.22044
      2611.776  
  23833614.109   125246489.45747     -3420.641    23833614.747    97594670.56246
     -2665.438  
  23284448.082   122360629.28947       936.742    23284447.252    95345927.44145
       729.925  
  24421568.852   128336204.32845     -3857.258    24421570.512   100002241.91545
     -3005.659  
  20841529.466   109523009.37549     -1413.327    20841531.753    85342631.44449
     -1101.296  
  22350141.557   117450814.51548      2680.090    22350143.878    91520132.71449
      2088.378  
  20500358.205   107730133.79948     -1807.011    20500357.567    83945575.46448
     -1408.063  
  20512449.720   107793684.07348     -1437.180    20512449.838    83995099.66948
     -1119.882  
  20513035.020   107796754.59749       835.093    20513036.933    83997493.25449
       650.719  
 20 10 03 08 32 50.0000000  0 10G11G12G15G21G18G24G32G20G23G10
  24144248.243   126878887.56546      1242.792    24144247.985    98866661.93354
       968.405  
  24371131.918   128071172.01146      3350.714    24371133.181    99795705.69546
      2610.944  
  23836868.702   125263592.95847     -3421.104    23836869.379    97607997.95345
     -2665.801  
  23283558.067   122355952.03747       934.167    23283557.115    95342282.82446
       727.917  
  24425238.897   128355490.20146     -3857.676    24425240.449   100017269.84844
     -3005.984  
  20842875.604   109530083.03349     -1416.434    20842877.841    85348143.38649
     -1103.719  
  22347591.797   117437415.84548      2679.081    22347594.319    91509692.19749
      2087.593  
  20502078.650   107739174.76748     -1809.563    20502078.020    83952620.37248
     -1410.051  
  20513818.131   107800875.65348     -1439.698    20513818.396    84000703.49848
     -1121.847  
  20512241.693   107792585.10649       832.542    20512243.482    83994244.29949
       648.729  
 20 10 03 08 32 55.0000000  0 10G11G12G15G21G18G24G32G20G23G10
  24143067.067   126872680.47646      1240.262    24143067.009    98861825.25044
       966.434  
  24367943.988   128054419.79547      3350.101    24367945.355    99782652.04844
      2610.465  
  23840124.032   125280699.17847     -3421.531    23840124.660    97621327.47445
     -2666.132  
  23282670.536   122351288.40847       931.589    23282669.679    95338648.82746
       725.909  
  24428909.049   128374777.60546     -3857.566    24428910.765   100032298.99044
     -3005.898  
  20844224.597   109537172.76249     -1419.511    20844226.842    85353667.85049
     -1106.117  
  22345043.362   117424023.38148      2678.004    22345045.735    91499256.51749
      2086.754  
  20503801.752   107748229.66748     -1812.355    20503801.194    83959676.13448
     -1412.227  
  20515189.194   107808080.89048     -1442.324    20515189.406    84006317.96148
     -1123.891  
  20511450.816   107788429.23849       829.953    20511452.471    83991005.96149
       646.715  
 20 10 03 08 33  0.0000000  0 10G11G12G15G21G18G24G32G20G23G10
  24141888.960   126866489.04247      1236.472    24141888.730    98857000.80343
       963.483  
  24364756.920   128037671.20346      3349.187    24364758.108    99769601.18146
      2609.753  
  23843379.385   125297806.98547     -3421.804    23843380.250    97634658.22846
     -2666.344  
  23281785.469   122346637.38147       928.956    23281784.648    95335024.65046
       723.858  
  24432579.400   128394065.42746     -3857.742    24432581.266   100047328.42444
     -3006.039  
  20845576.636   109544277.49349     -1422.387    20845579.026    85359204.00549
     -1108.354  
  22342495.869   117410636.03048      2677.136    22342498.125    91488824.82349
      2086.078  
  20505527.325   107757297.42548     -1814.707    20505526.546    83966741.91347
     -1414.062  
  20516562.740   107815298.70548     -1444.796    20516563.094    84011942.23148
     -1125.820  
  20510662.250   107784285.95449       827.281    20510664.167    83987777.42749
       644.633  
 20 10 03 08 33  5.0000000  0 10G11G12G15G21G18G24G32G20G23G10
  24140714.076   126860315.11146      1232.871    24140713.780    98852189.92345
       960.679  
  24361570.821   128020928.42247      3348.022    24361571.927    99756554.89444
      2608.847  
  23846635.697   125314918.36047     -3422.422    23846636.308    97647991.77146
     -2666.823  
  23280903.081   122342000.80847       925.870    23280902.384    95331411.73946
       721.452  
  24436250.172   128413355.56246     -3858.117    24436252.079   100062359.69544
     -3006.327  
  20846931.904   109551399.03748     -1425.785    20846934.142    85364753.26149
     -1111.004  
  22339949.530   117397255.73948      2675.438    22339951.986    91478398.62349
      2084.753  
  20507255.583   107766379.95248     -1817.854    20507255.098    83973819.20148
     -1416.515  
  20517938.953   107822530.97048     -1447.683    20517939.226    84017577.76448
     -1128.066  
  20509876.747   107780157.10749       824.441    20509878.542    83984560.14349
       642.417  
 20 10 03 08 33 10.0000000  0 10G11G12G15G21G18G24G32G20G23G10
  24139542.019   126854156.66246      1230.195    24139541.950    98847391.09844
       958.589  
  24358385.410   128004189.19146      3347.316    24358386.594    99743511.33346
      2608.301  
  23849892.219   125332031.19047     -3422.894    23849892.860    97661326.43245
     -2667.194  
  23280023.152   122337376.75047       923.456    23280022.479    95327808.58046
       719.573  
  24439920.938   128432645.97446     -3858.262    24439923.042   100077391.17645
     -3006.440  
  20848289.833   109558535.40649     -1428.855    20848292.186    85370314.06649
     -1113.397  
  22337404.348   117383880.46848      2674.355    22337406.826    91467976.33549
      2083.909  
  20508986.471   107775475.20648     -1820.390    20508985.842    83980906.40448
     -1418.488  
  20519317.629   107829775.71048     -1450.323    20519318.036    84023223.01148
     -1130.125  
  20509093.316   107776040.74049       821.922    20509095.124    83981352.58249
       640.456  
 20 10 03 08 33 15.0000000  0 10G11G12G15G21G18G24G32G20G23G10
  24138373.441   126848015.02346      1226.461    24138373.093    98842605.41753
       955.679  
  24355200.853   127987454.98247      3346.418    24355202.128    99730471.69345
      2607.593  
  23853149.094   125349146.71347     -3423.344    23853149.970    97674663.18945
     -2667.542  
  23279145.868   122332766.36847       920.730    23279145.246    95324216.08046
       717.448  
  24443592.124   128451937.84246     -3858.577    24443593.954   100092423.79145
     -3006.687  
  20849650.824   109565687.77248     -1431.891    20849653.151    85375887.33549
     -1115.762  
  22334860.314   117370511.41648      2673.539    22334862.628    91457558.89649
      2083.273  
  20510719.847   107784584.40748     -1823.077    20510719.257    83988004.48148
     -1420.582  
  20520698.957   107837034.10848     -1452.863    20520699.034    84028878.90348
     -1132.104  
  20508312.730   107771938.04849       819.362    20508314.385    83978155.68149
       638.461  
 20 10 03 08 33 20.0000000  0 10G11G12G15G21G18G24G32G20G23G10
  24137207.482   126841888.36746      1223.698    24137207.368    98837831.43644
       953.534  
  24352017.203   127970724.00746      3345.672    24352018.232    99717434.57846
      2607.016  
  23856406.375   125366263.40347     -3423.887    23856406.915    97688000.86845
     -2667.969  
  23278270.903   122328168.08847       918.320    23278269.969    95320632.99846
       715.569  
  24447263.285   128471229.61146     -3858.757    24447265.154   100107456.33344
     -3006.828  
  20851014.668   109572854.54249     -1435.175    20851016.813    85381471.83449
     -1118.320  
  22332317.211   117357147.07148      2672.238    22332319.655    91447145.12849
      2082.262  
  20512455.511   107793705.97648     -1825.765    20512455.124    83995112.18947
     -1422.675  
  20522082.396   107844304.59848     -1455.437    20522082.730    84034544.21848
     -1134.108  
  20507534.244   107767847.48349       816.695    20507536.083    83974968.22649
       636.382  
 20 10 03 08 33 25.0000000  0 10G11G12G15G21G18G24G32G20G23G10
  24136044.834   126835778.83245      1219.530    24136044.846    98833070.73054
       950.281  
  24348834.366   127953998.30747      3344.788    24348835.561    99704401.57545
      2606.323  
  23859664.216   125383383.09647     -3424.034    23859664.648    97701340.89746
     -2668.081  
  23277398.404   122323583.79347       915.390    23277397.615    95317060.82546
       713.289  
  24450934.870   128490523.07446     -3858.604    24450936.653   100122490.19544
     -3006.706  
  20852381.547   109580037.60449     -1438.129    20852383.881    85387069.02949
     -1120.624  
  22329775.259   117343789.20848      2671.073    22329777.671    91436736.41049
      2081.352  
  20514194.014   107802841.77948     -1828.516    20514193.420    84002231.00047
     -1424.819  
  20523468.661   107851589.03148     -1458.172    20523468.873    84040220.40148
     -1136.241  
  20506758.420   107763770.87449       814.102    20506760.232    83971791.65349
       634.363  
 20 10 03 08 33 30.0000000  0 10G11G12G15G21G18G24G32G20G23G10
  24134885.180   126829684.99745      1217.175    24134885.235    98828322.31544
       948.444  
  24345652.258   127937276.46546      3344.145    24345653.343    99691371.57845
      2605.824  
  23862922.219   125400504.48947     -3424.386    23862922.946    97714682.23646
     -2668.354  
  23276528.542   122319012.16947       912.984    23276527.718    95313498.52346
       711.413  
  24454606.227   128509817.00046     -3858.628    24454608.011   100137524.41845
     -3006.726  
  20853751.259   109587235.51649     -1441.104    20853753.399    85392677.79149
     -1122.941  
  22327234.261   117330436.61348      2669.910    22327236.658    91426331.79349
      2080.444  
  20515934.987   107811990.49948     -1831.108    20515934.399    84009359.86447
     -1426.839  
  20524857.247   107858886.09948     -1460.621    20524857.450    84045906.42348
     -1138.148  
  20505985.071   107759706.96249       811.558    20505986.826    83968624.96749
       632.378  
 20 10 03 08 33 35.0000000  0 10G11G12G15G21G18G24G32G20G23G10
  24133728.779   126823607.37646      1213.914    24133728.615    98823586.49654
       945.901  
  24342471.164   127920559.14346      3342.906    24342472.278    99678345.08645
      2604.858  
  23866180.602   125417627.99846     -3425.171    23866181.500    97728025.21946
     -2668.969  
  23275661.005   122314453.69947       910.172    23275660.307    95309946.46546
       709.223  
  24458277.906   128529111.83245     -3859.495    24458279.704   100152559.35545
     -3007.401  
  20855124.038   109594449.02148     -1444.445    20855126.098    85398298.70249
     -1125.547  
  22324694.410   117317089.73048      2668.695    22324696.862    91415931.62649
      2079.500  
  20517678.454   107821152.54148     -1833.839    20517678.090    84016499.11148
     -1428.968  
  20526248.263   107866196.28348     -1463.438    20526248.494    84051602.66948
     -1140.343  
  20505214.382   107755656.21349       808.636    20505216.108    83965468.53649
       630.102  
 20 10 03 08 33 40.0000000  0 10G11G12G15G21G18G24G32G20G23G10
  24132575.409   126817546.50446      1210.577    24132575.197    98818863.75444
       943.305  
  24339290.815   127903846.79547      3341.914    24339292.056    99665322.51744
      2604.089  
  23869439.787   125434754.26047     -3426.124    23869440.454    97741370.34546
     -2669.711  
  23274796.074   122309908.98947       907.707    23274795.554    95306405.13146
       707.300  
  24461950.004   128548408.02846     -3859.426    24461951.688   100167595.33045
     -3007.347  
  20856499.653   109601678.83348     -1447.331    20856501.963    85403932.32649
     -1127.792  
  22322155.880   117303749.16548      2667.559    22322158.292    91405536.39049
      2078.612  
  20519424.587   107830328.56148     -1836.523    20519424.221    84023649.25748
     -1431.059  
  20527641.971   107873520.17748     -1466.089    20527642.200    84057309.60248
     -1142.409  
  20504446.165   107751619.23649       806.097    20504447.822    83962322.84349
       628.125  
 20 10 03 08 33 45.0000000  0 10G11G12G15G21G18G24G32G20G23G10
  24131425.312   126811502.01845      1207.519    24131424.845    98814153.72455
       940.918  
  24336111.591   127887139.07746      3341.113    24336112.577    99652303.48945
      2603.460  
  23872699.173   125451882.75847     -3425.819    23872699.984    97754717.22845
     -2669.472  
  23273933.824   122305377.55147       905.016    23273933.214    95302874.15246
       705.202  
  24465622.109   128567705.25546     -3859.741    24465623.836   100182632.13245
     -3007.593  
  20857878.504   109608924.14948     -1450.585    20857880.754    85409578.02349
     -1130.327  
  22319618.327   117290414.45148      2666.238    22319620.682    91395145.70749
      2077.586  
  20521173.386   107839518.03048     -1839.226    20521172.759    84030809.88248
     -1433.168  
  20529038.139   107880857.30848     -1468.788    20529038.348    84063026.84448
     -1144.516  
  20503680.414   107747595.56449       803.187    20503682.226    83959187.51449
       625.855  
 20 10 03 08 33 50.0000000  0 10G11G12G15G21G18G24G32G20G23G10
  24130278.093   126805473.80745      1204.542    24130277.884    98809456.42144
       938.602  
  24332932.868   127870435.83647      3340.039    24332934.501    99639288.01545
      2602.629  
  23875959.130   125469013.51047     -3426.293    23875959.704    97768065.86546
     -2669.844  
  23273074.075   122300859.35147       902.280    23273073.375    95299353.47345
       703.074  
  24469294.431   128587003.40546     -3859.223    24469296.091   100197669.64945
     -3007.190  
  20859260.039   109616184.91448     -1453.617    20859262.241    85415235.76449
     -1132.690  
  22317081.898   117277085.49248      2665.358    22317084.313    91384759.51149
      2076.897  
  20522924.476   107848720.91348     -1841.878    20522923.992    84037980.95348
     -1435.234  
  20530436.787   107888207.59248     -1471.288    20530437.190    84068754.33848
     -1146.461  
  20502917.334   107743585.11449       800.813    20502919.077    83956062.48449
       624.008  
 20 10 03 08 33 55.0000000  0 10G11G12G15G21G18G24G32G20G23G10
  24129134.029   126799461.33845      1200.875    24129133.871    98804771.41244
       935.741  
  24329755.192   127853736.57045      3339.520    24329756.406    99626275.56046
      2602.214  
  23879219.243   125486145.86747     -3426.761    23879219.912    97781415.74745
     -2670.207  
  23272216.610   122296353.84347       899.647    23272215.968    95295842.68946
       701.022  
  24472966.731   128606301.91245     -3859.831    24472968.598   100212707.42246
     -3007.663  
  20860644.607   109623460.52748     -1456.656    20860646.913    85420905.07749
     -1135.059  
  22314546.415   117263761.78048      2664.093    22314548.920    91374377.40849
      2075.913  
  20524678.192   107857936.66348     -1844.395    20524677.913    84045162.06048
     -1437.195  
  20531837.903   107895570.47748     -1473.999    20531838.232    84074491.65248
     -1148.574  
  20502156.535   107739587.36949       798.073    20502158.363    83952947.36349
       621.871  
 20 10 03 08 34  0.0000000  0 10G11G12G15G21G18G24G32G20G23G10
  24127993.066   126793465.00445      1197.589    24127992.666    98800098.92955
       933.180  
  24326578.187   127837041.82847      3338.625    24326579.390    99613266.74144
      2601.526  
  23882479.919   125503280.26947     -3426.820    23882480.602    97794767.22446
     -2670.253  
  23271361.798   122291861.49547       897.452    23271361.254    95292342.15646
       699.312  
  24476639.357   128625601.13046     -3859.816    24476641.040   100227745.77045
     -3007.652  
  20862032.035   109630751.57248     -1459.675    20862034.261    85426586.40949
     -1137.413  
  22312012.088   117250443.77548      2663.070    22312014.489    91363999.74249
      2075.116  
  20526434.385   107867165.73748     -1846.973    20526434.046    84052353.53748
     -1439.203  
  20533241.494   107902946.42848     -1476.551    20533241.972    84080239.13748
     -1150.563  
  20501398.221   107735602.77649       795.789    20501400.098    83949842.48549
       620.094  
 20 10 03 08 34  5.0000000  0 10G11G12G15G21G18G24G32G20G23G10
  24126855.114   126787485.02545      1194.515    24126854.913    98795439.20944
       930.784  
  24323402.234   127820351.67345      3337.776    24323403.434    99600261.36046
      2600.859  
  23885740.760   125520416.95247     -3427.550    23885741.557    97808120.47945
     -2670.819  
  23270509.451   122287382.50647       894.542    23270508.916    95288852.03646
       697.042  
  24480312.058   128644901.39446     -3860.265    24480313.760   100242784.91145
     -3008.008  
  20863422.499   109638058.16748     -1462.863    20863424.553    85432279.86149
     -1139.898  
  22309478.894   117237131.65648      2661.957    22309481.293    91353626.66649
      2074.250  
  20528193.267   107876408.31848     -1849.793    20528192.858    84059555.54647
     -1441.397  
  20534647.553   107910335.63048     -1479.218    20534647.885    84085996.95848
     -1152.640  
  20500642.572   107731631.56149       792.917    20500644.515    83946748.03249
       617.854  
 20 10 03 08 34 10.0000000  0 10G11G12G15G21G18G24G32G20G23G10
  24125720.419   126781522.63145      1191.078    24125720.176    98790793.21453
       928.109  
  24320227.355   127803667.41747      3336.648    24320228.428    99587260.71045
      2599.984  
  23889002.591   125537557.05047     -3428.136    23889003.267    97821476.38645
     -2671.277  
  23269659.985   122282918.03347       891.597    23269659.326    95285373.23046
       694.749  
  24483985.106   128664203.70846     -3860.738    24483987.064   100257825.66845
     -3008.370  
  20864815.992   109645381.49048     -1465.813    20864818.257    85437986.34649
     -1142.194  
  22306947.026   117223826.56748      2660.703    22306949.550    91343259.07149
      2073.272  
  20529954.789   107885665.52148     -1852.469    20529954.345    84066768.94848
     -1443.484  
  20536056.466   107917739.20948     -1481.672    20536056.730    84091765.97548
     -1154.551  
  20499889.589   107727674.82749       790.332    20499891.368    83943664.86549
       615.839  
 20 10 03 08 34 15.0000000  0 10G11G12G15G21G18G24G32G20G23G10
  24124588.533   126775574.90645      1187.910    24124588.225    98786158.59544
       925.637  
  24317053.094   127786986.12746      3335.582    24317054.159    99574262.26545
      2599.152  
  23892264.217   125554697.66947     -3428.558    23892264.964    97834832.71045
     -2671.605  
  23268812.564   122278465.14847       889.155    23268811.940    95281903.45446
       692.847  
  24487658.141   128683505.19846     -3860.112    24487659.952   100272865.77945
     -3007.886  
  20866212.155   109652718.56148     -1468.983    20866214.409    85443703.54349
     -1144.668  
  22304415.955   117210525.66848      2659.500    22304418.299    91332894.73849
      2072.336  
  20531718.610   107894934.49648     -1855.159    20531718.262    84073991.52048
     -1445.582  
  20537467.486   107925154.35548     -1484.512    20537468.013    84097544.00748
     -1156.766  
  20499138.879   107723729.75749       787.558    20499140.676    83940590.78249
       613.680  
 20 10 03 08 34 20.0000000  0 10G11G12G15G21G18G24G32G20G23G10
  24123460.124   126769644.16945      1184.382    24123459.840    98781537.26654
       922.891  
  24313879.728   127770310.22246      3334.797    24313880.816    99561268.07945
      2598.539  
  23895526.610   125571841.21947     -3429.249    23895527.427    97848191.32446
     -2672.145  
  23267967.852   122274026.31247       886.190    23267967.220    95278444.62346
       690.535  
  24491331.381   128702808.32746     -3860.801    24491333.384   100287907.18245
     -3008.418  
  20867611.364   109660071.92348     -1472.128    20867613.723    85449433.43749
     -1147.116  
  22301886.194   117197231.30948      2658.461    22301888.520    91322535.49849
      2071.522  
  20533485.097   107904217.60248     -1857.809    20533484.870    84081225.10648
     -1447.644  
  20538881.175   107932583.37448     -1487.050    20538881.501    84103332.84848
     -1158.742  
  20498390.826   107719798.71749       784.918    20498392.655    83937527.63749
       611.621  
 20 10 03 08 34 25.0000000  0 10G11G12G15G21G18G24G32G20G23G10
  24122334.507   126763729.57446      1181.073    24122334.315    98776928.52244
       920.316  
  24310707.136   127753638.70147      3333.843    24310708.462    99548277.32045
      2597.805  
  23898789.204   125588986.61147     -3429.480    23898790.074    97861551.35146
     -2672.324  
  23267125.618   122269600.43447       883.901    23267124.958    95274995.88746
       688.749  
  24495004.737   128722112.03845     -3860.964    24495006.864   100302949.03145
     -3008.547  
  20869013.631   109667440.44948     -1475.348    20869015.968    85455175.14749
     -1149.624  
  22299357.374   117183942.52048      2657.288    22299359.711    91312180.60549
      2070.613  
  20535254.071   107913513.81048     -1860.515    20535253.665    84088468.90247
     -1449.753  
  20540297.310   107940025.27748     -1489.792    20540297.686    84109131.73148
     -1160.878  
  20497645.246   107715880.69849       782.285    20497647.073    83934474.63449
       609.570  
 20 10 03 08 34 30.0000000  0 10G11G12G15G21G18G24G32G20G23G10
  24121212.097   126757831.77345      1178.456    24121211.924    98772332.77155
       918.269  
  24307535.742   127736972.28946      3332.886    24307536.704    99535290.43846
      2597.043  
  23902052.398   125606134.62347     -3429.859    23902053.216    97874913.43546
     -2672.621  
  23266286.038   122265188.28847       881.433    23266285.362    95271557.85046
       686.827  
  24498678.186   128741416.92346     -3860.683    24498680.212   100317991.77645
     -3008.327  
  20870418.754   109674824.85748     -1478.121    20870421.159    85460929.23049
     -1151.785  
  22296829.909   117170660.00748      2656.183    22296832.127    91301830.60149
      2069.750  
  20537025.701   107922823.85448     -1863.133    20537025.413    84095723.47948
     -1451.796  
  20541715.937   107947480.80148     -1492.358    20541716.532    84114941.23048
     -1162.879  
  20496902.333   107711976.44149       779.680    20496904.179    83931432.35549
       607.539  
 20 10 03 08 34 35.0000000  0 10G11G12G15G21G18G24G32G20G23G10
  24120092.946   126751950.12445      1175.129    24120092.708    98767749.70544
       915.684  
  24304365.047   127720310.36547      3331.629    24304366.304    99522307.21345
      2596.077  
  23905315.901   125623284.63747     -3430.167    23905316.844    97888277.07046
     -2672.863  
  23265448.920   122260789.26847       878.565    23265448.440    95268130.04446
       684.593  
  24502351.981   128760722.50346     -3861.007    24502353.929   100333035.09644
     -3008.581  
  20871826.912   109682224.52948     -1481.335    20871829.262    85466695.20849
     -1154.289  
  22294303.374   117157383.16348      2654.750    22294305.757    91291485.00949
      2068.633  
  20538799.992   107932147.12848     -1865.875    20538799.596    84102988.36548
     -1453.933  
  20543137.229   107954949.30648     -1494.977    20543137.586    84120760.83748
     -1164.921  
  20496161.906   107708085.31649       776.945    20496163.722    83928400.30849
       605.410  
 20 10 03 08 34 40.0000000  0 10G11G12G15G21G18G24G32G20G23G10
  24118976.495   126746083.97846      1171.690    24118976.534    98763178.68744
       913.003  
  24301195.200   127703652.29845      3330.824    24301196.101    99509326.82246
      2595.441  
  23908579.648   125640435.89747     -3430.429    23908580.545    97901641.69146
     -2673.065  
  23264614.123   122256402.59647       875.933    23264613.492    95264711.85545
       682.542  
  24506025.785   128780028.00846     -3861.136    24506027.646   100348078.32145
     -3008.684  
  20873237.733   109689638.72548     -1484.636    20873240.060    85472472.50549
     -1156.862  
  22291777.809   117144111.26448      2653.609    22291780.131    91281143.27449
      2067.746  
  20540576.377   107941482.90848     -1868.648    20540575.989    84110262.99348
     -1456.093  
  20544560.806   107962430.06548     -1497.495    20544561.334    84126590.00048
     -1166.882  
  20495423.775   107704206.63149       774.230    20495425.472    83925377.95649
       603.293  
 20 10 03 08 34 45.0000000  0 10G11G12G15G21G18G24G32G20G23G10
  24117863.476   126740234.67946      1168.632    24117863.457    98758620.79254
       910.620  
  24298026.116   127686999.49247      3330.062    24298027.144    99496350.69144
      2594.854  
  23911843.939   125657589.89646     -3431.327    23911844.921    97915008.45146
     -2673.766  
  23263781.983   122252029.79947       873.507    23263781.430    95261304.48045
       680.652  
  24509699.584   128799334.85745     -3861.145    24509701.569   100363122.60945
     -3008.691  
  20874651.607   109697068.86848     -1487.387    20874654.023    85478262.22549
     -1159.003  
  22289253.378   117130845.79048      2652.698    22289255.713    91270806.54649
      2067.035  
  20542355.633   107950832.64648     -1871.148    20542355.329    84117548.49948
     -1458.038  
  20545986.873   107969924.56848     -1500.104    20545987.283    84132429.86848
     -1168.917  
  20494688.281   107700341.86749       771.741    20494690.154    83922366.45249
       601.354  
 20 10 03 08 34 50.0000000  0 10G11G12G15G21G18G24G32G20G23G10
  24116753.450   126734401.73546      1164.707    24116753.504    98754075.65843
       907.563  
  24294858.139   127670351.38345      3328.796    24294859.371    99483378.06646
      2593.859  
  23915108.629   125674745.95347     -3431.688    23915109.497    97928376.78546
     -2674.046  
  23262952.494   122247670.30147       870.417    23262951.899    95257907.46946
       678.246  
  24513373.819   128818642.46846     -3861.918    24513375.672   100378167.50944
     -3009.288  
  20876068.536   109704514.54048     -1490.867    20876070.926    85484064.05049
     -1161.718  
  22286730.259   117117586.14448      2651.159    22286732.511    91260474.36449
      2065.835  
  20544137.381   107960195.73348     -1874.031    20544137.103    84124844.40948
     -1460.288  
  20547415.580   107977432.19448     -1503.022    20547415.906    84138279.96748
     -1171.191  
  20493955.462   107696490.40649       768.762    20493957.276    83919365.31349
       599.031  
 20 10 03 08 34 55.0000000  0 10G11G12G15G21G18G24G32G20G23G10
  24115646.677   126728585.82145      1161.676    24115646.941    98749543.74955
       905.194  
  24291691.052   127653708.75847      3328.190    24291692.060    99470409.86545
      2593.398  
  23918373.889   125691904.85847     -3431.754    23918374.804    97941747.35645
     -2674.097  
  23262125.477   122243324.70747       868.055    23262124.978    95254521.30446
       676.401  
  24517048.230   128837951.50446     -3861.554    24517050.092   100393213.49144
     -3009.008  
  20877488.501   109711976.31748     -1493.800    20877490.755    85489878.42049
     -1164.003  
  22284208.290   117104333.01848      2650.184    22284210.549    91250147.25449
      2065.074  
  20545921.781   107969572.88348     -1876.409    20545921.545    84132151.27648
     -1462.140  
  20548846.764   107984953.64548     -1505.448    20548847.220    84144140.83248
     -1173.081  
  20493225.129   107692652.94949       766.503    20493227.079    83916375.08849
       597.273  
 20 10 03 08 35  0.0000000  0 10G11G12G15G21G18G24G32G20G23G10
  24114542.981   126722785.17446      1158.351    24114543.073    98745023.78145
       902.608  
  24288524.795   127637069.68446      3327.410    24288525.992    99457444.31345
      2592.785  
  23921639.313   125709064.74247     -3432.140    23921640.107    97955118.69745
     -2674.398  
  23261300.947   122238991.30547       865.117    23261300.235    95251144.61946
       674.113  
  24520722.619   128857260.04546     -3861.566    24520724.523   100408259.10645
     -3009.015  
  20878911.126   109719452.26248     -1496.894    20878913.258    85495703.83349
     -1166.413  
  22281687.081   117091084.56448      2649.035    22281689.323    91239823.78749
      2064.179  
  20547708.648   107978962.24348     -1879.395    20547708.196    84139467.65848
     -1464.464  
  20550280.433   107992487.06748     -1508.000    20550280.964    84150011.02448
     -1175.066  
  20492497.259   107688827.68849       763.636    20492499.087    83913394.36449
       595.039  
 20 10 03 08 35  5.0000000  0 10G11G12G15G21G18G24G32G20G23G10
  24113442.355   126717001.37946      1154.854    24113442.309    98740516.93254
       899.883  
  24285359.484   127620435.98846      3326.301    24285360.806    99444483.00045
      2591.917  
  23924905.342   125726227.27847     -3432.948    23924906.180    97968492.09546
     -2675.026  
  23260478.870   122234671.69747       862.589    23260478.213    95247778.70246
       672.145  
  24524397.055   128876569.96546     -3862.077    24524398.946   100423305.78745
     -3009.413  
  20880336.795   109726944.04948     -1499.934    20880338.952    85501541.59149
     -1168.780  
  22279167.213   117077842.50948      2647.953    22279169.544    91229505.30749
      2063.335  
  20549497.989   107988365.48448     -1881.930    20549497.534    84146794.85548
     -1466.440  
  20551716.554   108000034.15148     -1510.750    20551716.912    84155891.86648
     -1177.211  
  20491772.045   107685016.28449       760.960    20491773.777    83910424.43649
       592.952  
 20 10 03 08 35 10.0000000  0 10G11G12G15G21G18G24G32G20G23G10
  24112344.788   126711233.46845      1152.008    24112344.802    98736022.45144
       897.664  
  24282195.076   127603806.56547      3324.969    24282196.300    99431525.03544
      2590.882  
  23928171.563   125743391.41947     -3433.144    23928172.213    97981866.73446
     -2675.180  
  23259659.293   122230364.94747       859.995    23259658.648    95244422.78446
       670.124  
  24528071.856   128895880.08145     -3862.272    24528073.639   100438352.63445
     -3009.566  
  20881765.130   109734450.75048     -1502.973    20881767.330    85507390.96849
     -1171.151  
  22276648.291   117064605.83048      2646.558    22276650.757    91219191.01649
      2062.249  
  20551289.801   107997781.61048     -1884.593    20551289.561    84154132.09048
     -1468.520  
  20553154.995   108007593.89748     -1513.305    20553155.574    84161782.57348
     -1179.203  
  20491049.122   107681217.76649       758.242    20491050.905    83907464.55449
       590.836  
 20 10 03 08 35 15.0000000  0 10G11G12G15G21G18G24G32G20G23G10
  24111250.382   126705482.44945      1148.828    24111250.414    98731541.14254
       895.188  
  24279031.694   127587182.47745      3324.386    24279032.776    99418571.15245
      2590.426  
  23931438.335   125760558.17247     -3433.468    23931439.014    97995243.42745
     -2675.434  
  23258842.533   122226072.02947       857.195    23258841.773    95241077.66246
       667.941  
  24531746.696   128915191.36746     -3862.378    24531748.530   100453400.35645
     -3009.652  
  20883196.712   109741973.26148     -1505.948    20883198.886    85513252.66649
     -1173.469  
  22274130.698   117051375.53648      2645.406    22274132.942    91208881.70249
      2061.352  
  20553084.280   108007211.63148     -1887.288    20553084.019    84161480.15948
     -1470.617  
  20554596.279   108015167.30148     -1515.987    20554596.637    84167683.92248
     -1181.292  
  20490329.062   107677433.14049       755.589    20490330.730    83904515.49349
       588.770  
 20 10 03 08 35 20.0000000  0 10G11G12G15G21G18G24G32G20G23G10
  24110159.023   126699747.59846      1145.125    24110159.009    98727072.43043
       892.301  
  24275868.963   127570562.93247      3323.191    24275870.067    99405620.94744
      2589.503  
  23934705.298   125777726.80047     -3434.042    23934706.065    98008621.57946
     -2675.878  
  23258028.092   122221792.14547       854.543    23258027.329    95237742.68046
       665.875  
  24535421.664   128934503.17345     -3862.414    24535423.461   100468448.51945
     -3009.676  
  20884630.945   109749510.89648     -1509.102    20884633.364    85519126.14649
     -1175.926  
  22271614.054   117038150.86048      2644.383    22271616.341    91198576.76649
      2060.554  
  20554881.246   108016654.74948     -1890.023    20554880.892    84168838.42948
     -1472.749  
  20556039.864   108022753.57948     -1518.718    20556040.410    84173595.30648
     -1183.422  
  20489611.263   107673661.60949       752.867    20489612.994    83901576.63949
       586.647  
 20 10 03 08 35 25.0000000  0 10G11G12G15G21G18G24G32G20G23G10
  24109070.868   126694029.05946      1142.347    24109070.823    98722616.42944
       890.136  
  24272707.510   127553948.19645      3322.921    24272708.516    99392674.33245
      2589.280  
  23937972.842   125794897.54847     -3434.246    23937973.632    98022001.37645
     -2676.038  
  23257216.141   122217525.59447       852.105    23257215.577    95234418.09546
       663.976  
  24539096.635   128953815.59145     -3862.594    24539098.620   100483497.15245
     -3009.815  
  20886068.235   109757063.97048     -1511.852    20886070.544    85525011.65849
     -1178.070  
  22269098.744   117024932.03448      2643.289    22269100.959    91188276.38449
      2059.703  
  20556680.870   108026111.21148     -1892.473    20556680.496    84176207.09947
     -1474.656  
  20557485.901   108030352.99148     -1521.229    20557486.377    84179516.92248
     -1185.378  
  20488896.122   107669903.45949       750.422    20488897.933    83898648.21049
       584.742  
 20 10 03 08 35 30.0000000  0 10G11G12G15G21G18G24G32G20G23G10
  24107985.817   126688327.04445      1138.679    24107985.718    98718173.29055
       887.280  
  24269546.659   127537338.37247      3321.659    24269547.691    99379731.65844
      2588.305  
  23941240.776   125812070.44147     -3434.765    23941241.464    98035382.85145
     -2676.445  
  23256406.802   122213272.46147       849.421    23256406.040    95231103.96146
       661.883  
  24542771.779   128973128.72946     -3862.292    24542773.778   100498546.30944
     -3009.590  
  20887508.570   109764632.38748     -1515.159    20887510.888    85530909.12649
     -1180.648  
  22266584.397   117011719.14348      2642.078    22266586.562    91177980.63249
      2058.757  
  20558482.968   108035581.08648     -1895.141    20558482.537    84183586.21848
     -1476.733  
  20558934.614   108037965.56248     -1523.652    20558935.031    84185448.79648
     -1187.265  
  20488183.468   107666158.74949       747.848    20488185.330    83895730.25349
       582.734  
 20 10 03 08 35 35.0000000  0  9G12G15G21G18G24G32G20G23G10
  24266387.060   127520734.04046      3320.574    24266388.285    99366793.19645
      2587.456  
  23944509.261   125829246.00547     -3435.218    23944509.954    98048766.39545
     -2676.796  
  23255600.157   122209033.22847       846.508    23255599.465    95227800.67146
       659.613  
  24546447.210   128992443.21845     -3862.710    24546449.251   100513596.57045
     -3009.906  
  20888951.739   109772216.79148     -1518.313    20888954.160    85536819.05249
     -1183.105  
  22264071.195   116998512.70948      2640.854    22264073.385    91167689.90449
      2057.805  
  20560287.532   108045064.85148     -1897.894    20560287.245    84190976.16448
     -1478.883  
  20560385.785   108045591.82748     -1526.378    20560386.368    84191391.33748
     -1189.390  
  20487473.464   107662427.99849       744.895    20487475.407    83892823.17549
       580.434  
 20 10 03 08 35 40.0000000  0 10G11G12G15G21G18G24G32G20G23G10
  24105825.167   126676960.84356      1132.468    24105822.636    98709319.86454
       882.437  
  24263228.119   127504134.16047      3319.687    24263229.165    99353858.25645
      2586.766  
  23947777.937   125846423.23647     -3435.301    23947778.727    98062151.25645
     -2676.858  
  23254795.800   122204806.92947       844.273    23254795.236    95224507.45546
       657.871  
  24550122.468   129011757.82845     -3863.527    24550124.664   100528646.89545
     -3010.542  
  20890397.962   109779816.02648     -1520.922    20890400.131    85542740.53249
     -1185.136  
  22261559.136   116985311.75348      2639.983    22261561.435    91157403.45249
      2057.128  
  20562094.762   108054561.53548     -1900.265    20562094.411    84198376.17648
     -1480.729  
  20561839.454   108053230.84848     -1529.030    20561839.917    84197343.81948
     -1191.456  
  20486766.140   107658710.23449       742.601    20486767.941    83889926.21849
       578.648  
 20 10 03 08 35 45.0000000  0 10G11G12G15G21G18G24G32G20G23G10
  24104749.365   126671306.59146      1129.097    24104748.403    98704913.96544
       879.812  
  24260069.868   127487537.68647      3318.483    24260070.860    99340925.93145
      2585.828  
  23951046.806   125863601.00547     -3435.773    23951047.492    98075536.52345
     -2677.229  
  23253993.931   122200592.42747       841.465    23253993.266    95221223.42946
       655.684  
  24553797.747   129031071.57746     -3862.961    24553799.990   100543696.55545
     -3010.101  
  20891846.683   109787429.10648     -1524.519    20891848.784    85548672.80549
     -1187.940  
  22259048.021   116972115.16248      2638.507    22259050.208    91147120.39849
      2055.977  
  20563904.281   108064070.02548     -1903.194    20563903.778    84205785.38847
     -1483.011  
  20563295.396   108060881.40548     -1531.390    20563295.892    84203305.29248
     -1193.293  
  20486060.904   107655004.35049       739.706    20486062.666    83887038.51649
       576.391  
 20 10 03 08 35 50.0000000  0 10G11G12G15G21G18G24G32G20G23G10
  24103676.678   126665670.15056      1125.601    24103676.382    98700521.96854
       877.098  
  24256912.897   127470947.50746      3317.336    24256913.895    99327998.49746
      2584.934  
  23954316.299   125880782.21247     -3436.539    23954316.995    98088924.46346
     -2677.824  
  23253194.718   122196392.62447       838.694    23253193.961    95217950.84446
       653.527  
  24557473.468   129050387.31046     -3862.918    24557475.707   100558747.75143
     -3010.069  
  20893298.423   109795058.92548     -1527.543    20893300.843    85554618.11749
     -1190.296  
  22256538.026   116958925.82948      2637.265    22256540.202    91136843.00049
      2055.007  
  20565716.462   108073593.19348     -1906.046    20565716.074    84213206.03248
     -1485.234  
  20564753.994   108068546.48548     -1534.405    20564754.553    84209278.07648
     -1195.645  
  20485358.515   107651313.24049       736.762    20485360.324    83884162.32449
       574.098  
 20 10 03 08 35 55.0000000  0 10G11G12G15G21G18G24G32G20G23G10
  24102606.997   126660050.21746      1122.176    24102608.194    98696142.79145
       874.417  
  24253756.855   127454362.26747      3316.241    24253757.823    99315075.00545
      2584.090  
  23957586.112   125897965.47747     -3436.944    23957586.938    98102314.02445
     -2678.141  
  23252398.155   122192206.22447       835.792    23252397.319    95214688.73246
       651.265  
  24561149.174   129069703.74645     -3864.155    24561151.545   100573799.53644
     -3011.035  
  20894753.212   109802703.86348     -1530.460    20894755.604    85560575.21549
     -1192.570  
  22254029.366   116945742.45248      2635.852    22254031.667    91126570.24749
      2053.905  
  20567531.110   108083129.70548     -1908.800    20567530.797    84220637.08147
     -1487.379  
  20566215.067   108076224.75548     -1537.402    20566215.642    84215261.14648
     -1197.979  
  20484658.606   107647635.59949       733.996    20484660.424    83881296.63249
       571.941  
 20 10 03 08 36  0.0000000  0 10G11G12G15G21G18G24G32G20G23G10
  24101540.735   126654447.75256      1118.941    24101541.831    98691777.21454
       871.897  
  24250602.026   127437783.06045      3315.633    24250602.937    99302156.05545
      2583.597  
  23960856.504   125915151.88247     -3437.464    23960857.339    98115706.01946
     -2678.546  
  23251604.245   122188034.19847       833.132    23251603.392    95211437.79546
       649.190  
  24564825.286   129089021.75346     -3863.645    24564827.582   100588852.51345
     -3010.636  
  20896211.237   109810365.11748     -1533.632    20896213.523    85566545.02349
     -1195.043  
  22251521.857   116932565.99548      2634.813    22251524.127    91116302.88349
      2053.098  
  20569348.609   108092680.53948     -1911.578    20569348.222    84228079.29147
     -1489.542  
  20567679.005   108083917.14648     -1539.711    20567679.432    84221255.21548
     -1199.777  
  20483961.560   107643972.40849       731.359    20483963.458    83878442.20349
       569.886  
 20 10 03 08 36  5.0000000  0 10G11G12G15G21G18G24G32G20G23G10
  24100477.705   126648860.08646      1116.175    24100478.213    98687423.21843
       869.750  
  24247447.621   127421207.20647      3314.723    24247448.497    99289239.90045
      2582.906  
  23964127.085   125932338.80547     -3437.438    23964127.827    98129098.43346
     -2678.526  
  23250812.423   122183873.95547       831.101    23250811.847    95208196.04946
       647.608  
  24568501.190   129108338.85245     -3863.077    24568503.377   100603904.77845
     -3010.199  
  20897671.725   109818040.18948     -1536.511    20897673.895    85572525.59949
     -1197.284  
  22249015.304   116919393.90548      2633.874    22249017.546    91106038.91749
      2052.366  
  20571168.390   108102243.11148     -1913.688    20571167.842    84235530.64248
     -1491.187  
  20569145.035   108091621.05948     -1541.733    20569145.414    84227258.26148
     -1201.354  
  20483266.789   107640321.08449       729.039    20483268.678    83875597.01049
       568.078  
 20 10 03 08 36 10.0000000  0 10G11G12G15G21G18G24G32G20G23G10
  24099417.265   126643288.84346      1112.453    24099417.900    98683081.97845
       866.843  
  24244294.328   127404636.26345      3313.937    24244295.201    99276327.40046
      2582.277  
  23967398.056   125949527.65447     -3437.796    23967398.746    98142492.33146
     -2678.805  
  23250023.288   122179726.99347       828.148    23250022.536    95204964.64246
       645.308  
  24572177.280   129127656.39845     -3863.602    24572179.536   100618957.40744
     -3010.602  
  20899135.078   109825730.38048     -1539.250    20899137.199    85578517.95749
     -1199.418  
  22246509.878   116906227.61648      2632.723    22246512.186    91095779.48049
      2051.469  
  20572990.473   108111818.94148     -1916.535    20572990.153    84242992.32548
     -1493.405  
  20570613.552   108099338.04748     -1544.898    20570613.869    84233271.49848
     -1203.820  
  20482574.495   107636683.11549       726.233    20482576.351    83872762.23249
       565.894  
 20 10 03 08 36 15.0000000  0 10G11G12G15G21G18G24G32G20G23G10
  24098360.264   126637734.35855      1109.233    24098360.670    98678753.79655
       864.336  
  24241141.883   127388070.67347      3312.578    24241143.064    99263419.23745
      2581.230  
  23970669.390   125966718.97747     -3438.461    23970670.221    98155888.15945
     -2679.324  
  23249236.808   122175593.76047       825.081    23249235.927    95201743.95146
       642.918  
  24575853.391   129146974.86646     -3863.746    24575855.667   100634010.73844
     -3010.719  
  20900601.476   109833436.16448     -1543.043    20900603.674    85584522.46149
     -1202.375  
  22244005.617   116893067.60348      2631.331    22244007.805    91085524.92649
      2050.386  
  20574815.386   108121408.42348     -1919.215    20574814.901    84250464.64648
     -1495.496  
  20572084.535   108107068.45748     -1547.168    20572084.993    84239295.18948
     -1205.590  
  20481884.682   107633058.93749       723.434    20481886.707    83869938.19449
       563.711  
 20 10 03 08 36 20.0000000  0 10G11G12G15G21G18G24G32G20G23G10
  24097306.472   126632196.95746      1105.938    24097306.860    98674438.96344
       861.765  
  24237990.636   127371510.76246      3311.894    24237991.836    99250515.36046
      2580.695  
  23973941.476   125983913.02747     -3438.855    23973942.165    98169286.13145
     -2679.629  
  23248453.000   122171474.51047       822.968    23248452.228    95198534.14746
       641.269  
  24579529.806   129166294.55845     -3863.765    24579532.282   100649065.04844
     -3010.730  
  20902070.730   109841157.99248     -1545.601    20902073.091    85590539.47549
     -1204.367  
  22241502.679   116879914.14148      2630.413    22241504.885    91075275.48349
      2049.672  
  20576642.793   108131011.85848     -1921.707    20576642.320    84257947.83847
     -1497.438  
  20573558.185   108114812.63248     -1549.848    20573558.546    84245329.61348
     -1207.675  
  20481197.728   107629448.84349       720.988    20481199.752    83867125.13549
       561.804  
 20 10 03 08 36 25.0000000  0 10G11G12G15G21G18G24G32G20G23G10
  24096255.761   126626675.02656      1102.480    24096256.414    98670136.15953
       859.073  
  24234840.133   127354954.97646      3310.586    24234841.152    99237614.77445
      2579.675  
  23977213.590   126001108.13247     -3439.359    23977214.123    98182684.90945
     -2680.022  
  23247671.481   122167367.69748       819.848    23247670.711    95195334.03046
       638.840  
  24583206.123   129185613.76546     -3864.277    24583208.312   100664118.93444
     -3011.132  
  20903543.016   109848894.09148     -1548.680    20903545.191    85596567.60349
     -1206.766  
  22239000.516   116866765.65348      2628.948    22239002.698    91065029.91549
      2048.527  
  20578472.669   108140627.64148     -1924.593    20578472.204    84265440.65748
     -1499.688  
  20575034.105   108122568.95748     -1552.863    20575034.549    84251373.50347
     -1210.027  
  20480513.249   107625851.25549       718.046    20480515.002    83864321.82149
       559.516  
 20 10 03 08 36 30.0000000  0 10G11G12G15G21G18G24G32G20G23G10
  24095208.114   126621170.00946      1099.551    24095208.623    98665846.53444
       856.788  
  24231690.771   127338404.68347      3309.440    24231692.019    99224718.44745
      2578.780  
  23980486.058   126018305.72847     -3439.780    23980486.791    98196085.62545
     -2680.351  
  23246892.621   122163274.69447       817.313    23246891.718    95192144.68346
       636.863  
  24586882.782   129204934.01646     -3864.273    24586884.834   100679173.67944
     -3011.124  
  20905017.988   109856645.90548     -1551.836    20905020.227    85602607.97549
     -1209.227  
  22236499.685   116853623.54248      2627.792    22236501.983    91054789.31149
      2047.628  
  20580305.214   108150257.13548     -1927.168    20580304.772    84272944.15448
     -1501.691  
  20576512.694   108130338.80948     -1555.116    20576512.979    84257427.93048
     -1211.780  
  20479831.236   107622267.56849       715.565    20479833.171    83861529.33949
       557.581  
 20 10 03 08 36 35.0000000  0 10G11G12G15G21G18G24G32G20G23G10
  24094163.423   126615680.99956      1096.078    24094163.877    98661569.38255
       854.082  
  24228542.155   127321858.91045      3308.694    24228543.231    99211825.62246
      2578.198  
  23983758.922   126035504.90047     -3440.082    23983759.668    98209487.56946
     -2680.586  
  23246116.219   122159194.61547       814.445    23246115.365    95188965.39946
       634.629  
  24590559.309   129224254.26646     -3864.394    24590561.331   100694228.44145
     -3011.218  
  20906495.981   109864412.46848     -1554.980    20906498.193    85608659.84149
     -1211.675  
  22233999.782   116840486.90048      2626.515    22234001.997    91044552.97349
      2046.632  
  20582140.046   108159899.46048     -1929.815    20582139.521    84280457.64748
     -1503.757  
  20577993.774   108138121.28148     -1557.844    20577994.116    84263492.18848
     -1213.905  
  20479151.684   107618696.90149       712.504    20479153.787    83858747.00149
       555.195  
 20 10 03 08 36 40.0000000  0 10G11G12G15G21G18G24G32G20G23G10
  24093122.330   126610209.27046      1092.852    24093122.512    98657305.69544
       851.570  
  24225394.857   127305319.11747      3307.601    24225395.916    99198937.51845
      2577.347  
  23987032.352   126052706.85947     -3440.625    23987033.045    98222891.69045
     -2681.008  
  23245342.492   122155128.68347       811.961    23245341.699    95185797.14746
       632.694  
  24594236.044   129243575.82546     -3864.413    24594238.253   100709284.16843
     -3011.237  
  20907976.825   109872194.88548     -1557.772    20907979.345    85614724.06649
     -1213.851  
  22231501.210   116827356.97148      2625.602    22231503.471    91034321.86549
      2045.921  
  20583977.512   108169555.84848     -1932.417    20583977.193    84287982.10648
     -1505.785  
  20579477.327   108145917.65548     -1560.543    20579477.695    84269567.28748
     -1216.012  
  20478474.999   107615140.45949       710.042    20478476.844    83855975.74949
       553.277  
 20 10 03 08 36 45.0000000  0  9G11G12G15G21G24G32G20G23G10
  24092079.743   126604730.43956      1091.651    24092079.808    98653036.49754
       850.640  
  24222243.754   127288760.74146      3308.937    24222244.906    99186034.84645
      2578.390  
  23990301.774   126069887.32047     -3438.590    23990302.506    98236279.05645
     -2679.425  
  23244566.854   122151052.61147       811.667    23244565.857    95182620.98346
       632.465  
  20909456.350   109879969.02748     -1558.558    20909458.539    85620781.83849
     -1214.464  
  22228999.411   116814209.46048      2626.676    22229001.768    91024077.05749
      2046.758  
  20585813.089   108179201.99448     -1932.808    20585812.663    84295498.58047
     -1506.086  
  20580958.977   108153703.59048     -1560.882    20580959.315    84275634.24248
     -1216.276  
  20477796.222   107611573.99849       709.605    20477798.192    83853196.69049
       552.938  
 20 10 03 08 36 50.0000000  0  9G11G12G15G21G24G32G20G23G10
  24091044.921   126599292.34945      1084.828    24091044.960    98648799.03045
       845.319  
  24219098.399   127272231.97647      3303.956    24219099.701    99173155.32044
      2574.508  
  23993576.170   126087094.07247     -3442.710    23993576.643    98249686.91145
     -2682.636  
  23243798.457   122147014.16147       804.929    23243797.556    95179474.13746
       627.215  
  20910943.122   109887782.60148     -1565.645    20910945.550    85626870.33749
     -1219.984  
  22226503.317   116801092.14848      2621.589    22226505.444    91013855.78049
      2042.793  
  20587655.899   108188885.65048     -1939.394    20587655.486    84303044.28647
     -1511.219  
  20582447.661   108161526.86248     -1567.262    20582448.026    84281730.29848
     -1221.246  
  20477124.864   107608045.26649       703.094    20477126.864    83850447.02749
       547.862  
 20 10 03 08 36 55.0000000  0  9G11G12G15G21G24G32G20G23G10
  24090014.355   126593876.18545      1082.336    24090014.358    98644578.60644
       843.371  
  24215955.112   127255713.52046      3303.594    24215956.228    99160283.79446
      2574.230  
  23996851.894   126104308.24347     -3442.750    23996852.474    98263100.54746
     -2682.664  
  23243033.460   122142994.51347       802.785    23243032.444    95176341.94446
       625.542  
  20912433.890   109895616.79448     -1568.081    20912436.218    85632974.90549
     -1221.887  
  22224009.332   116787986.16848      2621.050    22224011.552    91003643.33249
      2042.374  
  20589502.133   108198587.95948     -1941.437    20589501.704    84310604.52347
     -1512.813  
  20583939.947   108169368.63048     -1569.253    20583940.158    84287840.76648
     -1222.796  
  20476456.924   107604535.40849       701.015    20476458.953    83847712.07449
       546.241  
 20 10 03 08 37  0.0000000  0  9G11G12G15G21G24G32G20G23G10
  24088986.270   126588473.68755      1079.168    24088986.386    98640368.88954
       840.906  
  24212812.173   127239197.60756      3302.531    24212813.608    99147414.25855
      2573.398  
  24000127.436   126121521.64347     -3442.574    24000128.074    98276513.58046
     -2682.527  
  23242270.557   122138985.52447       800.503    23242269.780    95173218.05746
       623.766  
  20913927.113   109903463.45448     -1570.729    20913929.571    85639089.18549
     -1223.949  
  22221515.915   116774883.42248      2619.988    22221518.153    90993433.40449
      2041.546  
  20591350.458   108208300.81448     -1943.733    20591349.899    84318172.97848
     -1514.601  
  20585434.127   108177220.72348     -1571.437    20585434.499    84293959.27948
     -1224.499  
  20475791.080   107601036.34049       698.573    20475792.996    83844985.52649
       544.340  
 20 10 03 08 37  5.0000000  0  9G11G12G15G21G24G32G20G23G10
  24087961.012   126583085.32746      1076.444    24087961.360    98636170.20544
       838.788  
  24209669.825   127222684.39246      3302.160    24209671.026    99134546.81545
      2573.108  
  24003402.978   126138734.67147     -3442.836    24003403.656    98289926.32345
     -2682.733  
  23241509.776   122134987.53047       798.487    23241508.796    95170102.73746
       622.195  
  20915422.662   109911322.90048     -1573.296    20915425.119    85645213.42249
     -1225.948  
  22219023.249   116761784.22048      2619.241    22219025.481    90983226.23749
      2040.965  
  20593200.882   108218024.51348     -1945.988    20593200.286    84325749.88048
     -1516.359  
  20586930.436   108185083.53448     -1573.746    20586930.794    84300086.13748
     -1226.301  
  20475127.327   107597548.39249       696.266    20475129.237    83842267.64149
       542.543  
 20 10 03 08 37 10.0000000  0  9G11G12G15G21G24G32G20G23G10
  24086938.783   126577713.41855      1073.136    24086938.827    98631984.26054
       836.206  
  24206528.453   127206176.31146      3301.281    24206529.629    99121683.38346
      2572.421  
  24006678.916   126155949.68847     -3443.108    24006679.471    98303340.61545
     -2682.944  
  23240751.453   122131002.92147       795.816    23240750.590    95166997.85446
       620.113  
  20916921.228   109919197.47648     -1576.351    20916923.602    85651349.46249
     -1228.328  
  22216531.539   116748690.97448      2618.098    22216533.791    90973023.71649
      2040.074  
  20595053.792   108227761.46548     -1948.664    20595053.358    84333337.11847
     -1518.441  
  20588429.202   108192959.38848     -1576.512    20588429.537    84306223.18048
     -1228.452  
  20474466.049   107594073.91049       693.578    20474468.173    83839560.25749
       540.448  
 20 10 03 08 37 15.0000000  0  9G11G12G15G21G24G32G20G23G10
  24085919.343   126572356.94145      1069.484    24085919.325    98627810.41243
       833.359  
  24203387.883   127189672.44347      3300.335    24203389.279    99108823.23945
      2571.687  
  24009955.004   126173165.58247     -3443.390    24009955.624    98316755.59845
     -2683.163  
  23239995.581   122127030.59747       793.015    23239994.759    95163902.54046
       617.929  
  20918422.473   109927086.19648     -1579.190    20918424.761    85657496.51949
     -1230.543  
  22214040.974   116735602.56448      2617.128    22214043.074    90962824.95749
      2039.315  
  20596908.973   108237510.50648     -1951.104    20596908.376    84340933.76447
     -1520.344  
  20589930.233   108200847.20148     -1578.859    20589930.462    84312369.52748
     -1230.285  
  20473807.243   107590611.83049       691.023    20473809.293    83836862.53349
       538.456  
 20 10 03 08 37 20.0000000  0  9G11G12G15G21G24G32G20G23G10
  24084903.170   126567016.44856      1066.347    24084902.988    98623648.96453
       830.918  
  24200248.166   127173173.08646      3299.203    24200249.219    99095966.62545
      2570.812  
  24013231.267   126190382.95847     -3443.773    24013232.009    98330171.72646
     -2683.465  
  23239242.225   122123071.21747       790.519    23239241.382    95160817.30546
       615.983  
  20919926.378   109934989.52448     -1582.313    20919928.622    85663654.95449
     -1232.973  
  22211551.367   116722519.64948      2615.902    22211553.586    90952630.48349
      2038.362  
  20598766.619   108247272.31748     -1953.937    20598766.071    84348540.36947
     -1522.550  
  20591433.579   108208747.59048     -1581.456    20591433.837    84318525.65948
     -1232.309  
  20473150.915   107587162.80449       688.430    20473152.866    83834174.98049
       536.434  
 20 10 03 08 37 25.0000000  0  9G11G12G15G21G24G32G20G23G10
  24083890.057   126561692.78645      1063.082    24083889.913    98619500.65244
       828.370  
  24197109.468   127156679.43147      3298.366    24197110.763    99083114.38844
      2570.144  
  24016508.160   126207602.62047     -3443.694    24016508.779    98343589.64446
     -2683.402  
  23238491.322   122119125.51047       787.983    23238490.440    95157742.72746
       614.012  
  20921433.316   109942908.13048     -1584.910    20921435.658    85669825.29549
     -1234.999  
  22209062.885   116709442.96448      2615.089    22209065.063    90942440.86349
      2037.729  
  20600626.743   108257047.64448     -1956.094    20600626.222    84356157.50147
     -1524.229  
  20592939.557   108216661.33448     -1583.772    20592939.880    84324692.21548
     -1234.112  
  20472497.253   107583727.57149       685.910    20472499.353    83831498.17349
       534.473  
 20 10 03 08 37 30.0000000  0  9G11G12G15G21G24G32G20G23G10
  24082880.083   126556385.20855      1060.358    24082879.869    98615364.88055
       826.249  
  24193971.681   127140190.46846      3297.156    24193972.855    99070265.89945
      2569.218  
  24019785.210   126224823.94447     -3444.726    24019785.812    98357008.85645
     -2684.206  
  23237742.896   122115192.91047       784.991    23237742.167    95154678.36546
       611.680  
  20922942.933   109950841.62748     -1588.218    20922945.368    85676007.24449
     -1237.577  
  22206575.536   116696371.95548      2613.593    22206577.779    90932255.66749
      2036.563  
  20602489.345   108266835.90448     -1959.117    20602488.812    84363784.71547
     -1526.590  
  20594447.832   108224587.84348     -1586.813    20594448.138    84330868.71848
     -1236.479  
  20471846.067   107580305.56249       683.004    20471848.052    83828831.67349
       532.207  
 20 10 03 08 37 35.0000000  0  9G11G12G15G21G24G32G20G23G10
  24081873.256   126551094.32746      1056.597    24081873.339    98611242.12144
       823.320  
  24190834.880   127123706.87146      3296.397    24190836.098    99057421.49745
      2568.613  
  24023062.817   126242047.16547     -3444.563    24023063.402    98370429.54045
     -2684.078  
  23236997.142   122111273.69447       782.862    23236996.366    95151624.43146
       610.020  
  20924455.592   109958790.07648     -1590.901    20924457.770    85682200.83849
     -1239.668  
  22204089.357   116683306.90048      2612.694    22204091.705    90922075.10849
      2035.863  
  20604354.603   108276637.37348     -1961.437    20604354.082    84371422.21548
     -1528.394  
  20595958.780   108232527.39948     -1589.101    20595959.076    84337055.38148
     -1238.266  
  20471197.542   107576897.07149       680.586    20471199.429    83826175.70249
       530.323  
 20 10 03 08 37 40.0000000  0  9G11G12G15G21G24G32G20G23G10
  24080869.337   126545818.82446      1053.504    24080869.393    98607131.31743
       820.909  
  24187699.018   127107227.49446      3295.121    24187700.316    99044580.43245
      2567.624  
  24026340.433   126259271.37547     -3445.043    24026341.036    98383850.99845
     -2684.452  
  23236253.660   122107366.91947       780.020    23236253.000    95148580.19246
       607.805  
  20925970.719   109966752.78048     -1594.300    20925973.107    85688405.54549
     -1242.315  
  22201604.122   116670246.80748      2611.531    22201606.362    90911898.42149
      2034.957  
  20606222.150   108286451.05548     -1964.230    20606221.533    84379069.24047
     -1530.574  
  20597471.810   108240478.98848     -1591.604    20597472.211    84343251.41848
     -1240.215  
  20470551.296   107573501.12149       677.820    20470553.248    83823529.51249
       528.167  
 20 10 03 08 37 45.0000000  0  9G11G12G15G21G24G32G20G23G10
  24079868.745   126540560.64556      1050.258    24079868.938    98603034.12054
       818.390  
  24184564.285   127090754.14057      3294.750    24184565.710    99031744.11755
      2567.343  
  24029618.610   126276498.34247     -3445.430    24029619.378    98397274.60446
     -2684.754  
  23235513.053   122103474.38047       777.476    23235512.328    95145547.04546
       605.823  
  20927489.070   109974731.36348     -1596.996    20927491.373    85694622.62349
     -1244.413  
  22199120.225   116657193.52948      2610.301    22199122.483    90901727.03949
      2033.996  
  20608092.170   108296278.73148     -1966.469    20608091.692    84386727.16747
     -1532.315  
  20598987.700   108248444.44748     -1594.043    20598988.018    84349458.26848
     -1242.113  
  20469907.735   107570119.52849       675.257    20469909.752    83820894.50449
       526.172  
 20 10 03 08 37 50.0000000  0  9G11G12G15G21G24G32G20G23G10
  24078871.455   126535319.31945      1046.425    24078871.397    98598949.88845
       815.386  
  24181430.567   127074286.55846      3293.140    24181431.914    99018912.15345
      2566.074  
  24032897.187   126293727.56647     -3445.984    24032897.969    98410699.98046
     -2685.187  
  23234774.916   122099595.53647       774.395    23234774.073    95142524.57946
       603.422  
  20929010.287   109982725.22448     -1600.229    20929012.570    85700851.60749
     -1246.937  
  22196637.447   116644146.47148      2608.813    22196639.582    90891560.50249
      2032.836  
  20609964.839   108306119.85848     -1969.695    20609964.304    84394395.57348
     -1534.831  
  20600506.048   108256423.20248     -1597.199    20600506.277    84355675.47348
     -1244.574  
  20469266.830   107566751.73849       672.194    20469268.936    83818270.25149
       523.784  
 20 10 03 08 37 55.0000000  0  9G11G12G15G21G24G32G20G23G10
  24077877.004   126530093.47555      1043.487    24077876.884    98594877.83554
       813.105  
  24178297.713   127057823.11357      3292.234    24178299.008    99006083.61855
      2565.390  
  24036175.930   126310957.76147     -3445.844    24036176.964    98424126.10545
     -2685.078  
  23234039.220   122095729.17847       772.206    23234038.229    95139511.82546
       601.715  
  20930534.173   109990733.33148     -1602.719    20930536.455    85707091.69349
     -1248.875  
  22194155.635   116631104.46448      2608.047    22194157.650    90881397.90549
      2032.242  
  20611839.976   108315973.24248     -1971.827    20611839.348    84402073.53647
     -1536.491  
  20602026.691   108264414.08148     -1599.496    20602026.989    84361902.12748
     -1246.362  
  20468628.404   107563396.56649       669.996    20468630.323    83815655.82949
       522.070  
 20 10 03 08 38  0.0000000  0  9G11G12G15G21G24G32G20G23G10
  24076885.685   126524884.40546      1040.000    24076885.676    98590818.81945
       810.386  
  24175165.945   127041365.40645      3290.902    24175167.315    98993259.29545
      2564.320  
  24039455.260   126328190.03447     -3446.581    24039455.888    98437553.84245
     -2685.651  
  23233306.014   122091876.43548       768.895    23233305.123    95136509.69146
       599.137  
  20932060.907   109998756.68448     -1606.313    20932063.255    85713343.65349
     -1251.675  
  22191674.963   116618068.59948      2606.522    22191677.207    90871240.09449
      2031.055  
  20613717.401   108325839.98948     -1974.840    20613716.835    84409761.90647
     -1538.840  
  20603549.819   108272418.13948     -1602.187    20603550.125    84368139.05348
     -1248.460  
  20467992.631   107560055.12249       666.871    20467994.636    83813052.11049
       519.637  
 20 10 03 08 38  5.0000000  0  9G11G12G15G21G24G32G20G23G10
  24075897.667   126519692.67855      1036.789    24075897.864    98586773.30055
       807.882  
  24172035.156   127024913.68847      3289.633    24172036.292    98980439.90444
      2563.358  
  24042734.988   126345425.12647     -3447.223    24042735.703    98450983.76145
     -2686.152  
  23232575.472   122088037.97447       766.198    23232574.689    95133518.68446
       597.034  
  20933590.682   110006795.89148     -1609.121    20933592.989    85719607.97249
     -1253.862  
  22189195.611   116605039.61048      2605.276    22189197.736    90861087.63949
      2030.081  
  20615597.687   108335720.80348     -1977.492    20615597.258    84417461.23747
     -1540.906  
  20605075.602   108280436.12148     -1605.159    20605075.698    84374386.83148
     -1250.777  
  20467359.522   107556728.11349       664.031    20467361.404    83810459.63249
       517.421  
 20 10 03 08 38 10.0000000  0  9G11G12G15G21G24G32G20G23G10
  24074912.866   126514517.42045      1033.339    24074913.003    98582740.64544
       805.191  
  24168905.599   127008467.19346      3289.062    24168906.981    98967624.36846
      2562.898  
  24046014.875   126362661.92047     -3447.495    24046015.910    98464415.03545
     -2686.363  
  23231847.570   122084212.72847       763.711    23231846.701    95130537.97946
       595.097  
  20935123.323   110014849.91448     -1612.230    20935125.657    85725883.83349
     -1256.285  
  22186717.408   116592016.41148      2604.151    22186719.489    90850939.69549
      2029.206  
  20617480.450   108345614.63348     -1980.108    20617479.885    84425170.71647
     -1542.945  
  20606603.673   108288466.90648     -1607.406    20606603.980    84380644.58048
     -1252.527  
  20466728.899   107553414.47749       661.456    20466730.848    83807877.57849
       515.417  
 20 10 03 08 38 15.0000000  0  9G11G12G15G21G24G32G20G23G10
  24073930.931   126509357.69156      1030.308    24073931.237    98578720.10154
       802.835  
  24165776.783   126992025.15046      3287.887    24165778.011    98954812.41444
      2561.987  
  24049295.164   126379899.67347     -3447.780    24049296.175    98477847.05046
     -2686.586  
  23231121.973   122080399.97248       761.073    23231121.163    95127566.99046
       593.042  
  20936658.814   110022918.06548     -1614.910    20936661.022    85732170.70949
     -1258.374  
  22184240.139   116578998.27348      2602.851    22184242.206    90840795.69549
      2028.190  
  20619365.490   108355520.67548     -1982.691    20619364.934    84432889.70747
     -1544.956  
  20608134.216   108296509.80748     -1610.203    20608134.470    84386911.77248
     -1254.706  
  20466100.740   107550113.48049       658.808    20466102.743    83805305.37549
       513.354  
 20 10 03 08 38 20.0000000  0  9G11G12G15G21G24G32G20G23G10
  24072952.528   126504219.55556      1027.331    24072952.126    98574714.49654
       800.516  
  24162648.924   126975588.51547      3287.188    24162650.315    98942004.70945
      2561.453  
  24052575.853   126397139.53047     -3448.188    24052576.717    98491280.69545
     -2686.902  
  23230399.066   122076600.79248       758.828    23230398.305    95124606.60046
       591.292  
  20938196.979   110031001.36448     -1617.897    20938199.298    85738469.38049
     -1260.703  
  22181764.023   116565986.25748      2602.054    22181766.141    90830656.46649
      2027.570  
  20621253.207   108365440.03948     -1984.839    20621252.685    84440619.07547
     -1546.632  
  20609667.236   108304565.85248     -1612.194    20609667.614    84393189.21048
     -1256.257  
  20465475.241   107546826.21049       656.188    20465477.074    83802743.86449
       511.313  
 20 10 03 08 38 25.0000000  0  9G11G12G15G21G24G32G20G23G10
  24071976.327   126499091.67646      1023.992    24071975.704    98570718.70843
       797.922  
  24159522.094   126959156.03844      3286.125    24159523.470    98929200.05247
      2560.597  
  24055856.502   126414379.92546     -3448.433    24055857.440    98504714.77045
     -2687.094  
  23229678.440   122072813.75248       756.132    23229677.631    95121655.65646
       589.191  
  20939737.804   110039098.36148     -1621.199    20939740.030    85744778.73149
     -1263.272  
  22179288.676   116552978.94348      2600.726    22179290.818    90820520.90249
      2026.534  
  20623143.011   108375371.27648     -1987.617    20623142.398    84448357.69947
     -1548.797  
  20611202.527   108312633.61148     -1614.648    20611202.736    84399475.77648
     -1258.172  
  20464852.037   107543551.18849       653.624    20464853.858    83800191.89949
       509.316  
 20 10 03 08 38 30.0000000  0  9G11G12G15G21G24G32G20G23G10
  24071004.107   126493982.22046      1020.308    24071003.857    98566737.31344
       795.042  
  24156396.272   126942730.88758      3284.551    24156397.785    98916401.39355
      2559.394  
  24059138.087   126431624.11446     -3448.917    24059138.876    98518151.79345
     -2687.473  
  23228960.855   122069042.03748       753.187    23228959.898    95118716.65946
       586.894  
  20941281.854   110047212.33749     -1624.265    20941284.167    85751101.30849
     -1265.664  
  22176815.060   116539979.49948      2599.437    22176817.199    90810391.47049
      2025.531  
  20625035.654   108385317.52848     -1990.480    20625035.260    84456108.02447
     -1551.027  
  20612740.688   108320716.26448     -1617.788    20612740.790    84405773.94748
     -1260.616  
  20464231.687   107540291.66349       650.565    20464233.820    83797652.01249
       506.934  
 20 10 03 08 38 35.0000000  0  9G11G12G15G21G24G32G20G23G10
  24070035.350   126488889.74545      1017.477    24070034.640    98562769.12846
       792.831  
  24153271.879   126926311.43945      3283.539    24153272.884    98903606.91747
      2558.598  
  24062419.881   126448870.65147     -3449.159    24062420.840    98531590.63946
     -2687.660  
  23228245.729   122065284.14848       750.237    23228244.863    95115788.42846
       584.598  
  20942828.764   110055341.74848     -1627.547    20942830.997    85757435.91449
     -1268.222  
  22174342.568   116526986.47048      2598.155    22174344.808    90800267.03849
      2024.535  
  20626930.965   108395277.32848     -1993.137    20626930.323    84463868.89847
     -1553.098  
  20614281.297   108328812.31148     -1620.167    20614281.530    84412082.55048
     -1262.472  
  20463614.203   107537046.10949       647.913    20463616.219    83795123.00649
       504.863  
 20 10 03 08 38 40.0000000  0  9G11G12G15G21G24G32G20G23G10
  24069069.201   126483812.78245      1013.129    24069069.252    98558813.05455
       789.444  
  24150148.195   126909896.52257      3282.277    24150149.620    98890816.14255
      2557.617  
  24065701.874   126466117.92446     -3450.093    24065703.014    98545030.09246
     -2688.386  
  23227532.887   122061538.57348       747.784    23227531.991    95112869.80846
       582.687  
  20944378.315   110063484.81748     -1630.102    20944380.763    85763781.16349
     -1270.211  
  22171871.016   116513998.34548      2596.820    22171873.144    90790146.42449
      2023.492  
  20628828.570   108405249.15548     -1995.832    20628828.075    84471639.15747
     -1555.195  
  20615824.190   108336920.30048     -1623.108    20615824.459    84418400.46248
     -1264.765  
  20462998.985   107533813.05249       645.133    20463000.807    83792603.74549
       502.698  
 20 10 03 08 38 45.0000000  0  9G11G12G15G21G24G32G20G23G10
  24068106.112   126478752.87246      1009.843    24068106.574    98554870.30044
       786.886  
  24147025.645   126893487.44647      3281.227    24147026.672    98878029.84845
      2556.800  
  24068984.426   126483367.56846     -3450.206    24068985.410    98558471.36045
     -2688.476  
  23226822.910   122057807.02748       744.667    23226822.015    95109962.10546
       580.257  
  20945930.919   110071643.37248     -1633.227    20945933.215    85770138.47849
     -1272.647  
  22169400.619   116501016.75848      2595.582    22169402.701    90780030.90349
      2022.527  
  20630728.631   108415234.63448     -1998.558    20630728.284    84479420.03847
     -1557.320  
  20617369.562   108345041.78548     -1625.832    20617369.834    84424728.88848
     -1266.887  
  20462386.437   107530594.12149       642.366    20462388.340    83790095.48449
       500.542  
 20 10 03 08 38 50.0000000  0  9G11G12G15G21G24G32G20G23G10
  24067146.475   126473709.72747      1006.979    24067146.733    98550940.60053
       784.660  
  24143904.275   126877084.09456      3279.878    24143905.234    98865247.98655
      2555.745  
  24072267.401   126500619.37546     -3450.687    24072268.347    98571914.31445
     -2688.852  
  23226115.417   122054089.12748       742.198    23226114.568    95107065.03746
       578.331  
  20947486.361   110079817.05648     -1636.102    20947488.585    85776507.58349
     -1274.887  
  22166931.546   116488041.41248      2594.363    22166933.729    90769920.25249
      2021.578  
  20632631.366   108425233.48148     -2001.124    20632630.940    84487211.34647
     -1559.319  
  20618917.597   108353176.51548     -1628.355    20618917.867    84431067.63748
     -1268.852  
  20461776.560   107527389.04249       639.698    20461778.549    83787598.02349
       498.465  
 20 10 03 08 38 55.0000000  0  9G11G12G15G21G24G32G20G23G10
  24066189.784   126468682.40946      1003.172    24066189.749    98547023.19344
       781.688  
  24140783.672   126860685.59347      3278.629    24140784.781    98852469.97145
      2554.773  
  24075550.536   126517872.33846     -3451.038    24075551.528    98585358.17446
     -2689.125  
  23225410.216   122050383.95748       739.395    23225409.345    95104177.89346
       576.148  
  20949044.497   110088005.02148     -1639.234    20949046.658    85782887.81849
     -1277.328  
  22164463.412   116475071.37448      2593.132    22164465.491    90759813.73049
      2020.620  
  20634536.402   108435244.70048     -2003.671    20634536.035    84495012.29947
     -1561.305  
  20620467.912   108361323.50548     -1631.035    20620468.111    84437415.93848
     -1270.940  
  20461168.970   107524196.85549       636.839    20461170.966    83785110.60549
       496.233  
 20 10 03 08 39  0.0000000  0  9G11G12G15G21G24G32G20G23G10
  24065236.509   126463672.32146      1000.765    24065236.740    98543119.24754
       779.816  
  24137664.359   126844293.08847      3278.016    24137665.358    98839696.61145
      2554.300  
  24078834.026   126535127.78447     -3451.176    24078835.000    98598803.97545
     -2689.230  
  23224707.839   122046692.91048       737.008    23224706.991    95101301.74745
       574.288  
  20950605.484   110096208.68748     -1642.219    20950607.893    85789280.28349
     -1279.652  
  22161996.640   116462108.02548      2592.222    22161998.703    90749712.42549
      2019.909  
  20636444.088   108445269.72048     -2006.137    20636443.564    84502823.99947
     -1563.226  
  20622020.910   108369484.15948     -1633.312    20622021.054    84443774.88648
     -1272.715  
  20460564.226   107521018.96449       634.288    20460566.310    83782634.32749
       494.245  
 20 10 03 08 39  5.0000000  0  9G11G12G15G21G24G32G20G23G10
  24064286.272   126458678.69746       996.663    24064286.726    98539228.06643
       776.612  
  24134546.041   126827906.02747      3276.707    24134547.092    98826927.42744
      2553.266  
  24082117.885   126552384.86446     -3451.819    24082119.134    98612251.04745
     -2689.733  
  23224007.923   122043014.95348       734.250    23224007.086    95098435.81346
       572.140  
  20952169.512   110104427.05248     -1645.320    20952171.819    85795684.20349
     -1282.070  
  22159530.820   116449150.39548      2590.875    22159532.918    90739615.57249
      2018.859  
  20638354.262   108455307.53748     -2008.922    20638353.810    84510645.66747
     -1565.397  
  20623576.177   108377657.48748     -1635.895    20623576.438    84450143.70648
     -1274.726  
  20459962.146   107517854.38849       631.538    20459964.096    83780168.42149
       492.105  
 20 10 03 08 39 10.0000000  0  9G11G12G15G21G24G32G20G23G10
  24063338.771   126453698.83057       993.754    24063341.625    98535354.25854
       774.351  
  24131428.427   126811523.63647      3275.444    24131429.800    98814162.01545
      2552.305  
  24085402.176   126569643.08446     -3452.051    24085403.263    98625699.00546
     -2689.913  
  23223310.513   122039349.85248       731.211    23223309.580    95095579.89346
       569.772  
  20953736.030   110112659.63048     -1648.250    20953738.419    85802099.20049
     -1284.354  
  22157066.132   116436198.18248      2589.386    22157068.095    90729522.94149
      2017.699  
  20640266.721   108465357.82648     -2011.698    20640266.461    84518477.06147
     -1567.562  
  20625133.914   108385843.19748     -1638.906    20625134.265    84456522.18348
     -1277.074  
  20459362.336   107514702.83349       628.586    20459364.314    83777712.66549
       489.805  
 20 10 03 08 39 15.0000000  0  9G11G12G15G21G24G32G20G23G10
  24062394.418   126448738.49846       990.047    24062394.916    98531489.07844
       771.473  
  24128312.176   126795147.84756      3274.691    24128313.278    98801401.59456
      2551.698  
  24088686.828   126586904.11247     -3452.433    24088687.949    98639149.15245
     -2690.211  
  23222615.935   122035699.13148       728.870    23222615.076    95092735.17346
       567.949  
  20955305.761   110120908.03048     -1651.207    20955307.953    85808526.52549
     -1286.656  
  22154602.606   116423252.92448      2588.421    22154604.733    90719435.73249
      2016.949  
  20642182.027   108475422.14048     -2014.023    20642181.552    84526319.38247
     -1569.370  
  20626694.124   108394042.81348     -1641.108    20626694.546    84462911.49448
     -1278.788  
  20458765.388   107511565.82249       626.038    20458767.475    83775268.24149
       487.819  
 20 10 03 08 39 20.0000000  0  9G11G12G15G21G24G32G20G23G10
  24061454.681   126443794.58845       988.132    24061454.213    98527636.58944
       769.957  
  24125197.124   126778777.41646      3273.870    24125198.194    98788645.44045
      2551.065  
  24091971.678   126604166.70446     -3452.019    24091972.802    98652600.51446
     -2689.887  
  23221923.619   122032061.67448       726.757    23221922.769    95089900.79146
       566.300  
  20956878.144   110129171.17648     -1653.789    20956880.423    85814965.34049
     -1288.672  
  22152140.407   116410313.47948      2587.695    22152142.592    90709353.05149
      2016.382  
  20644099.601   108485499.33848     -2016.348    20644099.102    84534171.74147
     -1571.183  
  20628256.989   108402255.16448     -1643.234    20628257.250    84469310.72548
     -1280.444  
  20458171.098   107508442.24149       623.684    20458173.070    83772834.28349
       485.984  
 20 10 03 08 39 25.0000000  0  9G11G12G15G21G24G32G20G23G10
  24060516.561   126438866.48056       983.995    24060517.093    98523796.58254
       766.745  
  24122082.742   126762411.72657      3272.242    24122084.019    98775893.00655
      2549.805  
  24095256.912   126621430.41546     -3453.128    24095257.898    98666052.74546
     -2690.753  
  23221233.780   122028436.98148       723.222    23221233.089    95087076.35346
       563.546  
  20958453.221   110137448.44648     -1657.348    20958455.581    85821415.16249
     -1291.440  
  22149679.138   116397379.30248      2585.952    22149681.194    90699274.47549
      2015.022  
  20646019.455   108495588.89548     -2019.617    20646019.095    84542033.72747
     -1573.729  
  20629821.934   108410479.75648     -1646.573    20629822.399    84475719.49948
     -1283.047  
  20457579.091   107505331.53549       620.456    20457581.107    83770410.35749
       483.469  
 20 10 03 08 39 30.0000000  0  9G11G12G15G21G24G32G20G23G10
  24059582.423   126433955.92846       980.245    24059582.653    98519970.17344
       763.824  
  24118969.748   126746052.61745      3271.461    24118970.654    98763145.58247
      2549.184  
  24098542.507   126638696.89546     -3453.344    24098543.855    98679507.16046
     -2690.922  
  23220546.806   122024826.65748       720.776    23220546.128    95084263.11646
       561.640  
  20960031.337   110145741.59848     -1660.168    20960033.670    85827877.35749
     -1293.641  
  22147219.233   116384452.10248      2584.886    22147221.261    90689201.33549
      2014.194  
  20647942.192   108505692.44448     -2021.977    20647941.765    84549906.61748
     -1575.569  
  20631389.755   108418718.20848     -1648.952    20631390.254    84482139.06948
     -1284.902  
  20456989.947   107502235.40649       617.922    20456991.834    83767997.78949
       481.496  
 20 10 03 08 39 35.0000000  0  9G11G12G15G21G24G32G20G23G10
  24058651.120   126429060.21456       977.172    24058650.755    98516155.33554
       761.430  
  24115857.473   126729697.37457      3270.434    24115858.539    98750401.30355
      2548.386  
  24101828.328   126655963.44246     -3453.383    24101829.390    98692961.59646
     -2690.949  
  23219862.126   122021228.08148       718.120    23219861.380    95081459.03145
       559.570  
  20961611.918   110154047.85648     -1662.711    20961614.191    85834349.76749
     -1295.620  
  22144760.073   116371529.22248      2583.847    22144762.067    90679131.56349
      2013.383  
  20649867.015   108515807.36548     -2024.425    20649866.653    84557788.36847
     -1577.477  
  20632959.484   108426967.94148     -1651.507    20632960.056    84488567.42948
     -1286.890  
  20456403.092   107499151.21449       615.327    20456404.993    83765594.52249
       479.472  
 20 10 03 08 39 40.0000000  0  9G11G12G15G21G24G32G20G23G10
  24057722.951   126424182.15346       973.590    24057722.663    98512354.26644
       758.641  
  24112746.385   126713348.68446      3269.258    24112747.562    98737662.05846
      2547.472  
  24105114.504   126673232.88146     -3453.874    24105115.721    98706418.29145
     -2691.335  
  23219179.944   122017643.97148       715.542    23219179.315    95078666.21446
       557.563  
  20963195.532   110162369.96248     -1665.715    20963197.897    85840834.52649
     -1297.960  
  22142302.225   116358613.39048      2582.746    22142304.335    90669067.28249
      2012.527  
  20651794.502   108525936.31648     -2026.929    20651794.219    84565681.05147
     -1579.429  
  20634532.068   108435231.61648     -1654.039    20634532.528    84495006.65548
     -1288.862  
  20455818.887   107496081.69649       612.586    20455820.845    83763202.69249
       477.336  
 20 10 03 08 39 45.0000000  0  9G11G12G15G21G24G32G20G23G10
  24056797.676   126419320.33156       970.641    24056797.311    98508565.82155
       756.340  
  24109636.421   126697005.40256      3267.929    24109637.563    98724927.03855
      2546.434  
  24108401.098   126690503.82746     -3454.953    24108402.295    98719876.16745
     -2692.176  
  23218500.604   122014073.01548       712.675    23218499.679    95075883.65646
       555.328  
  20964782.012   110170706.56348     -1669.151    20964784.284    85847330.57849
     -1300.641  
  22139845.516   116345703.29948      2581.145    22139847.574    90659007.47349
      2011.276  
  20653724.456   108536078.01148     -2029.999    20653723.988    84573583.66547
     -1581.819  
  20636106.942   108443507.91648     -1656.934    20636107.438    84501455.71248
     -1291.121  
  20455237.367   107493025.50749       609.523    20455239.379    83760821.24749
       474.948  
 20 10 03 08 39 50.0000000  0  9G11G12G15G21G24G32G20G23G10
  24055875.823   126414476.46046       967.112    24055875.892    98504791.35745
       753.589  
  24106527.807   126680669.02347      3267.073    24106528.813    98712197.41545
      2545.772  
  24111688.227   126707777.83846     -3454.430    24111689.359    98733336.42746
     -2691.765  
  23217823.729   122010516.88948       710.086    23217822.956    95073112.64946
       553.309  
  20966371.514   110179059.23748     -1671.922    20966373.852    85853839.15449
     -1302.801  
  22137390.167   116332800.57348      2580.112    22137392.290    90648953.40249
      2010.477  
  20655657.070   108546234.12548     -2032.352    20655656.669    84581497.51347
     -1583.652  
  20637684.652   108451798.49048     -1659.120    20637685.035    84507915.89748
     -1292.824  
  20454658.688   107489984.31249       607.094    20454660.604    83758451.47949
       473.059  
 20 10 03 08 39 55.0000000  0  9G11G12G15G21G24G32G20G23G10
  24054956.839   126409647.94946       964.320    24054956.934    98501028.88045
       751.414  
  24103419.716   126664336.99046      3266.003    24103420.953    98699471.15545
      2544.934  
  24114975.546   126725052.38246     -3454.762    24114976.649    98746797.10846
     -2692.022  
  23217149.325   122006972.92948       707.663    23217148.683    95070351.11646
       551.422  
  20967963.515   110187425.34948     -1674.500    20967965.861    85860358.19949
     -1304.808  
  22134935.744   116319902.58648      2579.233    22134937.977    90638903.02949
      2009.788  
  20657591.785   108556401.96148     -2034.590    20657591.543    84589420.50047
     -1585.398  
  20639264.445   108460100.70648     -1661.604    20639265.084    84514385.15448
     -1294.761  
  20454082.302   107486955.47449       604.698    20454084.259    83756091.34949
       471.191  
 20 10 03 08 40  0.0000000  0  9G11G12G15G21G24G32G20G23G10
  24054041.322   126404836.34246       960.262    24054041.454    98497279.57844
       748.254  
  24100313.205   126648011.13256      3264.246    24100314.050    98686749.71655
      2543.566  
  24118263.211   126742329.08546     -3455.819    24118264.142    98760259.46946
     -2692.851  
  23216477.587   122003442.79948       704.633    23216476.847    95067600.37146
       549.062  
  20969558.376   110195806.80548     -1677.858    20969560.800    85866889.20749
     -1307.426  
  22132482.662   116307011.05448      2577.409    22132484.635    90628857.68849
      2008.366  
  20659529.358   108566583.22848     -2037.589    20659528.889    84597353.95247
     -1587.733  
  20640846.929   108468416.24448     -1664.608    20640847.340    84520864.78648
     -1297.101  
  20453508.574   107483940.70349       601.558    20453510.598    83753742.17949
       468.741  
 20 10 03 08 40  5.0000000  0  9G11G12G15G21G24G32G20G23G10
  24053128.998   126400041.54846       957.429    24053129.039    98493543.39144
       746.046  
  24097207.597   126631691.05547      3263.621    24097208.457    98674032.80245
      2543.082  
  24121551.133   126759607.82446     -3455.628    24121552.229    98773723.41746
     -2692.699  
  23215808.511   121999926.34248       702.160    23215807.679    95064860.27246
       547.132  
  20971156.265   110204203.17948     -1680.522    20971158.417    85873431.83849
     -1309.503  
  22130030.541   116294125.75748      2576.762    22130032.766    90618817.19649
      2007.863  
  20661469.205   108576777.72548     -2040.020    20661468.897    84605297.71248
     -1589.628  
  20642431.670   108476744.92848     -1666.835    20642432.288    84527354.66848
     -1298.835  
  20452937.514   107480939.82149       598.988    20452939.396    83751403.82549
       466.741  
 20 10 03 08 40 10.0000000  0  9G11G12G15G21G24G32G20G23G10
  24052219.820   126395263.03155       953.765    24052219.790    98489819.82455
       743.187  
  24094102.955   126615376.36056      3262.292    24094104.015    98661320.03656
      2542.042  
  24124839.609   126776888.03846     -3456.488    24124840.484    98787188.52045
     -2693.370  
  23215141.720   121996422.99148       699.211    23215140.984    95062130.39246
       544.836  
  20972756.844   110212614.09048     -1683.895    20972758.975    85879985.79349
     -1312.128  
  22127579.748   116281246.19348      2575.156    22127581.875    90608781.17549
      2006.613  
  20663411.523   108586984.89548     -2042.902    20663411.333    84613251.35047
     -1591.875  
  20644019.087   108485086.17448     -1669.663    20644019.657    84533854.33348
     -1301.038  
  20452369.119   107477952.26449       596.112    20452370.860    83749075.86049
       464.500  
 20 10 03 08 40 15.0000000  0  9G11G12G15G21G24G32G20G23G10
  24051313.508   126390501.83346       950.770    24051313.784    98486109.85244
       740.854  
  24090999.623   126599068.11847      3261.254    24091000.673    98648612.34045
      2541.234  
  24128128.261   126794170.67546     -3456.698    24128129.328    98800655.50546
     -2693.535  
  23214477.783   121992933.82148       696.499    23214476.964    95059411.56146
       542.723  
  20974360.281   110221040.51848     -1686.487    20974362.464    85886551.84149
     -1314.147  
  22125130.091   116268373.37348      2574.038    22125132.191    90598750.41249
      2005.741  
  20665356.513   108597205.78848     -2045.397    20665356.243    84621215.67947
     -1593.820  
  20645608.993   108493441.05848     -1672.167    20645609.462    84540364.63048
     -1302.992  
  20451803.368   107474979.09349       593.414    20451805.268    83746759.10449
       462.398  
 20 10 03 08 40 20.0000000  0  9G11G12G15G21G24G32G20G23G10
  24050410.662   126385757.12556       947.155    24050410.530    98482412.67653
       738.039  
  24087897.271   126582765.49256      3259.452    24087898.177    98635908.98356
      2539.832  
  24131417.307   126811454.95146     -3457.160    24131418.335    98814123.75246
     -2693.831  
  23213816.522   121989458.05948       693.745    23213815.610    95056703.17646
       540.577  
  20975966.563   110229481.58948     -1689.940    20975968.883    85893129.29749
     -1316.840  
  22122681.599   116255506.52648      2572.668    22122683.750    90588724.29749
      2004.671  
  20667303.989   108607439.56748     -2048.301    20667303.824    84629190.04347
     -1596.082  
  20647201.174   108501808.74848     -1674.902    20647201.717    84546884.90148
     -1305.121  
  20451240.102   107472019.52049       590.320    20451241.873    83744452.93949
       459.988  
 20 10 03 08 40 25.0000000  0  9G11G12G15G21G24G32G20G23G10
  24049510.985   126381029.13746       944.069    24049510.774    98478728.51345
       735.636  
  24084796.042   126566468.70547      3259.062    24084797.140    98623210.22145
      2539.530  
  24134706.954   126828741.09646     -3457.469    24134707.878    98827593.47545
     -2694.281  
  23213157.528   121985995.89548       691.188    23213156.773    95054005.38046
       538.585  
  20977575.693   110237937.62348     -1692.562    20977577.990    85899718.41649
     -1318.883  
  22120234.236   116242645.85948      2571.652    22120236.516    90578703.00349
      2003.883  
  20669253.928   108617686.47048     -2050.586    20669253.577    84637174.64248
     -1597.863  
  20648796.012   108510189.48848     -1677.222    20648796.680    84553415.35048
     -1306.930  
  20450679.501   107469073.75949       587.964    20450681.405    83742157.54249
       458.152  
 20 10 03 08 40 30.0000000  0  9G11G12G15G21G24G32G20G23G10
  24048614.309   126376317.25756       940.555    24048614.077    98475056.91054
       732.895  
  24081695.943   126550177.13556      3257.511    24081696.867    98610515.49656
      2538.316  
  24137996.522   126846028.33446     -3457.672    24137997.605    98841064.04346
     -2694.211  
  23212501.188   121982546.61748       688.473    23212500.375    95051317.63146
       536.469  
  20979187.473   110246407.71248     -1695.625    20979189.764    85906318.48449
     -1321.269  
  22117788.020   116229790.65548      2570.297    22117790.016    90568685.96349
      2002.824  
  20671206.142   108627945.76948     -2053.417    20671205.778    84645168.89247
     -1600.069  
  20650393.150   108518582.53848     -1679.987    20650393.823    84559955.38448
     -1309.086  
  20450121.571   107466141.09949       584.948    20450123.392    83739872.35349
       455.800  
 20 10 03 08 40 35.0000000  0  9G11G12G15G21G24G32G20G23G10
  24047720.877   126371622.49047       937.563    24047720.623    98471398.67844
       730.565  
  24078596.789   126533891.78646      3256.632    24078597.764    98597825.62546
      2537.632  
  24141286.556   126863317.82647     -3458.116    24141287.608    98854536.36945
     -2694.641  
  23211847.546   121979111.30248       685.776    23211846.619    95048640.76746
       534.366  
  20980802.301   110254893.03348     -1698.362    20980804.482    85912930.42349
     -1323.401  
  22115343.116   116216942.03548      2569.089    22115345.227    90558674.05349
      2001.887  
  20673161.024   108638218.55348     -2055.727    20673160.691    84653173.65347
     -1601.866  
  20651992.757   108526988.96648     -1682.312    20651993.405    84566505.84348
     -1310.894  
  20449566.097   107463222.62549       582.469    20449568.047    83737598.21649
       453.867  
 20 10 03 08 40 40.0000000  0  9G11G12G15G21G24G32G20G23G10
  24046830.537   126366943.03746       933.917    24046830.264    98467752.36844
       727.734  
  24075498.797   126517611.00946      3255.688    24075499.742    98585139.30545
      2536.895  
  24144576.729   126880607.80446     -3457.788    24144577.872    98868009.07546
     -2694.382  
  23211196.161   121975688.24948       683.265    23211195.354    95045973.44746
       532.410  
  20982419.415   110263391.70948     -1701.141    20982421.643    85919552.77049
     -1325.566  
  22112898.994   116204098.24348      2568.316    22112900.930    90548665.91149
      2001.280  
  20675118.192   108648503.10248     -2058.156    20675117.815    84661187.59247
     -1603.762  
  20653594.836   108535407.10348     -1684.934    20653595.423    84573065.43048
     -1312.938  
  20449013.108   107460316.64849       579.847    20449014.914    83735333.82149
       451.823  
 20 10 03 08 40 45.0000000  0  9G11G12G15G21G24G32G20G23G10
  24045943.341   126362281.97446       930.421    24045943.279    98464120.34345
       724.999  
  24072401.932   126501337.58947      3254.315    24072402.862    98572458.75646
      2535.831  
  24147867.686   126897901.08546     -3458.672    24147868.612    98881484.35845
     -2695.070  
  23210547.624   121972280.25948       680.233    23210546.699    95043317.87646
       530.051  
  20984039.749   110271906.71748     -1704.563    20984041.980    85926187.84149
     -1328.234  
  22110456.377   116191262.11448      2566.476    22110458.343    90538663.73749
      1999.847  
  20677078.036   108658802.21848     -2061.016    20677077.610    84669212.87447
     -1605.987  
  20655199.390   108543839.68448     -1687.781    20655200.110    84579636.26548
     -1315.156  
  20448462.971   107457425.93849       576.745    20448464.952    83733081.31749
       449.409  
 20 10 03 08 40 50.0000000  0  9G11G12G15G21G24G32G20G23G10
  24045059.444   126357636.41246       927.375    24045059.114    98460500.39644
       722.620  
  24069306.024   126485068.92447      3252.973    24069307.023    98559781.84645
      2534.781  
  24151158.626   126915195.06047     -3458.683    24151159.599    98894960.18045
     -2695.082  
  23209901.411   121968884.70148       677.757    23209900.492    95040671.98546
       528.120  
  20985662.735   110280435.37748     -1707.426    20985664.983    85932833.55149
     -1330.465  
  22108014.538   116178430.97548      2565.477    22108016.744    90528665.45249
      1999.070  
  20679040.175   108669113.23348     -2063.437    20679039.846    84677247.43347
     -1607.874  
  20656806.431   108552284.08548     -1690.285    20656807.018    84586216.31448
     -1317.108  
  20447915.300   107454547.88149       574.155    20447917.184    83730838.67749
       447.391  
 20 10 03 08 40 55.0000000  0  9G11G12G15G21G24G32G20G23G10
  24044178.744   126353008.30156       924.554    24044178.510    98456894.15854
       720.440  
  24066211.618   126468807.02257      3251.539    24066212.611    98547110.27555
      2533.668  
  24154449.985   126932491.61346     -3459.292    24154451.067    98908438.00346
     -2695.554  
  23209258.040   121965503.54648       674.980    23209257.288    95038037.32546
       525.956  
  20987288.595   110288979.76948     -1710.211    20987290.934    85939491.51549
     -1332.637  
  22105574.224   116165606.82048      2564.226    22105576.351    90518672.60649
      1998.093  
  20681004.972   108679438.09348     -2066.105    20681004.531    84685292.77347
     -1609.956  
  20658415.942   108560742.28048     -1692.816    20658416.597    84592807.11348
     -1319.081  
  20447370.481   107451684.46049       571.542    20447372.354    83728607.43849
       445.354  
 20 10 03 08 41  0.0000000  0  9G11G12G15G21G24G32G20G23G10
  24043301.107   126348396.34846       920.562    24043300.814    98453300.39144
       717.316  
  24063118.012   126452550.38647      3250.323    24063118.911    98534442.77946
      2532.722  
  24157741.717   126949789.34747     -3459.543    24157742.606    98921916.74245
     -2695.750  
  23208617.155   121962135.35648       672.011    23208616.235    95035412.75846
       523.640  
  20988917.300   110297538.32948     -1713.292    20988919.559    85946160.52549
     -1335.034  
  22103135.051   116152788.22348      2563.051    22103137.175    90508684.09049
      1997.180  
  20682972.041   108689775.38948     -2068.796    20682971.660    84693347.80747
     -1612.050  
  20660027.733   108569212.83148     -1695.519    20660028.388    84599407.53548
     -1321.188  
  20446828.141   107448834.22849       568.573    20446829.973    83726386.47749
       443.042  
 20 10 03 08 41  5.0000000  0  9G11G12G15G21G24G32G20G23G10
  24042426.672   126343801.25356       917.195    24042426.133    98449719.78055
       714.691  
  24060025.545   126436299.86256      3249.519    24060026.624    98521780.03756
      2532.089  
  24161033.796   126967089.05446     -3460.413    24161034.734    98935397.05045
     -2696.429  
  23207978.724   121958780.90948       669.444    23207977.887    95032798.89646
       521.641  
  20990548.692   110306111.88048     -1716.258    20990551.112    85952841.21449
     -1337.348  
  22100696.821   116139975.98548      2561.679    22100698.989    90498700.53449
      1996.109  
  20684941.580   108700125.92148     -2071.390    20684941.461    84701413.15447
     -1614.073  
  20661642.184   108577696.51748     -1698.051    20661642.856    84606018.20048
     -1323.159  
  20446288.278   107445997.97649       565.820    20446290.268    83724176.41249
       440.894  
 20 10 03 08 41 10.0000000  0  9G11G12G15G21G24G32G20G23G10
  24041555.315   126339222.43346       913.940    24041554.801    98446151.88644
       712.159  
  24056934.189   126420054.89747      3248.473    24056935.223    98509121.64245
      2531.273  
  24164326.085   126984390.05747     -3460.512    24164326.984    98948878.32746
     -2696.503  
  23207342.933   121955439.55648       666.866    23207342.226    95030195.24846
       519.633  
  20992182.916   110314699.66348     -1719.151    20992185.115    85959532.99449
     -1339.601  
  22098259.916   116127169.46348      2560.313    22098262.014    90488721.43349
      1995.046  
  20686913.806   108710489.03848     -2074.059    20686913.457    84709488.30547
     -1616.151  
  20663258.922   108586192.72148     -1700.582    20663259.514    84612638.61348
     -1325.132  
  20445751.260   107443175.11649       563.125    20445752.996    83721976.78249
       438.796  
 20 10 03 08 41 15.0000000  0  9G11G12G15G21G24G32G20G23G10
  24040687.382   126334661.00556       910.242    24040686.971    98442597.51754
       709.276  
  24053844.170   126403816.55056      3246.671    24053845.147    98496468.39156
      2529.871  
  24167618.714   127001693.53346     -3460.395    24167619.755    98962361.54545
     -2696.414  
  23206709.816   121952112.50448       663.800    23206708.957    95027602.74346
       517.246  
  20993819.993   110323302.74648     -1722.227    20993822.288    85966236.69449
     -1341.996  
  22095824.181   116114369.77948      2559.195    22095826.262    90478747.65549
      1994.176  
  20688888.314   108720865.86548     -2076.862    20688888.147    84717574.14248
     -1618.339  
  20664878.328   108594702.56848     -1703.504    20664878.884    84619269.66148
     -1327.409  
  20445216.720   107440366.74449       560.124    20445218.664    83719788.43849
       436.457  
 20 10 03 08 41 20.0000000  0  9G11G12G15G21G24G32G20G23G10
  24039822.240   126330115.81345       907.683    24039822.011    98439055.80444
       707.281  
  24050755.132   126387583.76747      3245.737    24050756.207    98483819.47946
      2529.145  
  24170911.779   127018998.26746     -3461.175    24170912.637    98975845.75345
     -2697.023  
  23206079.190   121948798.57548       661.558    23206078.412    95025020.45546
       515.496  
  20995459.936   110331920.08148     -1724.641    20995462.151    85972951.50349
     -1343.879  
  22093389.567   116101575.82648      2558.313    22093391.739    90468778.34549
      1993.488  
  20690865.488   108731255.23548     -2078.944    20690865.041    84725669.75647
     -1619.960  
  20666500.004   108603224.87548     -1705.598    20666500.693    84625910.41748
     -1329.038  
  20444684.838   107437571.74749       557.797    20444686.771    83717610.52049
       434.644  
 20 10 03 08 41 25.0000000  0  9G11G12G15G21G24G32G20G23G10
  24038960.360   126325586.91546       903.956    24038960.210    98435526.81344
       704.379  
  24047667.235   126371356.38346      3245.086    24047668.087    98471174.77146
      2528.637  
  24174205.012   127036304.29447     -3461.323    24174205.835    98989330.97346
     -2697.141  
  23205451.029   121945497.66148       658.897    23205450.341    95022448.32646
       513.425  
  20997102.358   110340551.59948     -1727.616    20997104.690    85979677.36149
     -1346.198  
  22090956.094   116088787.52648      2556.992    22090958.184    90458813.44149
      1992.457  
  20692844.962   108741657.06448     -2081.601    20692844.626    84733775.07447
     -1622.031  
  20668124.163   108611759.60948     -1708.078    20668124.699    84632560.85848
     -1330.972  
  20444155.614   107434790.03149       555.194    20444157.321    83715442.94849
       432.617  
 20 10 03 08 41 30.0000000  0  9G11G12G15G21G24G32G20G23G10
  24038101.700   126321074.99746       900.390    24038101.822    98432011.04645
       701.604  
  24044580.424   126355135.45747      3243.258    24044581.410    98458535.12245
      2527.210  
  24177498.579   127053612.35446     -3461.308    24177499.552    99002817.75846
     -2697.124  
  23204825.538   121942210.74448       655.906    23204824.920    95019887.08346
       511.094  
  20998747.818   110349198.20548     -1730.996    20998749.939    85986414.97649
     -1348.832  
  22088523.758   116076005.76448      2555.656    22088525.859    90448853.63049
      1991.418  
  20694826.882   108752072.28048     -2084.590    20694826.397    84741890.81747
     -1624.359  
  20669750.778   108620307.65348     -1711.117    20669751.392    84639221.67548
     -1333.339  
  20443628.891   107432022.55249       551.929    20443630.810    83713286.47249
       430.070  
 20 10 03 08 41 35.0000000  0  9G11G12G15G21G24G32G20G23G10
  24037246.492   126316580.56846       897.085    24037246.299    98428508.88244
       699.023  
  24041495.008   126338921.26846      3242.320    24041495.893    98445900.66746
      2526.479  
  24180792.746   127070923.00847     -3462.437    24180793.668    99016306.58245
     -2698.007  
  23204202.925   121938938.14148       653.258    23204202.227    95017337.00846
       509.027  
  21000396.138   110357860.12448     -1733.762    21000398.331    85993164.52249
     -1350.988  
  22086092.751   116063230.92648      2554.362    22086094.988    90438899.21549
      1990.410  
  20696811.488   108762501.23548     -2087.004    20696811.091    84750017.27547
     -1626.238  
  20671380.078   108628869.36948     -1713.617    20671380.777    84645893.13848
     -1335.288  
  20443105.011   107429269.63849       549.206    20443106.971    83711141.34449
       427.948  
 20 10 03 08 41 40.0000000  0  9G11G12G15G21G24G32G20G23G10
  24036394.156   126312101.85945       894.050    24036393.966    98425018.97244
       696.660  
  24038410.505   126322712.02847      3240.866    24038411.488    98433270.13645
      2525.351  
  24184086.915   127088234.32446     -3462.683    24184087.810    99029795.91846
     -2698.198  
  23203582.568   121935678.08048       650.647    23203581.695    95014796.69345
       506.995  
  21002046.927   110366535.66948     -1736.640    21002049.179    85999924.68749
     -1353.229  
  22083662.888   116050461.22248      2553.332    22083664.858    90428948.79949
      1989.605  
  20698798.363   108772942.11748     -2089.625    20698797.986    84758153.02647
     -1628.281  
  20673011.483   108637442.92848     -1715.945    20673012.095    84652573.83248
     -1337.101  
  20442583.601   107426529.48749       546.559    20442585.590    83709006.16049
       425.887  
 20 10 03 08 41 45.0000000  0  9G11G12G15G21G24G32G20G23G10
  24035545.274   126307640.01446       890.918    24035545.170    98421542.23344
       694.218  
  24035327.180   126306509.04846      3240.129    24035328.135    98420644.41745
      2524.772  
  24187381.475   127105547.48347     -3462.711    24187382.421    99043286.67346
     -2698.117  
  23202964.689   121932431.75948       648.102    23202964.078    95012267.09045
       505.011  
  21003700.579   110375225.95148     -1739.559    21003702.960    86006696.33149
     -1355.503  
  22081233.980   116037697.84848      2552.273    22081236.198    90419003.31449
      1988.781  
  20700787.700   108783396.15548     -2091.944    20700787.328    84766299.01947
     -1630.090  
  20674645.548   108646029.59248     -1718.609    20674646.119    84659264.73248
     -1339.179  
  20442064.856   107423803.33949       543.910    20442066.638    83706881.88749
       423.824  
 20 10 03 08 41 50.0000000  0  9G11G12G15G21G24G32G20G23G10
  24034699.199   126303194.23556       887.570    24034699.055    98418078.00054
       691.608  
  24032244.759   126290311.44457      3238.698    24032245.690    98408022.97555
      2523.667  
  24190676.217   127122861.74646     -3462.762    24190677.256    99056778.31546
     -2698.258  
  23202349.457   121929198.38448       645.270    23202348.644    95009747.58646
       502.804  
  21005357.079   110383930.25948     -1742.339    21005359.198    86013478.91349
     -1357.672  
  22078806.404   116024940.00648      2550.852    22078808.494    90409062.14649
      1987.671  
  20702779.320   108793862.50048     -2094.581    20702778.856    84774454.62047
     -1632.145  
  20676281.898   108654628.48048     -1721.190    20676282.564    84665965.16848
     -1341.191  
  20441548.586   107421090.38249       541.190    20441550.380    83704767.89749
       421.702  
 20 10 03 08 41 55.0000000  0  9G11G12G15G21G24G32G20G23G10
  24033856.414   126298765.84045       884.184    24033856.492    98414627.25244
       688.968  
  24029163.716   126274120.57446      3237.898    24029164.643    98395406.66545
      2523.034  
  24193971.544   127140178.33947     -3463.480    24193972.431    99070271.75645
     -2698.819  
  23201736.904   121925979.26748       642.539    23201736.150    95007239.18246
       500.676  
  21007016.221   110392649.98748     -1745.430    21007018.597    86020273.50049
     -1360.077  
  22076379.782   116012188.96048      2549.651    22076382.043    90399126.26449
      1986.738  
  20704773.612   108804342.41848     -2097.374    20704773.077    84782620.77547
     -1634.319  
  20677920.710   108663240.90448     -1723.706    20677921.452    84672676.14148
     -1343.152  
  20441034.988   107418391.87749       538.301    20441037.038    83702665.15949
       419.453  
 20 10 03 08 42  0.0000000  0  9G11G12G15G21G24G32G20G23G10
  24033016.972   126294354.47856       880.797    24033016.841    98411189.86754
       686.332  
  24026084.004   126257936.04957      3236.077    24026084.920    98382795.40355
      2521.620  
  24197267.049   127157496.86847     -3464.027    24197268.046    99083766.71646
     -2699.246  
  23201126.822   121922773.95248       639.690    23201126.116    95004741.53746
       498.456  
  21008678.437   110401384.55248     -1748.237    21008680.686    86027079.66149
     -1362.265  
  22073954.660   115999444.32948      2548.343    22073956.799    90389195.38949
      1985.719  
  20706770.390   108814835.52848     -2099.987    20706770.003    84790797.23047
     -1636.358  
  20679562.180   108671866.44948     -1726.249    20679562.786    84679397.34848
     -1345.133  
  20440524.238   107415707.45949       535.512    20440526.151    83700573.41149
       417.276  
 20 10 03 08 42  5.0000000  0  9G11G12G15G21G24G32G20G23G10
  24032180.651   126289959.33247       877.058    24032180.681    98407765.08543
       683.422  
  24023005.247   126241757.07447      3235.109    24023006.162    98370188.40445
      2520.859  
  24200562.983   127174816.55347     -3463.957    24200563.923    99097262.56345
     -2699.190  
  23200519.394   121919581.70948       637.000    23200518.781    95002254.07046
       496.358  
  21010343.313   110410133.19348     -1751.164    21010345.466    86033896.78449
     -1364.547  
  22071530.498   115986705.39648      2546.890    22071532.524    90379268.95249
      1984.586  
  20708769.610   108825341.09148     -2102.352    20708769.107    84798983.38147
     -1638.198  
  20681205.961   108680504.38848     -1728.867    20681206.569    84686128.20848
     -1347.172  
  20440015.964   107413036.40249       532.847    20440017.941    83698492.06749
       415.202  
 20 10 03 08 42 10.0000000  0  9G11G12G15G21G24G32G20G23G10
  24031347.369   126285580.12446       874.261    24031347.124    98404352.71643
       681.242  
  24019927.444   126225583.48146      3233.797    24019928.334    98357585.61846
      2519.839  
  24203859.063   127192137.29247     -3464.511    24203859.994    99110759.23946
     -2699.620  
  23199914.448   121916402.32448       634.562    23199913.604    94999776.62946
       494.460  
  21012010.666   110418895.69348     -1754.151    21012012.929    86040724.70549
     -1366.875  
  22069107.314   115973971.91248      2545.972    22069109.477    90369346.76149
      1983.871  
  20710770.942   108835858.88148     -2105.063    20710770.659    84807179.06047
     -1640.312  
  20682852.004   108689154.49648     -1731.405    20682852.567    84692868.54648
     -1349.151  
  20439510.166   107410378.47549       530.031    20439511.933    83696420.95549
       413.007  
 20 10 03 08 42 15.0000000  0  9G11G12G15G21G24G32G20G23G10
  24030517.498   126281219.31045       870.640    24030517.282    98400954.65245
       678.414  
  24016851.101   126209417.60047      3232.547    24016852.056    98344988.83545
      2518.863  
  24207155.701   127209461.17947     -3464.866    24207156.540    99124258.35546
     -2699.897  
  23199312.367   121913238.05348       631.543    23199311.341    94997310.96246
       492.109  
  21013681.248   110427674.31348     -1757.020    21013683.567    86047565.18749
     -1369.109  
  22066685.827   115961246.13348      2544.714    22066687.896    90359430.57249
      1982.891  
  20712775.321   108846391.08948     -2107.539    20712774.657    84815385.97247
     -1642.241  
  20684500.730   108697818.98748     -1734.050    20684501.472    84699620.09748
     -1351.211  
  20439007.218   107407735.90649       527.219    20439009.115    83694361.81049
       410.815  
 20 10 03 08 42 20.0000000  0  9G11G12G15G21G24G32G20G23G10
  24029690.660   126276874.56046       867.116    24029690.658    98397569.17043
       675.671  
  24013775.943   126193257.12847      3231.444    24013776.946    98332396.30445
      2518.015  
  24210452.518   127226786.16147     -3465.379    24210453.407    99137758.35046
     -2700.296  
  23198712.561   121910086.71048       628.914    23198711.798    94994855.37246
       490.059  
  21015354.303   110436466.87348     -1759.805    21015356.659    86054416.53349
     -1371.281  
  22064265.094   115948525.94048      2543.581    22064267.286    90349518.73749
      1982.007  
  20714781.795   108856935.62148     -2110.340    20714781.337    84823602.48847
     -1644.426  
  20686151.926   108706495.73548     -1736.628    20686152.578    84706381.19448
     -1353.219  
  20438506.929   107405106.58549       524.551    20438508.719    83692312.98949
       408.737  
 20 10 03 08 42 25.0000000  0  9G11G12G15G21G24G32G20G23G10
  24028867.060   126272546.10947       863.828    24028866.968    98394196.36344
       673.112  
  24010701.746   126177102.55146      3230.430    24010702.825    98319808.29445
      2517.214  
  24213749.558   127244112.47347     -3465.655    24213750.493    99151259.36546
     -2700.515  
  23198115.399   121906948.60148       626.159    23198114.704    94992410.08946
       487.913  
  21017030.230   110445273.52148     -1763.004    21017032.433    86061278.85649
     -1373.772  
  22061845.713   115935811.59948      2542.012    22061847.897    90339611.46349
      1980.785  
  20716790.727   108867492.69248     -2112.906    20716790.225    84831828.77147
     -1646.421  
  20687805.595   108715185.01148     -1739.292    20687806.123    84713152.06048
     -1355.296  
  20438009.125   107402490.79749       521.612    20438011.019    83690274.71149
       406.448  
 20 10 03 08 42 30.0000000  0  9G11G12G15G21G24G32G20G23G10
  24028046.537   126268234.63745       860.938    24028046.515    98390836.71244
       670.851  
  24007628.852   126160954.38547      3229.046    24007629.947    98307225.34045
      2516.137  
  24217046.949   127261440.66147     -3465.831    24217047.838    99164761.84646
     -2700.651  
  23197520.929   121903824.29548       623.335    23197520.023    94989975.56246
       485.714  
  21018709.010   110454095.03848     -1765.663    21018711.142    86068152.76549
     -1375.843  
  22059427.445   115923103.64148      2541.167    22059429.738    90329709.16149
      1980.128  
  20718802.147   108878062.87048     -2115.133    20718801.785    84840065.27348
     -1648.160  
  20689461.536   108723887.35648     -1741.527    20689462.115    84719933.10148
     -1357.039  
  20437514.176   107399889.07149       519.151    20437516.004    83688247.39549
       404.531  
 20 10 03 08 42 35.0000000  0  9G11G12G15G21G24G32G20G23G10
  24027229.202   126263939.51356       857.132    24027229.120    98387489.89555
       667.891  
  24004556.971   126144811.88546      3227.733    24004557.973    98294646.77845
      2515.113  
  24220344.572   127278769.97247     -3466.031    24220345.746    99178265.19645
     -2700.809  
  23196928.918   121900713.07248       620.901    23196928.040    94987551.24146
       483.816  
  21020390.265   110462930.62648     -1768.655    21020392.537    86075037.64149
     -1378.176  
  22057010.322   115910401.41548      2539.754    22057012.548    90319811.32749
      1979.026  
  20720816.024   108888645.45648     -2117.840    20720815.569    84848311.44247
     -1650.269  
  20691119.941   108732602.08348     -1744.336    20691120.297    84726723.79748
     -1359.227  
  20437021.492   107397300.74849       516.229    20437023.432    83686230.51849
       402.254  
 20 10 03 08 42 40.0000000  0  9G11G12G15G21G24G32G20G23G10
  24026415.090   126259661.63946       854.121    24026415.073    98384156.51144
       665.546  
  24001486.579   126128676.14447      3226.559    24001487.479    98282073.49445
      2514.202  
  24223642.733   127296101.51947     -3465.940    24223643.830    99191770.29846
     -2700.737  
  23196339.562   121897616.01348       618.238    23196338.521    94985137.94946
       481.741  
  21022074.566   110471781.31248     -1771.566    21022076.873    86081934.27749
     -1380.444  
  22054594.325   115897705.95648      2538.546    22054596.569    90309918.76649
      1978.085  
  20722832.383   108899241.49648     -2120.612    20722832.003    84856568.09147
     -1652.429  
  20692780.848   108741330.23948     -1746.871    20692781.170    84733524.95148
     -1361.203  
  20436531.656   107394726.86349       513.397    20436533.546    83684224.89249
       400.047  
 20 10 03 08 42 45.0000000  0  9G11G12G15G21G24G32G20G23G10
  24025604.249   126255400.04556       850.457    24025604.068    98380835.76854
       662.691  
  23998417.125   126112546.21156      3225.148    23998417.993    98269504.71155
      2513.098  
  24226941.106   127313434.27647     -3466.503    24226942.109    99205276.32546
     -2701.176  
  23195752.697   121894532.08048       615.628    23195751.691    94982734.88346
       479.706  
  21023761.529   110480646.11348     -1774.320    21023763.651    86088841.91349
     -1382.589  
  22052179.694   115885016.23048      2537.383    22052181.817    90300030.66849
      1977.179  
  20724851.013   108909849.93748     -2122.848    20724850.662    84864834.41047
     -1654.172  
  20694444.033   108750070.77248     -1749.300    20694444.483    84740335.75248
     -1363.093  
  20436044.504   107392166.39649       510.754    20436046.351    83682229.72349
       397.987  
 20 10 03 08 42 50.0000000  0  9G11G12G15G21G24G32G20G23G10
  24024796.510   126251155.63246       847.316    24024796.572    98377528.45544
       660.241  
  23995348.803   126096422.85047      3224.027    23995349.934    98256941.08545
      2512.229  
  24230239.850   127330769.04147     -3466.668    24230240.715    99218783.94046
     -2701.305  
  23195168.512   121891462.16648       612.676    23195167.535    94980342.73946
       477.405  
  21025451.162   110489525.84948     -1777.374    21025453.591    86095761.18749
     -1384.972  
  22049766.188   115872333.11048      2536.183    22049768.278    90290147.72149
      1976.242  
  20726872.315   108920471.66748     -2125.566    20726871.985    84873111.07947
     -1656.288  
  20696109.857   108758824.54748     -1751.848    20696110.225    84747156.87548
     -1365.078  
  20435560.009   107389620.20049       507.987    20435561.826    83680245.67549
       395.831  
 20 10 03 08 42 55.0000000  0  9G11G12G15G21G24G32G20G23G10
  24023991.967   126246927.31946       843.854    24023991.961    98374233.64844
       657.547  
  23992281.814   126080305.12246      3222.968    23992282.789    98244381.82745
      2511.402  
  24233538.599   127348104.80247     -3467.272    24233539.786    99232292.30346
     -2701.777  
  23194586.783   121888405.22648       609.972    23194585.826    94977960.70546
       475.300  
  21027143.633   110498419.18848     -1780.214    21027145.983    86102691.06249
     -1387.184  
  22047353.659   115859655.56048      2534.848    22047355.958    90280269.11449
      1975.202  
  20728895.896   108931105.62648     -2128.171    20728895.521    84881397.27647
     -1658.320  
  20697777.969   108767590.50248     -1754.409    20697778.429    84753987.48648
     -1367.073  
  20435077.984   107387087.26549       505.218    20435079.756    83678271.95949
       393.672  
 20 10 03 08 43  0.0000000  0  9G11G12G15G21G24G32G20G23G10
  24023190.577   126242716.39346       840.828    24023190.733    98370952.44145
       655.187  
  23989215.978   126064194.26347      3221.878    23989216.854    98231827.93045
      2510.550  
  24236837.930   127365442.84247     -3467.371    24236839.114    99245802.46946
     -2701.852  
  23194007.733   121885362.48548       607.328    23194006.827    94975589.73646
       473.237  
  21028838.777   110507327.60748     -1782.820    21028841.053    86109632.68249
     -1389.215  
  22044942.439   115846984.82648      2533.780    22044944.630    90270395.81349
      1974.371  
  20730922.148   108941753.05848     -2130.507    20730921.507    84889693.97547
     -1660.141  
  20699448.573   108776369.93048     -1756.941    20699449.066    84760828.59148
     -1369.047  
  20434598.624   107384568.83749       502.550    20434600.612    83676309.54149
       391.594  
 20 10 03 08 43  5.0000000  0  9G11G12G15G21G24G32G20G23G10
  24022392.279   126238521.49946       837.156    24022392.327    98367683.66345
       652.323  
  23986151.115   126048088.92647      3220.535    23986152.230    98219278.33645
      2509.507  
  24240137.436   127382781.77247     -3468.058    24240138.652    99259313.31046
     -2702.387  
  23193431.162   121882332.58448       604.660    23193430.256    94973228.77846
       471.159  
  21030536.767   110516250.03748     -1785.855    21030539.058    86116585.23149
     -1391.577  
  22042532.383   115834319.58348      2532.440    22042534.523    90260526.79949
      1973.328  
  20732950.486   108952412.60848     -2133.191    20732950.164    84898000.11347
     -1662.229  
  20701121.650   108785161.44848     -1759.738    20701122.150    84767679.12348
     -1371.226  
  20434121.949   107382063.58049       499.605    20434123.910    83674357.39849
       389.301  
 20 10 03 08 43 10.0000000  0  9G11G12G15G21G24G32G20G23G10
  24021597.202   126234343.90246       833.772    24021597.393    98364428.41744
       649.695  
  23983087.774   126031990.52146      3218.961    23983088.870    98206734.10846
      2508.276  
  24243437.318   127400122.92547     -3468.296    24243438.415    99272825.91046
     -2702.570  
  23192857.227   121879316.91048       601.820    23192856.324    94970878.90346
       468.948  
  21032237.416   110525187.51048     -1788.883    21032239.742    86123549.49649
     -1393.938  
  22040123.635   115821661.18448      2531.007    22040125.872    90250663.11949
      1972.211  
  20734981.477   108963085.63348     -2135.784    20734981.005    84906316.75347
     -1664.250  
  20702797.182   108793966.43048     -1762.328    20702797.675    84774540.14948
     -1373.245  
  20433647.923   107379572.83649       496.733    20433649.899    83672416.56049
       387.062  
 20 10 03 08 43 15.0000000  0  9G11G12G15G21G24G32G20G23G10
  24020805.417   126230182.79146       830.687    24020805.436    98361185.95544
       647.281  
  23980025.563   126015898.05847      3217.464    23980026.408    98194194.55645
      2507.113  
  24246737.587   127417465.30047     -3468.644    24246738.656    99286339.43846
     -2702.897  
  23192285.946   121876314.43248       599.004    23192285.132    94968539.31146
       466.753  
  21033940.919   110534139.13548     -1791.746    21033943.118    86130524.78849
     -1396.167  
  22037715.861   115809008.59148      2530.015    22037717.951    90240803.95849
      1971.437  
  20737014.961   108973771.10348     -2138.425    20737014.535    84914643.09447
     -1666.308  
  20704475.012   108802783.82748     -1764.722    20704475.394    84781410.84548
     -1375.113  
  20433176.558   107377095.61149       494.133    20433178.574    83670486.25249
       385.035  
 20 10 03 08 43 20.0000000  0  9G11G12G15G21G24G32G20G23G10
  24020017.050   126226039.05456       826.969    24020017.213    98357957.09254
       644.386  
  23976964.485   125999812.45147      3216.237    23976965.465    98181660.35145
      2506.164  
  24250038.077   127434809.99247     -3469.031    24250039.133    99299854.77946
     -2703.211  
  23191717.347   121873326.20448       596.199    23191716.362    94966210.82546
       464.565  
  21035647.072   110543105.84148     -1794.960    21035649.418    86137511.83149
     -1398.676  
  22035309.398   115796362.88448      2528.515    22035311.744    90230950.16349
      1970.269  
  20739050.908   108984470.07348     -2141.121    20739050.290    84922979.95147
     -1668.410  
  20706155.487   108811614.69148     -1767.507    20706156.048    84788292.03048
     -1377.281  
  20432707.866   107374632.96449       491.129    20432709.933    83668567.30749
       382.695  
 20 10 03 08 43 25.0000000  0  9G11G12G15G21G24G32G20G23G10
  24019231.522   126221911.45047       823.792    24019231.605    98354740.81644
       641.918  
  23973904.523   125983732.65346      3215.793    23973905.520    98169130.60546
      2505.808  
  24253338.890   127452155.69147     -3469.210    24253339.849    99313370.90945
     -2703.343  
  23191151.214   121870351.02948       593.679    23191150.296    94963892.50446
       462.604  
  21037356.105   110552086.21448     -1797.394    21037358.410    86144509.52549
     -1400.569  
  22032904.089   115783722.83848      2527.522    22032906.278    90221100.77849
      1969.496  
  20741089.127   108995181.29948     -2143.452    20741088.697    84931326.35647
     -1670.226  
  20707838.267   108820457.79048     -1769.734    20707838.651    84795182.75748
     -1379.016  
  20432241.852   107372183.63649       488.625    20432243.734    83666658.73849
       380.742  
 20 10 03 08 43 30.0000000  0  9G11G12G15G21G24G32G20G23G10
  24018449.186   126217800.90456       820.472    24018449.345    98351537.75054
       639.320  
  23970845.935   125967659.44346      3214.070    23970846.911    98156606.05045
      2504.468  
  24256640.098   127469503.15947     -3469.465    24256641.098    99326888.40846
     -2703.479  
  23190587.554   121867389.66248       590.934    23190586.636    94961584.94246
       460.465  
  21039067.789   110561081.17748     -1800.468    21039070.079    86151518.58549
     -1402.965  
  22030500.112   115771089.22748      2525.965    22030502.267    90211256.41049
      1968.280  
  20743129.835   109005905.57448     -2146.163    20743129.313    84939682.93447
     -1672.339  
  20709523.507   108829313.91248     -1772.479    20709523.944    84802083.62648
     -1381.155  
  20431778.473   107369748.43749       485.667    20431780.469    83664761.18049
       378.438  
 20 10 03 08 43 35.0000000  0  9G11G12G15G21G24G32G20G23G10
  24017670.150   126213706.98046       817.374    24017670.259    98348347.71044
       636.917  
  23967788.483   125951592.52147      3212.749    23967789.364    98144086.40745
      2503.441  
  24259941.571   127486852.10947     -3469.319    24259942.588    99340407.05145
     -2703.374  
  23190026.586   121864441.88348       588.351    23190025.687    94959287.97846
       458.453  
  21040782.161   110570090.54448     -1802.999    21040784.436    86158538.87049
     -1404.938  
  22028097.081   115758461.78048      2525.030    22028099.222    90201416.84249
      1967.554  
  20745173.027   109016642.58948     -2148.312    20745172.621    84948049.43547
     -1674.012  
  20711211.241   108838182.76548     -1774.601    20711211.668    84808994.41748
     -1382.809  
  20431317.781   107367327.10949       483.160    20431319.644    83662874.43149
       376.484  
 20 10 03 08 43 40.0000000  0  9G11G12G15G21G24G32G20G23G10
  24016894.365   126209629.32546       813.871    24016894.496    98345170.27844
       634.179  
  23964732.177   125935531.30647      3211.343    23964733.033    98131571.18045
      2502.348  
  24263243.213   127504202.04447     -3470.098    24263244.029    99353926.49546
     -2703.976  
  23189468.271   121861507.04048       585.374    23189467.477    94957001.08046
       456.132  
  21042499.193   110579113.76548     -1806.262    21042501.476    86165569.95549
     -1407.479  
  22025695.187   115745839.92848      2523.581    22025697.411    90191581.63849
      1966.425  
  20747218.496   109027391.75848     -2151.270    20747218.104    84956425.41147
     -1676.316  
  20712901.236   108847063.80748     -1777.655    20712901.599    84815914.71348
     -1385.191  
  20430859.558   107364919.09749       479.987    20430861.506    83660998.05849
       374.011  
 20 10 03 08 43 45.0000000  0  9G11G12G15G21G24G32G20G23G10
  24016121.574   126205568.84446       810.633    24016121.881    98342006.29945
       631.659  
  23961677.205   125919477.06746      3209.843    23961677.910    98119061.36945
      2501.171  
  24266545.059   127521553.98647     -3470.394    24266545.990    99367447.47645
     -2704.206  
  23188912.407   121858586.27248       582.660    23188911.629    94954725.16146
       454.019  
  21044219.083   110588151.78148     -1809.266    21044221.459    86172612.56149
     -1409.819  
  22023294.619   115733224.79548      2522.375    22023296.824    90181751.66749
      1965.484  
  20749266.634   109038154.20248     -2153.827    20749266.060    84964811.73047
     -1678.312  
  20714593.900   108855958.09848     -1780.273    20714594.223    84822845.32348
     -1387.229  
  20430403.987   107362525.46549       477.242    20430405.815    83659132.89149
       371.875  
 20 10 03 08 43 50.0000000  0  9G11G12G15G21G24G32G20G23G10
  24015352.185   126201525.30146       807.167    24015352.350    98338855.51144
       628.960  
  23958623.373   125903429.32147      3209.000    23958624.120    98106556.67145
      2500.519  
  24269847.392   127538907.70547     -3471.065    24269848.238    99380969.84746
     -2704.730  
  23188359.239   121855679.32148       580.008    23188358.263    94952459.99946
       451.948  
  21045941.817   110597204.34148     -1811.944    21045944.120    86179666.50749
     -1411.910  
  22020895.385   115720616.07948      2521.229    22020897.458    90171926.69549
      1964.594  
  20751317.040   109048929.62648     -2156.391    20751316.677    84973208.16047
     -1680.308  
  20716288.830   108864865.36248     -1782.706    20716289.294    84829786.04248
     -1389.125  
  20429951.081   107360145.95649       474.550    20429953.055    83657278.72749
       369.777  
 20 10 03 08 43 55.0000000  0  9G11G12G15G21G24G32G20G23G10
  24014585.683   126197497.71546       803.562    24014585.971    98335717.09844
       626.148  
  23955570.695   125887387.14347      3207.366    23955571.402    98094056.27045
      2499.241  
  24273149.978   127556262.06947     -3471.172    24273150.703    99394492.73045
     -2704.813  
  23187808.539   121852785.06048       577.332    23187807.579    94950204.72846
       449.866  
  21047667.040   110606270.35948     -1814.750    21047669.234    86186730.93549
     -1414.094  
  22018496.910   115708012.72748      2520.116    22018499.067    90162105.90649
      1963.722  
  20753369.709   109059716.94648     -2158.918    20753369.251    84981613.86047
     -1682.277  
  20717986.065   108873784.51748     -1785.085    20717986.545    84836736.02948
     -1390.980  
  20429500.855   107357779.50349       471.813    20429502.726    83655434.73649
       367.644  
