     2.11           OBSERVATION DATA    G                   RINEX VERSION / TYPE
LEICA GEO OFFICE 8.4                    4-10-20 09:12       PGM / RUN BY / DATE
                                                            OBSERVER / AGENCY
mxbr                                                        MARKER NAME
mxbr                                                        MARKER NUMBER
457569              LEICA GX1220        2.14                REC # / TYPE / VERS
                    LEIAX1202                               ANT # / TYPE
 -1232071.3288  3822163.4894  4939711.7410                  APPROX POSITION XYZ
        1.2230        0.0000        0.0000                  ANTENNA: DELTA H/E/N
L1PhaOff:   0.0648  L2PhaOff:   0.0622                      COMMENT
     1     1                                                WAVELENGTH FACT L1/2
     6    C1    L1    D1    P2    L2    D2                  # / TYPES OF OBSERV
  2020    10     3     4    17    5.0000000     GPS         TIME OF FIRST OBS
  2020    10     3     8    16   20.0000000     GPS         TIME OF LAST OBS
    18                                                      LEAP SECONDS
    16                                                      # OF SATELLITES
          C1    L1    D1    P2    L2    D2                  COMMENT
   G 1     0     0     0     0     0     0                  PRN / # OF OBS
   G 2   558   558   558   558   558   558                  PRN / # OF OBS
   G 3     0     0     0     0     0     0                  PRN / # OF OBS
   G 4     0     0     0     0     0     0                  PRN / # OF OBS
   G 5  1498  1498  1498  1498  1498  1498                  PRN / # OF OBS
   G 6     0     0     0     0     0     0                  PRN / # OF OBS
   G 7   469   469   469   468   468   468                  PRN / # OF OBS
   G 8   543   543   543   541   541   541                  PRN / # OF OBS
   G 9     0     0     0     0     0     0                  PRN / # OF OBS
   G10  1730  1730  1730  1729  1729  1729                  PRN / # OF OBS
   G11     0     0     0     0     0     0                  PRN / # OF OBS
   G12     0     0     0     0     0     0                  PRN / # OF OBS
   G13  2422  2422  2422  2422  2422  2422                  PRN / # OF OBS
   G14     0     0     0     0     0     0                  PRN / # OF OBS
   G15  2872  2872  2872  2872  2872  2872                  PRN / # OF OBS
   G16     0     0     0     0     0     0                  PRN / # OF OBS
   G17     0     0     0     0     0     0                  PRN / # OF OBS
   G18  2872  2872  2872  2872  2872  2872                  PRN / # OF OBS
   G19     0     0     0     0     0     0                  PRN / # OF OBS
   G20  2714  2714  2714  2714  2714  2714                  PRN / # OF OBS
   G21   801   801   801   800   800   800                  PRN / # OF OBS
   G22     0     0     0     0     0     0                  PRN / # OF OBS
   G23  2610  2610  2610  2609  2609  2609                  PRN / # OF OBS
   G24  1910  1910  1910  1910  1910  1910                  PRN / # OF OBS
   G25     0     0     0     0     0     0                  PRN / # OF OBS
   G26     0     0     0     0     0     0                  PRN / # OF OBS
   G27  1567  1567  1567  1567  1567  1567                  PRN / # OF OBS
   G28     0     0     0     0     0     0                  PRN / # OF OBS
   G29  1213  1213  1213  1213  1213  1213                  PRN / # OF OBS
   G30  1261  1261  1261  1261  1261  1261                  PRN / # OF OBS
   G31     0     0     0     0     0     0                  PRN / # OF OBS
   G32   604   604   604   604   604   604                  PRN / # OF OBS
                                                            END OF HEADER
 20 10 03 04 17  5.0000000  0  8G13G 2G29G15G 5G18G 7G30
  20958634.157   110138366.08749      1839.702    20958633.901    85822103.88147
      1433.531  
  23102396.203   121403911.11448     -2778.065    23102394.961    94600445.08746
     -2164.730  
  21360722.935   112251356.03448     -1492.191    21360723.300    87468590.00349
     -1162.749  
  22057984.991   115915494.17848      3376.113    22057985.866    90323765.15349
      2630.734  
  20784034.360   109220837.20949     -1838.168    20784033.990    85107144.46649
     -1432.343  
  22504923.442   118264170.81248      3001.437    22504923.878    92153900.12946
      2338.777  
  24648604.918   129529293.84747      -299.101    24648605.059   100931940.36945
      -233.070  
  24025102.093   126252764.35547      1197.933    24025104.892    98378792.53745
       933.452  
 20 10 03 04 17 10.0000000  0  8G13G 2G29G15G 5G18G 7G30
  20956884.960   110129174.49649      1836.647    20956884.846    85814941.60447
      1431.151  
  23105039.954   121417804.11548     -2778.937    23105038.550    94611270.79946
     -2165.409  
  21362144.035   112258824.52448     -1495.402    21362144.367    87474409.60149
     -1165.249  
  22054773.588   115898618.45748      3374.496    22054774.493    90310615.24349
      2629.473  
  20785784.126   109230032.75949     -1840.077    20785783.761    85114309.82749
     -1433.832  
  22502068.259   118249166.10048      3000.253    22502068.591    92142208.14347
      2337.854  
  24648891.039   129530796.04545      -302.019    24648890.874   100933110.92144
      -235.339  
  24023963.563   126246781.08645      1195.156    24023966.289    98374130.27544
       931.288  
 20 10 03 04 17 15.0000000  0  8G13G 2G29G15G 5G18G 7G30
  20955138.823   110119998.23449      1833.519    20955138.728    85807791.26447
      1428.715  
  23107684.866   121431703.84748     -2780.805    23107683.609    94622101.74946
     -2166.863  
  21363568.366   112266309.12248     -1498.620    21363568.602    87480241.75849
     -1167.762  
  22051563.914   115881751.94148      3372.117    22051564.841    90297472.50349
      2627.620  
  20787535.771   109239237.46749     -1841.944    20787535.461    85121482.34049
     -1435.284  
  22499213.856   118234166.79848      2999.226    22499214.230    92130520.38847
      2337.054  
  24649179.486   129532311.97247      -304.655    24649180.105   100934292.17845
      -237.395  
  24022827.740   126240809.04857      1192.641    24022829.579    98369471.29155
       929.327  
 20 10 03 04 17 20.0000000  0  8G13G 2G29G15G 5G18G 7G30
  20953395.357   110110836.91449      1830.797    20953395.289    85800652.57847
      1426.590  
  23110331.081   121445609.77148     -2781.547    23110329.895    94632937.53646
     -2167.441  
  21364995.582   112273809.56848     -1501.741    21364996.025    87486086.25649
     -1170.191  
  22048356.140   115864894.13148      3370.777    22048356.886    90284336.55649
      2626.551  
  20789288.951   109248450.92849     -1843.656    20789288.629    85128661.64849
     -1436.616  
  22496360.551   118219172.54747      2998.473    22496360.919    92118836.55746
      2336.469  
  24649470.636   129533841.84847      -307.676    24649470.993   100935484.28645
      -239.750  
  24021694.167   126234851.86047      1190.206    24021696.800    98364829.34545
       927.430  
 20 10 03 04 17 25.0000000  0  8G13G 2G29G15G 5G18G 7G30
  20951655.301   110101692.26649      1827.223    20951655.054    85793526.88747
      1423.808  
  23112978.825   121459523.75948     -2783.761    23112977.652    94643779.59247
     -2169.167  
  21366426.199   112281327.45048     -1505.313    21366426.615    87491944.34649
     -1172.973  
  22045150.070   115848046.90548      3368.187    22045150.891    90271208.85749
      2624.559  
  20791044.228   109257674.75449     -1845.902    20791044.011    85135849.04749
     -1438.366  
  22493508.589   118204185.07448      2996.737    22493509.028    92107158.00846
      2335.116  
  24649764.860   129535387.12947      -310.944    24649764.981   100936688.39745
      -242.296  
  24020563.184   126228909.25847      1187.042    24020565.481    98360198.75246
       924.965  
 20 10 03 04 17 30.0000000  0  8G13G 2G29G15G 5G18G 7G30
  20949918.107   110092563.43349      1824.159    20949918.002    85786413.51247
      1421.421  
  23115627.897   121473444.85248     -2785.000    23115626.855    94654627.19846
     -2170.132  
  21367859.875   112288861.87448     -1508.555    21367860.398    87497815.32249
     -1175.499  
  22041946.076   115831209.30148      3366.582    22041946.836    90258088.66149
      2623.324  
  20792801.402   109266908.14049     -1847.745    20792800.867    85143043.89049
     -1439.805  
  22490657.623   118189203.51848      2995.640    22490658.116    92095484.06147
      2334.261  
  24650061.459   129536946.95747      -313.272    24650061.501   100937903.85045
      -244.112  
  24019434.973   126222980.40747      1184.344    24019437.107    98355578.87445
       922.862  
 20 10 03 04 17 35.0000000  0  8G13G 2G29G15G 5G18G 7G30
  20948183.757   110083449.61449      1821.148    20948183.617    85779311.84047
      1419.074  
  23118278.327   121487372.20448     -2786.246    23118277.037    94665479.66046
     -2171.104  
  21369296.777   112296412.03348     -1511.651    21369297.092    87503698.56049
     -1177.913  
  22038743.612   115814380.55048      3364.789    22038744.499    90244975.34449
      2621.910  
  20794560.093   109276150.24849     -1849.394    20794559.651    85150245.53849
     -1441.090  
  22487807.740   118174227.06748      2994.762    22487808.175    92083814.12646
      2333.582  
  24650360.949   129538520.54047      -316.015    24650361.158   100939130.02045
      -246.249  
  24018309.332   126217064.46447      1181.784    24018311.745    98350969.05146
       920.867  
 20 10 03 04 17 40.0000000  0  8G13G 2G29G15G 5G18G 7G30
  20946452.670   110074352.31549      1817.683    20946452.665    85772223.03947
      1416.375  
  23120930.086   121501307.29248     -2787.711    23120928.905    94676338.17546
     -2172.245  
  21370736.742   112303979.41448     -1515.012    21370737.199    87509595.21549
     -1180.531  
  22035543.244   115797562.15848      3362.729    22035544.121    90231870.11349
      2620.304  
  20796320.698   109285402.57349     -1851.543    20796320.416    85157455.13849
     -1442.766  
  22484959.035   118159257.20648      2993.520    22484959.465    92072149.29146
      2332.609  
  24650663.216   129540109.37047      -319.289    24650663.349   100940368.06545
      -248.801  
  24017186.215   126211162.91347      1178.707    24017188.789    98346370.45045
       918.469  
 20 10 03 04 17 45.0000000  0  8G13G 2G29G15G 5G18G 7G30
  20944724.423   110065270.25249      1814.667    20944724.392    85765146.11147
      1414.023  
  23123582.965   121515248.86048     -2789.090    23123581.779    94687201.72346
     -2173.319  
  21372179.725   112311562.71248     -1518.473    21372180.237    87515504.27749
     -1183.230  
  22032344.393   115780752.83648      3360.617    22032345.199    90218771.94049
      2618.659  
  20798083.008   109294663.82149     -1853.453    20798082.636    85164671.69649
     -1444.254  
  22482111.308   118144292.70747      2992.038    22482111.749    92060488.65046
      2331.456  
  24650968.240   129541712.15747      -322.262    24650968.107   100941617.00045
      -251.117  
  24016065.791   126205274.48747      1176.202    24016068.228    98341782.06545
       916.519  
 20 10 03 04 17 50.0000000  0  8G13G 2G29G15G 5G18G 7G30
  20942999.219   110056204.71549      1811.683    20942999.301    85758082.05747
      1411.699  
  23126237.581   121529198.21048     -2790.542    23126236.365    94698071.33646
     -2174.453  
  21373626.152   112319163.21148     -1521.652    21373626.456    87521426.74149
     -1185.707  
  22029147.632   115763953.80748      3359.086    22029148.482    90205681.79349
      2617.465  
  20799847.415   109303935.21949     -1855.168    20799847.038    85171896.15849
     -1445.589  
  22479264.870   118129334.79047      2991.319    22479265.467    92048833.13146
      2330.895  
  24651276.061   129543330.17347      -325.159    24651276.120   100942877.79246
      -253.374  
  24014947.950   126199400.50547      1173.660    24014950.098    98337204.94755
       914.539  
 20 10 03 04 17 55.0000000  0  8G13G 2G29G15G 5G18G 7G30
  20941276.894   110047153.24249      1808.602    20941276.642    85751028.96247
      1409.297  
  23128892.953   121543152.81548     -2791.582    23128891.949    94708945.04346
     -2175.262  
  21375075.251   112326778.43248     -1524.519    21375075.599    87527360.67649
     -1187.940  
  22025952.404   115747162.73648      3357.164    22025953.219    90192597.85149
      2615.969  
  20801613.130   109313214.30449     -1856.812    20801612.682    85179126.61449
     -1446.870  
  22476419.398   118114381.05048      2990.226    22476419.682    92037180.86746
      2330.042  
  24651586.295   129544960.96447      -327.527    24651586.562   100944148.53045
      -255.219  
  24013832.401   126193538.47047      1170.902    24013834.805    98332637.13546
       912.386  
 20 10 03 04 18  0.0000000  0  8G13G 2G29G15G 5G18G 7G30
  20939557.590   110038118.61249      1805.351    20939557.387    85743988.99547
      1406.766  
  23131550.032   121557115.45448     -2793.109    23131548.957    94719825.01646
     -2176.453  
  21376527.766   112334411.13548     -1528.233    21376528.176    87533308.23449
     -1190.836  
  22022759.254   115730382.33948      3355.085    22022760.155    90179522.22349
      2614.347  
  20803380.769   109322503.87049     -1858.945    20803380.512    85186365.23749
     -1448.530  
  22473575.059   118099434.25848      2988.863    22473575.571    92025534.02247
      2328.979  
  24651899.723   129546607.31647      -330.648    24651900.027   100945431.40045
      -257.651  
  24012719.744   126187691.19947      1167.945    24012721.925    98328080.82656
       910.085  
 20 10 03 04 18  5.0000000  0  8G13G 2G29G15G 5G18G 7G30
  20937841.139   110029098.97449      1802.480    20937841.100    85736960.71247
      1404.526  
  23134208.280   121571084.32848     -2794.269    23134206.961    94730709.84746
     -2177.354  
  21377983.135   112342059.49748     -1531.202    21377983.427    87539267.99449
     -1193.147  
  22019567.633   115713610.82348      3353.434    22019568.559    90166453.51549
      2613.062  
  20805150.315   109331802.08649     -1860.417    20805149.827    85193610.59949
     -1449.679  
  22470731.678   118084492.56848      2987.948    22470732.248    92013891.15046
      2328.270  
  24652215.646   129548267.38047      -333.168    24652215.608   100946724.96145
      -259.613  
  24011609.396   126181856.81647      1165.859    24011611.700    98323534.55045
       908.457  
 20 10 03 04 18 10.0000000  0  8G13G 2G29G15G 5G18G 7G30
  20936127.922   110020095.05249      1799.020    20936127.717    85729944.66547
      1401.832  
  23136867.837   121585060.11547     -2796.019    23136866.684    94741600.06246
     -2178.718  
  21379441.755   112349724.18948     -1534.710    21379442.105    87545240.47649
     -1195.882  
  22016377.921   115696848.89648      3351.237    22016378.901    90153392.27649
      2611.352  
  20806921.384   109341109.61549     -1862.660    20806921.068    85200863.22349
     -1451.426  
  22467889.448   118069556.70348      2986.309    22467889.879    92002252.81546
      2326.992  
  24652534.122   129549941.82647      -336.511    24652534.405   100948029.72746
      -262.219  
  24010501.780   126176036.03647      1162.874    24010503.981    98318998.90445
       906.132  
 20 10 03 04 18 15.0000000  0  8G13G 2G29G15G 5G18G 7G30
  20934417.557   110011107.62049      1796.022    20934417.513    85722941.47647
      1399.496  
  23139528.724   121599043.57948     -2797.179    23139527.633    94752496.26446
     -2179.624  
  21380903.415   112357405.98348     -1537.718    21380903.948    87551226.28949
     -1198.227  
  22013190.330   115680097.30748      3349.511    22013191.205    90140339.09849
      2610.007  
  20808694.552   109350427.26849     -1864.390    20808694.035    85208123.72849
     -1452.772  
  22465048.517   118054627.44848      2985.378    22465048.967    91990619.62946
      2326.266  
  24652855.724   129551631.41847      -339.238    24652856.074   100949346.28545
      -264.343  
  24009396.722   126170229.72947      1159.909    24009399.215    98314474.51146
       903.823  
 20 10 03 04 18 20.0000000  0  8G13G 2G29G15G 5G18G 7G30
  20932710.256   110002135.38249      1792.926    20932710.222    85715950.12547
      1397.082  
  23142190.955   121613033.38348     -2798.577    23142189.763    94763397.40046
     -2180.715  
  21382368.288   112365103.59948     -1540.977    21382368.716    87557224.42849
     -1200.765  
  22010004.257   115663354.81648      3347.664    22010005.232    90127293.00949
      2608.566  
  20810469.232   109359753.71549     -1866.229    20810468.937    85215391.08949
     -1454.206  
  22462208.565   118039703.52548      2984.160    22462209.054    91978990.59546
      2325.316  
  24653179.764   129553334.85447      -341.765    24653180.153   100950673.64645
      -266.312  
  24008294.366   126164436.49447      1157.453    24008296.685    98309960.30445
       901.910  
 20 10 03 04 18 25.0000000  0  8G13G 2G29G15G 5G18G 7G30
  20931005.585   109993177.74049      1789.844    20931005.640    85708970.14647
      1394.680  
  23144854.127   121627028.94648     -2799.746    23144853.082    94774303.02646
     -2181.624  
  21383836.034   112372816.40848     -1544.219    21383836.429    87563234.40449
     -1203.288  
  22006819.898   115646620.76948      3345.925    22006820.727    90114253.49449
      2607.210  
  20812245.637   109369088.25349     -1867.843    20812245.087    85222664.75549
     -1455.465  
  22459369.568   118024784.27848      2982.929    22459370.073    91967365.22646
      2324.359  
  24653506.502   129555051.55947      -345.034    24653506.931   100952011.33946
      -268.862  
  24007194.243   126158655.74747      1154.862    24007196.494    98305455.83245
       899.891  
 20 10 03 04 18 30.0000000  0  8G13G 2G29G15G 5G18G 7G30
  20929304.179   109984236.45149      1786.578    20929303.979    85702002.91147
      1392.136  
  23147518.853   121641031.98748     -2801.288    23147517.702    94785214.48046
     -2182.824  
  21385307.008   112380546.11648     -1547.698    21385307.304    87569257.54849
     -1206.003  
  22003637.423   115629896.94148      3343.816    22003638.182    90101221.94249
      2605.565  
  20814023.726   109378432.70349     -1869.949    20814023.414    85229946.14349
     -1457.104  
  22456531.709   118009871.47348      2981.918    22456532.136    91955744.84946
      2323.569  
  24653836.064   129556783.23247      -347.824    24653836.394   100953360.68446
      -271.034  
  24006097.018   126152889.26147      1151.956    24006099.262    98300962.47345
       897.625  
 20 10 03 04 18 35.0000000  0  8G13G 2G29G15G 5G18G 7G30
  20927605.811   109975311.55749      1783.410    20927605.735    85695048.44647
      1389.668  
  23150185.083   121655042.55848     -2802.809    23150183.761    94796131.79646
     -2184.012  
  21386781.029   112388292.83648     -1550.933    21386781.356    87575293.95149
     -1208.522  
  22000457.066   115613183.39248      3341.809    22000457.831    90088198.40349
      2603.995  
  20815803.925   109387787.11849     -1871.788    20815803.454    85237235.29749
     -1458.538  
  22453695.210   117994965.19948      2980.507    22453695.630    91944129.58046
      2322.469  
  24654168.282   129558529.92747      -350.750    24654168.704   100954721.75445
      -273.316  
  24005002.387   126147137.05947      1149.354    24005004.762    98296480.24345
       895.598  
 20 10 03 04 18 40.0000000  0  8G13G 2G29G15G 5G18G 7G30
  20925910.295   109966401.59249      1780.473    20925910.158    85688105.62647
      1387.379  
  23152852.482   121669059.21348     -2804.027    23152851.025    94807053.85946
     -2184.961  
  21388258.300   112396055.06948     -1554.074    21388258.574    87581342.44149
     -1210.968  
  21997278.213   115596478.69148      3340.112    21997278.950    90075181.76249
      2602.684  
  20817585.651   109397150.02849     -1873.503    20817585.211    85244531.07449
     -1459.875  
  22450859.450   117980063.96148      2979.754    22450860.125    91932518.22246
      2321.883  
  24654503.404   129560290.22347      -353.440    24654503.807   100956093.41046
      -275.409  
  24003910.058   126141397.73847      1146.183    24003912.674    98292008.04245
       893.124  
 20 10 03 04 18 45.0000000  0  8G13G 2G29G15G 5G18G 7G30
  20924217.835   109957507.43949      1777.210    20924217.779    85681175.11347
      1384.835  
  23155521.014   121683082.75148     -2805.449    23155519.790    94817981.28646
     -2186.065  
  21389738.410   112403833.59948     -1557.323    21389738.725    87587403.63049
     -1213.503  
  21994101.280   115579783.69948      3337.948    21994101.992    90062172.68049
      2600.996  
  20819369.083   109406522.34049     -1875.473    20819368.664    85251834.17449
     -1461.410  
  22448025.022   117965168.66048      2978.418    22448025.553    91920911.50146
      2320.843  
  24654840.992   129562064.94846      -356.515    24654841.429   100957476.29444
      -277.813  
  24002820.646   126135672.09347      1143.816    24002823.100    98287546.51355
       891.281  
 20 10 03 04 18 50.0000000  0  8G13G 2G29G15G 5G18G 7G30
  20922528.417   109948629.39049      1774.085    20922528.328    85674257.16047
      1382.401  
  23158191.069   121697113.48548     -2806.785    23158189.740    94828914.31646
     -2187.108  
  21391221.765   112411628.71648     -1560.648    21391222.047    87593477.74549
     -1216.093  
  21990926.266   115563098.70048      3335.983    21990927.011    90049171.38349
      2599.526  
  20821154.424   109415904.30549     -1877.406    20821153.846    85259144.78849
     -1462.918  
  22445191.727   117950279.59248      2977.148    22445192.229    91909309.63546
      2319.851  
  24655181.614   129563854.33746      -359.043    24655181.924   100958870.62344
      -279.777  
  24001733.701   126129960.49947      1141.313    24001736.073    98283095.91246
       889.331  
 20 10 03 04 18 55.0000000  0  8G13G 2G29G15G 5G18G 7G30
  20920841.842   109939766.44449      1771.055    20920841.574    85667350.96447
      1380.038  
  23160862.268   121711150.44948     -2808.124    23160860.922    94839852.20546
     -2188.151  
  21392708.148   112419439.43048     -1563.645    21392708.551    87599564.01249
     -1218.426  
  21987752.913   115546422.71348      3334.308    21987753.733    90036177.11949
      2598.160  
  20822941.289   109425294.81549     -1878.933    20822940.963    85266462.07949
     -1464.104  
  22442359.388   117935395.74148      2976.116    22442359.872    91897711.82846
      2319.050  
  24655524.744   129565657.46146      -362.059    24655525.144   100960275.68044
      -282.124  
  24000649.213   126124261.91247      1138.336    24000651.787    98278655.47346
       887.012  
 20 10 03 04 19  0.0000000  0  8G13G 2G29G15G 5G18G 7G30
  20919158.332   109930919.16449      1767.847    20919157.979    85660456.98747
      1377.539  
  23163534.775   121725194.10448     -2809.476    23163533.276    94850795.29946
     -2189.206  
  21394197.581   112427266.20648     -1566.996    21394197.738    87605662.79349
     -1221.039  
  21984581.483   115529756.26748      3332.187    21984582.169    90023190.28349
      2596.508  
  20824730.037   109434694.43449     -1880.938    20824729.551    85273786.45349
     -1465.668  
  22439528.201   117920517.62448      2975.015    22439528.731    91886118.49646
      2318.191  
  24655870.535   129567474.85846      -365.164    24655870.892   100961691.83345
      -284.546  
  23999567.395   126118576.86247      1135.647    23999569.969    98274225.57846
       884.917  
 20 10 03 04 19  5.0000000  0  8G13G 2G29G15G 5G18G 7G30
  20917477.671   109922087.85449      1764.671    20917477.575    85653575.45047
      1375.066  
  23166208.460   121739244.78648     -2810.801    23166206.902    94861743.88146
     -2190.237  
  21395690.064   112435109.44248     -1570.230    21395690.332    87611774.40449
     -1223.559  
  21981411.775   115513099.68548      3330.390    21981412.565    90010211.12949
      2595.105  
  20826520.506   109444103.47949     -1882.719    20826520.094    85281118.17749
     -1467.058  
  22436698.155   117905645.66648      2973.683    22436698.554    91874529.95646
      2317.151  
  24656219.144   129569306.84047      -367.843    24656219.604   100963119.34645
      -286.632  
  23998488.265   126112905.71347      1133.073    23998490.846    98269806.49845
       882.909  
 20 10 03 04 19 10.0000000  0  8G13G 2G29G15G 5G18G 7G30
  20915800.234   109913272.74149      1761.648    20915800.077    85646706.53347
      1372.711  
  23168883.644   121753302.68948     -2812.343    23168882.226    94872698.07346
     -2191.440  
  21397185.769   112442969.33248     -1573.601    21397185.874    87617898.99349
     -1226.187  
  21978244.139   115496453.20548      3328.343    21978244.671    89997239.85049
      2593.512  
  20828312.869   109453522.12949     -1884.574    20828312.351    85288457.38749
     -1468.504  
  22433869.231   117890779.97748      2972.616    22433869.838    91862946.30847
      2316.319  
  24656570.608   129571153.60746      -370.609    24656571.072   100964558.39045
      -288.788  
  23997411.774   126107248.65047      1130.011    23997414.305    98265398.40246
       880.526  
 20 10 03 04 19 15.0000000  0  8G13G 2G29G15G 5G18G 7G30
  20914125.656   109904472.77149      1758.429    20914125.544    85639849.41347
      1370.202  
  23171559.949   121767366.73648     -2813.351    23171558.496    94883657.07746
     -2192.227  
  21398684.342   112450844.78948     -1576.737    21398684.591    87624035.70949
     -1228.629  
  21975078.047   115479815.78248      3326.281    21975078.737    89984275.63149
      2591.901  
  20830106.766   109462949.34049     -1886.367    20830106.318    85295803.26149
     -1469.897  
  22431041.479   117875919.56748      2971.773    22431041.866    91851366.76447
      2315.663  
  24656924.758   129573014.02447      -373.491    24656925.203   100966008.06345
      -291.035  
  23996337.749   126101604.67547      1127.211    23996340.271    98261000.50645
       878.344  
 20 10 03 04 19 20.0000000  0  8G13G 2G29G15G 5G18G 7G30
  20912454.133   109895688.60749      1755.374    20912453.921    85633004.61347
      1367.820  
  23174237.607   121781437.58348     -2814.683    23174236.009    94894621.35846
     -2193.261  
  21400186.158   112458736.44948     -1579.675    21400186.476    87630185.05149
     -1230.918  
  21971914.063   115463188.02448      3324.699    21971914.512    89971318.94049
      2590.671  
  20831902.374   109472385.75949     -1887.956    20831901.994    85303156.31649
     -1471.136  
  22428214.867   117861065.09448      2970.495    22428215.124    91839791.85546
      2314.668  
  24657281.365   129574888.82147      -376.187    24657281.729   100967468.94546
      -293.137  
  23995266.386   126095974.37647      1124.624    23995268.889    98256613.28045
       876.328  
 20 10 03 04 19 25.0000000  0  8G13G 2G29G15G 5G18G 7G30
  20910785.628   109886920.27749      1751.921    20910785.471    85626172.15247
      1365.128  
  23176916.594   121795515.31348     -2816.405    23176915.010    94905591.01046
     -2194.604  
  21401691.000   112466644.35548     -1583.233    21401691.300    87636347.05349
     -1233.690  
  21968751.768   115446570.02448      3322.468    21968752.236    89958369.85649
      2588.933  
  20833699.880   109481831.43449     -1890.214    20833699.378    85310516.58249
     -1472.897  
  22425389.199   117846216.57748      2968.878    22425389.607    91828221.58546
      2313.409  
  24657641.027   129576778.01347      -379.395    24657641.496   100968941.03545
      -295.637  
  23994197.492   126090357.85947      1121.805    23994200.064    98252236.77746
       874.128  
 20 10 03 04 19 30.0000000  0  8G13G 2G29G15G 5G18G 7G30
  20909120.185   109878168.25149      1748.601    20909119.955    85619352.39347
      1362.543  
  23179596.913   121809600.32948     -2817.789    23179595.229    94916566.34046
     -2195.684  
  21403198.894   112474568.92248     -1586.746    21403199.294    87642522.03849
     -1236.430  
  21965591.372   115429962.24948      3320.519    21965591.898    89945428.73649
      2587.413  
  20835499.117   109491286.80449     -1892.180    20835498.720    85317884.39949
     -1474.430  
  22422564.878   117831374.47948      2967.854    22422565.326    91816656.31446
      2312.613  
  24658003.367   129578682.06047      -382.257    24658003.658   100970424.71745
      -297.867  
  23993131.416   126084755.53047      1118.855    23993134.128    98247871.32455
       871.832  
 20 10 03 04 19 35.0000000  0  8G13G 2G29G15G 5G18G 7G30
  20907457.594   109869431.77549      1745.566    20907457.368    85612544.75347
      1360.179  
  23182278.356   121823691.81448     -2818.874    23182276.680    94927546.71646
     -2196.527  
  21404710.013   112482509.37648     -1589.612    21404710.213    87648709.40349
     -1238.664  
  21962432.716   115413363.89848      3318.729    21962433.284    89932494.96149
      2586.020  
  20837300.254   109500751.02949     -1893.578    20837299.771    85325259.12049
     -1475.520  
  22419741.668   117816538.03648      2966.679    22419742.022    91805095.45146
      2311.695  
  24658368.361   129580600.17747      -385.116    24658368.726   100971919.35945
      -300.093  
  23992067.851   126079166.61447      1116.539    23992070.602    98243516.33145
       870.026  
 20 10 03 04 19 40.0000000  0  8G13G 2G29G15G 5G18G 7G30
  20905798.039   109860710.97549      1742.520    20905797.961    85605749.32347
      1357.805  
  23184961.132   121837789.96448     -2820.477    23184959.542    94938532.27646
     -2197.776  
  21406224.000   112490465.86848     -1592.910    21406224.312    87654909.26149
     -1241.229  
  21959276.147   115396775.17548      3316.621    21959276.616    89919568.68349
      2584.375  
  20839102.891   109510224.32649     -1895.586    20839102.287    85332640.90649
     -1477.081  
  22416919.433   117801707.40248      2965.379    22416919.907    91793539.11247
      2310.684  
  24658736.017   129582532.47547      -387.929    24658736.512   100973425.03845
      -302.284  
  23991006.919   126073591.31947      1113.269    23991009.454    98239171.95046
       867.480  
 20 10 03 04 19 45.0000000  0  8G13G 2G29G15G 5G18G 7G30
  20904141.725   109852006.30149      1739.352    20904141.488    85598966.46647
      1355.335  
  23187645.433   121851895.18648     -2821.690    23187643.652    94949523.35046
     -2198.722  
  21407741.226   112498438.85048     -1596.222    21407741.344    87661121.97149
     -1243.812  
  21956121.279   115380196.51348      3314.929    21956121.903    89906650.25349
      2583.058  
  20840907.448   109519707.11949     -1897.425    20840907.002    85340030.09749
     -1478.515  
  22414098.532   117786883.03448      2964.319    22414098.795    91781987.66046
      2309.854  
  24659106.507   129584479.44147      -391.097    24659107.017   100974942.16145
      -304.754  
  23989948.647   126068030.03047      1110.866    23989951.375    98234838.48146
       865.609  
 20 10 03 04 19 50.0000000  0  8G13G 2G29G15G 5G18G 7G30
  20902488.249   109843317.03549      1736.172    20902487.923    85592195.61147
      1352.859  
  23190330.685   121866006.77948     -2823.082    23190328.974    94960519.39045
     -2199.808  
  21409261.485   112506427.58648     -1599.430    21409261.541    87667346.95749
     -1246.313  
  21952968.293   115363627.24048      3312.937    21952968.915    89893739.13849
      2581.508  
  20842713.519   109529198.70849     -1899.258    20842713.191    85347426.13949
     -1479.944  
  22411278.571   117772064.25448      2963.112    22411278.906    91770440.56046
      2308.917  
  24659479.705   129586440.39347      -393.852    24659480.151   100976470.17745
      -306.901  
  23988892.882   126062482.13347      1108.352    23988895.616    98230515.45245
       863.648  
 20 10 03 04 19 55.0000000  0  8G13G 2G29G15G 5G18G 7G30
  20900837.646   109834643.55749      1733.324    20900837.536    85585437.05647
      1350.641  
  23193017.458   121880125.11548     -2824.358    23193015.510    94971520.68046
     -2200.800  
  21410784.769   112514432.40348     -1602.457    21410784.929    87673584.47349
     -1248.671  
  21949817.062   115347067.68848      3311.004    21949817.615    89880835.59249
      2580.000  
  20844521.492   109538699.39349     -1901.082    20844521.080    85354829.26649
     -1481.366  
  22408459.718   117757251.39748      2962.085    22408460.243    91758898.07846
      2308.116  
  24659855.558   129588415.57547      -396.496    24659855.948   100978009.28545
      -308.960  
  23987839.582   126056947.94147      1105.324    23987842.643    98226203.10945
       861.289  
 20 10 03 04 20  0.0000000  0  8G13G 2G29G15G 5G18G 7G30
  20899190.093   109825985.76449      1729.828    20899189.847    85578690.73247
      1347.913  
  23195705.390   121894250.07748     -2825.785    23195703.491    94982527.13746
     -2201.914  
  21412311.120   112522453.21548     -1605.772    21412311.230    87679834.45449
     -1251.253  
  21946667.710   115330517.79648      3308.894    21946668.278    89867939.58149
      2578.355  
  20846331.187   109548209.06049     -1903.004    20846330.702    85362239.39849
     -1482.863  
  22405642.047   117742444.37448      2960.676    22405642.562    91747360.14346
      2307.016  
  24660234.061   129590404.99547      -399.194    24660234.415   100979559.47945
      -311.065  
  23986789.122   126051427.33147      1102.727    23986792.002    98221901.31645
       859.266  
 20 10 03 04 20  5.0000000  0  8G13G 2G29G15G 5G18G 7G30
  20897545.750   109817344.56049      1726.815    20897545.565    85571957.32747
      1345.566  
  23198394.657   121908382.54948     -2827.085    23198392.757    94993539.45046
     -2202.926  
  21413840.521   112530490.89648     -1608.934    21413840.710    87686097.57749
     -1253.719  
  21943520.445   115313978.46148      3306.933    21943520.909    89855051.79049
      2576.879  
  20848142.573   109557728.64449     -1904.816    20848142.249    85369657.25449
     -1484.276  
  22402825.727   117727644.10248      2959.573    22402826.071    91735827.46046
      2306.160  
  24660615.576   129592409.52847      -402.512    24660615.857   100981121.45446
      -313.648  
  23985741.354   126045921.24347      1100.328    23985744.058    98217610.88046
       857.395  
 20 10 03 04 20 10.0000000  0  8G13G 2G29G15G 5G18G 7G30
  20895904.265   109808718.62149      1723.383    20895903.959    85565235.81747
      1342.890  
  23201085.216   121922521.15648     -2828.613    23201083.194    95004556.53046
     -2204.117  
  21415373.153   112538544.11748     -1612.511    21415373.126    87692372.81149
     -1256.503  
  21940374.901   115297448.33248      3304.901    21940375.469    89842171.17449
      2575.246  
  20849955.698   109567256.86849     -1906.741    20849955.287    85377081.84449
     -1485.777  
  22400010.347   117712849.21348      2958.245    22400010.592    91724298.98047
      2305.124  
  24660999.616   129594427.79747      -405.339    24660999.982   100982694.13045
      -315.852  
  23984696.021   126040428.29547      1097.273    23984698.801    98213330.66545
       855.015  
 20 10 03 04 20 15.0000000  0  8G13G 2G29G15G 5G18G 7G30
  20894265.824   109800108.55549      1720.362    20894265.527    85558526.68047
      1340.538  
  23203776.961   121936666.53048     -2829.703    23203774.901    95015578.89946
     -2204.964  
  21416908.626   112546613.48948     -1615.569    21416908.729    87698660.63049
     -1258.891  
  21937231.244   115280928.05148      3303.261    21937231.741    89829298.22949
      2573.969  
  20851770.717   109576794.26549     -1908.460    20851770.261    85384513.57849
     -1487.117  
  22397196.087   117698060.36648      2957.160    22397196.566    91712775.20146
      2304.277  
  24661386.511   129596460.41247      -408.188    24661386.607   100984277.98445
      -318.069  
  23983653.382   126034949.18946      1094.179    23983656.287    98209061.24145
       852.605  
 20 10 03 04 20 20.0000000  0  8G13G 2G29G15G 5G18G 7G30
  20892630.436   109791514.91049      1717.137    20892630.288    85551830.33847
      1338.027  
  23206470.232   121950819.16948     -2830.930    23206468.102    95026606.92146
     -2205.922  
  21418447.372   112554699.49748     -1618.820    21418447.491    87704961.41549
     -1261.421  
  21934089.483   115264418.14048      3301.011    21934089.972    89816433.36649
      2572.214  
  20853587.462   109586341.32149     -1910.270    20853586.953    85391952.84449
     -1488.523  
  22394383.174   117683278.09748      2955.796    22394383.472    91701256.55346
      2303.214  
  24661776.022   129598507.93347      -410.878    24661776.419   100985873.44845
      -320.167  
  23982613.391   126029484.40547      1091.788    23982616.219    98204802.96345
       850.742  
 20 10 03 04 20 25.0000000  0  8G13G 2G29G15G 5G18G 7G30
  20890998.091   109782936.84949      1714.210    20890997.983    85545146.13547
      1335.746  
  23209164.607   121964978.23648     -2832.288    23209162.488    95037639.95046
     -2206.979  
  21419989.134   112562801.26048     -1621.770    21419989.188    87711274.47249
     -1263.719  
  21930949.436   115247917.71048      3299.284    21930949.901    89803575.89349
      2570.867  
  20855405.908   109595897.13149     -1911.987    20855405.347    85399398.92849
     -1489.863  
  22391571.204   117668501.50148      2954.718    22391571.597    91689742.33146
      2302.374  
  24662168.422   129600569.44847      -413.559    24662168.641   100987479.81345
      -322.257  
  23981576.053   126024033.06547      1089.121    23981579.086    98200555.16946
       848.663  
 20 10 03 04 20 30.0000000  0  8G13G 2G29G15G 5G18G 7G30
  20889368.802   109774374.28249      1710.804    20889368.597    85538474.00847
      1333.090  
  23211860.124   121979143.61648     -2833.563    23211858.085    95048677.90446
     -2207.972  
  21421533.751   112570918.71648     -1625.004    21421533.819    87717599.75949
     -1266.238  
  21927811.290   115231426.73448      3297.105    21927811.796    89790725.78349
      2569.167  
  20857225.886   109605461.65049     -1913.788    20857225.445    85406851.80149
     -1491.265  
  22388760.402   117653730.54148      2953.542    22388760.768    91678232.48846
      2301.456  
  24662563.295   129602644.89247      -416.309    24662563.757   100989097.06145
      -324.398  
  23980541.223   126018595.12147      1086.261    23980544.173    98196317.81344
       846.434  
 20 10 03 04 20 35.0000000  0  8G13G 2G29G15G 5G18G 7G30
  20887742.549   109765828.10749      1707.655    20887742.147    85531814.65647
      1330.637  
  23214557.159   121993316.31948     -2835.211    23214555.141    95059721.55745
     -2209.257  
  21423081.593   112579052.80348     -1628.410    21423081.868    87723938.00849
     -1268.895  
  21924675.238   115214946.16948      3295.112    21924675.634    89777883.78749
      2567.616  
  20859047.756   109615035.82949     -1915.722    20859047.502    85414312.19649
     -1492.772  
  22385950.885   117638966.17948      2952.305    22385951.159    91666727.79546
      2300.492  
  24662961.188   129604735.24147      -419.226    24662961.309   100990725.90446
      -326.672  
  23979509.062   126013171.51646      1083.461    23979512.188    98192091.63246
       844.254  
 20 10 03 04 20 40.0000000  0  8G13G 2G29G15G 5G18G 7G30
  20886119.120   109757297.87149      1704.663    20886118.874    85525167.71947
      1328.304  
  23217255.334   122007495.76348     -2836.387    23217253.397    95070770.46246
     -2210.175  
  21424632.502   112587202.97848     -1631.519    21424632.602    87730288.78949
     -1271.315  
  21921540.900   115198475.52048      3293.156    21921541.444    89765049.52249
      2566.094  
  20860871.532   109624619.11849     -1917.520    20860871.042    85421779.69249
     -1494.175  
  22383142.336   117624207.90348      2950.906    22383142.736    91655227.83747
      2299.401  
  24663361.584   129606839.93047      -422.147    24663361.816   100992365.91546
      -328.948  
  23978479.540   126007761.78047      1080.546    23978482.836    98187876.26346
       841.979  
 20 10 03 04 20 45.0000000  0  8G13G 2G29G15G 5G18G 7G30
  20884498.939   109748783.13749      1701.276    20884498.537    85518532.86747
      1325.668  
  23219954.859   122021681.52048     -2837.800    23219952.886    95081824.29446
     -2211.277  
  21426186.443   112595368.80948     -1634.874    21426186.515    87736651.77149
     -1273.934  
  21918408.467   115182014.34648      3291.145    21918408.964    89752222.63549
      2564.495  
  20862696.827   109634211.11049     -1919.339    20862696.277    85429253.97249
     -1495.593  
  22380335.131   117609455.25748      2949.890    22380335.569    91643732.26946
      2298.613  
  24663764.813   129608958.53647      -425.215    24663765.067   100994016.78445
      -331.339  
  23977452.701   126002365.45247      1077.913    23977455.894    98183671.32645
       839.930  
 20 10 03 04 20 50.0000000  0  8G13G 2G29G15G 5G18G 7G30
  20882881.611   109740284.70649      1698.358    20882881.385    85511910.71147
      1323.395  
  23222655.701   122035874.32348     -2838.843    23222653.562    95092883.61146
     -2212.089  
  21427743.620   112603551.07748     -1637.816    21427743.602    87743027.56249
     -1276.222  
  21915277.952   115165563.44148      3289.465    21915278.440    89739403.75349
      2563.215  
  20864523.844   109643812.58649     -1921.019    20864523.467    85436735.63849
     -1496.901  
  22377529.046   117594709.08848      2948.827    22377529.354    91632241.75546
      2297.784  
  24664170.742   129611091.86547      -428.011    24664171.210   100995679.12346
      -333.519  
  23976428.519   125996983.31047      1075.641    23976431.646    98179477.45146
       838.160  
 20 10 03 04 20 55.0000000  0  8G13G 2G29G15G 5G18G 7G30
  20881267.348   109731801.19849      1695.070    20881267.174    85505300.19347
      1320.831  
  23225357.475   122050072.83548     -2840.379    23225355.524    95103947.38246
     -2213.284  
  21429303.465   112611748.40048     -1640.999    21429303.615    87749415.08649
     -1278.703  
  21912149.129   115149121.46248      3287.370    21912149.628    89726591.82249
      2561.585  
  20866352.569   109653422.10149     -1922.773    20866352.120    85444223.57149
     -1498.270  
  22374723.743   117579967.99648      2947.480    22374724.324    91620755.18946
      2296.733  
  24664579.319   129613238.51547      -430.688    24664579.503   100997351.82846
      -335.604  
  23975406.836   125991614.08047      1072.440    23975409.848    98175293.64245
       835.663  
 20 10 03 04 21  0.0000000  0  8G13G 2G29G15G 5G18G 7G30
  20879655.914   109723333.71349      1692.093    20879655.850    85498702.15547
      1318.511  
  23228060.770   122064278.15148     -2841.491    23228058.702    95115016.44546
     -2214.152  
  21430866.355   112619961.88048     -1644.050    21430866.565    87755815.19849
     -1281.081  
  21909022.202   115132689.50548      3285.589    21909022.769    89713787.70449
      2560.194  
  20868182.810   109663040.83349     -1924.569    20868182.481    85451718.68549
     -1499.667  
  22371919.955   117565233.08448      2946.652    22371920.318    91609273.44346
      2296.089  
  24664990.544   129615399.64247      -433.620    24664990.693   100999035.83045
      -337.891  
  23974387.647   125986258.73247      1069.293    23974390.769    98171120.65046
       833.211  
 20 10 03 04 21  5.0000000  0  8G13G 2G29G15G 5G18G 7G30
  20878047.743   109714882.50049      1688.616    20878047.478    85492116.79647
      1315.801  
  23230765.198   122078490.51547     -2843.309    23230763.331    95126091.00946
     -2215.566  
  21432432.492   112628191.70348     -1647.563    21432432.693    87762228.04349
     -1283.816  
  21905897.182   115116267.81748      3283.363    21905897.842    89700991.58749
      2558.461  
  20870014.961   109672668.97549     -1926.586    20870014.808    85459221.13349
     -1501.237  
  22369117.122   117550504.62948      2945.141    22369117.518    91597796.72746
      2294.909  
  24665404.631   129617575.43147      -436.516    24665404.853   101000731.24946
      -340.144  
  23973371.264   125980917.57547      1066.679    23973374.373    98166958.71245
       831.175  
 20 10 03 04 21 10.0000000  0  8G13G 2G29G15G 5G18G 7G30
  20876442.782   109706448.02949      1685.270    20876442.514    85485544.48447
      1313.195  
  23233471.163   122092710.36648     -2844.593    23233469.192    95137171.40146
     -2216.569  
  21434001.865   112636438.34448     -1650.871    21434001.738    87768653.99149
     -1286.395  
  21902774.228   115099856.89848      3281.227    21902774.872    89688203.86049
      2556.797  
  20871849.197   109682307.01349     -1928.526    20871848.842    85466731.29249
     -1502.750  
  22366315.828   117535783.10448      2943.727    22366316.166    91586325.40847
      2293.809  
  24665821.564   129619766.33747      -439.577    24665821.736   101002438.43745
      -342.530  
  23972357.764   125975591.09647      1063.984    23972360.893    98162808.21145
       829.074  
 20 10 03 04 21 15.0000000  0  8G13G 2G29G15G 5G18G 7G30
  20874840.694   109698029.34149      1682.292    20874840.476    85478984.47147
      1310.874  
  23236178.263   122106936.73648     -2845.948    23236176.301    95148256.87146
     -2217.624  
  21435574.076   112644700.84148     -1654.011    21435574.215    87775092.30349
     -1288.844  
  21899653.231   115083455.76248      3279.285    21899653.863    89675423.75749
      2555.285  
  20873684.775   109691953.97749     -1930.184    20873684.590    85474248.40349
     -1504.042  
  22363515.447   117521067.49948      2942.667    22363515.781    91574858.70747
      2292.984  
  24666241.176   129621971.41347      -442.531    24666241.259   101004156.69145
      -344.831  
  23971346.739   125970278.34347      1061.805    23971349.912    98158668.41145
       827.379  
 20 10 03 04 21 20.0000000  0  8G13G 2G29G15G 5G18G 7G30
  20873241.456   109689625.75949      1679.141    20873241.374    85472436.22847
      1308.417  
  23238886.503   122121168.88348     -2847.027    23238884.556    95159346.85146
     -2218.465  
  21437149.342   112652978.44748     -1657.273    21437149.383    87781542.38249
     -1291.386  
  21896533.911   115067063.71848      3277.347    21896534.553    89662650.73649
      2553.772  
  20875522.259   109701609.11749     -1932.008    20875521.803    85481771.89049
     -1505.465  
  22360716.238   117506357.15448      2941.320    22360716.657    91563396.10547
      2291.933  
  24666663.207   129624189.95347      -445.184    24666663.517   101005885.42145
      -346.897  
  23970338.184   125964978.56747      1058.296    23970341.302    98154538.72846
       824.644  
 20 10 03 04 21 25.0000000  0  8G13G 2G29G15G 5G18G 7G30
  20871645.443   109681238.74649      1676.004    20871645.204    85465900.89847
      1305.972  
  23241596.280   122135408.39348     -2848.456    23241594.343    95170442.56646
     -2219.582  
  21438727.639   112661272.70848     -1660.285    21438727.705    87788005.44049
     -1293.730  
  21893416.681   115050682.27948      3275.391    21893417.202    89649885.98349
      2552.250  
  20877361.268   109711273.92249     -1933.769    20877360.961    85489302.90349
     -1506.835  
  22357918.171   117491653.58448      2940.452    22357918.456    91551938.78146
      2291.258  
  24667088.326   129626423.43247      -447.867    24667088.399   101007625.80746
      -348.991  
  23969332.497   125959693.33647      1055.573    23969335.644    98150420.35245
       822.522  
 20 10 03 04 21 30.0000000  0  8G13G 2G29G15G 5G18G 7G30
  20870052.499   109672867.11449      1672.647    20870052.243    85459377.55247
      1303.358  
  23244307.003   122149653.99148     -2849.792    23244305.289    95181543.03146
     -2220.620  
  21440308.996   112669582.38848     -1663.695    21440308.984    87794480.51449
     -1296.390  
  21890301.156   115034310.30548      3273.230    21890301.803    89637128.60249
      2550.512  
  20879202.170   109720947.17549     -1935.702    20879201.834    85496840.50349
     -1508.343  
  22355121.224   117476955.59148      2938.929    22355121.527    91540485.79546
      2290.069  
  24667515.912   129628670.69647      -450.746    24667516.064   101009376.92846
      -351.234  
  23968329.300   125954421.37747      1052.957    23968332.384    98146312.35846
       820.484  
 20 10 03 04 21 35.0000000  0  8G13G 2G29G15G 5G18G 7G30
  20868462.603   109664512.37349      1669.358    20868462.436    85452867.37047
      1300.796  
  23247019.422   122163907.13248     -2851.249    23247017.461    95192649.36146
     -2221.757  
  21441893.390   112677908.93548     -1667.065    21441893.419    87800968.73149
     -1299.015  
  21887187.731   115017949.21048      3271.203    21887188.368    89624379.69849
      2548.984  
  20881044.799   109730630.35449     -1937.609    20881044.413    85504385.83549
     -1509.828  
  22352325.618   117462264.64548      2937.577    22352326.056    91529038.30846
      2289.020  
  24667946.537   129630933.17447      -454.101    24667946.600   101011139.87245
      -353.847  
  23967328.924   125949164.24147      1049.789    23967331.915    98142215.88645
       818.016  
 20 10 03 04 21 40.0000000  0  8G13G 2G29G15G 5G18G 7G30
  20866875.752   109656173.35049      1666.222    20866875.572    85446369.42747
      1298.351  
  23249732.809   122178166.64048     -2852.508    23249730.902    95203760.66546
     -2222.737  
  21443481.004   112686251.18248     -1670.034    21443481.033    87807469.18149
     -1301.327  
  21884076.021   115001597.84448      3269.387    21884076.883    89611638.37849
      2547.570  
  20882889.121   109740322.26949     -1939.124    20882888.699    85511937.97249
     -1511.007  
  22349531.147   117447579.57148      2936.496    22349531.542    91517595.39746
      2288.176  
  24668379.635   129633209.68647      -456.793    24668379.822   101012913.77845
      -355.945  
  23966331.051   125943920.69547      1047.457    23966334.330    98138130.00646
       816.194  
 20 10 03 04 21 45.0000000  0  8G13G 2G29G15G 5G18G 7G30
  20865291.938   109647850.28849      1663.144    20865291.641    85439883.92947
      1295.952  
  23252447.507   122192432.78748     -2853.788    23252445.764    95214877.13345
     -2223.734  
  21445071.490   112694609.37048     -1673.066    21445071.580    87813982.04949
     -1303.690  
  21880966.420   114985256.46948      3267.183    21880967.117    89598904.84249
      2545.854  
  20884735.183   109750023.16949     -1940.984    20884734.933    85519497.11649
     -1512.456  
  22346737.845   117432900.63948      2935.250    22346738.249    91506157.26646
      2287.202  
  24668815.613   129635500.51247      -459.543    24668815.728   101014698.83445
      -358.089  
  23965336.040   125938691.03047      1044.332    23965338.970    98134054.95246
       813.762  
 20 10 03 04 21 50.0000000  0  8G13G 2G29G15G 5G18G 7G30
  20863711.162   109639543.22649      1659.933    20863710.860    85433410.89747
      1293.452  
  23255163.555   122206705.62447     -2855.219    23255161.631    95225998.81246
     -2224.847  
  21446665.029   112702983.56748     -1676.367    21446665.060    87820507.39549
     -1306.261  
  21877858.709   114968925.11948      3265.440    21877859.533    89586179.11649
      2544.495  
  20886582.936   109759733.14849     -1942.863    20886582.634    85527063.33049
     -1513.921  
  22343945.677   117418227.91348      2933.921    22343945.962    91494723.97547
      2286.167  
  24669254.212   129637805.62047      -462.258    24669254.615   101016495.03546
      -360.202  
  23964343.424   125933475.30147      1042.246    23964346.518    98129990.74646
       812.136  
 20 10 03 04 21 55.0000000  0  8G13G 2G29G15G 5G18G 7G30
  20862133.244   109631251.70749      1656.597    20862133.022    85426949.97747
      1290.852  
  23257880.734   122220984.64848     -2856.699    23257879.005    95237125.31846
     -2226.004  
  21448261.606   112711373.26148     -1679.538    21448261.474    87827044.81849
     -1308.733  
  21874752.729   114952603.36348      3263.180    21874753.407    89573460.86349
      2542.734  
  20888432.231   109769451.66549     -1944.671    20888432.051    85534636.19949
     -1515.332  
  22341154.652   117403560.92048      2932.582    22341155.157    91483295.15846
      2285.124  
  24669695.495   129640124.60847      -465.147    24669695.852   101018302.04845
      -362.456  
  23963353.507   125928273.06347      1039.015    23963356.689    98125937.06245
       809.621  
 20 10 03 04 22  0.0000000  0  8G13G 2G29G15G 5G18G 7G30
  20860558.567   109622976.25949      1653.542    20860558.364    85420501.57847
      1288.472  
  23260599.244   122235270.32848     -2857.801    23260597.539    95248257.01146
     -2226.858  
  21449861.032   112719778.92648     -1682.761    21449861.048    87833594.68049
     -1311.246  
  21871648.627   114936291.69648      3261.468    21871649.485    89560750.47649
      2541.402  
  20890283.416   109779179.26949     -1946.343    20890283.161    85542216.15149
     -1516.633  
  22338364.956   117388900.15348      2931.647    22338365.298    91471871.18147
      2284.397  
  24670139.427   129642457.95447      -467.940    24670139.855   101020120.22546
      -364.633  
  23962366.088   125923084.79547      1036.320    23962369.321    98121894.27145
       807.519  
 20 10 03 04 22  5.0000000  0  8G13G 2G29G15G 5G18G 7G30
  20858986.734   109614716.43649      1650.355    20858986.641    85414065.35547
      1285.988  
  23263318.902   122249562.25847     -2859.047    23263317.079    95259393.57046
     -2227.831  
  21451463.679   112728200.14348     -1685.972    21451463.559    87840156.66649
     -1313.750  
  21868546.449   114919989.73848      3259.347    21868547.265    89548047.65449
      2539.750  
  20892136.124   109788915.53149     -1948.219    20892135.749    85549802.84549
     -1518.098  
  22335576.208   117374245.24848      2930.104    22335576.434    91460451.78047
      2283.194  
  24670586.240   129644805.25247      -470.862    24670586.475   101021949.28045
      -366.910  
  23961381.544   125917910.07647      1033.375    23961384.628    98117862.02345
       805.223  
 20 10 03 04 22 10.0000000  0  8G13G 2G29G15G 5G18G 7G30
  20857418.147   109606473.77349      1647.133    20857418.086    85407642.50647
      1283.476  
  23266039.870   122263861.91748     -2860.362    23266038.350    95270536.15946
     -2228.859  
  21453069.390   112736638.36848     -1689.183    21453069.240    87846731.90849
     -1316.249  
  21865446.360   114903698.93748      3257.320    21865447.260    89535353.52949
      2538.168  
  20893990.739   109798661.88349     -1950.015    20893990.532    85557397.40349
     -1519.496  
  22332788.790   117359597.64048      2929.011    22332789.254    91449038.05647
      2282.343  
  24671035.688   129647167.95947      -473.776    24671036.054   101023790.35545
      -369.179  
  23960399.627   125912750.41047      1030.679    23960402.638    98113841.49845
       803.125  
 20 10 03 04 22 15.0000000  0  8G13G 2G29G15G 5G18G 7G30
  20855852.580   109598246.72349      1643.972    20855852.478    85401231.82247
      1281.015  
  23268762.172   122278167.80647     -2861.703    23268760.522    95281683.59246
     -2229.902  
  21454678.144   112745092.11148     -1692.383    21454678.092    87853319.23649
     -1318.742  
  21862348.149   114887417.82248      3255.117    21862348.983    89522666.94649
      2536.452  
  20895847.060   109808416.79149     -1951.887    20895846.783    85564998.62949
     -1520.952  
  22330002.521   117344955.85448      2927.730    22330002.809    91437628.87447
      2281.343  
  24671488.012   129649544.56547      -476.762    24671488.351   101025642.25045
      -371.504  
  23959420.397   125907604.30747      1027.875    23959423.332    98109831.56045
       800.938  
 20 10 03 04 22 20.0000000  0  8G13G 2G29G15G 5G18G 7G30
  20854290.084   109590035.46949      1640.594    20854290.027    85394833.44347
      1278.383  
  23271485.816   122292480.08747     -2863.082    23271484.216    95292836.00946
     -2230.977  
  21456289.769   112753561.51248     -1695.559    21456289.643    87859918.76849
     -1321.219  
  21859251.868   114871146.56848      3253.090    21859252.889    89509988.05149
      2534.870  
  20897705.097   109818180.43449     -1953.680    20897704.734    85572606.66049
     -1522.352  
  22327217.560   117330320.07048      2926.452    22327217.843    91426224.37247
      2280.351  
  24671943.011   129651935.28947      -479.687    24671943.337   101027505.15146
      -373.784  
  23958443.642   125902471.89347      1024.871    23958446.704    98105832.27646
       798.598  
 20 10 03 04 22 25.0000000  0  8G13G 2G29G15G 5G18G 7G30
  20852730.808   109581841.19949      1637.417    20852730.749    85388448.30247
      1275.905  
  23274210.594   122306799.95448     -2864.562    23274209.127    95303994.34346
     -2232.129  
  21457904.598   112762047.77548     -1698.805    21457904.616    87866531.43649
     -1323.745  
  21856157.672   114854886.36748      3251.207    21856158.492    89497317.76349
      2533.405  
  20899564.835   109827953.98449     -1955.547    20899564.639    85580222.41049
     -1523.804  
  22324433.762   117315691.48448      2925.266    22324434.084    91414825.46947
      2279.426  
  24672400.856   129654341.25047      -482.633    24672400.981   101029379.94145
      -376.081  
  23957469.918   125897354.43747      1022.305    23957472.855    98101844.65346
       796.597  
 20 10 03 04 22 30.0000000  0  8G13G 2G29G15G 5G18G 7G30
  20851174.197   109573661.74749      1634.171    20851174.160    85382074.70547
      1273.379  
  23276936.698   122321125.23147     -2865.776    23276934.990    95315156.89146
     -2233.078  
  21459522.286   112770548.68848     -1701.858    21459522.255    87873155.52349
     -1326.128  
  21853065.204   114838635.05448      3249.258    21853066.047    89484654.40549
      2531.887  
  20901426.303   109837735.25149     -1957.078    20901426.021    85587844.17549
     -1524.999  
  22321650.903   117301067.92948      2924.063    22321651.290    91403430.48946
      2278.488  
  24672861.166   129656760.32047      -485.276    24672861.394   101031264.91345
      -378.140  
  23956498.487   125892249.72047      1019.574    23956501.297    98097866.97145
       794.468  
 20 10 03 04 22 35.0000000  0  8G13G 2G29G15G 5G18G 7G30
  20849620.823   109565498.55449      1630.960    20849620.749    85375713.77947
      1270.875  
  23279663.979   122335457.37347     -2867.063    23279662.343    95326324.78946
     -2234.078  
  21461143.017   112779065.68748     -1704.910    21461143.085    87879792.14549
     -1328.504  
  21849974.653   114822394.07148      3247.042    21849975.560    89471999.09949
      2530.159  
  20903289.286   109847525.73249     -1959.008    20903289.110    85595473.12049
     -1526.503  
  22318869.403   117286450.86348      2922.664    22318869.734    91392040.57346
      2277.397  
  24673324.153   129659193.92647      -488.223    24673324.683   101033161.22045
      -380.437  
  23955529.873   125887159.21547      1016.784    23955532.750    98093900.34245
       792.296  
 20 10 03 04 22 40.0000000  0  8G13G 2G29G15G 5G18G 7G30
  20848070.491   109557351.50949      1627.769    20848070.518    85369365.43847
      1268.386  
  23282392.598   122349796.14747     -2868.504    23282390.971    95337497.84745
     -2235.198  
  21462766.794   112787598.59848     -1708.190    21462766.843    87886441.16349
     -1331.062  
  21846885.971   114806163.21948      3245.101    21846886.779    89459351.68049
      2528.648  
  20905154.174   109857325.15949     -1960.910    20905153.917    85603109.03549
     -1527.983  
  22316089.215   117271840.09348      2921.465    22316089.345    91380655.56546
      2276.465  
  24673789.991   129661641.88847      -491.145    24673790.385   101035068.72445
      -382.715  
  23954563.734   125882082.71147      1013.983    23954566.685    98089944.62445
       790.113  
 20 10 03 04 22 45.0000000  0  8G13G 2G29G15G 5G18G 7G30
  20846523.224   109549220.84749      1624.586    20846523.228    85363029.85547
      1265.906  
  23285122.320   122364141.80647     -2869.766    23285121.057    95348676.27946
     -2236.184  
  21464393.605   112796147.67548     -1711.491    21464393.524    87893102.77549
     -1333.633  
  21843799.214   114789942.85648      3243.073    21843800.201    89446712.44049
      2527.104  
  20907020.587   109867133.85249     -1962.754    20907020.418    85610752.17149
     -1529.422  
  22313310.001   117257235.91448      2920.136    22313310.233    91369275.69147
      2275.429  
  24674258.673   129664104.45747      -493.996    24674258.974   101036987.61246
      -384.933  
  23953600.457   125877020.53247      1010.628    23953603.447    98086000.07345
       787.499  
 20 10 03 04 22 50.0000000  0  8G13G 2G29G15G 5G18G 7G30
  20844978.977   109541105.77049      1621.503    20844979.089    85356706.42447
      1263.508  
  23287853.392   122378493.56248     -2870.754    23287852.127    95359859.46046
     -2236.953  
  21466023.465   112804712.11348     -1714.488    21466023.382    87899776.36249
     -1335.968  
  21840714.533   114773732.21548      3241.262    21840715.343    89434080.77649
      2525.656  
  20908888.702   109876950.98949     -1964.300    20908888.389    85618401.88849
     -1530.629  
  22310532.084   117242637.51748      2919.042    22310532.344    91357900.32547
      2274.573  
  24674729.860   129666580.84147      -496.624    24674730.263   101038917.27346
      -386.984  
  23952639.693   125871971.84247      1008.472    23952642.648    98082066.04245
       785.820  
 20 10 03 04 22 55.0000000  0  8G13G 2G29G15G 5G18G 7G30
  20843437.785   109533006.22249      1618.012    20843437.904    85350395.09247
      1260.784  
  23290585.632   122392851.30147     -2872.554    23290584.327    95371047.30045
     -2238.359  
  21467655.995   112813291.84048     -1717.847    21467655.927    87906461.86249
     -1338.586  
  21837631.568   114757531.19148      3238.949    21837632.429    89421456.60349
      2523.852  
  20910758.533   109886776.45349     -1966.266    20910758.303    85626058.09349
     -1532.160  
  22307755.155   117228044.84648      2917.770    22307755.428    91346529.41247
      2273.581  
  24675203.685   129669070.93547      -499.565    24675204.074   101040857.60545
      -389.277  
  23951681.618   125866936.59347      1005.444    23951684.363    98078142.46645
       783.460  
 20 10 03 04 23  0.0000000  0  8G13G 2G29G15G 5G18G 7G30
  20841899.448   109524922.95749      1615.137    20841899.627    85344096.44847
      1258.543  
  23293319.006   122407215.80947     -2873.352    23293317.777    95382240.41646
     -2238.977  
  21469291.759   112821887.58548     -1720.702    21469291.650    87913159.84249
     -1340.812  
  21834550.511   114741340.53448      3237.156    21834551.459    89408840.51449
      2522.480  
  20912630.085   109896611.05849     -1967.750    20912629.689    85633721.41749
     -1533.316  
  22304979.551   117213458.66748      2916.766    22304979.762    91335163.55646
      2272.800  
  24675680.362   129671575.48447      -502.203    24675680.695   101042809.19545
      -391.331  
  23950726.188   125861915.52347      1002.987    23950728.756    98074229.94445
       781.546  
 20 10 03 04 23  5.0000000  0  8G13G 2G29G15G 5G18G 7G30
  20840364.536   109516856.78449      1611.616    20840364.754    85337811.12147
      1255.801  
  23296053.896   122421587.90847     -2875.211    23296052.702    95393439.44446
     -2240.426  
  21470930.745   112830500.17148     -1724.089    21470930.547    87919870.94649
     -1343.448  
  21831471.719   114725161.08848      3234.863    21831472.690    89396233.15549
      2520.668  
  20914503.353   109906455.61449     -1969.727    20914503.022    85641392.49649
     -1534.855  
  22302205.240   117198879.81448      2915.188    22302205.536    91323803.40847
      2271.569  
  24676159.915   129674095.36247      -505.362    24676160.078   101044772.72346
      -393.793  
  23949773.586   125856909.50247       999.913    23949776.305    98070329.16245
       779.152  
 20 10 03 04 23 10.0000000  0  8G13G 2G29G15G 5G18G 7G30
  20838832.667   109508806.41549      1608.608    20838832.827    85331538.10647
      1253.456  
  23298790.137   122435966.26347     -2876.211    23298788.866    95404643.36146
     -2241.206  
  21472572.605   112839128.26648     -1727.063    21472572.617    87926594.13449
     -1345.766  
  21828394.668   114708991.54548      3232.847    21828395.651    89383633.50749
      2519.035  
  20916378.323   109916308.80449     -1971.406    20916378.066    85649070.30249
     -1536.163  
  22299432.276   117184307.00648      2914.145    22299432.325    91312447.97747
      2270.757  
  24676642.100   129676629.26347      -508.285    24676642.332   101046747.18845
      -396.070  
  23948823.629   125851917.19447       997.414    23948826.345    98066439.04646
       777.202  
 20 10 03 04 23 15.0000000  0  8G13G 2G29G15G 5G18G 7G30
  20837303.637   109500771.65049      1605.426    20837303.835    85325277.26147
      1250.976  
  23301527.333   122450350.69947     -2877.586    23301526.193    95415852.00546
     -2242.277  
  21474217.309   112847771.68248     -1730.145    21474217.374    87933329.26549
     -1348.168  
  21825319.539   114692831.69948      3230.964    21825320.552    89371041.42949
      2517.633  
  20918255.005   109926170.36849     -1973.183    20918254.584    85656754.64049
     -1537.550  
  22296660.265   117169740.02548      2912.753    22296660.532    91301097.07446
      2269.676  
  24677126.757   129679176.93247      -510.765    24677127.054   101048732.42045
      -398.003  
  23947876.182   125846938.45347       994.276    23947878.786    98062559.51245
       774.757  
 20 10 03 04 23 20.0000000  0  8G13G 2G29G15G 5G18G 7G30
  20835777.656   109492752.50549      1602.218    20835777.771    85319028.56947
      1248.480  
  23304265.848   122464741.22748     -2878.995    23304264.525    95427065.39446
     -2243.375  
  21475865.053   112856430.44848     -1733.355    21475865.058    87940076.34749
     -1350.668  
  21822246.306   114676681.59348      3228.898    21822247.181    89358456.92649
      2516.094  
  20920133.208   109936040.35749     -1974.929    20920132.802    85664445.53549
     -1538.909  
  22293889.224   117155178.88748      2911.460    22293889.514    91289750.74847
      2268.667  
  24677614.258   129681738.42447      -513.835    24677614.521   101050728.35845
      -400.394  
  23946931.368   125841973.26547       991.573    23946933.921    98058690.54346
       772.651  
 20 10 03 04 23 25.0000000  0  8G13G 2G29G15G 5G18G 7G30
  20834254.738   109484749.86249      1598.742    20834254.890    85312792.75047
      1245.770  
  23307005.524   122479138.66448     -2880.238    23307004.365    95438284.17246
     -2244.344  
  21477515.836   112865105.36848     -1736.651    21477515.924    87946836.02549
     -1353.237  
  21819175.166   114660542.08148      3226.835    21819175.996    89345880.68849
      2514.413  
  20922013.111   109945919.59549     -1976.897    20922012.734    85672143.63849
     -1540.444  
  22291119.685   117140624.45648      2910.288    22291119.912    91278409.62947
      2267.753  
  24678104.411   129684314.57047      -516.757    24678104.676   101052735.77546
      -402.668  
  23945989.214   125837022.46347       988.977    23945991.746    98054832.77345
       770.629  
 20 10 03 04 23 30.0000000  0  8G13G 2G29G15G 5G18G 7G30
  20832735.051   109476763.81749      1595.707    20832735.153    85306569.86747
      1243.405  
  23309746.707   122493543.11447     -2881.319    23309745.405    95449508.39846
     -2245.188  
  21479169.671   112873796.55048     -1739.629    21479169.715    87953608.36649
     -1355.559  
  21816105.914   114644413.27048      3225.016    21816106.770    89333312.78349
      2512.891  
  20923894.922   109955808.17749     -1978.496    20923894.614    85679849.02949
     -1541.687  
  22288351.307   117126076.87248      2909.055    22288351.560    91267073.84746
      2266.792  
  24678597.443   129686905.44047      -519.156    24678597.787   101054754.60745
      -404.539  
  23945049.927   125832086.19747       986.405    23945052.536    98050986.33745
       768.624  
 20 10 03 04 23 35.0000000  0  8G13G 2G29G15G 5G18G 7G30
  20831218.411   109468793.73149      1592.409    20831218.604    85300359.41347
      1240.836  
  23312488.813   122507953.94847     -2882.707    23312487.710    95460737.61546
     -2246.269  
  21480826.551   112882503.35648     -1743.066    21480826.428    87960392.89249
     -1358.237  
  21813038.576   114628294.57948      3222.695    21813039.494    89320752.76849
      2511.187  
  20925778.260   109965705.49649     -1980.401    20925777.965    85687561.22449
     -1543.175  
  22285584.232   117111535.48248      2907.715    22285584.390    91255742.90547
      2265.749  
  24679093.175   129689510.50147      -522.530    24679093.572   101056784.51245
      -407.172  
  23944113.112   125827163.85547       983.301    23944115.694    98047150.74746
       766.207  
 20 10 03 04 23 40.0000000  0  8G13G 2G29G15G 5G18G 7G30
  20829704.811   109460839.70649      1589.058    20829704.981    85294161.47447
      1238.223  
  23315232.471   122522371.24847     -2884.179    23315231.168    95471971.87046
     -2247.414  
  21482486.288   112891225.86648     -1746.261    21482486.327    87967189.65049
     -1360.726  
  21809973.315   114612186.08648      3220.777    21809974.158    89308200.69949
      2509.695  
  20927663.320   109975611.61449     -1982.151    20927663.021    85695280.27549
     -1544.538  
  22282818.316   117097000.43548      2906.211    22282818.448    91244416.89647
      2264.577  
  24679591.566   129692129.75047      -525.104    24679592.016   101058825.49645
      -409.175  
  23943179.125   125822255.53247       980.440    23943181.839    98043326.08046
       763.976  
 20 10 03 04 23 45.0000000  0  8G13G 2G29G15G 5G18G 7G30
  20828194.242   109452901.98749      1586.070    20828194.522    85287976.24147
      1235.894  
  23317977.282   122536795.26647     -2885.245    23317976.104    95483211.36046
     -2248.246  
  21484149.256   112899964.26148     -1749.238    21484149.156    87973998.78549
     -1363.046  
  21806909.976   114596088.04148      3218.594    21806910.771    89295656.76849
      2507.991  
  20929550.092   109985526.82649     -1983.866    20929549.792    85703006.41049
     -1545.874  
  22280053.532   117082471.92548      2904.995    22280053.710    91233095.97847
      2263.628  
  24680092.825   129694763.47447      -527.729    24680093.053   101060877.75246
      -411.223  
  23942247.802   125817361.42847       977.710    23942250.404    98039512.51046
       761.848  
 20 10 03 04 23 50.0000000  0  8G13G 2G29G15G 5G18G 7G30
  20826686.938   109444980.51849      1582.586    20826687.010    85281803.67047
      1233.179  
  23320723.202   122551225.89148     -2886.969    23320721.997    95494455.98946
     -2249.589  
  21485815.067   112908718.50048     -1752.563    21485815.154    87980820.26749
     -1365.637  
  21803848.530   114580000.34648      3216.323    21803849.340    89283120.90549
      2506.222  
  20931438.577   109995450.94349     -1985.897    20931438.258    85710739.48849
     -1547.457  
  22277290.071   117067949.90248      2903.723    22277290.454    91221780.12446
      2262.637  
  24680596.698   129697411.56647      -531.151    24680597.052   101062941.19946
      -413.886  
  23941319.165   125812481.50047       974.472    23941321.700    98035709.96645
       759.323  
 20 10 03 04 23 55.0000000  0  8G13G 2G29G15G 5G18G 7G30
  20825182.672   109437075.05149      1579.602    20825182.666    85275643.57047
      1230.854  
  23323470.486   122565662.87548     -2888.022    23323469.377    95505705.58346
     -2250.409  
  21487483.934   112917488.33048     -1755.440    21487483.851    87987653.89549
     -1367.878  
  21800788.979   114563922.79548      3214.628    21800789.855    89270592.95049
      2504.901  
  20933328.746   110005383.75249     -1987.370    20933328.440    85718479.34149
     -1548.605  
  22274527.947   117053434.12848      2902.507    22274528.193    91210469.12847
      2261.690  
  24681103.271   129700073.77847      -533.844    24681103.540   101065015.65345
      -415.983  
  23940393.201   125807615.49947       972.207    23940395.898    98031918.27546
       757.563  
 20 10 03 04 24  0.0000000  0  8G13G 2G29G15G 5G18G 7G30
  20823681.267   109429185.64449      1576.020    20823681.263    85269495.98447
      1228.062  
  23326219.119   122580106.22647     -2889.483    23326218.008    95516960.14046
     -2251.550  
  21489155.655   112926273.78148     -1758.723    21489155.735    87994499.69949
     -1370.438  
  21797731.528   114547855.50148      3212.179    21797732.319    89258072.97849
      2502.992  
  20935220.653   110015325.38849     -1989.308    20935220.330    85726226.06749
     -1550.113  
  22271766.800   117038924.66948      2901.038    22271767.181    91199163.05747
      2260.547  
  24681612.676   129702750.15947      -536.788    24681613.004   101067101.13545
      -418.280  
  23939469.910   125802763.50947       968.827    23939472.574    98028137.51045
       754.930  
 20 10 03 04 24  5.0000000  0  8G13G 2G29G15G 5G18G 7G30
  20822183.096   109421312.51749      1573.011    20822183.256    85263361.08047
      1225.719  
  23328968.866   122594556.24347     -2890.762    23328967.563    95528219.89146
     -2252.542  
  21490830.614   112935075.06548     -1761.777    21490830.532    88001357.84049
     -1372.816  
  21794676.003   114531798.63948      3210.508    21794676.992    89245561.14349
      2501.691  
  20937114.265   110025276.00849     -1991.073    20937113.687    85733979.79749
     -1551.487  
  22269006.955   117024421.74248      2900.074    22269007.336    91187862.07946
      2259.792  
  24682124.611   129705440.95747      -539.593    24682124.879   101069197.86645
      -420.464  
  23938549.286   125797925.71947       966.277    23938551.833    98024367.79145
       752.940  
 20 10 03 04 24 10.0000000  0  8G13G 2G29G15G 5G18G 7G30
  20820687.952   109413455.29549      1569.776    20820687.947    85257238.57447
      1223.199  
  23331719.732   122609012.48448     -2891.879    23331718.666    95539484.47946
     -2253.413  
  21492508.223   112943891.83548     -1764.926    21492508.506    88008228.04949
     -1375.269  
  21791622.371   114515751.85448      3208.284    21791623.376    89233057.15849
      2499.960  
  20939009.389   110035235.20449     -1992.726    20939009.003    85741740.20749
     -1552.777  
  22266248.243   117009924.98848      2898.815    22266248.490    91176565.90946
      2258.816  
  24682639.366   129708145.85747      -542.328    24682639.715   101071305.59445
      -422.598  
  23937631.316   125793101.78747       963.125    23937633.859    98020608.90545
       750.484  
 20 10 03 04 24 15.0000000  0  8G13G 2G29G15G 5G18G 7G30
  20819195.874   109405614.33949      1566.441    20819195.811    85251128.74247
      1220.602  
  23334471.973   122623475.29547     -2893.473    23334470.966    95550754.18845
     -2254.656  
  21494189.084   112952724.35048     -1768.063    21494189.169    88015110.52249
     -1377.714  
  21788570.829   114499715.48748      3206.359    21788571.726    89220561.28749
      2498.457  
  20940906.234   110045203.28649     -1994.624    20940905.790    85749507.54149
     -1554.258  
  22263490.851   116995434.76248      2897.194    22263491.116    91165274.82846
      2257.550  
  24683156.944   129710865.02947      -545.090    24683157.097   101073424.40845
      -424.749  
  23936716.186   125788292.05747       960.405    23936718.801    98016861.05246
       748.367  
 20 10 03 04 24 20.0000000  0  8G13G 2G29G15G 5G18G 7G30
  20817706.838   109397789.99449      1563.308    20817706.849    85245031.85047
      1218.160  
  23337225.533   122637945.03647     -2894.421    23337224.466    95562029.30946
     -2255.397  
  21495872.794   112961572.99148     -1771.207    21495873.017    88022005.56749
     -1380.164  
  21785521.202   114483689.89948      3204.222    21785522.037    89208073.81849
      2496.758  
  20942804.789   110055180.60149     -1996.382    20942804.516    85757282.07249
     -1555.624  
  22260734.816   116980951.38748      2896.081    22260735.188    91153989.07646
      2256.683  
  24683677.038   129713598.89047      -548.066    24683677.290   101075554.69845
      -427.065  
  23935803.484   125783496.83847       957.656    23935806.157    98013124.52346
       746.223  
 20 10 03 04 24 25.0000000  0  8G13G 2G29G15G 5G18G 7G30
  20816221.030   109389981.64849      1559.930    20816221.070    85238947.42647
      1215.526  
  23339980.249   122652421.07647     -2896.184    23339979.184    95573309.32646
     -2256.769  
  21497559.751   112970437.13348     -1774.574    21497559.784    88028912.68749
     -1382.789  
  21782473.670   114467674.48048      3201.879    21782474.542    89195594.27549
      2494.969  
  20944705.044   110065166.51149     -1998.163    20944704.695    85765063.29849
     -1557.015  
  22257979.928   116966474.29048      2894.640    22257980.274    91142708.22746
      2255.563  
  24684199.996   129716346.83747      -551.167    24684200.168   101077695.95346
      -429.483  
  23934893.683   125778715.58547       954.573    23934896.286    98009398.87546
       743.819  
 20 10 03 04 24 30.0000000  0  8G13G 2G29G15G 5G18G 7G30
  20814738.283   109382189.13449      1556.719    20814738.205    85232875.34247
      1213.023  
  23342736.100   122666903.20047     -2896.999    23342735.102    95584594.09846
     -2257.406  
  21499249.351   112979316.57448     -1777.612    21499249.499    88035831.72649
     -1385.156  
  21779428.044   114451669.04348      3199.863    21779428.741    89183122.51149
      2493.355  
  20946606.829   110075160.86349     -1999.979    20946606.603    85772851.10549
     -1558.429  
  22255226.166   116952003.27248      2893.550    22255226.554    91131432.11147
      2254.710  
  24684725.599   129719108.64747      -553.855    24684725.990   101079848.01045
      -431.577  
  23933986.542   125773948.09147       951.836    23933989.045    98005683.94045
       741.688  
 20 10 03 04 24 35.0000000  0  8G13G 2G29G15G 5G18G 7G30
  20813258.581   109374413.30949      1553.640    20813258.537    85226816.25747
      1210.625  
  23345493.299   122681392.31747     -2898.292    23345492.241    95595884.30945
     -2258.413  
  21500942.202   112988212.16148     -1780.645    21500942.372    88042763.35049
     -1387.519  
  21776384.298   114435674.48948      3197.859    21776385.140    89170659.22349
      2491.910  
  20948510.516   110085164.52449     -2001.483    20948510.213    85780646.16649
     -1559.602  
  22252473.729   116937539.24148      2892.145    22252474.051    91120161.44447
      2253.616  
  24685254.041   129721885.22447      -556.707    24685254.241   101082011.57845
      -433.801  
  23933082.048   125769195.22447       949.000    23933084.705    98001980.41345
       739.476  
 20 10 03 04 24 40.0000000  0  8G13G 2G29G15G 5G18G 7G30
  20811781.913   109366653.30349      1550.383    20811781.797    85220769.50347
      1208.085  
  23348251.616   122695887.49747     -2899.519    23348250.609    95607179.24246
     -2259.367  
  21502637.897   112997123.00548     -1783.808    21502637.934    88049706.86249
     -1389.984  
  21773342.483   114419689.89048      3196.105    21773343.251    89158203.69549
      2490.379  
  20950415.716   110095176.54549     -2003.331    20950415.285    85788447.74049
     -1561.042  
  22249722.461   116923081.26248      2891.077    22249722.757    91108895.48247
      2252.784  
  24685784.981   129724675.67447      -559.684    24685785.133   101084185.96145
      -436.121  
  23932180.239   125764456.08947       946.386    23932182.826    97998287.58846
       737.441  
 20 10 03 04 24 45.0000000  0  8G13G 2G29G15G 5G18G 7G30
  20810308.293   109358909.38149      1547.101    20810308.232    85214735.28247
      1205.531  
  23351011.080   122710388.95447     -2901.008    23351010.159    95618479.07446
     -2260.527  
  21504336.454   113006049.35648     -1786.995    21504336.675    88056662.45549
     -1392.468  
  21770302.741   114403715.63148      3193.898    21770303.558    89145756.22349
      2488.727  
  20952322.640   110105197.24849     -2005.129    20952322.320    85796256.07649
     -1562.440  
  22246972.318   116908629.66248      2889.569    22246972.679    91097634.49646
      2251.609  
  24686318.801   129727480.26547      -562.316    24686319.040   101086371.34645
      -438.172  
  23931280.940   125759730.95947       943.840    23931283.620    97994605.67445
       735.457  
 20 10 03 04 24 50.0000000  0  8G13G 2G29G15G 5G18G 7G30
  20808837.730   109351181.55149      1543.816    20808837.599    85208713.59847
      1202.968  
  23353771.887   122724896.81047     -2902.406    23353770.713    95629783.89445
     -2261.616  
  21506038.063   113014991.24748     -1789.996    21506038.344    88063630.16249
     -1394.804  
  21767264.907   114387751.67348      3191.699    21767265.581    89133316.77949
      2487.077  
  20954231.099   110115226.60949     -2006.844    20954230.822    85804071.16549
     -1563.777  
  22244223.498   116894184.45548      2888.198    22244223.848    91086378.49246
      2250.543  
  24686855.228   129730299.01647      -564.944    24686855.392   101088567.77445
      -440.218  
  23930384.449   125755019.93247       940.874    23930387.110    97990934.74446
       733.144  
 20 10 03 04 24 55.0000000  0  8G13G 2G29G15G 5G18G 7G30
  20807370.402   109343470.37649      1540.620    20807370.120    85202704.89147
      1200.479  
  23356534.030   122739411.56247     -2903.957    23356532.973    95641094.07545
     -2262.827  
  21507742.733   113023949.22448     -1793.098    21507742.936    88070610.39849
     -1397.222  
  21764229.170   114371798.54948      3189.707    21764229.804    89120885.77849
      2485.469  
  20956141.435   110125265.15149     -2008.620    20956141.023    85811893.40249
     -1565.164  
  22241476.014   116879746.17248      2886.948    22241476.238    91075127.89446
      2249.565  
  24687394.330   129733132.48547      -568.309    24687394.583   101090775.67246
      -442.839  
  23929490.884   125750323.49447       937.875    23929493.576    97987275.18545
       730.808  
 20 10 03 04 25  0.0000000  0  8G13G 2G29G15G 5G18G 7G30
  20805906.115   109335775.27849      1537.328    20805905.846    85196708.71447
      1197.913  
  23359297.332   122753932.56447     -2904.879    23359296.211    95652409.13546
     -2263.546  
  21509450.244   113032922.63148     -1796.180    21509450.472    88077602.66049
     -1399.625  
  21761195.338   114355855.71648      3187.434    21761195.976    89108462.79349
      2483.745  
  20958053.303   110135312.30549     -2010.249    20958052.941    85819722.35349
     -1566.434  
  22238729.694   116865314.25348      2885.687    22238730.079    91063882.23846
      2248.585  
  24687936.244   129735980.01747      -571.108    24687936.537   101092994.53845
      -445.022  
  23928599.912   125745641.03147       935.105    23928602.352    97983626.52045
       728.652  
 20 10 03 04 25  5.0000000  0  8G13G 2G29G15G 5G18G 7G30
  20804444.850   109328096.62449      1534.187    20804444.731    85190725.35047
      1195.469  
  23362061.947   122768460.21548     -2906.112    23362060.712    95663729.36946
     -2264.507  
  21511160.795   113041911.85348     -1799.405    21511161.169    88084607.24349
     -1402.136  
  21758163.593   114339923.50348      3185.582    21758164.347    89096048.08949
      2482.218  
  20959966.898   110145368.40849     -2011.874    20959966.560    85827558.27349
     -1567.699  
  22235984.669   116850889.05448      2884.387    22235984.896    91052641.83047
      2247.570  
  24688480.692   129738841.95347      -573.921    24688481.120   101095224.61045
      -447.214  
  23927711.448   125740972.93447       932.218    23927714.201    97979989.03446
       726.401  
 20 10 03 04 25 10.0000000  0  8G13G 2G29G15G 5G18G 7G30
  20802986.635   109320433.74649      1531.019    20802986.527    85184754.27747
      1192.999  
  23364827.554   122782993.82747     -2907.272    23364826.403    95675054.25145
     -2265.410  
  21512874.409   113050916.17748     -1802.375    21512874.566    88091623.59849
     -1404.453  
  21755133.756   114324001.26148      3183.425    21755134.431    89083641.15249
      2480.535  
  20961882.012   110155432.77449     -2013.644    20961881.662    85835400.63949
     -1569.078  
  22233240.624   116836469.90348      2883.280    22233241.197    91041406.12547
      2246.710  
  24689027.963   129741717.62947      -576.523    24689028.388   101097465.39345
      -449.242  
  23926825.777   125736318.54647       929.405    23926828.431    97976362.23445
       724.211  
 20 10 03 04 25 15.0000000  0  8G13G 2G29G15G 5G18G 7G30
  20801531.663   109312787.06649      1527.703    20801531.268    85178795.83047
      1190.414  
  23367594.470   122797533.75447     -2908.409    23367593.321    95686384.07046
     -2266.296  
  21514590.677   113059935.94548     -1805.362    21514590.901    88098651.98449
     -1406.781  
  21752105.811   114308089.39648      3181.636    21752106.450    89071242.29749
      2479.145  
  20963798.824   110165505.78449     -2015.479    20963798.461    85843249.73549
     -1570.508  
  22230498.101   116822057.19248      2882.058    22230498.483    91030175.44847
      2245.758  
  24689577.885   129744607.45847      -579.344    24689578.415   101099717.22645
      -451.441  
  23925942.823   125731678.24947       926.508    23925945.423    97972746.43245
       721.949  
 20 10 03 04 25 20.0000000  0  8G13G 2G29G15G 5G18G 7G30
  20800079.541   109305156.95749      1524.273    20800079.443    85172850.28947
      1187.742  
  23370362.698   122812080.42347     -2910.062    23370361.487    95697719.12246
     -2267.585  
  21516310.170   113068971.62948     -1808.835    21516310.395    88105692.77349
     -1409.483  
  21749079.933   114292188.33148      3179.133    21749080.450    89058851.86249
      2477.175  
  20965717.379   110175587.85449     -2017.284    20965716.977    85851105.89349
     -1571.914  
  22227756.727   116807651.36448      2880.410    22227757.183    91018950.12846
      2244.473  
  24690130.507   129747511.85247      -582.335    24690130.991   101101980.36745
      -453.770  
  23925062.520   125727052.47447       923.577    23925065.086    97969141.94346
       719.668  
 20 10 03 04 25 25.0000000  0  8G13G 2G29G15G 5G18G 7G30
  20798630.839   109297543.41449      1521.069    20798630.552    85166917.66347
      1185.245  
  23373132.049   122826633.83347     -2911.339    23373130.831    95709059.43746
     -2268.578  
  21518032.717   113078023.20648     -1811.901    21518032.822    88112745.94949
     -1411.874  
  21746056.143   114276298.05448      3176.922    21746056.624    89046469.83149
      2475.520  
  20967637.608   110185678.97949     -2019.211    20967637.452    85858969.10449
     -1573.413  
  22225016.710   116793252.41148      2878.956    22225017.148    91007730.17246
      2243.339  
  24690685.950   129750430.90847      -585.246    24690686.309   101104254.96046
      -456.039  
  23924185.058   125722441.19347       920.723    23924187.661    97965548.72346
       717.440  
 20 10 03 04 25 30.0000000  0  8G13G 2G29G15G 5G18G 7G30
  20797184.998   109289945.93849      1518.030    20797184.838    85160997.55247
      1182.879  
  23375902.754   122841193.45748     -2912.504    23375901.404    95720404.59246
     -2269.488  
  21519758.118   113087090.12248     -1814.741    21519758.419    88119811.07549
     -1414.089  
  21743034.276   114260418.06648      3174.984    21743034.757    89034095.82249
      2474.012  
  20969559.542   110195778.65549     -2020.684    20969559.143    85866838.98449
     -1574.562  
  22222277.832   116778859.82648      2877.699    22222278.307    90996515.17147
      2242.358  
  24691244.077   129753363.97947      -587.867    24691244.526   101106540.48545
      -458.081  
  23923310.092   125717843.93247       918.159    23923312.900    97961966.44346
       715.445  
 20 10 03 04 25 35.0000000  0  8G13G 2G29G15G 5G18G 7G30
  20795742.383   109282364.60149      1514.520    20795742.287    85155090.01747
      1180.140  
  23378674.591   122855759.37348     -2914.055    23378673.224    95731754.63846
     -2270.694  
  21521486.367   113096172.47848     -1818.097    21521486.702    88126888.23149
     -1416.702  
  21740014.313   114244548.46048      3172.933    21740014.841    89021729.89749
      2472.413  
  20971483.023   110205886.92749     -2022.687    20971482.775    85874715.56149
     -1576.125  
  22219540.257   116764473.67848      2876.401    22219540.677    90985305.19147
      2241.347  
  24691805.063   129756311.14047      -590.707    24691805.275   101108836.96845
      -460.292  
  23922437.995   125713260.75147       915.202    23922440.842    97958395.13546
       713.140  
 20 10 03 04 25 40.0000000  0  8G13G 2G29G15G 5G18G 7G30
  20794302.805   109274799.31449      1511.487    20794302.426    85149194.99347
      1177.781  
  23381447.565   122870331.47747     -2914.937    23381446.255    95743109.52046
     -2271.383  
  21523217.658   113105270.16148     -1821.136    21523217.902    88133977.33049
     -1419.069  
  21736996.477   114228689.18648      3170.922    21736997.129    89009372.02749
      2470.762  
  20973408.201   110216003.68249     -2024.089    20973407.883    85882598.74349
     -1577.214  
  22216803.816   116750093.89348      2875.370    22216804.327    90974100.16847
      2240.546  
  24692368.513   129759272.31047      -593.636    24692368.904   101111144.37245
      -462.577  
  23921568.542   125708691.59247       912.547    23921571.240    97954834.76146
       711.073  
 20 10 03 04 25 45.0000000  0  8G13G 2G29G15G 5G18G 7G30
  20792866.286   109267250.79549      1507.813    20792866.220    85143313.03447
      1174.914  
  23384221.884   122884910.47047     -2916.792    23384220.460    95754469.77046
     -2272.828  
  21524951.809   113114383.83848     -1824.366    21524952.046    88141078.89249
     -1421.589  
  21733980.537   114212840.94148      3168.331    21733981.142    88997022.75349
      2468.741  
  20975335.099   110226129.63049     -2026.125    20975334.946    85890489.08749
     -1578.800  
  22214068.911   116735721.18748      2873.780    22214069.163    90962900.66047
      2239.308  
  24692934.830   129762248.19747      -596.976    24692935.204   101113463.24546
      -465.180  
  23920701.925   125704137.11047       909.413    23920704.563    97951285.83145
       708.636  
 20 10 03 04 25 50.0000000  0  8G13G 2G29G15G 5G18G 7G30
  20791432.982   109259718.92049      1504.766    20791432.937    85137444.04247
      1172.542  
  23386997.521   122899496.19247     -2917.733    23386996.220    95765835.26245
     -2273.562  
  21526689.178   113123513.40248     -1827.569    21526689.367    88148192.83549
     -1424.082  
  21730966.850   114197003.59248      3166.566    21730967.350    88984681.96549
      2467.402  
  20977263.720   110236264.60349     -2027.788    20977263.468    85898386.46849
     -1580.097  
  22211335.179   116721355.45248      2872.530    22211335.469    90951706.58046
      2238.331  
  24693503.789   129765238.63047      -599.684    24693504.211   101115793.45245
      -467.288  
  23919838.001   125699597.22047       906.804    23919840.762    97947748.24346
       706.598  
 20 10 03 04 25 55.0000000  0  8G13G 2G29G15G 5G18G 7G30
  20790002.725   109252202.62049      1501.729    20790002.595    85131587.18847
      1170.176  
  23389774.106   122914087.56148     -2918.694    23389772.924    95777205.14846
     -2274.312  
  21528429.241   113132657.77348     -1830.362    21528429.611    88155318.31449
     -1426.261  
  21727955.071   114181176.08848      3164.652    21727955.516    88972348.85249
      2465.960  
  20979193.863   110246407.54149     -2029.241    20979193.703    85906290.05449
     -1581.229  
  22208602.552   116706995.61848      2871.378    22208603.023    90940517.10546
      2237.433  
  24694075.417   129768242.58847      -601.948    24694075.929   101118134.19946
      -469.054  
  23918976.554   125695070.84947       904.007    23918979.454    97944221.20246
       704.417  
 20 10 03 04 26  0.0000000  0  8G13G 2G29G15G 5G18G 7G30
  20788575.505   109244702.05849      1498.480    20788575.195    85125742.59847
      1167.645  
  23392551.840   122928684.74448     -2920.272    23392550.573    95788579.56346
     -2275.539  
  21530172.326   113141817.09148     -1833.504    21530172.547    88162455.43949
     -1428.706  
  21724945.021   114165358.57548      3162.465    21724945.598    88960023.52249
      2464.281  
  20981125.511   110256558.63749     -2031.148    20981125.156    85914199.99949
     -1582.715  
  22205871.094   116692641.83648      2870.171    22205871.529    90929332.34647
      2236.495  
  24694649.730   129771260.21547      -604.840    24694649.994   101120485.58645
      -471.309  
  23918117.971   125690558.18547       901.171    23918120.560    97940704.83245
       702.207  
 20 10 03 04 26  5.0000000  0  8G13G 2G29G15G 5G18G 7G30
  20787151.340   109237218.89349      1495.063    20787151.196    85119911.56047
      1164.979  
  23395331.096   122943289.36347     -2921.491    23395329.686    95799959.78346
     -2276.491  
  21531918.281   113150992.95848     -1836.695    21531918.648    88169605.46049
     -1431.194  
  21721937.251   114149552.70148      3160.132    21721937.918    88947707.26249
      2462.469  
  20983059.058   110266719.49449     -2033.046    20983058.809    85922117.54949
     -1584.195  
  22203141.111   116678295.77348      2868.538    22203141.526    90918153.59646
      2235.222  
  24695226.889   129774293.14347      -607.948    24695227.042   101122848.90644
      -473.730  
  23917262.048   125686060.84447       898.315    23917264.847    97937200.42446
       699.983  
 20 10 03 04 26 10.0000000  0  8G13G 2G29G15G 5G18G 7G30
  20785730.412   109229751.36949      1491.699    20785730.137    85114092.71547
      1162.358  
  23398111.328   122957899.70747     -2922.879    23398110.062    95811344.46146
     -2277.570  
  21533667.264   113160183.67648     -1839.769    21533667.683    88176767.05949
     -1433.590  
  21718931.354   114133756.73148      3157.948    21718931.931    88935398.71749
      2460.761  
  20984994.156   110276888.38149     -2034.659    20984993.937    85930041.35549
     -1585.452  
  22200412.295   116663955.68148      2867.065    22200412.729    90906979.50347
      2234.073  
  24695806.548   129777339.58447      -610.808    24695806.798   101125222.75646
      -475.956  
  23916408.924   125681577.08447       895.184    23916411.640    97933706.59046
       697.543  
 20 10 03 04 26 15.0000000  0  8G13G 2G29G15G 5G18G 7G30
  20784312.525   109222300.97649      1488.508    20784312.489    85108287.21347
      1159.871  
  23400893.071   122972517.24247     -2924.112    23400891.638    95822734.73546
     -2278.531  
  21535419.306   113169390.66148     -1842.789    21535419.651    88183941.32949
     -1435.941  
  21715927.758   114117972.19348      3155.953    21715928.387    88923099.08249
      2459.233  
  20986930.974   110287066.74049     -2036.406    20986930.769    85937972.54349
     -1586.812  
  22197685.011   116649623.02148      2866.147    22197685.383    90895811.19647
      2233.359  
  24696389.248   129780401.10347      -613.741    24696389.421   101127608.34545
      -478.241  
  23915558.513   125677108.39447       892.273    23915561.275    97930224.49045
       695.273  
 20 10 03 04 26 20.0000000  0  8G13G 2G29G15G 5G18G 7G30
  20782897.881   109214866.53849      1485.214    20782897.770    85102494.14747
      1157.309  
  23403675.764   122987140.73647     -2925.472    23403674.433    95834129.66046
     -2279.593  
  21537174.206   113178612.65848     -1845.949    21537174.553    88191127.29549
     -1438.406  
  21712925.872   114102197.83448      3153.663    21712926.544    88910807.38249
      2457.387  
  20988869.496   110297253.33549     -2038.152    20988869.304    85945910.14749
     -1588.176  
  22194958.676   116635296.62748      2864.519    22194959.009    90884647.77547
      2232.089  
  24696974.390   129783476.35747      -616.483    24696974.542   101130004.66045
      -480.379  
  23914710.759   125672653.54047       889.597    23914713.637    97926753.17946
       693.191  
 20 10 03 04 26 25.0000000  0  8G13G 2G29G15G 5G18G 7G30
  20781486.273   109207448.61049      1481.929    20781485.980    85096713.94447
      1154.746  
  23406459.763   123001770.74947     -2926.926    23406458.436    95845529.65846
     -2280.723  
  21538932.130   113187850.30048     -1849.108    21538932.379    88198325.45449
     -1440.866  
  21709926.275   114086434.22148      3151.625    21709926.898    88898524.05049
      2455.808  
  20990809.542   110307448.71749     -2039.965    20990809.314    85953854.60049
     -1589.585  
  22192233.863   116620977.04748      2863.039    22192234.137    90873489.66046
      2230.938  
  24697562.205   129786566.00047      -619.383    24697562.576   101132412.18545
      -482.640  
  23913865.882   125668213.11947       886.593    23913868.639    97923293.11646
       690.847  
 20 10 03 04 26 30.0000000  0  8G13G 2G29G15G 5G18G 7G30
  20780077.907   109200047.22049      1478.702    20780077.612    85090946.63247
      1152.233  
  23409245.100   123016407.29347     -2927.632    23409243.664    95856934.76246
     -2281.276  
  21540692.911   113197103.58048     -1852.159    21540693.135    88205535.80049
     -1443.246  
  21706928.573   114070681.44048      3149.476    21706929.230    88886249.16449
      2454.155  
  20992751.313   110317652.95049     -2041.734    20992751.030    85961805.94849
     -1590.965  
  22189510.190   116606664.36148      2861.730    22189510.440    90862336.92147
      2229.917  
  24698153.069   129789670.07547      -622.315    24698153.078   101134830.94146
      -484.925  
  23913023.620   125663787.18947       883.773    23913026.356    97919844.32745
       688.651  
 20 10 03 04 26 35.0000000  0  8G13G 2G29G15G 5G18G 7G30
  20778672.393   109192661.79049      1475.534    20778672.173    85085191.75347
      1149.766  
  23412031.370   123031049.83648     -2928.921    23412030.126    95868344.51546
     -2282.280  
  21542456.559   113206371.95248     -1855.315    21542456.831    88212757.90249
     -1445.703  
  21703932.771   114054938.95548      3147.387    21703933.497    88873982.29549
      2452.507  
  20994694.788   110327865.45149     -2043.441    20994694.465    85969763.73749
     -1592.297  
  22186787.870   116592358.00248      2860.534    22186788.254    90851189.11747
      2228.984  
  24698746.204   129792787.98647      -625.012    24698746.451   101137260.48746
      -487.022  
  23912184.032   125659375.21947       880.886    23912186.756    97916406.43146
       686.402  
 20 10 03 04 26 40.0000000  0  8G13G 2G29G15G 5G18G 7G30
  20777270.093   109185292.21549      1472.370    20777269.913    85079449.23147
      1147.300  
  23414819.034   123045698.20147     -2930.140    23414817.569    95879758.81546
     -2283.229  
  21544223.230   113215655.24848     -1858.034    21544223.459    88219991.63449
     -1447.823  
  21700939.077   114039206.61548      3145.327    21700939.719    88861723.33449
      2450.823  
  20996639.779   110338086.07249     -2044.957    20996639.361    85977727.85749
     -1593.476  
  22184066.478   116578057.83648      2859.550    22184067.022    90840046.13047
      2228.218  
  24699342.219   129795919.66247      -627.437    24699342.380   101139700.74645
      -488.913  
  23911347.123   125654977.01547       878.347    23911349.830    97912979.26145
       684.421  
 20 10 03 04 26 45.0000000  0  8G13G 2G29G15G 5G18G 7G30
  20775870.861   109177939.76649      1468.746    20775870.826    85073720.04747
      1144.473  
  23417607.775   123060353.69847     -2931.879    23417606.462    95891178.67846
     -2284.585  
  21545992.779   113224954.76048     -1861.456    21545993.248    88227238.00149
     -1450.488  
  21697947.471   114023485.71348      3142.913    21697948.140    88849473.29049
      2449.019  
  20998586.470   110348316.16049     -2046.983    20998586.204    85985699.35449
     -1595.055  
  22181346.834   116563765.16748      2857.883    22181346.990    90828908.99147
      2226.918  
  24699941.028   129799066.33247      -630.851    24699941.315   101142152.69246
      -491.574  
  23910512.876   125650593.92347       875.023    23910515.618    97909563.86746
       681.831  
 20 10 03 04 26 50.0000000  0  8G13G 2G29G15G 5G18G 7G30
  20774474.863   109170603.21449      1465.633    20774474.667    85068003.25948
      1142.046  
  23420397.869   123075015.01947     -2932.937    23420396.608    95902603.07646
     -2285.409  
  21547765.375   113234269.25048     -1864.456    21547765.728    88234496.04449
     -1452.828  
  21694957.762   114007774.99548      3141.034    21694958.514    88837231.17649
      2447.559  
  21000534.697   110358554.40949     -2048.434    21000534.516    85993677.20749
     -1596.183  
  22178628.120   116549478.75948      2856.590    22178628.455    90817776.73047
      2225.909  
  24700542.347   129802226.72247      -633.444    24700542.818   101144615.34245
      -493.597  
  23909681.530   125646224.64047       872.378    23909684.355    97906159.23246
       679.772  
 20 10 03 04 26 55.0000000  0  8G13G 2G29G15G 5G18G 7G30
  20773081.900   109163283.61149      1462.512    20773081.678    85062299.67447
      1139.616  
  23423189.078   123089683.23747     -2934.233    23423187.714    95914032.84746
     -2286.418  
  21549540.805   113243599.73348     -1867.405    21549541.130    88241766.54849
     -1455.124  
  21691970.335   113992075.55548      3139.047    21691970.851    88824997.85149
      2446.007  
  21002484.664   110368801.86949     -2050.183    21002484.543    86001662.24249
     -1597.550  
  22175910.920   116535199.65248      2855.401    22175911.368    90806650.15147
      2224.983  
  24701146.516   129805401.86647      -635.987    24701146.952   101147089.48145
      -495.577  
  23908852.992   125641870.30147       869.566    23908855.746    97902766.24846
       677.582  
 20 10 03 04 27  0.0000000  0  8G13G 2G29G15G 5G18G 7G30
  20771691.991   109155979.99749      1459.113    20771691.870    85056608.54847
      1136.969  
  23425981.441   123104357.39147     -2935.519    23425980.263    95925467.24446
     -2287.421  
  21551319.262   113252945.21048     -1870.511    21551319.476    88249048.73449
     -1457.542  
  21688984.808   113976386.41248      3136.733    21688985.361    88812772.55249
      2444.145  
  21004436.309   110379057.55149     -2051.952    21004436.027    86009653.68049
     -1598.925  
  22173194.867   116520926.88448      2853.992    22173195.275    90795528.51547
      2223.886  
  24701753.352   129808590.84647      -639.250    24701753.856   101149574.40045
      -498.120  
  23908026.925   125637529.85247       866.852    23908029.815    97899384.07446
       675.465  
 20 10 03 04 27  5.0000000  0  8G13G 2G29G15G 5G18G 7G30
  20770305.510   109148693.14649      1455.687    20770305.245    85050930.48647
      1134.297  
  23428775.137   123119038.26747     -2936.702    23428773.848    95936906.88146
     -2288.343  
  21553100.596   113262306.46748     -1873.750    21553100.986    88256343.21949
     -1460.066  
  21686001.373   113960708.35548      3134.586    21686001.829    88800555.89349
      2442.531  
  21006389.702   110389322.23349     -2053.921    21006389.475    86017652.13249
     -1600.461  
  22170480.337   116506661.27448      2852.316    22170480.652    90784412.46347
      2222.581  
  24702363.033   129811794.42947      -642.167    24702363.418   101152070.70645
      -500.394  
  23907203.911   125633204.16147       863.738    23907206.531    97896013.39546
       673.038  
 20 10 03 04 27 10.0000000  0  8G13G 2G29G15G 5G18G 7G30
  20768921.867   109141422.74049      1452.480    20768921.794    85045265.23747
      1131.800  
  23431570.000   123133725.62447     -2937.848    23431568.871    95948351.56546
     -2289.234  
  21554884.980   113271683.15648     -1876.773    21554885.194    88263649.72349
     -1462.426  
  21683020.036   113945041.07348      3132.395    21683020.507    88788347.62649
      2440.824  
  21008344.589   110399595.54349     -2055.440    21008344.375    86025657.30849
     -1601.644  
  22167766.941   116492402.44248      2851.137    22167767.225    90773301.68647
      2221.660  
  24702975.372   129815012.25947      -645.160    24702975.866   101154578.10845
      -502.726  
  23906383.385   125628892.83447       861.305    23906385.939    97892653.92746
       671.144  
 20 10 03 04 27 15.0000000  0  8G13G 2G29G15G 5G18G 7G30
  20767541.465   109134168.39749      1449.147    20767541.263    85039612.50547
      1129.203  
  23434366.007   123148418.95847     -2939.229    23434364.813    95959800.91646
     -2290.312  
  21556672.035   113281074.88048     -1879.844    21556672.334    88270967.94749
     -1464.815  
  21680040.598   113929384.14548      3130.371    21680041.124    88776147.42649
      2439.245  
  21010301.212   110409877.10649     -2057.293    21010300.770    86033668.91549
     -1603.089  
  22165054.865   116478150.04048      2849.754    22165055.015    90762195.91947
      2220.586  
  24703590.188   129818243.95347      -648.055    24703590.746   101157096.31346
      -504.980  
  23905565.672   125624595.50247       858.059    23905568.278    97889305.37046
       668.613  
 20 10 03 04 27 20.0000000  0  8G13G 2G29G15G 5G18G 7G30
  20766164.114   109126930.58949      1445.773    20766163.909    85033972.65647
      1126.574  
  23437163.341   123163118.70447     -2940.750    23437162.222    95971255.24746
     -2291.496  
  21558462.324   113290482.09948     -1883.047    21558462.635    88278298.24649
     -1467.313  
  21677063.241   113913738.15348      3127.972    21677063.708    88763955.74949
      2437.394  
  21012259.351   110420167.41448     -2058.973    21012259.095    86041687.33749
     -1604.398  
  22162343.933   116463904.55848      2848.398    22162344.290    90751095.54847
      2219.527  
  24704207.877   129821489.93146      -650.617    24704208.342   101159625.64245
      -506.976  
  23904750.638   125620312.65847       855.039    23904753.368    97885968.07346
       666.261  
 20 10 03 04 27 25.0000000  0  8G13G 2G29G15G 5G18G 7G30
  20764789.975   109119709.00549      1442.781    20764789.725    85028345.44847
      1124.241  
  23439961.817   123177824.54447     -2941.897    23439960.663    95982714.33046
     -2292.390  
  21560255.272   113299904.51148     -1886.070    21560255.637    88285640.38149
     -1469.668  
  21674087.777   113898102.70548      3126.140    21674088.490    88751772.29149
      2435.948  
  21014219.200   110430466.18049     -2060.507    21014218.892    86049712.34749
     -1605.593  
  22159634.343   116449665.72348      2847.144    22159634.800    90740000.35547
      2218.551  
  24704828.239   129824749.95246      -653.034    24704828.679   101162165.91146
      -508.862  
  23903938.479   125616044.01547       852.835    23903940.916    97882641.87346
       664.542  
 20 10 03 04 27 30.0000000  0  8G13G 2G29G15G 5G18G 7G30
  20763418.908   109112504.09049      1439.413    20763418.745    85022731.23347
      1121.616  
  23442761.441   123192536.85347     -2943.023    23442760.313    95994178.46046
     -2293.270  
  21562051.275   113309342.47448     -1888.983    21562051.561    88292994.64049
     -1471.937  
  21671114.639   113882478.25848      3123.800    21671115.212    88739597.40549
      2434.280  
  21016180.560   110440773.75648     -2062.305    21016180.404    86057744.22549
     -1606.992  
  22156926.103   116435433.89148      2845.858    22156926.504    90728910.61847
      2217.550  
  24705451.462   129828024.38646      -655.934    24705451.905   101164717.41746
      -511.121  
  23903128.776   125611789.99747       849.452    23903131.594    97879327.05645
       661.909  
 20 10 03 04 27 35.0000000  0  8G13G 2G29G15G 5G18G 7G30
  20762050.878   109105315.60649      1435.937    20762050.669    85017129.81647
      1118.910  
  23445562.385   123207255.41647     -2944.124    23445561.192    96005647.46746
     -2294.125  
  21563850.124   113318795.77048     -1892.188    21563850.416    88300360.83949
     -1474.434  
  21668143.364   113866864.57248      3121.758    21668143.906    88727430.90349
      2432.534  
  21018143.638   110451089.89648     -2064.058    21018143.363    86065782.77549
     -1608.358  
  22154219.195   116421208.86948      2844.355    22154219.656    90717826.18747
      2216.379  
  24706077.355   129831313.07346      -659.176    24706077.837   101167280.03745
      -513.647  
  23902322.146   125607550.34547       846.323    23902324.678    97876023.43046
       659.469  
 20 10 03 04 27 40.0000000  0  8G13G 2G29G15G 5G18G 7G30
  20760686.082   109098143.33949      1432.792    20760686.017    85011541.04447
      1116.456  
  23448364.450   123221980.08247     -2945.698    23448363.328    96017121.21346
     -2295.351  
  21565652.030   113328264.19848     -1895.289    21565652.197    88307738.83149
     -1476.851  
  21665174.189   113851261.48448      3119.492    21665174.777    88715272.66049
      2430.792  
  21020108.417   110461414.41149     -2065.996    21020108.045    86073827.84949
     -1609.871  
  22151513.587   116406990.48948      2842.793    22151513.829    90706746.93347
      2215.159  
  24706705.677   129834615.73847      -662.019    24706706.189   101169853.53345
      -515.862  
  23901517.993   125603324.87047       843.398    23901520.482    97872730.85045
       657.191  
 20 10 03 04 27 45.0000000  0  8G13G 2G29G15G 5G18G 7G30
  20759324.344   109090987.82249      1429.558    20759324.284    85005965.31947
      1113.937  
  23451167.665   123236711.32747     -2946.953    23451166.597    96028600.10046
     -2296.331  
  21567456.782   113337748.26448     -1898.109    21567457.167    88315129.00749
     -1479.051  
  21662207.111   113835669.53848      3117.331    21662207.860    88703123.09949
      2429.085  
  21022074.738   110471747.77949     -2067.395    21022074.442    86081879.82549
     -1610.961  
  22148809.318   116392779.24048      2841.563    22148809.709    90695673.23347
      2214.203  
  24707336.906   129837932.89847      -664.788    24707337.411   101172438.34645
      -518.020  
  23900716.881   125599114.09247       840.652    23900719.197    97869449.72346
       655.051  
 20 10 03 04 27 50.0000000  0  8G13G 2G29G15G 5G18G 7G30
  20757965.829   109083848.22149      1426.285    20757965.504    85000401.99747
      1111.386  
  23453972.001   123251448.30747     -2948.011    23453970.850    96040083.45446
     -2297.155  
  21569264.393   113347247.13548     -1901.358    21569264.574    88322530.72449
     -1481.582  
  21659241.931   113820087.85048      3115.223    21659242.658    88690981.53049
      2427.421  
  21024042.762   110482089.15949     -2069.098    21024042.532    86089938.04249
     -1612.285  
  22146106.212   116378574.28948      2840.175    22146106.561    90684604.44747
      2213.121  
  24707970.763   129841263.71446      -667.797    24707971.142   101175033.77545
      -520.362  
  23899918.246   125594917.20247       837.785    23899920.671    97866179.42346
       652.816  
 20 10 03 04 27 55.0000000  0  8G13G 2G29G15G 5G18G 7G30
  20756610.171   109076724.96749      1422.945    20756610.124    84994851.41047
      1108.785  
  23456777.487   123266191.48447     -2949.237    23456776.326    96051571.62946
     -2298.109  
  21571074.853   113356761.20048     -1904.348    21571075.147    88329944.27849
     -1483.910  
  21656278.843   113804516.90648      3113.086    21656279.646    88678848.33649
      2425.844  
  21026012.309   110492439.00849     -2070.733    21026011.860    86098002.85849
     -1613.562  
  22143404.417   116364376.10548      2838.847    22143404.614    90673540.92847
      2212.086  
  24708607.329   129844608.64147      -670.320    24708607.834   101177640.20346
      -522.331  
  23899122.283   125590734.61047       835.164    23899124.787    97862920.25646
       650.773  
 20 10 03 04 28  0.0000000  0  8G13G 2G29G15G 5G18G 7G30
  20755257.919   109069618.86549      1419.656    20755257.931    84989314.19047
      1106.223  
  23459584.297   123280941.59047     -2950.479    23459583.291    96063065.21246
     -2299.078  
  21572888.376   113366291.26548     -1907.418    21572888.650    88337370.30149
     -1486.305  
  21653318.045   113788957.49448      3110.894    21653318.828    88666724.12449
      2424.074  
  21027983.572   110502798.12749     -2072.691    21027983.126    86106074.89749
     -1615.085  
  22140703.957   116350185.47048      2837.457    22140704.385    90662483.28747
      2211.003  
  24709246.726   129847968.44846      -673.082    24709247.205   101180258.22446
      -524.484  
  23898329.349   125586567.11847       832.253    23898331.595    97859672.86145
       648.508  
 20 10 03 04 28  5.0000000  0  8G13G 2G29G15G 5G18G 7G30
  20753908.913   109062529.07649      1416.445    20753908.691    84983789.68447
      1103.719  
  23462392.249   123295697.82047     -2951.652    23462391.231    96074563.56946
     -2299.991  
  21574704.746   113375836.44748     -1910.363    21574705.090    88344808.10049
     -1488.582  
  21650359.148   113773408.79348      3108.679    21650359.949    88654608.25849
      2422.344  
  21029956.366   110513165.70049     -2074.229    21029956.116    86114153.52149
     -1616.285  
  22138004.828   116336001.54348      2836.413    22138005.122    90651430.88047
      2210.191  
  24709888.770   129851342.28647      -675.956    24709889.238   101182887.17945
      -526.723  
  23897538.906   125582413.90647       829.176    23897541.358    97856436.59846
       646.109  
 20 10 03 04 28 10.0000000  0  8G13G 2G29G15G 5G18G 7G30
  20752562.759   109055455.57949      1413.047    20752562.597    84978277.87247
      1101.074  
  23465201.555   123310460.13747     -2953.031    23465200.373    96086066.66446
     -2301.065  
  21576523.974   113385396.70748     -1913.581    21576524.216    88352257.65149
     -1491.105  
  21647402.358   113757870.72548      3106.406    21647403.033    88642500.68149
      2420.520  
  21031930.868   110523541.62149     -2076.168    21031930.572    86122238.65449
     -1617.796  
  22135307.025   116321824.33848      2834.656    22135307.337    90640383.71347
      2208.820  
  24710533.481   129854730.14047      -678.957    24710533.929   101185527.08145
      -529.063  
  23896751.243   125578274.89547       826.452    23896753.830    97853211.39745
       643.984  
 20 10 03 04 28 15.0000000  0  8G13G 2G29G15G 5G18G 7G30
  20751219.847   109048398.87349      1409.770    20751219.919    84972779.14347
      1098.519  
  23468011.979   123325229.07747     -2954.387    23468010.759    96097574.91245
     -2302.120  
  21578346.227   113394972.58848     -1916.770    21578346.507    88359719.37649
     -1493.590  
  21644447.639   113742343.85548      3104.352    21644448.309    88630401.82849
      2418.933  
  21033907.087   110533926.37849     -2077.788    21033906.748    86130330.67149
     -1619.059  
  22132610.571   116307654.34648      2833.266    22132611.015    90629342.16347
      2207.734  
  24711180.854   129858132.51346      -681.945    24711181.333   101188178.28045
      -531.390  
  23895966.477   125574150.67447       823.305    23895968.910    97849997.71845
       641.531  
 20 10 03 04 28 20.0000000  0  8G13G 2G29G15G 5G18G 7G30
  20749880.156   109041358.12749      1406.594    20749879.958    84967292.85047
      1096.042  
  23470823.357   123340003.71947     -2955.395    23470822.386    96109087.61646
     -2302.906  
  21580171.359   113404563.19148     -1919.391    21580171.491    88367192.56949
     -1495.633  
  21641495.030   113726827.35348      3102.406    21641495.801    88618311.05549
      2417.461  
  21035884.810   110544319.16549     -2079.160    21035884.369    86138428.94849
     -1620.129  
  22129915.240   116293490.72048      2832.308    22129915.660    90618305.57347
      2206.991  
  24711830.887   129861548.52546      -684.491    24711831.453   101190840.10145
      -533.374  
  23895184.370   125570040.36047       820.812    23895186.675    97846794.87845
       639.589  
 20 10 03 04 28 25.0000000  0  8G13G 2G29G15G 5G18G 7G30
  20748543.328   109034333.48549      1403.215    20748543.404    84961819.10447
      1093.410  
  23473636.073   123354784.20447     -2956.925    23473634.950    96120604.87546
     -2304.101  
  21581999.144   113414168.64348     -1922.688    21581999.408    88374677.33349
     -1498.202  
  21638544.297   113711321.33148      3099.921    21638545.013    88606228.44549
      2415.519  
  21037864.048   110554720.06949     -2081.097    21037863.695    86146533.54849
     -1621.637  
  22127221.251   116279333.61848      2830.667    22127221.760    90607274.06647
      2205.711  
  24712483.611   129864978.29946      -687.312    24712484.013   101193512.66345
      -535.569  
  23894404.954   125565944.12547       817.719    23894407.454    97843603.00346
       637.180  
 20 10 03 04 28 30.0000000  0  8G13G 2G29G15G 5G18G 7G30
  20747209.742   109027325.91249      1399.742    20747209.762    84956358.65747
      1090.702  
  23476449.979   123369571.53547     -2958.121    23476448.983    96132127.46546
     -2305.030  
  21583829.985   113423789.93048     -1925.836    21583830.254    88382174.43549
     -1500.656  
  21635595.679   113695826.79948      3097.770    21635596.404    88594154.79149
      2413.851  
  21039845.012   110565130.10649     -2083.034    21039844.749    86154645.25949
     -1623.148  
  22124528.789   116265184.01348      2829.272    22124529.125    90596248.39347
      2204.625  
  24713139.005   129868422.88947      -690.547    24713139.498   101196196.76446
      -538.089  
  23893628.219   125561862.88847       814.758    23893630.639    97840422.82546
       634.871  
 20 10 03 04 28 35.0000000  0  8G13G 2G29G15G 5G18G 7G30
  20745879.400   109020334.88849      1396.621    20745879.553    84950911.11247
      1088.272  
  23479265.184   123384365.16147     -2959.238    23479264.013    96143654.95046
     -2305.901  
  21585663.864   113433426.53248     -1928.823    21585664.030    88389683.47449
     -1502.983  
  21632649.369   113680343.24448      3095.672    21632649.991    88582089.69149
      2412.218  
  21041827.502   110575548.69249     -2084.495    21041827.257    86162763.64249
     -1624.284  
  22121837.471   116251041.41648      2828.039    22121837.919    90585228.19947
      2203.664  
  24713797.255   129871881.67047      -693.226    24713797.694   101198891.90645
      -540.180  
  23892854.429   125557796.18747       811.952    23892856.748    97837253.96545
       632.687  
 20 10 03 04 28 40.0000000  0  8G13G 2G29G15G 5G18G 7G30
  20744552.282   109013360.08349      1393.289    20744552.270    84945476.20347
      1085.676  
  23482081.305   123399164.69447     -2960.401    23482080.505    96155187.04346
     -2306.808  
  21587500.599   113443078.04348     -1931.742    21587500.735    88397204.12749
     -1505.258  
  21629704.929   113664870.29648      3093.617    21629705.527    88570032.85449
      2410.516  
  21043811.701   110585975.50649     -2086.132    21043811.475    86170888.43149
     -1625.563  
  22119147.471   116236905.46348      2826.409    22119147.930    90574213.17547
      2202.394  
  24714458.176   129875354.33346      -695.952    24714458.528   101201597.87645
      -542.304  
  23892083.131   125553743.64447       808.909    23892085.810    97834096.13445
       630.315  
 20 10 03 04 28 45.0000000  0  8G13G 2G29G15G 5G18G 7G30
  20743228.207   109006402.14649      1389.934    20743228.181    84940054.43447
      1083.063  
  23484898.785   123413970.81147     -2961.843    23484897.945    96166724.27246
     -2307.934  
  21589340.179   113452745.13548     -1934.925    21589340.123    88404736.92649
     -1507.737  
  21626762.611   113649408.62348      3091.288    21626763.271    88557984.80649
      2408.921  
  21045797.618   110596411.16549     -2087.858    21045797.398    86179020.11149
     -1626.906  
  22116458.793   116222776.80448      2825.094    22116459.191    90563203.82947
      2201.367  
  24715121.746   129878841.63646      -699.023    24715122.226   101204315.26645
      -544.694  
  23891314.728   125549705.91247       806.410    23891317.273    97830949.85446
       628.367  
 20 10 03 04 28 50.0000000  0  8G13G 2G29G15G 5G18G 7G30
  20741907.179   108999460.85049      1386.519    20741907.235    84934645.63447
      1080.401  
  23487717.588   123428783.28047     -2963.304    23487716.630    96178266.43946
     -2309.070  
  21591182.598   113462427.58048     -1938.012    21591182.698    88412281.68449
     -1510.141  
  21623822.560   113633958.01948      3088.999    21623823.212    88545945.38249
      2407.011  
  21047785.038   110606855.47049     -2089.694    21047784.791    86187158.53149
     -1628.336  
  22113771.665   116208655.22648      2823.496    22113772.136    90552200.00847
      2200.124  
  24715788.138   129882343.30047      -701.835    24715788.492   101207043.82945
      -546.887  
  23890549.131   125545682.79847       803.199    23890551.678    97827814.96446
       625.866  
 20 10 03 04 28 55.0000000  0  8G13G 2G29G15G 5G18G 7G30
  20740589.382   108992535.71849      1383.543    20740589.465    84929249.42947
      1078.082  
  23490537.359   123443601.53147     -2964.159    23490536.526    96189813.12846
     -2309.738  
  21593027.892   113472124.82448     -1940.691    21593027.961    88419837.97649
     -1512.229  
  21620884.219   113618517.99448      3086.938    21620885.113    88533914.20149
      2405.426  
  21049773.986   110617307.87049     -2091.059    21049773.891    86195303.25149
     -1629.398  
  22111085.689   116194540.23148      2822.602    22111086.073    90541201.31247
      2199.426  
  24716457.048   129885858.69747      -704.456    24716457.664   101209783.09945
      -548.929  
  23889786.223   125541673.75347       800.776    23889788.994    97824691.02445
       623.979  
 20 10 03 04 29  0.0000000  0  8G13G 2G29G15G 5G18G 7G30
  20739274.822   108985627.44048      1379.890    20739274.887    84923866.35847
      1075.234  
  23493358.435   123458426.32347     -2965.737    23493357.373    96201364.90246
     -2310.969  
  21594876.235   113481837.61648     -1944.359    21594876.388    88427406.38049
     -1515.090  
  21617948.366   113603089.23348      3084.562    21617948.951    88521891.79449
      2403.633  
  21051764.840   110627769.06748     -2093.237    21051764.462    86203454.83649
     -1631.098  
  22108401.048   116180432.53748      2820.823    22108401.445    90530208.30247
      2198.043  
  24717128.784   129889388.56446      -707.617    24717129.246   101212533.64545
      -551.394  
  23889026.143   125537679.56547       796.784    23889028.797    97821578.67646
       620.866  
 20 10 03 04 29  5.0000000  0  8G13G 2G29G15G 5G18G 7G30
  20737963.300   108978735.21748      1376.772    20737963.219    84918495.79847
      1072.808  
  23496180.444   123473256.86147     -2966.874    23496179.673    96212921.15346
     -2311.855  
  21596727.396   113491565.09748     -1947.054    21596727.511    88434986.23249
     -1517.188  
  21615014.206   113587670.99148      3082.644    21615014.989    88509877.58849
      2402.058  
  21053757.003   110638238.23748     -2094.684    21053756.755    86211612.63049
     -1632.222  
  22105717.716   116166331.37448      2819.573    22105718.085    90519220.39147
      2197.066  
  24717803.156   129892932.04346      -710.309    24717803.439   101215294.79045
      -553.491  
  23888268.720   125533699.37547       794.862    23888271.522    97818477.23045
       619.370  
 20 10 03 04 29 10.0000000  0  8G13G 2G29G15G 5G18G 7G30
  20736654.833   108971859.48848      1373.335    20736654.980    84913138.08847
      1070.128  
  23499003.804   123488093.56047     -2968.285    23499003.001    96224482.21246
     -2312.953  
  21598581.238   113501307.69648     -1950.265    21598581.312    88442577.86549
     -1519.691  
  21612082.327   113572263.71048      3080.151    21612082.991    88497871.92049
      2400.202  
  21055750.732   110648715.84948     -2096.522    21055750.501    86219777.00049
     -1633.655  
  22103035.729   116152237.18748      2817.883    22103035.897    90508237.90447
      2195.749  
  24718480.007   129896489.63246      -713.078    24718480.373   101218066.94245
      -555.647  
  23887514.001   125529733.67847       791.867    23887516.904    97815387.07346
       617.035  
 20 10 03 04 29 15.0000000  0  8G13G 2G29G15G 5G18G 7G30
  20735349.622   108965000.74948      1370.022    20735349.676    84907793.61847
      1067.546  
  23501828.350   123502936.86947     -2969.281    23501827.564    96236048.41646
     -2313.730  
  21600438.118   113511065.88248     -1953.292    21600438.294    88450181.64549
     -1522.051  
  21609152.543   113556867.84148      3078.007    21609153.432    88485875.14549
      2398.445  
  21057746.358   110659202.37348     -2098.355    21057746.203    86227948.31749
     -1635.086  
  22100355.048   116138150.42648      2816.519    22100355.443    90497261.20747
      2194.687  
  24719159.745   129900061.80646      -715.973    24719160.295   101220850.45346
      -557.902  
  23886762.154   125525782.91347       788.754    23886764.954    97812308.55746
       614.609  
 20 10 03 04 29 20.0000000  0  8G13G 2G29G15G 5G18G 7G30
  20734047.624   108958158.42049      1366.702    20734047.533    84902461.93447
      1064.961  
  23504654.213   123517786.25347     -2970.515    23504653.306    96247619.36046
     -2314.691  
  21602298.040   113520839.09148     -1956.367    21602298.203    88457797.12849
     -1524.445  
  21606224.844   113541482.86448      3075.793    21606225.594    88473886.85749
      2396.815  
  21059743.513   110669697.21448     -2099.835    21059743.366    86236126.11349
     -1636.237  
  22097675.683   116124070.55148      2815.281    22097675.988    90486289.87947
      2193.723  
  24719842.285   129903648.01846      -718.672    24719842.555   101223644.91245
      -560.008  
  23886013.124   125521846.54547       785.964    23886015.973    97809241.26045
       612.437  
 20 10 03 04 29 25.0000000  0  8G13G 2G29G15G 5G18G 7G30
  20732748.889   108951333.05648      1363.460    20732748.817    84897143.47447
      1062.433  
  23507481.206   123532642.20447     -2971.835    23507480.258    96259195.41046
     -2315.718  
  21604160.644   113530627.85848     -1959.121    21604160.797    88465424.73649
     -1526.590  
  21603299.462   113526109.31548      3073.663    21603300.198    88461907.47749
      2395.058  
  21061742.155   110680200.96248     -2101.581    21061741.987    86244310.85049
     -1637.597  
  22094997.856   116109998.12948      2813.870    22094998.248    90475324.35747
      2192.625  
  24720527.307   129907248.79946      -721.402    24720527.842   101226450.70345
      -562.136  
  23885266.925   125517925.08547       782.844    23885269.667    97806185.57445
       610.003  
 20 10 03 04 29 30.0000000  0  8G13G 2G29G15G 5G18G 7G30
  20731452.977   108944523.58249      1360.383    20731453.026    84891837.39647
      1060.034  
  23510309.133   123547503.65147     -2972.492    23510308.213    96270775.75646
     -2316.230  
  21606026.304   113540431.09348     -1962.085    21606026.337    88473063.62049
     -1528.901  
  21600375.981   113510746.10048      3071.546    21600376.754    88449936.14749
      2393.409  
  21063742.539   110690712.51749     -2103.042    21063742.322    86252501.66949
     -1638.737  
  22092321.183   116095932.05548      2812.718    22092321.464    90464363.78047
      2191.726  
  24721215.177   129910863.05246      -724.288    24721215.895   101229267.01245
      -564.383  
  23884523.229   125514017.46647       780.288    23884526.047    97803140.66846
       608.016  
 20 10 03 04 29 35.0000000  0  8G13G 2G29G15G 5G18G 7G30
  20730160.502   108937731.36349      1356.796    20730160.418    84886544.75747
      1057.241  
  23513138.418   123562371.95847     -2974.144    23513137.655    96282361.44346
     -2317.519  
  21607894.806   113550250.07548     -1965.144    21607894.796    88480714.77349
     -1531.285  
  21597454.591   113495394.59548      3069.249    21597455.255    88437973.94249
      2391.620  
  21065744.621   110701233.15448     -2104.866    21065744.363    86260699.56749
     -1640.159  
  22089645.847   116081873.69548      2811.069    22089646.370    90453409.21747
      2190.440  
  24721905.742   129914492.12146      -727.140    24721906.292   101232094.85145
      -566.605  
  23883782.605   125510125.08747       776.973    23883785.386    97800107.66045
       605.429  
 20 10 03 04 29 40.0000000  0  8G13G 2G29G15G 5G18G 7G30
  20728870.897   108930954.78949      1353.566    20728870.963    84881264.31147
      1054.722  
  23515968.856   123577245.57447     -2975.551    23515968.088    96293951.25246
     -2318.613  
  21609765.971   113560083.20948     -1968.293    21609765.947    88488376.95049
     -1533.738  
  21594535.306   113480053.24348      3067.194    21594535.971    88426019.65149
      2390.019  
  21067748.028   110711761.31949     -2106.449    21067747.859    86268903.32949
     -1641.391  
  22086971.825   116067821.49248      2809.691    22086972.257    90442459.45347
      2189.367  
  24722598.801   129918134.41946      -729.937    24722599.335   101234932.99846
      -568.784  
  23883044.440   125506246.31947       773.882    23883047.394    97797085.23745
       603.022  
 20 10 03 04 29 45.0000000  0  8G13G 2G29G15G 5G18G 7G30
  20727584.711   108924195.18049      1350.308    20727584.700    84875997.08947
      1052.183  
  23518800.419   123592125.59747     -2977.011    23518799.702    96305546.08046
     -2319.753  
  21611639.990   113569931.74348     -1971.203    21611640.266    88496051.12849
     -1536.004  
  21591618.097   113464723.29948      3064.762    21591618.881    88414074.24749
      2388.188  
  21069753.146   110722298.21949     -2108.214    21069752.828    86277113.90549
     -1642.769  
  22084299.153   116053776.66148      2808.359    22084299.653    90431515.42947
      2188.327  
  24723294.717   129921791.20146      -732.726    24723295.345   101237782.47946
      -570.953  
  23882309.160   125502382.39547       771.233    23882312.083    97794074.38746
       600.956  
 20 10 03 04 29 50.0000000  0  8G13G 2G29G15G 5G18G 7G30
  20726301.567   108917452.49149      1346.773    20726301.609    84870743.04747
      1049.429  
  23521633.330   123607012.14547     -2977.980    23521632.325    96317145.98046
     -2320.508  
  21613517.042   113579795.75248     -1974.483    21613517.271    88503737.36749
     -1538.562  
  21588702.988   113449404.76948      3062.555    21588703.734    88402137.73849
      2386.401  
  21071759.792   110732843.90449     -2110.144    21071759.756    86285331.31749
     -1644.273  
  22081628.000   116039739.25148      2806.801    22081628.484    90420577.19247
      2187.113  
  24723993.272   129925462.44347      -735.737    24723994.002   101240643.14345
      -573.305  
  23881576.723   125498533.34947       768.769    23881579.649    97791075.13046
       599.039  
 20 10 03 04 29 55.0000000  0  8G13G 2G29G15G 5G18G 7G30
  20725022.605   108910731.90749      1343.152    20725022.672    84865506.23247
      1046.608  
  23524468.301   123621910.36147     -2979.246    23524467.336    96328754.96746
     -2321.492  
  21615398.107   113589680.34548     -1977.749    21615398.185    88511439.64749
     -1541.105  
  21585791.116   113434102.80648      3060.102    21585792.006    88390214.13749
      2384.426  
  21073769.283   110743403.50749     -2112.081    21073769.120    86293559.57649
     -1645.781  
  22078959.130   116025714.43248      2805.179    22078959.520    90409648.76147
      2185.851  
  24724695.662   129929153.30847      -738.750    24724696.288   101243519.13645
      -575.652  
  23880848.088   125494704.44147       764.973    23880850.886    97788091.56346
       596.077  
 20 10 03 04 30  0.0000000  0  8G13G 2G29G15G 5G18G 7G30
  20723745.561   108904020.55849      1340.745    20723745.446    84860276.61147
      1044.734  
  23527303.125   123636807.36947     -2979.727    23527302.369    96340363.01646
     -2321.867  
  21617280.489   113599572.67448     -1979.875    21617280.570    88519147.95149
     -1542.762  
  21582880.006   113418804.60048      3058.780    21582880.765    88378293.46649
      2383.460  
  21075778.960   110753964.18449     -2112.812    21075778.727    86301788.67449
     -1646.352  
  22076290.246   116011689.38548      2804.538    22076290.781    90398720.15747
      2185.352  
  24725399.378   129932851.01646      -740.909    24725399.837   101246400.48945
      -577.336  
  23880120.747   125490882.70547       763.027    23880123.660    97785113.59845
       594.563  
 20 10 03 04 30  5.0000000  0  8G13G 2G29G15G 5G18G 7G30
  20722471.548   108897325.26449      1337.159    20722471.405    84855059.50347
      1041.940  
  23530138.885   123651709.98447     -2981.315    23530138.133    96351975.43346
     -2323.105  
  21619165.728   113609479.54548     -1983.210    21619165.876    88526867.58949
     -1545.362  
  21579970.780   113403516.98748      3056.097    21579971.729    88366381.04349
      2381.417  
  21077789.996   110764532.71549     -2114.785    21077789.805    86310023.89149
     -1647.886  
  22073622.529   115997670.90248      2802.772    22073623.047    90387796.66947
      2183.976  
  24726105.554   129936562.28246      -743.824    24726106.045   101249292.38845
      -579.605  
  23879396.310   125487075.01347       759.729    23879399.049    97782146.56246
       591.995  
 20 10 03 04 30 10.0000000  0  8G13G 2G29G15G 5G18G 7G30
  20721200.964   108890648.11249      1332.882    20721200.762    84849856.52647
      1038.604  
  23532976.359   123666620.26147     -2983.555    23532975.345    96363593.81146
     -2324.852  
  21621054.190   113619403.04448     -1986.948    21621054.362    88534600.18349
     -1548.273  
  21577064.224   113388242.05548      3053.027    21577064.885    88354478.50649
      2378.991  
  21079803.109   110775111.19649     -2117.319    21079802.831    86318266.86249
     -1649.862  
  22070956.701   115983661.10348      2800.175    22070957.017    90376879.94147
      2181.952  
  24726814.765   129940289.23947      -747.719    24726815.210   101252196.48945
      -582.640  
  23878674.720   125483283.43847       756.172    23878677.597    97779192.08646
       589.223  
 20 10 03 04 30 15.0000000  0  9G13G 2G29G15G 5G18G 7G30G20
  20719934.577   108883993.54549      1330.089    20719934.526    84844671.15447
      1036.430  
  23535815.930   123681542.65047     -2984.003    23535814.972    96375221.64246
     -2325.199  
  21622946.461   113629347.58748     -1989.617    21622946.745    88542349.17549
     -1550.355  
  21574160.727   113372984.20248      3051.219    21574161.468    88342589.28049
      2377.569  
  21081818.893   110785704.08749     -2118.569    21081818.796    86326521.06149
     -1650.836  
  22068293.157   115969664.39848      2799.359    22068293.647    90365973.41647
      2181.316  
  24727527.800   129944036.35646      -750.089    24727528.318   101255116.32745
      -584.487  
  23877957.126   125479512.45647       753.539    23877959.852    97776253.66545
       587.172  
  24639823.501   129483147.71855      3325.992    24639826.180   100895969.35754
      2591.680  
 20 10 03 04 30 20.0000000  0  9G13G 2G29G15G 5G18G 7G30G20
  20718670.090   108877348.28049      1327.637    20718670.004    84839493.02647
      1034.519  
  23538655.299   123696463.88347     -2984.608    23538654.411    96386848.57546
     -2325.671  
  21624840.276   113639299.84048     -1991.882    21624840.610    88550104.17349
     -1552.120  
  21571257.972   113357730.15248      3049.890    21571258.774    88330703.01349
      2376.534  
  21083834.689   110796297.98149     -2119.487    21083834.770    86334776.04149
     -1651.550  
  22065629.598   115955667.48748      2798.914    22065630.017    90355066.73647
      2180.969  
  24728242.192   129947790.20246      -752.062    24728242.629   101258041.40646
      -586.026  
  23877240.877   125475748.70247       751.651    23877243.556    97773320.86645
       585.699  
  24636658.245   129466515.81245      3326.569    24636659.882   100883009.48844
      2592.128  
 20 10 03 04 30 25.0000000  0  9G13G 2G29G15G 5G18G 7G30G20
  20717408.638   108870719.14549      1323.949    20717408.386    84834327.47347
      1031.644  
  23541495.799   123711390.72047     -2986.176    23541494.791    96398479.86346
     -2326.894  
  21626736.948   113649266.60548     -1995.137    21626737.153    88557870.48149
     -1554.655  
  21568357.121   113342486.73248      3047.464    21568358.034    88318825.03049
      2374.645  
  21085852.180   110806899.75049     -2121.391    21085852.196    86343037.16049
     -1653.035  
  22062967.390   115941677.20948      2797.159    22062967.871    90344165.22547
      2179.601  
  24728959.002   129951557.68747      -755.108    24728959.643   101260977.11545
      -588.397  
  23876527.447   125471999.04047       748.218    23876530.202    97770399.05046
       583.023  
  24633494.019   129449884.78646      3325.746    24633493.088   100870050.24844
      2591.488  
 20 10 03 04 30 30.0000000  0  9G13G 2G29G15G 5G18G 7G30G20
  20716150.410   108864107.92549      1320.344    20716150.190    84829175.87247
      1028.835  
  23544337.645   123726324.97247     -2987.523    23544336.714    96410116.93746
     -2327.944  
  21628636.671   113659249.68648     -1998.445    21628636.869    88565649.50049
     -1557.234  
  21565458.768   113327255.78648      3044.898    21565459.500    88306956.76849
      2372.644  
  21087871.564   110817511.21549     -2123.359    21087871.330    86351305.83049
     -1654.569  
  22060306.698   115927695.39548      2795.284    22060307.198    90333270.30747
      2178.141  
  24729678.855   129955340.60346      -757.922    24729679.373   101263924.84845
      -590.590  
  23875816.887   125468265.27147       745.215    23875819.509    97767489.63245
       580.684  
  24630330.976   129433256.44245      3325.230    24630330.668   100857093.10645
      2591.086  
 20 10 03 04 30 35.0000000  0  9G13G 2G29G15G 5G18G 7G30G20
  20714895.618   108857513.54749      1317.233    20714895.430    84824037.39947
      1026.413  
  23547180.796   123741265.64147     -2988.363    23547180.061    96421759.00046
     -2328.598  
  21630539.410   113669248.05448     -2001.188    21630539.502    88573440.43749
     -1559.371  
  21562562.703   113312036.26748      3042.934    21562563.422    88295097.40849
      2371.113  
  21089892.488   110828131.30548     -2124.746    21089892.426    86359581.22549
     -1655.648  
  22057647.534   115913721.02148      2794.281    22057647.986    90322381.18447
      2177.359  
  24730401.411   129959137.94346      -760.718    24730401.937   101266883.81645
      -592.770  
  23875109.173   125464546.39547       742.328    23875111.771    97764591.81146
       578.433  
  24627166.199   129416629.58545      3325.065    24627166.978   100844137.13745
      2590.956  
 20 10 03 04 30 40.0000000  0  9G13G 2G29G15G 5G18G 7G30G20
  20713643.867   108850935.51749      1313.917    20713643.619    84818911.66447
      1023.827  
  23550025.131   123756212.13147     -2989.960    23550024.116    96433405.61546
     -2329.843  
  21632444.830   113679261.10248     -2004.229    21632444.830    88581242.81049
     -1561.742  
  21559668.537   113296827.63248      3040.484    21559669.279    88283246.53149
      2369.206  
  21091914.915   110838759.44549     -2126.511    21091914.740    86367862.88949
     -1657.023  
  22054989.495   115899753.52348      2792.777    22054990.000    90311497.42647
      2176.187  
  24731126.795   129962949.10847      -763.882    24731127.287   101269853.56445
      -595.237  
  23874404.139   125460841.82347       739.429    23874406.972    97761705.12246
       576.175  
  24624002.334   129400003.80145      3325.308    24624003.535   100831182.02444
      2591.147  
 20 10 03 04 30 45.0000000  0  9G13G 2G29G15G 5G18G 7G30G20
  20712395.183   108844373.48049      1312.551    20712394.974    84813798.38847
      1022.762  
  23552870.426   123771164.03747     -2989.194    23552869.404    96445056.44046
     -2329.245  
  21634352.906   113689288.48848     -2005.164    21634353.099    88589056.35249
     -1562.469  
  21556776.432   113281629.61448      3040.332    21556777.094    88271403.92449
      2369.086  
  21093938.884   110849395.31849     -2126.113    21093938.762    86376150.57749
     -1656.715  
  22052332.787   115885792.55648      2793.195    22052333.232    90300618.74947
      2176.511  
  24731854.491   129966773.80447      -764.503    24731855.070   101272833.81145
      -595.722  
  23873701.954   125457151.22447       738.453    23873704.576    97758829.33545
       575.413  
  24620838.987   129383378.73846      3326.503    24620839.157   100818227.39044
      2592.073  
 20 10 03 04 30 50.0000000  0  9G13G 2G29G15G 5G18G 7G30G20
  20711147.823   108837818.56149      1307.969    20711147.547    84808690.66447
      1019.191  
  23555714.967   123786112.48347     -2991.574    23555713.928    96456704.57045
     -2331.101  
  21636262.115   113699321.29148     -2009.296    21636262.331    88596874.12049
     -1565.687  
  21553884.731   113266433.27948      3036.516    21553885.399    88259562.63249
      2366.113  
  21095962.474   110860029.98249     -2129.004    21095962.526    86384437.33249
     -1658.969  
  22049675.719   115871829.22148      2790.491    22049676.205    90289738.23147
      2174.405  
  24732583.322   129970603.05446      -768.457    24732583.757   101275817.66346
      -598.800  
  23873000.567   125453465.68847       734.434    23873003.158    97755957.49045
       572.281  
  24617673.764   129366745.34845      3324.839    24617674.193   100805266.29744
      2590.781  
 20 10 03 04 30 55.0000000  0  9G13G 2G29G15G 5G18G 7G30G20
  20709905.959   108831292.46149      1303.051    20709905.717    84803605.39147
      1015.359  
  23558563.125   123801079.15547     -2994.796    23558561.883    96468366.90946
     -2333.608  
  21638176.480   113709381.22048     -2014.043    21638176.709    88604713.02249
     -1569.386  
  21550997.400   113251260.25248      3032.953    21550998.085    88247739.50449
      2363.363  
  21097990.249   110870685.19749     -2132.293    21097990.220    86392740.08849
     -1661.531  
  22047022.265   115857885.22948      2787.691    22047022.614    90278872.78047
      2172.222  
  24733316.896   129974458.47946      -772.898    24733317.344   101278821.88945
      -602.261  
  23872304.296   125449806.91547       729.836    23872306.879    97753106.50046
       568.698  
  24614510.716   129350125.54446      3323.199    24614511.309   100792315.88044
      2589.511  
 20 10 03 04 31  0.0000000  0  9G13G 2G29G15G 5G18G 7G30G20
  20708667.334   108824783.84949      1300.391    20708667.085    84798533.74547
      1013.288  
  23561412.370   123816052.72547     -2995.113    23561411.309    96480034.61446
     -2333.858  
  21640093.714   113719456.91648     -2016.305    21640094.012    88612564.21149
     -1571.147  
  21548112.345   113236099.25048      3031.382    21548112.982    88235925.73949
      2362.112  
  21100019.553   110881349.57649     -2133.425    21100019.363    86401049.99549
     -1662.413  
  22044370.322   115843949.29748      2786.750    22044370.735    90268013.62447
      2171.492  
  24734053.336   129978328.87647      -775.073    24734053.964   101281837.79045
      -603.957  
  23871611.058   125446163.61347       727.410    23871613.608    97750267.57745
       566.808  
  24611348.645   129333507.90145      3323.809    24611349.149   100779367.05144
      2589.976  
 20 10 03 04 31  5.0000000  0  9G13G 2G29G15G 5G18G 7G30G20
  20707431.569   108818289.38849      1297.066    20707431.377    84793473.13447
      1010.699  
  23564262.404   123831029.84847     -2996.398    23564261.511    96491705.08946
     -2334.859  
  21642013.575   113729545.04048     -2019.280    21642013.748    88620425.08749
     -1573.469  
  21545228.847   113220946.99148      3029.016    21545229.597    88224118.78949
      2360.269  
  21102049.970   110892019.77349     -2135.070    21102049.971    86409364.43249
     -1663.694  
  22041719.343   115830018.06148      2785.276    22041719.800    90257158.11247
      2170.343  
  24734792.051   129982210.84847      -778.250    24734792.724   101284862.66645
      -606.433  
  23870920.104   125442532.43847       724.507    23870922.740    97747438.08946
       564.547  
  24608186.365   129316889.10445      3323.397    24608186.753   100766417.31943
      2589.656  
 20 10 03 04 31 10.0000000  0  9G13G 2G29G15G 5G18G 7G30G20
  20706199.225   108811813.22149      1293.522    20706198.828    84788426.77047
      1007.938  
  23567113.954   123846014.65547     -2997.750    23567112.878    96503381.55246
     -2335.914  
  21643936.304   113739649.74148     -2022.609    21643936.432    88628298.87449
     -1576.063  
  21542348.011   113205807.59248      3026.570    21542348.643    88212321.86149
      2358.358  
  21104082.301   110902699.92849     -2136.874    21104082.298    86417686.62949
     -1665.101  
  22039069.886   115816095.69448      2783.641    22039070.378    90246309.51547
      2169.066  
  24735533.779   129986108.53247      -781.078    24735534.341   101287899.83944
      -608.636  
  23870232.209   125438917.55747       721.351    23870234.790    97744621.29946
       562.090  
  24605024.019   129300273.20446      3322.602    24605024.761   100753469.89745
      2589.038  
 20 10 03 04 31 15.0000000  0  9G13G 2G29G15G 5G18G 7G30G20
  20704969.916   108805353.37749      1290.473    20704969.722    84783393.12747
      1005.558  
  23569966.676   123861005.18947     -2998.563    23569965.508    96515062.47046
     -2336.546  
  21645862.095   113749769.02648     -2025.136    21645862.274    88636184.03149
     -1578.030  
  21539469.244   113190679.06948      3024.672    21539469.890    88200533.41049
      2356.882  
  21106116.360   110913388.16949     -2138.382    21106116.332    86426015.12849
     -1666.276  
  22036421.935   115802180.21548      2782.343    22036422.382    90235466.28947
      2168.058  
  24736278.021   129990019.95647      -783.570    24736278.624   101290947.71145
      -610.578  
  23869546.974   125435316.93747       718.922    23869549.577    97741815.62346
       560.195  
  24601862.456   129283658.39246      3323.515    24601863.337   100740523.33144
      2589.758  
 20 10 03 04 31 20.0000000  0  9G13G 2G29G15G 5G18G 7G30G20
  20703743.274   108798907.95649      1287.585    20703743.053    84778370.71947
      1003.308  
  23572819.976   123875999.56947     -2999.281    23572818.834    96526746.39346
     -2337.104  
  21647789.953   113759900.98848     -2027.835    21647790.307    88644079.06449
     -1580.137  
  21536591.989   113175559.58548      3022.819    21536592.595    88188751.99449
      2355.440  
  21108151.349   110924082.42349     -2139.507    21108151.343    86434348.31449
     -1667.151  
  22033774.761   115788269.72048      2781.534    22033775.142    90224626.94347
      2167.425  
  24737024.749   129993943.28447      -785.921    24737025.167   101294004.83445
      -612.409  
  23868864.201   125431728.75147       716.453    23868866.760    97739019.63046
       558.272  
  24598700.779   129267042.73345      3323.159    24598701.560   100727576.03844
      2589.473  
 20 10 03 04 31 25.0000000  0  9G13G 2G29G15G 5G18G 7G30G20
  20702520.262   108792480.48349      1283.604    20702520.031    84773362.30547
      1000.207  
  23575674.806   123891001.27047     -3001.051    23575673.661    96538436.02646
     -2338.484  
  21649721.235   113770049.10048     -2031.339    21649721.282    88651986.68149
     -1582.867  
  21533717.237   113160452.63448      3020.065    21533717.993    88176980.35449
      2353.297  
  21110188.237   110934786.21749     -2141.887    21110188.061    86442688.92849
     -1669.003  
  22031129.284   115774367.73948      2779.374    22031129.837    90213794.23547
      2165.742  
  24737774.122   129997881.89347      -789.156    24737774.695   101297073.90445
      -614.929  
  23868184.460   125428156.47247       712.753    23868187.148    97736236.04545
       555.391  
  24595539.255   129250429.59045      3322.516    24595539.935   100714630.74643
      2588.969  
 20 10 03 04 31 30.0000000  0  9G13G 2G29G15G 5G18G 7G30G20
  20701300.668   108786071.25449      1280.167    20701300.442    84768368.10347
       997.530  
  23578530.942   123906010.55147     -3002.563    23578529.656    96550131.56946
     -2339.664  
  21651655.375   113780213.63848     -2034.418    21651655.674    88659907.09749
     -1585.266  
  21530844.953   113145358.49048      3017.819    21530845.576    88165218.69049
      2351.473  
  21112226.854   110945499.81549     -2143.504    21112226.974    86451037.18249
     -1670.266  
  22028485.518   115760474.55948      2778.085    22028486.008    90202968.38347
      2164.737  
  24738526.710   130001836.14546      -792.163    24738527.404   101300155.12145
      -617.272  
  23867507.799   125424600.37347       709.789    23867510.445    97733465.05946
       553.077  
  24592378.546   129233819.45245      3322.215    24592379.260   100701687.80844
      2588.733  
 20 10 03 04 31 35.0000000  0  9G13G 2G29G15G 5G18G 7G30G20
  20700083.942   108779677.25749      1277.327    20700083.529    84763385.76947
       995.316  
  23581388.011   123921024.42847     -3003.382    23581386.629    96561830.67846
     -2340.300  
  21653592.171   113790391.63148     -2036.964    21653592.267    88667837.99749
     -1587.249  
  21527974.577   113130274.22048      3015.964    21527975.121    88153464.71949
      2350.097  
  21114266.992   110956220.24949     -2144.870    21114266.874    86459390.76449
     -1671.331  
  22025842.890   115746587.23848      2776.944    22025843.399    90192147.09447
      2163.851  
  24739281.600   130005803.08647      -794.577    24739282.261   101303246.25746
      -619.156  
  23866833.620   125421057.53847       707.191    23866836.225    97730704.39745
       551.054  
  24589217.858   129217209.30046      3322.136    24589218.752   100688744.83843
      2588.676  
 20 10 03 04 31 40.0000000  0  9G13G 2G29G15G 5G18G 7G30G20
  20698870.059   108773298.97649      1273.656    20698869.814    84758415.68247
       992.457  
  23584246.061   123936043.36147     -3004.776    23584244.628    96573533.73546
     -2341.386  
  21655531.642   113800583.52448     -2040.055    21655531.788    88675779.73049
     -1589.656  
  21525106.109   113115200.25548      3013.335    21525106.634    88141718.77949
      2348.050  
  21116308.266   110966947.96649     -2146.601    21116308.465    86467750.02149
     -1672.680  
  22023201.400   115732706.20848      2775.086    22023201.768    90181330.71347
      2162.402  
  24740038.984   130009783.10247      -797.647    24740039.577   101306347.56044
      -621.547  
  23866162.111   125417528.39047       704.085    23866164.623    97727954.42746
       548.637  
  24586057.114   129200599.41845      3321.190    24586058.118   100675802.10044
      2587.945  
 20 10 03 04 31 45.0000000  0  9G13G 2G29G15G 5G18G 7G30G20
  20697659.782   108766938.36749      1270.550    20697659.515    84753459.36647
       990.035  
  23587105.415   123951069.27647     -3005.608    23587104.115    96585242.23346
     -2342.035  
  21657474.178   113810791.24648     -2042.957    21657474.229    88683733.79649
     -1591.878  
  21522239.907   113100138.51448      3011.265    21522240.566    88129982.36349
      2346.437  
  21118351.461   110977684.96549     -2148.128    21118351.533    86476116.51049
     -1673.871  
  22020561.459   115718833.44248      2773.840    22020561.854    90170520.76647
      2161.429  
  24740799.205   130013778.18647      -800.402    24740799.781   101309460.62646
      -623.691  
  23865493.397   125414014.86847       701.507    23865495.945    97725216.61446
       546.625  
  24582896.668   129183991.97545      3321.636    24582897.705   100662861.23745
      2588.285  
 20 10 03 04 31 50.0000000  0  9G13G 2G29G15G 5G18G 7G30G20
  20696452.558   108760594.57949      1267.069    20696452.378    84748516.15347
       987.323  
  23589965.917   123966101.28347     -3007.320    23589964.569    96596955.47046
     -2343.370  
  21659419.357   113821013.88548     -2046.034    21659419.608    88691699.48449
     -1594.316  
  21519375.998   113085088.19348      3008.749    21519376.472    88118254.84849
      2344.433  
  21120396.355   110988430.33049     -2150.047    21120396.300    86484489.51949
     -1675.363  
  22017923.017   115704968.05348      2772.281    22017923.406    90159716.57447
      2160.214  
  24741562.097   130017787.46246      -803.382    24741562.708   101312584.71245
      -626.016  
  23864827.721   125410516.15747       697.953    23864830.254    97722490.34446
       543.855  
  24579736.723   129167385.97646      3320.909    24579737.352   100649921.49644
      2587.718  
 20 10 03 04 31 55.0000000  0  9G13G 2G29G15G 5G18G 7G30G20
  20695248.569   108754267.29449      1263.542    20695248.169    84743585.80847
       984.574  
  23592827.565   123981139.12547     -3008.714    23592826.226    96608673.25946
     -2344.456  
  21661367.582   113831251.16048     -2048.969    21661367.666    88699676.58049
     -1596.601  
  21516514.172   113070049.00848      3006.460    21516514.818    88106536.00749
      2342.694  
  21122442.572   110999183.74549     -2151.729    21122442.530    86492868.80449
     -1676.676  
  22015285.744   115691109.77948      2770.734    22015286.157    90148917.91847
      2159.011  
  24742327.637   130021810.55846      -806.367    24742328.310   101315719.60145
      -628.339  
  23864164.539   125407031.89447       695.198    23864167.223    97719775.34546
       541.710  
  24576576.971   129150781.14545      3320.531    24576577.620   100636982.64144
      2587.422  
 20 10 03 04 32  0.0000000  0  9G13G 2G29G15G 5G18G 7G30G20
  20694047.806   108747957.39549      1260.526    20694047.634    84738669.00447
       982.226  
  23595690.390   123996183.62547     -3009.304    23595689.112    96620396.23546
     -2344.914  
  21663318.480   113841503.91648     -2051.938    21663318.676    88707665.73349
     -1598.913  
  21513654.444   113055021.82048      3004.554    21513655.103    88094826.51649
      2341.172  
  21124490.720   111009946.05049     -2153.113    21124490.726    86501255.01149
     -1677.754  
  22012650.170   115677259.49248      2769.503    22012650.627    90138125.49047
      2158.051  
  24743096.042   130025848.39447      -808.800    24743096.536   101318865.95145
      -630.238  
  23863504.417   125403562.98947       692.438    23863507.119    97717072.29746
       539.558  
  24573417.432   129134178.34545      3320.527    24573418.401   100624045.44845
      2587.425  
 20 10 03 04 32  5.0000000  0  9G13G 2G29G15G 5G18G 7G30G20
  20692850.097   108741663.08249      1257.160    20692849.782    84733764.34447
       979.602  
  23598554.334   124011233.00147     -3010.578    23598552.943    96632123.01946
     -2345.909  
  21665272.220   113851770.32548     -2054.706    21665272.338    88715665.52949
     -1601.074  
  21510796.798   113040004.84748      3002.218    21510797.347    88083124.98449
      2339.386  
  21126539.986   111020715.48749     -2154.733    21126539.891    86509646.77949
     -1679.016  
  22010015.760   115663415.35848      2768.358    22010016.084    90127337.85147
      2157.159  
  24743866.907   130029899.10347      -811.770    24743867.543   101322022.34845
      -632.550  
  23862846.923   125400107.65147       689.468    23862849.484    97714379.82945
       537.246  
  24570258.029   129117575.82246      3320.207    24570258.900   100611108.41543
      2587.171  
 20 10 03 04 32 10.0000000  0  9G13G 2G29G15G 5G18G 7G30G20
  20691655.628   108735386.57249      1253.715    20691655.350    84728873.56547
       976.918  
  23601419.431   124026289.44047     -3011.522    23601418.071    96643855.30246
     -2346.645  
  21667228.808   113862052.67048     -2057.788    21667228.949    88723677.74549
     -1603.477  
  21507941.625   113025000.37448      2999.796    21507942.275    88071433.19149
      2337.499  
  21128591.164   111031494.27949     -2156.559    21128591.011    86518045.83649
     -1680.438  
  22007382.849   115649579.69248      2766.516    22007383.230    90116556.81647
      2155.722  
  24744640.440   130033964.98346      -814.527    24744641.175   101325190.58445
      -634.698  
  23862192.494   125396668.09947       686.366    23862194.990    97711699.66146
       534.827  
  24567099.186   129100975.77046      3319.976    24567099.869   100598173.30444
      2586.991  
 20 10 03 04 32 15.0000000  0  9G13G 2G29G15G 5G18G 7G30G20
  20690464.398   108729126.02049      1250.413    20690464.075    84723995.20947
       974.344  
  23604285.658   124041351.15447     -3012.886    23604284.133    96655591.68946
     -2347.707  
  21669188.253   113872349.06148     -2060.711    21669188.248    88731700.90149
     -1605.754  
  21505088.342   113010006.49248      2997.608    21505088.914    88059749.65449
      2335.797  
  21130643.690   111042280.53649     -2158.065    21130643.597    86526450.70949
     -1681.613  
  22004751.308   115635750.60148      2765.168    22004751.611    90105780.90147
      2154.671  
  24745416.825   130038044.13246      -817.215    24745417.493   101328369.13446
      -636.793  
  23861540.525   125393242.48247       683.847    23861543.204    97709030.36146
       532.863  
  24563940.394   129084376.33246      3319.855    24563941.054   100585238.70344
      2586.902  
 20 10 03 04 32 20.0000000  0  9G13G 2G29G15G 5G18G 7G30G20
  20689276.203   108722882.64049      1247.108    20689275.999    84719130.24047
       971.769  
  23607153.030   124056419.20447     -3013.995    23607151.676    96667333.01845
     -2348.570  
  21671150.357   113882660.61348     -2063.668    21671150.471    88739735.87649
     -1608.054  
  21502237.344   112995024.39648      2995.375    21502238.001    88048075.29949
      2334.055  
  21132697.887   111053075.44349     -2159.660    21132697.884    86534862.32549
     -1682.854  
  22002121.261   115621929.26848      2763.594    22002121.720    90095011.03447
      2153.444  
  24746195.708   130042137.78247      -820.270    24746196.230   101331558.99545
      -639.175  
  23860891.465   125389831.99247       680.651    23860894.110    97706372.83846
       530.375  
  24560781.971   129067778.76746      3319.332    24560782.695   100572305.53145
      2586.487  
 20 10 03 04 32 25.0000000  0  9G13G 2G29G15G 5G18G 7G30G20
  20688091.240   108716655.24149      1243.737    20688090.845    84714277.73047
       969.144  
  23610021.331   124071492.50747     -3015.065    23610019.966    96679078.43546
     -2349.406  
  21673115.297   113892986.19348     -2066.543    21673115.393    88747781.77949
     -1610.297  
  21499388.254   112980052.95548      2992.976    21499389.047    88036409.24549
      2332.187  
  21134753.426   111063877.78049     -2161.347    21134753.393    86543279.72849
     -1684.171  
  21999492.331   115608114.55148      2762.097    21999492.791    90084246.32047
      2152.281  
  24746977.208   130046244.68646      -822.952    24746977.963   101334759.15345
      -641.269  
  23860245.237   125386435.48047       677.668    23860247.928    97703726.20346
       528.051  
  24557623.676   129051181.84846      3319.355    24557624.231   100559372.86945
      2586.507  
 20 10 03 04 32 30.0000000  0  9G13G 2G29G15G 5G18G 7G30G20
  20686909.521   108710445.58049      1240.125    20686909.370    84709439.03847
       966.328  
  23612890.989   124086572.82047     -3016.566    23612889.666    96690829.31745
     -2350.574  
  21675083.093   113903327.59448     -2069.895    21675083.478    88755840.00949
     -1612.906  
  21496541.653   112965093.90148      2990.656    21496542.282    88024752.84349
      2330.379  
  21136810.869   111074689.46549     -2163.254    21136810.857    86551704.41749
     -1685.656  
  21996865.141   115594308.23348      2760.535    21996865.536    90073488.15247
      2151.063  
  24747761.650   130050366.67546      -825.852    24747762.275   101337971.09245
      -643.523  
  23859601.865   125383054.72247       674.433    23859604.447    97701091.85346
       525.531  
  24554465.828   129034587.33646      3318.852    24554466.507   100546442.10945
      2586.116  
 20 10 03 04 32 35.0000000  0  9G13G 2G29G15G 5G18G 7G30G20
  20685731.037   108704252.60449      1237.144    20685730.794    84704613.34347
       964.004  
  23615761.956   124101659.07347     -3017.352    23615760.292    96702584.83246
     -2351.188  
  21677053.766   113913683.70548     -2072.266    21677054.004    88763909.70349
     -1614.753  
  21493697.343   112950146.26548      2988.608    21493697.957    88013105.34149
      2328.785  
  21138869.836   111085509.34949     -2164.667    21138869.773    86560135.49349
     -1686.758  
  21994239.272   115580509.25848      2759.285    21994239.527    90062735.70947
      2150.090  
  24748548.701   130054502.68646      -828.555    24748549.142   101341193.96245
      -645.629  
  23858961.311   125379688.65247       671.769    23858963.874    97698468.93846
       523.452  
  24551308.317   129017994.19446      3318.809    24551308.847   100533512.36444
      2586.082  
 20 10 03 04 32 40.0000000  0  9G13G 2G29G15G 5G18G 7G30G20
  20684555.578   108698075.37149      1233.655    20684555.169    84699799.91447
       961.288  
  23618633.732   124116750.29547     -3018.746    23618632.291    96714344.21646
     -2352.273  
  21679027.099   113924053.58048     -2075.426    21679027.463    88771990.12249
     -1617.219  
  21490854.916   112935209.02048      2986.011    21490855.350    88001465.93349
      2326.757  
  21140930.147   111096336.41949     -2166.289    21140930.172    86568572.17049
     -1688.019  
  21991614.552   115566716.66948      2757.718    21991615.007    90051988.23747
      2148.867  
  24749338.262   130058651.70346      -830.960    24749338.650   101344426.96146
      -647.503  
  23858323.460   125376336.28647       668.925    23858325.959    97695856.71846
       521.237  
  24548150.847   129001401.42045      3318.526    24548151.207   100520582.95043
      2585.862  
 20 10 03 04 32 45.0000000  0  9G13G 2G29G15G 5G18G 7G30G20
  20683383.372   108691915.41949      1230.120    20683382.939    84694999.95547
       958.530  
  23621506.831   124131848.00147     -3020.238    23621505.218    96726108.65645
     -2353.437  
  21681003.289   113934438.74548     -2078.656    21681003.609    88780082.45649
     -1619.733  
  21488014.567   112920283.76248      2983.804    21488015.177    87989835.86849
      2324.961  
  21142992.172   111107172.33649     -2168.203    21142992.026    86577015.74149
     -1689.511  
  21988991.530   115552932.03148      2756.042    21988991.695    90041246.96447
      2147.563  
  24750130.670   130062815.30546      -834.234    24750131.115   101347671.31546
      -650.055  
  23857688.445   125372999.22547       665.801    23857690.974    97693256.40746
       518.800  
  24544993.618   128984810.63146      3318.011    24544994.442   100507655.11845
      2585.469  
 20 10 03 04 32 50.0000000  0  9G13G 2G29G15G 5G18G 7G30G20
  20682214.387   108685772.67249      1226.979    20682214.136    84690213.40247
       956.085  
  23624381.075   124146952.06647     -3021.453    23624379.522    96737878.04246
     -2354.383  
  21682982.515   113944839.05548     -2081.379    21682982.684    88788186.59149
     -1621.854  
  21485176.689   112905370.39348      2981.636    21485177.449    87978215.06549
      2323.351  
  21145055.718   111118016.84549     -2169.515    21145055.843    86585466.00649
     -1690.534  
  21986369.850   115539155.26248      2754.871    21986370.086    90030511.81947
      2146.647  
  24750925.725   130066993.38046      -837.038    24750926.010   101350926.96446
      -652.242  
  23857056.318   125369677.34547       663.054    23857058.728    97690667.93446
       516.664  
  24541836.880   128968221.67246      3317.655    24541837.359   100494728.60945
      2585.184  
 20 10 03 04 32 55.0000000  0  9G13G 2G29G15G 5G18G 7G30G20
  20681048.630   108679646.33049      1224.051    20681048.249    84685439.63347
       953.800  
  23627256.240   124162061.72447     -3022.270    23627254.626    96749651.80346
     -2355.019  
  21684964.201   113955253.73248     -2083.995    21684964.453    88796301.91949
     -1623.894  
  21482340.938   112890468.10948      2979.664    21482341.427    87966602.90349
      2321.819  
  21147120.977   111128869.16748     -2170.867    21147120.879    86593922.35849
     -1691.589  
  21983749.524   115525385.54448      2753.605    21983749.979    90019782.16847
      2145.664  
  24751723.474   130071185.13946      -839.284    24751723.850   101354193.26645
      -653.992  
  23856426.805   125366369.88847       660.187    23856429.386    97688090.69646
       514.429  
  24538680.269   128951633.82345      3317.593    24538680.563   100481802.99544
      2585.133  
 20 10 03 04 33  0.0000000  0  9G13G 2G29G15G 5G18G 7G30G20
  20679885.927   108673536.24949      1220.145    20679885.563    84680678.53447
       950.758  
  23630132.552   124177176.78247     -3023.784    23630130.938    96761429.75345
     -2356.198  
  21686948.744   113965682.57448     -2087.444    21686949.156    88804428.28749
     -1626.581  
  21479507.088   112875576.75148      2976.901    21479507.834    87954999.25149
      2319.659  
  21149187.557   111139729.15049     -2173.108    21149187.373    86602384.68149
     -1693.336  
  21981130.512   115511622.73248      2751.671    21981130.791    90009057.90547
      2144.156  
  24752523.654   130075390.42747      -842.565    24752524.048   101357470.10044
      -656.546  
  23855800.163   125363076.64647       656.917    23855802.715    97685524.54946
       511.883  
  24535523.829   128935046.83946      3317.062    24535524.552   100468878.12544
      2584.726  
 20 10 03 04 33  5.0000000  0  9G13G 2G29G15G 5G18G 7G30G20
  20678726.466   108667443.80649      1216.840    20678726.264    84675931.18047
       948.184  
  23633010.196   124192298.65347     -3024.812    23633008.792    96773213.02446
     -2356.999  
  21688936.143   113976126.98848     -2090.069    21688936.547    88812566.79049
     -1628.629  
  21476675.705   112860697.76348      2974.694    21476676.443    87943405.24149
      2317.940  
  21151255.858   111150598.14249     -2174.495    21151255.818    86610854.02649
     -1694.413  
  21978513.223   115497868.25048      2750.253    21978513.598    89998340.12547
      2143.050  
  24753326.686   130079610.60847      -845.198    24753327.043   101360758.57645
      -658.602  
  23855176.551   125359799.00847       654.112    23855178.991    97682970.53646
       509.695  
  24532368.019   128918462.19446      3317.022    24532368.740   100455955.04144
      2584.691  
 20 10 03 04 33 10.0000000  0  9G13G 2G29G15G 5G18G 7G30G20
  20677570.240   108661367.67249      1213.534    20677569.908    84671196.53247
       945.608  
  23635888.975   124207426.01847     -3026.011    23635887.308    96785000.56746
     -2357.934  
  21690926.420   113986585.62148     -2093.305    21690926.864    88820716.37049
     -1631.148  
  21473846.397   112845829.77348      2972.464    21473847.023    87931819.80049
      2316.202  
  21153325.501   111161474.81749     -2176.219    21153325.496    86619329.35449
     -1695.757  
  21975897.060   115484120.72148      2748.835    21975897.370    89987627.76547
      2141.944  
  24754132.411   130083844.31246      -848.070    24754132.660   101364057.56545
      -660.836  
  23854555.425   125356535.68947       651.054    23854557.950    97680427.69546
       507.312  
  24529212.158   128901878.49845      3316.660    24529212.825   100443032.69144
      2584.406  
 20 10 03 04 33 15.0000000  0  9G13G 2G29G15G 5G18G 7G30G20
  20676417.261   108655308.22649      1210.133    20676416.742    84666474.88747
       942.957  
  23638768.695   124222559.20847     -3027.469    23638767.072    96796792.65546
     -2359.070  
  21692919.356   113997058.82048     -2096.027    21692919.870    88828877.30249
     -1633.270  
  21471019.406   112830973.18348      2970.094    21471020.045    87920243.23949
      2314.355  
  21155396.840   111172359.52949     -2177.815    21155396.635    86627810.94849
     -1697.004  
  21973282.421   115470380.57948      2747.214    21973282.823    89976921.16247
      2140.683  
  24754940.601   130088091.94546      -851.047    24754941.002   101367367.40445
      -663.155  
  23853937.365   125353287.04147       648.159    23853939.838    97677896.28646
       505.059  
  24526056.674   128885296.16546      3316.284    24526057.300   100430111.37444
      2584.112  
 20 10 03 04 33 20.0000000  0  9G13G 2G29G15G 5G18G 7G30G20
  20675267.311   108649265.73149      1206.831    20675266.993    84661766.45347
       940.386  
  23641649.557   124237698.45947     -3028.410    23641648.073    96808589.46546
     -2359.804  
  21694915.119   114007546.84548     -2099.112    21694915.551    88837049.78349
     -1635.675  
  21468194.486   112816128.21848      2967.718    21468195.014    87908675.74049
      2312.539  
  21157469.712   111183252.54249     -2179.508    21157469.720    86636299.00749
     -1698.319  
  21970669.318   115456648.06548      2745.504    21970669.513    89966220.50247
      2139.351  
  24755751.664   130092353.76246      -853.921    24755752.060   101370688.30145
      -665.398  
  23853321.937   125350053.35347       645.155    23853324.495    97675376.52746
       502.714  
  24522901.448   128868715.43246      3315.866    24522902.335   100417191.32144
      2583.788  
 20 10 03 04 33 25.0000000  0  9G13G 2G29G15G 5G18G 7G30G20
  20674120.599   108643239.90449      1203.358    20674120.424    84657071.00547
       937.679  
  23644531.571   124252843.54347     -3030.004    23644530.004    96820390.80346
     -2361.050  
  21696913.776   114018049.39148     -2102.116    21696914.157    88845233.58349
     -1638.055  
  21465371.664   112801294.63048      2965.886    21465372.430    87897117.10549
      2311.077  
  21159544.101   111194153.56049     -2181.128    21159544.030    86644793.30649
     -1699.585  
  21968057.359   115442922.87848      2744.191    21968057.675    89955525.55647
      2138.327  
  24756565.326   130096629.42946      -856.831    24756565.440   101374019.98645
      -667.664  
  23852709.345   125346834.25347       642.230    23852711.974    97672868.14045
       500.438  
  24519746.315   128852135.97446      3315.523    24519747.252   100404272.28245
      2583.527  
 20 10 03 04 33 30.0000000  0  9G13G 2G29G15G 5G18G 7G30G20
  20672977.106   108637230.99349      1199.938    20672976.784    84652388.74147
       935.012  
  23647414.736   124267994.58647     -3030.796    23647413.154    96832196.82346
     -2361.664  
  21698915.101   114028566.67248     -2104.933    21698915.460    88853428.86349
     -1640.211  
  21462551.103   112786472.66948      2963.116    21462551.791    87885567.52949
      2308.917  
  21161620.013   111205062.83549     -2182.762    21161620.064    86653294.03849
     -1700.854  
  21965447.092   115429205.30448      2742.488    21965447.322    89944836.53647
      2136.999  
  24757381.704   130100919.21346      -859.457    24757381.829   101377362.68245
      -669.710  
  23852099.615   125343630.07247       639.257    23852102.165    97670371.38746
       498.120  
  24516591.761   128835558.08346      3315.238    24516592.387   100391354.48344
      2583.300  
 20 10 03 04 33 35.0000000  0  9G13G 2G29G15G 5G18G 7G30G20
  20671837.044   108631239.23949      1196.844    20671836.554    84647719.84648
       932.601  
  23650299.040   124283151.92247     -3032.035    23650297.527    96844007.72046
     -2362.628  
  21700919.264   114039098.96648     -2107.698    21700919.695    88861635.84049
     -1642.367  
  21459732.831   112771662.60948      2961.019    21459733.601    87874027.22849
      2307.284  
  21163697.654   111215980.63349     -2184.105    21163697.545    86661801.41049
     -1701.902  
  21962838.174   115415495.59348      2741.405    21962838.445    89934153.65147
      2136.156  
  24758200.728   130105223.40146      -862.026    24758200.939   101380716.58245
      -671.710  
  23851492.763   125340441.07447       636.445    23851495.279    97667886.44546
       495.929  
  24513437.580   128818982.03346      3315.371    24513438.207   100378438.04944
      2583.397  
 20 10 03 04 33 40.0000000  0  9G13G 2G29G15G 5G18G 7G30G20
  20670699.846   108625263.78849      1193.469    20670699.510    84643063.65147
       929.973  
  23653184.463   124298314.67347     -3033.086    23653182.876    96855822.83746
     -2363.445  
  21702926.291   114049645.36748     -2110.621    21702926.608    88869853.81349
     -1644.617  
  21456916.659   112756863.62148      2958.593    21456917.357    87862495.55649
      2305.395  
  21165776.817   111226906.08049     -2185.968    21165776.497    86670314.74849
     -1703.355  
  21960230.591   115401792.90648      2739.773    21960231.009    89923476.23047
      2134.887  
  24759022.424   130109541.09946      -864.789    24759022.688   101384081.04045
      -673.863  
  23850888.569   125337266.35547       633.414    23850891.046    97665412.64846
       493.566  
  24510283.172   128802406.97546      3314.706    24510284.249   100365522.43144
      2582.887  
 20 10 03 04 33 45.0000000  0  9G13G 2G29G15G 5G18G 7G30G20
  20669566.076   108619305.41149      1190.085    20669565.639    84638420.76547
       927.335  
  23656071.061   124313483.59747     -3034.581    23656069.465    96867642.77945
     -2364.612  
  21704935.987   114060206.64048     -2113.804    21704936.465    88878083.37249
     -1647.125  
  21454102.774   112742076.43148      2956.253    21454103.564    87850973.07549
      2303.570  
  21167857.295   111237839.91149     -2187.562    21167857.158    86678834.61349
     -1704.597  
  21957624.722   115388098.00248      2738.141    21957624.811    89912804.88047
      2133.613  
  24759846.773   130113873.05246      -867.913    24759846.981   101387456.56945
      -676.301  
  23850287.190   125334106.71447       630.629    23850289.756    97662950.59346
       491.394  
  24507129.387   128785833.56846      3314.819    24507130.502   100352608.14444
      2582.976  
 20 10 03 04 33 50.0000000  0  9G13G 2G29G15G 5G18G 7G30G20
  20668435.351   108613363.22649      1186.780    20668434.925    84633790.49247
       924.762  
  23658958.599   124328657.74647     -3035.227    23658957.051    96879466.77745
     -2365.113  
  21706948.338   114070781.86948     -2116.367    21706948.757    88886323.80949
     -1649.120  
  21451290.984   112727300.18848      2954.074    21451291.709    87839459.12449
      2301.871  
  21169939.470   111248781.25348     -2188.969    21169939.287    86687360.33449
     -1705.691  
  21955019.805   115374409.97848      2737.156    21955020.060    89902138.89147
      2132.847  
  24760673.602   130118218.38247      -870.535    24760673.825   101390842.54545
      -678.344  
  23849688.678   125330961.23047       627.608    23849691.232    97660499.57946
       489.043  
  24503975.946   128769261.06346      3314.566    24503976.711   100339694.45944
      2582.772  
 20 10 03 04 33 55.0000000  0  9G13G 2G29G15G 5G18G 7G30G20
  20667307.679   108607437.92649      1183.229    20667307.425    84629173.38047
       921.995  
  23661847.258   124343837.87547     -3036.727    23661845.823    96891295.43946
     -2366.285  
  21708963.548   114081371.80448     -2119.504    21708963.976    88894575.70349
     -1651.565  
  21448481.301   112712535.60748      2951.749    21448482.057    87827954.25849
      2300.124  
  21172023.004   111259730.79748     -2190.729    21172022.886    86695892.44549
     -1707.066  
  21952416.586   115360729.59048      2735.378    21952416.792    89891478.84847
      2131.461  
  24761503.072   130122577.80746      -873.464    24761503.465   101394239.49845
      -680.624  
  23849092.882   125327830.64447       624.413    23849095.654    97658060.16146
       486.555  
  24500822.571   128752690.15145      3313.698    24500823.546   100326782.05945
      2582.101  
 20 10 03 04 34  0.0000000  0  9G13G 2G29G15G 5G18G 7G30G20
  20666183.619   108601530.19949      1179.815    20666183.085    84624569.96047
       919.336  
  23664737.273   124359024.63347     -3037.977    23664735.796    96903129.26946
     -2367.257  
  21710981.807   114091977.07848     -2122.563    21710982.130    88902839.54849
     -1653.948  
  21445674.082   112697783.32648      2949.277    21445674.610    87816458.98049
      2298.136  
  21174108.436   111270689.18948     -2192.637    21174108.191    86704431.45349
     -1708.550  
  21949814.929   115347057.48148      2733.667    21949815.229    89880825.25947
      2130.128  
  24762335.437   130126951.94246      -876.270    24762335.733   101397647.90345
      -682.813  
  23848500.137   125324715.62247       621.464    23848502.732    97655632.87046
       484.254  
  24497669.604   128736121.41646      3313.645    24497670.636   100313871.38845
      2582.058  
 20 10 03 04 34  5.0000000  0  9G13G 2G29G15G 5G18G 7G30G20
  20665062.590   108595639.21549      1176.737    20665062.152    84619979.58447
       916.938  
  23667628.405   124374217.09847     -3038.980    23667626.748    96914967.54645
     -2368.038  
  21713002.548   114102596.80048     -2125.148    21713002.971    88911114.65049
     -1655.965  
  21442868.957   112683042.54048      2947.066    21442869.609    87804972.65749
      2296.413  
  21176195.184   111281655.56149     -2193.902    21176194.953    86712976.67749
     -1709.539  
  21947214.549   115333392.82848      2732.266    21947214.871    89870177.47647
      2129.034  
  24763170.480   130131339.93846      -878.718    24763170.931   101401067.15245
      -684.719  
  23847910.208   125321615.33947       618.719    23847912.943    97653217.06645
       482.116  
  24494517.023   128719554.05546      3313.730    24494517.844   100300961.76344
      2582.125  
 20 10 03 04 34 10.0000000  0  9G13G 2G29G15G 5G18G 7G30G20
  20663944.614   108589764.71049      1173.180    20663944.410    84615402.05347
       914.163  
  23670520.464   124389415.06647     -3040.047    23670518.975    96926810.10746
     -2368.870  
  21715026.138   114113230.74448     -2128.397    21715026.497    88919400.83849
     -1658.496  
  21440066.110   112668313.04348      2944.519    21440066.802    87793495.13149
      2294.425  
  21178283.453   111292629.70949     -2195.710    21178283.180    86721527.96149
     -1710.945  
  21944615.719   115319735.38348      2730.714    21944615.984    89859535.31447
      2127.828  
  24764008.185   130135741.63546      -881.438    24764008.582   101404497.03645
      -686.835  
  23847322.956   125318529.52647       615.601    23847325.612    97650812.54446
       479.687  
  24491364.455   128702987.85446      3312.808    24491365.343   100288053.01644
      2581.405  
 20 10 03 04 34 15.0000000  0  9G13G 2G29G15G 5G18G 7G30G20
  20662830.062   108583907.13749      1170.207    20662829.614    84610837.71247
       911.847  
  23673413.520   124404618.98947     -3041.104    23673412.205    96938657.30746
     -2369.694  
  21717052.588   114123879.31248     -2130.820    21717052.966    88927698.41949
     -1660.383  
  21437265.355   112653595.25948      2942.758    21437265.957    87782026.73249
      2293.090  
  21180373.437   111303612.08849     -2196.882    21180373.133    86730085.65749
     -1711.859  
  21942018.226   115306085.62448      2729.621    21942018.575    89848899.13947
      2126.973  
  24764848.519   130140157.37047      -883.922    24764848.651   101407937.85345
      -688.772  
  23846738.560   125315458.62847       612.930    23846741.278    97648419.63746
       477.604  
  24488212.388   128686423.22546      3313.421    24488213.061   100275145.54244
      2581.883  
 20 10 03 04 34 20.0000000  0  9G13G 2G29G15G 5G18G 7G30G20
  20661718.364   108578065.84349      1166.188    20661718.222    84606286.05947
       908.715  
  23676307.938   124419828.23147     -3042.719    23676306.393    96950508.65046
     -2370.953  
  21719081.502   114134541.85648     -2134.265    21719081.872    88936006.88849
     -1663.065  
  21434466.693   112638888.56648      2939.929    21434467.299    87770566.97949
      2290.851  
  21182464.757   111314602.04649     -2198.910    21182464.537    86738649.26249
     -1713.440  
  21939422.053   115292442.92248      2727.320    21939422.402    89838268.46347
      2125.180  
  24765691.344   130144586.53946      -887.292    24765691.686   101411389.15845
      -691.397  
  23846157.043   125312402.01747       609.441    23846159.609    97646037.86246
       474.886  
  24485060.357   128669859.59346      3312.413    24485061.195   100262238.83644
      2581.097  
 20 10 03 04 34 25.0000000  0  9G13G 2G29G15G 5G18G 7G30G20
  20660610.096   108572241.73349      1163.063    20660609.762    84601747.79148
       906.277  
  23679203.258   124435043.64747     -3043.882    23679201.759    96962364.81446
     -2371.859  
  21721113.480   114145219.25748     -2136.926    21721113.705    88944326.93749
     -1665.141  
  21431670.314   112624193.84048      2937.636    21431671.071    87759116.54749
      2289.063  
  21184557.588   111325600.45048     -2200.651    21184557.410    86747219.44749
     -1714.796  
  21936827.591   115278808.11948      2726.026    21936827.664    89827643.94547
      2124.176  
  24766537.031   130149030.03346      -890.273    24766537.151   101414851.63245
      -693.722  
  23845578.194   125309360.58547       606.659    23845580.871    97643667.93146
       472.719  
  24481908.701   128653297.77946      3312.141    24481909.583   100249333.54344
      2580.886  
 20 10 03 04 34 30.0000000  0  9G13G 2G29G15G 5G18G 7G30G20
  20659505.063   108566434.52549      1159.554    20659504.712    84597222.69947
       903.547  
  23682099.731   124450264.99447     -3045.051    23682098.366    96974225.59045
     -2372.769  
  21723148.114   114155911.26448     -2139.973    21723148.463    88952658.36849
     -1667.515  
  21428876.226   112609510.80748      2935.309    21428877.067    87747675.22649
      2287.238  
  21186651.971   111336606.94248     -2202.331    21186651.746    86755795.93249
     -1716.105  
  21934234.462   115265181.01248      2724.434    21934234.626    89817025.41647
      2122.934  
  24767385.173   130153487.51446      -893.086    24767385.499   101418325.00945
      -695.914  
  23845002.365   125306334.08047       603.461    23845004.998    97641309.60946
       470.227  
  24478757.427   128636737.50846      3311.651    24478758.080   100236429.41445
      2580.504  
 20 10 03 04 34 35.0000000  0  9G13G 2G29G15G 5G18G 7G30G20
  20658403.469   108560645.04749      1156.285    20658403.088    84592711.42148
       900.999  
  23684997.719   124465493.02247     -3046.085    23684996.146    96986091.57946
     -2373.578  
  21725185.611   114166618.60348     -2142.813    21725185.910    88961001.74649
     -1669.727  
  21426084.613   112594840.31248      2932.894    21426085.236    87736243.67649
      2285.370  
  21188748.258   111347622.37848     -2203.789    21188748.043    86764379.38949
     -1717.241  
  21931642.840   115251562.38248      2723.000    21931643.079    89806413.49847
      2121.816  
  24768236.166   130157959.82746      -895.640    24768236.427   101421809.91845
      -697.906  
  23844429.414   125303323.29847       600.776    23844432.058    97638963.54746
       468.137  
  24475606.522   128620179.57646      3311.488    24475607.429   100223527.15044
      2580.382  
 20 10 03 04 34 40.0000000  0  9G13G 2G29G15G 5G18G 7G30G20
  20657304.721   108554871.15049      1153.102    20657304.398    84588212.28348
       898.516  
  23687896.267   124480725.58847     -3047.090    23687894.963    96997961.09446
     -2374.359  
  21727225.757   114177339.08248     -2145.397    21727226.047    88969355.36249
     -1671.742  
  21423294.884   112580180.18948      2930.882    21423295.623    87724820.20949
      2283.801  
  21190845.676   111358644.57248     -2205.328    21190845.543    86772968.11149
     -1718.441  
  21929052.557   115237950.10248      2721.598    21929052.758    89795806.53347
      2120.723  
  24769089.620   130162444.85047      -898.190    24769089.984   101425304.74445
      -699.894  
  23843859.155   125300326.06547       598.070    23843861.841    97636628.04146
       466.027  
  24472455.638   128603621.94146      3311.703    24472456.895   100210625.11445
      2580.547  
 20 10 03 04 34 45.0000000  0  9G13G 2G29G15G 5G18G 7G30G20
  20656209.197   108549114.72849      1149.414    20656208.881    84583726.76348
       895.644  
  23690796.173   124495964.66747     -3048.566    23690794.784    97009835.68846
     -2375.508  
  21729268.594   114188074.72848     -2148.675    21729268.865    88977720.79649
     -1674.297  
  21420507.474   112565532.37548      2928.351    21420508.208    87713406.33249
      2281.827  
  21192944.805   111369675.44749     -2206.992    21192944.518    86781563.59449
     -1719.738  
  21926463.801   115224346.06748      2720.004    21926463.866    89785205.98647
      2119.479  
  24769945.923   130166944.47446      -901.371    24769946.237   101428810.92545
      -702.374  
  23843291.711   125297344.34647       594.793    23843294.281    97634304.63646
       463.472  
  24469305.357   128587066.42046      3310.772    24469306.230   100197724.73044
      2579.820  
 20 10 03 04 34 50.0000000  0  9G13G 2G29G15G 5G18G 7G30G20
  20655117.106   108543375.37749      1146.098    20655116.781    84579254.54548
       893.058  
  23693697.188   124511209.79447     -3049.777    23693696.019    97021715.00946
     -2376.453  
  21731314.446   114198825.06848     -2151.488    21731314.609    88986097.68249
     -1676.487  
  21417722.338   112550896.48048      2925.922    21417722.984    87702001.74349
      2279.937  
  21195045.454   111380714.58649     -2208.710    21195045.204    86790165.52149
     -1721.078  
  21923876.364   115210749.90248      2718.449    21923876.703    89774611.57847
      2118.269  
  24770804.849   130171458.22346      -904.180    24770805.422   101432328.14445
      -704.559  
  23842727.123   125294377.70147       592.016    23842729.678    97631992.96246
       461.309  
  24466155.180   128570512.62546      3310.410    24466156.013   100184825.64843
      2579.538  
 20 10 03 04 34 55.0000000  0  9G13G 2G29G15G 5G18G 7G30G20
  20654028.047   108537652.57849      1142.796    20654027.869    84574795.22548
       890.488  
  23696599.343   124526460.37647     -3050.698    23696598.027    97033598.56146
     -2377.172  
  21733362.782   114209589.58448     -2154.449    21733363.042    88994485.61149
     -1678.793  
  21414939.287   112536271.98148      2923.754    21414940.203    87690606.03549
      2278.246  
  21197147.624   111391761.44049     -2210.160    21197147.365    86798773.45749
     -1722.206  
  21921290.635   115197161.05648      2717.022    21921290.770    89764022.86547
      2117.156  
  24771666.229   130175985.58846      -906.433    24771666.655   101435855.97145
      -706.316  
  23842165.383   125291425.60847       588.629    23842168.015    97629692.63846
       458.668  
  24463005.469   128553960.03046      3310.315    24463006.226   100171927.51645
      2579.469  
 20 10 03 04 35  0.0000000  0  9G13G 2G29G15G 5G18G 7G30G20
  20652942.234   108531946.18849      1139.479    20652941.880    84570348.69048
       887.902  
  23699502.450   124541716.30547     -3051.862    23699501.201    97045486.29045
     -2378.078  
  21735413.991   114220368.07348     -2157.257    21735414.165    89002884.42949
     -1681.039  
  21412158.534   112521658.68148      2921.418    21412159.363    87679219.05349
      2276.426  
  21199251.133   111402815.89449     -2211.792    21199250.988    86807387.31549
     -1723.476  
  21918706.063   115183579.41048      2715.484    21918706.299    89753439.76647
      2115.957  
  24772530.340   130180526.45946      -910.023    24772530.928   101439394.30345
      -709.112  
  23841606.283   125288487.92747       586.147    23841609.013    97627403.52446
       456.734  
  24459855.646   128537408.44646      3310.073    24459856.785   100159030.20745
      2579.281  
 20 10 03 04 35  5.0000000  0  9G13G 2G29G15G 5G18G 7G30G20
  20651859.849   108526258.02749      1136.093    20651859.545    84565916.36348
       885.265  
  23702406.869   124556979.37947     -3052.770    23702405.572    97057379.58246
     -2378.785  
  21737468.049   114231162.37448     -2160.281    21737468.221    89011295.57149
     -1683.339  
  21409380.244   112507058.44848      2918.956    21409380.980    87667842.25649
      2274.507  
  21201356.540   111413879.69249     -2213.507    21201356.320    86816008.45849
     -1724.815  
  21916123.186   115170006.80048      2713.835    21916123.534    89742863.71247
      2114.675  
  24773397.292   130185082.60246      -912.559    24773397.916   101442944.53845
      -711.086  
  23841050.456   125285566.44247       582.941    23841053.184    97625127.06246
       454.237  
  24456706.458   128520859.72446      3309.645    24456707.401   100146135.09944
      2578.941  
 20 10 03 04 35 10.0000000  0  9G13G 2G29G15G 5G18G 7G30G20
  20650780.325   108520585.46649      1132.687    20650780.154    84561496.18848
       882.608  
  23705312.062   124572246.93247     -3054.085    23705310.935    97069276.36846
     -2379.809  
  21739524.568   114241969.80248     -2162.948    21739524.729    89019716.94049
     -1685.437  
  21406603.863   112492468.62248      2916.719    21406604.546    87656473.56649
      2272.766  
  21203463.261   111424950.24349     -2214.801    21203462.877    86824634.85949
     -1725.820  
  21913541.654   115156440.57348      2712.300    21913541.975    89732292.62747
      2113.477  
  24774266.746   130189651.42846      -915.503    24774267.326   101446504.65945
      -713.382  
  23840497.061   125282658.61347       579.776    23840499.789    97622861.22046
       451.770  
  24453557.469   128504311.29946      3309.238    24453558.170   100133240.21344
      2578.625  
 20 10 03 04 35 15.0000000  0  9G13G 2G29G15G 5G18G 7G30G20
  20649704.208   108514930.03049      1129.145    20649703.923    84557089.35748
       879.852  
  23708218.605   124587520.50747     -3055.772    23708217.263    97081177.86046
     -2381.125  
  21741583.957   114252791.90148     -2165.961    21741584.151    89028149.74149
     -1687.766  
  21403829.751   112477890.78548      2914.270    21403830.545    87645114.21649
      2270.855  
  21205571.542   111436029.05349     -2216.687    21205571.135    86833267.69949
     -1727.292  
  21910961.631   115142882.27148      2710.781    21910961.885    89721727.71747
      2112.292  
  24775138.831   130194234.42346      -918.218    24775139.405   101450075.83145
      -715.499  
  23839946.547   125279765.86247       576.977    23839949.355    97620607.12846
       449.590  
  24450408.690   128487764.60545      3308.964    24450409.519   100120346.70145
      2578.409  
 20 10 03 04 35 20.0000000  0  9G13G 2G29G15G 5G18G 7G30G20
  20648631.152   108509291.92449      1125.863    20648631.127    84552696.03048
       877.292  
  23711126.272   124602800.34247     -3056.905    23711125.114    97093084.21045
     -2382.007  
  21743646.177   114263628.90648     -2168.874    21743646.501    89036594.15749
     -1690.035  
  21401058.124   112463325.13148      2911.871    21401058.742    87633764.36349
      2268.987  
  21207681.334   111447116.30349     -2218.237    21207681.105    86841907.11349
     -1728.499  
  21908383.125   115129332.13248      2709.136    21908383.526    89711169.17447
      2111.012  
  24776013.638   130198831.77946      -920.894    24776014.337   101453658.18645
      -717.581  
  23839399.064   125276888.50447       573.637    23839401.837    97618365.04046
       446.987  
  24447260.229   128471219.89546      3308.754    24447261.212   100107454.72444
      2578.246  
 20 10 03 04 35 25.0000000  0  9G13G 2G29G15G 5G18G 7G30G20
  20647561.503   108503670.31949      1122.848    20647561.248    84548315.55848
       874.941  
  23714034.893   124618085.55947     -3057.723    23714033.690    97104994.74945
     -2382.645  
  21745711.073   114274479.91648     -2171.500    21745711.317    89045049.48249
     -1692.082  
  21398288.419   112448770.85748      2909.757    21398289.164    87622423.37349
      2267.339  
  21209792.662   111458211.21949     -2219.660    21209792.305    86850552.49949
     -1729.609  
  21905805.966   115115789.31948      2707.836    21905806.391    89700616.32747
      2110.000  
  24776891.063   130203442.71046      -923.456    24776891.804   101457251.11345
      -719.581  
  23838854.256   125274025.61347       571.507    23838856.994    97616134.21945
       445.328  
  24444112.202   128454676.37246      3308.516    24444112.874   100094563.65044
      2578.059  
 20 10 03 04 35 30.0000000  0  9G13G 2G29G15G 5G18G 7G30G20
  20646494.894   108498065.68649      1119.281    20646494.799    84543948.31448
       872.164  
  23716944.644   124633376.62347     -3058.664    23716943.523    97116909.87146
     -2383.378  
  21747778.838   114285345.37548     -2174.519    21747779.043    89053516.06949
     -1694.434  
  21395521.155   112434228.41248      2907.277    21395521.768    87611091.60249
      2265.406  
  21211905.505   111469314.22049     -2221.336    21211905.212    86859204.18849
     -1730.913  
  21903230.324   115102254.28948      2706.202    21903230.707    89690069.55247
      2108.726  
  24777771.140   130208067.64146      -926.332    24777771.721   101460854.94645
      -721.820  
  23838312.289   125271177.71547       568.191    23838315.050    97613915.08146
       442.741  
  24440964.318   128438134.47046      3308.069    24440965.072   100081673.86244
      2577.714  
 20 10 03 04 35 35.0000000  0  9G13G 2G29G15G 5G18G 7G30G20
  20645431.533   108492477.53149      1115.926    20645431.273    84539593.91448
       869.550  
  23719855.562   124648673.03947     -3059.977    23719854.596    97128829.13546
     -2384.402  
  21749849.060   114296224.84248     -2177.358    21749849.230    89061993.57649
     -1696.647  
  21392756.019   112419697.37148      2905.051    21392756.575    87599768.72449
      2263.671  
  21214019.661   111480424.81449     -2222.866    21214019.351    86867861.79649
     -1732.109  
  21900656.049   115088726.60248      2704.734    21900656.506    89679528.50547
      2107.581  
  24778653.925   130212706.11446      -929.038    24778654.569   101464469.37046
      -723.926  
  23837773.200   125268344.34447       565.288    23837775.848    97611707.26346
       440.480  
  24437816.594   128421593.69646      3308.038    24437818.055   100068785.01043
      2577.694  
 20 10 03 04 35 40.0000000  0  9G13G 2G29G15G 5G18G 7G30G20
  20644371.596   108486907.55849      1112.339    20644371.388    84535253.67648
       866.753  
  23722767.584   124663976.47047     -3060.980    23722766.627    97140753.88646
     -2385.184  
  21751922.317   114307119.94348     -2180.383    21751922.581    89070483.25949
     -1699.003  
  21389993.334   112405179.39148      2902.492    21389994.057    87588456.01749
      2261.667  
  21216135.739   111491544.69149     -2224.852    21216135.432    86876526.63649
     -1733.652  
  21898083.457   115075207.94648      2702.925    21898083.977    89668994.49247
      2106.172  
  24779539.368   130217359.77546      -932.117    24779540.057   101468095.57945
      -726.327  
  23837237.130   125265527.15347       562.117    23837239.755    97609512.05346
       438.011  
  24434669.596   128405055.79846      3307.581    24434670.713   100055898.29644
      2577.332  
 20 10 03 04 35 45.0000000  0  9G13G 2G29G15G 5G18G 7G30G20
  20643314.713   108481353.56949      1109.128    20643314.454    84530925.89548
       864.254  
  23725680.599   124679284.75147     -3062.323    23725679.806    97152682.39545
     -2386.230  
  21753998.248   114318028.46948     -2183.151    21753998.388    89078983.40249
     -1701.159  
  21387232.745   112390672.27348      2900.218    21387233.254    87577151.77249
      2259.964  
  21218253.143   111502671.72349     -2226.105    21218252.972    86885197.04749
     -1734.629  
  21895512.384   115061696.08448      2701.640    21895512.648    89658465.76447
      2105.172  
  24780427.509   130222026.39146      -934.562    24780428.002   101471731.87945
      -728.238  
  23836703.527   125262723.95947       559.526    23836706.157    97607327.74446
       435.992  
  24431522.658   128388518.49346      3307.359    24431523.715   100043012.05544
      2577.160  
 20 10 03 04 35 50.0000000  0  9G13G 2G29G15G 5G18G 7G30G20
  20642261.046   108475816.48049      1105.687    20642260.927    84526611.28548
       861.569  
  23728594.750   124694598.77847     -3063.203    23728593.987    97164615.38846
     -2386.914  
  21756076.829   114328951.33248     -2186.051    21756076.878    89087494.72149
     -1703.417  
  21384474.255   112376176.97048      2897.867    21384474.892    87565856.73949
      2258.073  
  21220372.059   111513806.67249     -2227.796    21220371.745    86893873.63249
     -1735.948  
  21892942.456   115048191.99048      2699.913    21892943.057    89647943.09447
      2103.824  
  24781318.084   130226706.92846      -937.563    24781318.948   101475379.05745
      -730.570  
  23836172.944   125259935.69147       556.090    23836175.683    97605155.07246
       433.312  
  24428375.848   128371982.77346      3306.753    24428377.213   100030127.12144
      2576.690  
 20 10 03 04 35 55.0000000  0  9G13G 2G29G15G 5G18G 7G30G20
  20641210.632   108470296.11249      1102.344    20641210.345    84522309.70348
       858.965  
  23731510.034   124709918.29647     -3064.397    23731509.064    97176552.67146
     -2387.847  
  21758158.071   114339888.33248     -2188.770    21758158.303    89096017.05849
     -1705.539  
  21381718.244   112361693.31548      2895.445    21381718.730    87554570.78149
      2256.187  
  21222492.498   111524949.36949     -2229.366    21222492.237    86902556.25449
     -1737.171  
  21890374.248   115034695.44048      2698.551    21890374.697    89637426.31047
      2102.761  
  24782211.528   130231401.13146      -940.394    24782211.951   101479036.88345
      -732.776  
  23835645.246   125257162.12047       553.242    23835647.708    97602993.85246
       431.093  
  24425229.564   128355448.40846      3306.843    24425230.821   100017243.23644
      2576.762  
 20 10 03 04 36  0.0000000  0  9G13G 2G29G15G 5G18G 7G30G20
  20640163.441   108464793.46249      1098.839    20640163.179    84518021.92148
       856.234  
  23734426.478   124725244.37347     -3065.925    23734425.662    97188495.05746
     -2389.034  
  21760242.177   114350840.44648     -2191.883    21760242.403    89104551.16449
     -1707.964  
  21378964.507   112347222.26848      2892.999    21378965.013    87543294.64349
      2254.331  
  21224614.480   111536100.80449     -2231.093    21224614.184    86911245.67849
     -1738.520  
  21887807.555   115021207.46948      2696.655    21887808.051    89626916.19947
      2101.288  
  24783107.655   130236110.03246      -943.632    24783108.184   101482706.14945
      -735.301  
  23835120.375   125254404.28047       549.910    23835122.940    97600844.89046
       428.499  
  24422083.570   128338916.34645      3306.558    24422084.626   100004361.09344
      2576.534  
 20 10 03 04 36  5.0000000  0  9G13G 2G29G15G 5G18G 7G30G20
  20639119.488   108459307.42149      1095.729    20639119.420    84513747.09048
       853.813  
  23737343.877   124740575.81847     -3066.562    23737342.975    97200441.62346
     -2389.534  
  21762328.937   114361806.53848     -2194.383    21762329.196    89113096.17049
     -1709.972  
  21376212.861   112332762.76948      2890.961    21376213.494    87532027.50849
      2252.695  
  21226737.945   111547259.81649     -2232.324    21226737.849    86919941.01349
     -1739.477  
  21885242.190   115007726.94848      2695.437    21885242.626    89616411.89947
      2100.335  
  24784006.220   130240832.52247      -945.511    24784006.619   101486385.99545
      -736.765  
  23834598.359   125251661.03747       547.523    23834601.049    97598707.30546
       426.636  
  24418937.834   128322385.54746      3306.566    24418938.778    99991479.93645
      2576.542  
 20 10 03 04 36 10.0000000  0  9G13G 2G29G15G 5G18G 7G30G20
  20638078.583   108453837.89349      1092.293    20638078.613    84509485.12448
       851.133  
  23740262.395   124755912.57547     -3067.617    23740261.548    97212392.34846
     -2390.354  
  21764418.364   114372786.54748     -2197.336    21764418.668    89121652.02049
     -1712.214  
  21373463.521   112318314.70248      2888.456    21373464.174    87520769.28349
      2250.742  
  21228862.958   111558426.39649     -2233.964    21228862.726    86928642.24749
     -1740.754  
  21882678.353   114994253.83248      2694.194    21882678.908    89605913.37147
      2099.371  
  24784907.480   130245568.51646      -948.937    24784907.953   101490076.40146
      -739.434  
  23834079.024   125248932.35347       544.413    23834081.853    97596581.06546
       424.214  
  24415792.350   128305855.91946      3306.332    24415793.505    99978599.72544
      2576.359  
 20 10 03 04 36 15.0000000  0  9G13G 2G29G15G 5G18G 7G30G20
  20637041.109   108448385.02449      1088.542    20637040.958    84505236.13548
       848.210  
  23743181.899   124771254.79647     -3069.030    23743181.063    97224347.30745
     -2391.457  
  21766510.463   114383780.57348     -2200.512    21766510.584    89130218.78749
     -1714.688  
  21370716.456   112303878.18548      2885.921    21370717.058    87509520.05549
      2248.765  
  21230989.295   111569600.62249     -2235.921    21230989.071    86937349.43249
     -1742.281  
  21880116.027   114980788.24948      2692.050    21880116.425    89595420.71447
      2097.699  
  24785811.396   130250318.09646      -951.727    24785811.805   101493777.36945
      -741.608  
  23833562.563   125246218.33047       541.144    23833565.315    97594466.24146
       421.667  
  24412647.051   128289327.57346      3305.558    24412648.126    99965720.51644
      2575.758  
 20 10 03 04 36 20.0000000  0  9G13G 2G29G15G 5G18G 7G30G20
  20636006.865   108442950.19149      1085.395    20636006.699    84501001.20548
       845.757  
  23746102.695   124786603.87247     -3070.433    23746101.871    97236307.61946
     -2392.551  
  21768605.417   114394789.97548     -2203.277    21768605.679    89138797.53749
     -1716.862  
  21367971.680   112289454.66348      2883.565    21367972.140    87498280.95049
      2246.933  
  21233117.350   111580783.90649     -2237.354    21233117.126    86946063.67849
     -1743.398  
  21877555.238   114967331.58348      2690.647    21877555.860    89584935.00247
      2096.604  
  24786717.964   130255082.70946      -954.391    24786718.545   101497490.03745
      -743.688  
  23833049.189   125243520.34447       538.164    23833051.738    97592363.91646
       419.344  
  24409502.259   128272801.92046      3304.977    24409503.388    99952843.37243
      2575.305  
 20 10 03 04 36 25.0000000  0  9G13G 2G29G15G 5G18G 7G30G20
  20634975.651   108437531.03349      1082.063    20634975.414    84496778.48347
       843.163  
  23749024.473   124801957.41647     -3071.246    23749023.640    97248271.40346
     -2393.184  
  21770703.031   114405812.41748     -2206.020    21770703.233    89147386.45049
     -1718.987  
  21365228.981   112275041.77748      2881.328    21365229.652    87487050.13649
      2245.188  
  21235246.734   111591973.92549     -2238.815    21235246.652    86954783.17049
     -1744.534  
  21874995.783   114953881.49848      2689.171    21874996.286    89574454.41347
      2095.456  
  24787626.991   130259859.98846      -957.328    24787627.539   101501212.59145
      -745.976  
  23832538.445   125240836.08547       535.218    23832541.070    97590272.28646
       417.051  
  24406357.679   128256276.60646      3304.851    24406358.841    99939966.47545
      2575.206  
 20 10 03 04 36 30.0000000  0  9G13G 2G29G15G 5G18G 7G30G20
  20633947.677   108432129.02349      1078.688    20633947.523    84492569.12848
       840.530  
  23751947.174   124817316.84747     -3072.269    23751946.395    97260239.78346
     -2393.979  
  21772803.291   114416849.29648     -2208.851    21772803.456    89155986.60849
     -1721.188  
  21362488.569   112260640.97248      2878.933    21362489.125    87475828.73349
      2243.320  
  21237377.830   111603172.16049     -2240.496    21237377.636    86963509.06649
     -1745.843  
  21872437.852   114940439.44448      2687.612    21872438.425    89563980.08747
      2094.242  
  24788538.858   130264651.28746      -959.641    24788539.411   101504946.08345
      -747.772  
  23832030.390   125238166.99047       532.172    23832033.060    97588192.47546
       414.675  
  24403213.434   128239753.07946      3304.430    24403214.623    99927091.05544
      2574.887  
 20 10 03 04 36 35.0000000  0  9G13G 2G29G15G 5G18G 7G30G20
  20632922.945   108426744.49149      1075.242    20632922.813    84488373.39548
       837.848  
  23754871.208   124832682.56147     -3073.695    23754870.575    97272213.06045
     -2395.089  
  21774906.243   114427900.94648     -2211.847    21774906.616    89164598.28849
     -1723.519  
  21359750.627   112246252.55248      2876.547    21359751.034    87464616.98749
      2241.460  
  21239510.270   111614378.80549     -2242.214    21239510.091    86972241.51949
     -1747.184  
  21869881.460   114927005.76548      2686.047    21869882.037    89553512.29447
      2093.020  
  24789453.221   130269456.95546      -962.383    24789453.745   101508690.75445
      -749.910  
  23831525.534   125235513.39047       529.155    23831528.004    97586124.73046
       412.328  
  24400069.452   128223231.65846      3304.050    24400070.453    99914217.20444
      2574.582  
 20 10 03 04 36 40.0000000  0  9G13G 2G29G15G 5G18G 7G30G20
  20631901.447   108421376.85449      1071.956    20631901.280    84484190.82448
       835.288  
  23757796.210   124848053.86547     -3074.534    23757795.550    97284190.68546
     -2395.746  
  21777012.023   114438966.73648     -2214.335    21777012.219    89173220.97449
     -1725.379  
  21357014.786   112231875.98348      2874.171    21357015.387    87453414.47149
      2239.609  
  21241644.426   111625593.24649     -2243.676    21241644.257    86980980.04149
     -1748.319  
  21867326.592   114913579.87748      2684.633    21867327.061    89543050.56347
      2091.918  
  24790370.446   130274276.47246      -965.063    24790370.928   101512446.21645
      -752.000  
  23831023.367   125232874.67247       526.375    23831025.883    97584068.59846
       410.159  
  24396925.788   128206711.80746      3303.808    24396926.788    99901344.57744
      2574.394  
 20 10 03 04 36 45.0000000  0  9G13G 2G29G15G 5G18G 7G30G20
  20630883.370   108416026.23349      1068.363    20630883.160    84480021.51148
       832.487  
  23760722.332   124863430.92547     -3075.999    23760721.765    97296172.80046
     -2396.887  
  21779120.460   114450046.83348     -2217.566    21779120.744    89181854.81449
     -1727.977  
  21354281.410   112217511.40148      2871.394    21354281.945    87442221.29649
      2237.444  
  21243779.917   111636815.63949     -2245.445    21243779.640    86989724.76549
     -1749.699  
  21864773.212   114900161.93048      2682.815    21864773.834    89532595.02447
      2090.503  
  24791290.129   130279109.91146      -967.894    24791290.754   101516212.53145
      -754.206  
  23830524.240   125230251.02447       522.972    23830526.651    97582024.20045
       407.508  
  24393782.424   128190193.60246      3303.180    24393783.566    99888473.29544
      2573.906  
 20 10 03 04 36 50.0000000  0  9G13G 2G29G15G 5G18G 7G30G20
  20629868.333   108410692.49049      1065.012    20629868.220    84475865.34448
       829.875  
  23763649.590   124878813.52147     -3077.007    23763649.186    97308159.22246
     -2397.671  
  21781231.774   114461141.05448     -2220.019    21781231.956    89190499.65649
     -1729.886  
  21351550.133   112203158.66248      2869.336    21351550.695    87431037.34549
      2235.843  
  21245916.926   111648045.79049     -2246.828    21245916.734    86998475.52749
     -1750.776  
  21862221.381   114886751.74748      2681.281    21862221.853    89522145.52747
      2089.309  
  24792212.685   130283957.16046      -970.897    24792213.183   101519989.59745
      -756.546  
  23830027.773   125227642.22847       520.254    23830030.235    97579991.36546
       405.391  
  24390639.427   128173676.91846      3303.156    24390640.622    99875603.12143
      2573.886  
 20 10 03 04 36 55.0000000  0  9G13G 2G29G15G 5G18G 7G30G20
  20628856.541   108405375.20649      1061.620    20628856.445    84471722.01348
       827.234  
  23766577.799   124894201.30147     -3078.305    23766577.238    97320149.69945
     -2398.683  
  21783345.381   114472248.97748     -2222.953    21783345.860    89199155.17749
     -1732.175  
  21348821.132   112188817.32548      2867.109    21348821.648    87419862.29049
      2234.093  
  21248055.458   111659283.32049     -2248.386    21248055.294    87007232.04249
     -1751.992  
  21859670.889   114873348.94748      2679.719    21859671.317    89511701.79047
      2088.089  
  24793137.498   130288817.71047      -973.312    24793138.267   101523777.03645
      -758.430  
  23829533.967   125225047.91347       517.417    23829536.432    97577969.82546
       403.179  
  24387496.679   128157161.28945      3303.004    24387497.534    99862733.79544
      2573.766  
 20 10 03 04 37  0.0000000  0  9G13G 2G29G15G 5G18G 7G30G20
  20627847.974   108400075.71449      1058.257    20627847.856    84467592.54248
       824.612  
  23769507.186   124909595.58547     -3079.527    23769506.836    97332145.22746
     -2399.637  
  21785462.021   114483371.93248     -2226.066    21785462.450    89207822.41649
     -1734.602  
  21346094.400   112174488.74848      2864.570    21346095.057    87408697.17049
      2232.129  
  21250195.525   111670529.60349     -2249.855    21250195.315    87015995.38049
     -1753.136  
  21857122.114   114859954.85548      2678.090    21857122.478    89501264.84247
      2086.819  
  24794065.185   130293692.98946      -976.652    24794065.773   101527575.95645
      -761.031  
  23829043.357   125222469.39647       514.418    23829045.856    97575960.59146
       400.843  
  24384354.346   128140648.12246      3302.289    24384355.477    99849866.44044
      2573.211  
 20 10 03 04 37  5.0000000  0  9G13G 2G29G15G 5G18G 7G30G20
  20626842.641   108394792.52649      1055.141    20626842.431    84463475.77548
       822.183  
  23772437.508   124924994.84047     -3080.297    23772437.070    97344144.63945
     -2400.233  
  21787581.324   114494508.41248     -2228.633    21787581.711    89216500.18449
     -1736.601  
  21343369.968   112160171.45248      2862.331    21343370.401    87397540.84449
      2230.387  
  21252337.111   111681783.12149     -2251.352    21252336.803    87024764.35749
     -1754.305  
  21854574.638   114846567.99848      2676.762    21854575.089    89490833.52547
      2085.784  
  24794995.557   130298581.41046      -978.972    24794996.273   101531385.13845
      -762.839  
  23828555.479   125219905.23847       511.511    23828557.953    97573962.55646
       398.577  
  24381212.080   128124135.90645      3302.156    24381213.226    99836999.76045
      2573.105  
 20 10 03 04 37 10.0000000  0  9G13G 2G29G15G 5G18G 7G30G20
  20625840.357   108389525.98649      1051.511    20625840.180    84459371.97648
       819.354  
  23775368.963   124940399.43047     -3081.573    23775368.608    97356148.20446
     -2401.230  
  21789703.082   114505658.73548     -2231.683    21789703.415    89225188.74149
     -1738.977  
  21340647.624   112145865.81348      2859.855    21340648.197    87386393.59549
      2228.472  
  21254480.032   111693044.24649     -2253.066    21254479.752    87033539.25049
     -1755.640  
  21852028.698   114833188.74448      2675.015    21852029.201    89480408.13147
      2084.425  
  24795928.413   130303483.35047      -981.812    24795928.835   101535204.78945
      -765.054  
  23828070.239   125217355.72047       508.527    23828072.762    97571975.90546
       396.249  
  24378070.074   128107624.95745      3301.573    24378071.439    99824134.10744
      2572.655  
 20 10 03 04 37 15.0000000  0  9G13G 2G29G15G 5G18G 7G30G20
  20624841.682   108384277.10149      1047.969    20624841.343    84455281.93648
       816.598  
  23778301.581   124955810.34547     -3083.063    23778301.091    97368156.70146
     -2402.391  
  21791827.725   114516823.89948     -2234.703    21791828.051    89233888.86349
     -1741.332  
  21337927.745   112131572.81548      2857.300    21337928.439    87375256.20249
      2226.465  
  21256624.643   111704314.00249     -2254.843    21256624.163    87042320.87749
     -1757.023  
  21849484.485   114819818.09448      2673.133    21849484.766    89469989.44247
      2082.957  
  24796863.864   130308399.83346      -984.694    24796864.431   101539035.83945
      -767.296  
  23827588.032   125214821.89347       504.973    23827590.687    97570001.51046
       393.480  
  24374928.707   128091116.33946      3301.515    24374929.883    99811270.24245
      2572.601  
 20 10 03 04 37 20.0000000  0  9G13G 2G29G15G 5G18G 7G30G20
  20623846.055   108379045.29849      1044.676    20623845.927    84451205.21847
       814.030  
  23781235.358   124971227.04247     -3083.780    23781234.781    97380169.70046
     -2402.949  
  21793955.216   114528003.31648     -2237.414    21793955.630    89242600.09749
     -1743.441  
  21335210.135   112117291.92448      2854.854    21335210.847    87364128.24449
      2224.559  
  21258770.597   111715591.69449     -2256.374    21258770.291    87051108.69349
     -1758.218  
  21846941.597   114806455.47248      2671.855    21846942.060    89459577.01547
      2081.961  
  24797802.237   130313330.29746      -987.801    24797802.671   101542877.74345
      -769.718  
  23827108.877   125212303.16847       502.348    23827111.277    97568038.87746
       391.437  
  24371787.535   128074609.46045      3301.272    24371788.628    99798407.76545
      2572.418  
 20 10 03 04 37 25.0000000  0  9G13G 2G29G15G 5G18G 7G30G20
  20622853.494   108373829.91949      1041.444    20622853.443    84447141.28647
       811.511  
  23784169.870   124986648.78947     -3084.995    23784169.400    97392186.63346
     -2403.895  
  21796085.189   114539196.30648     -2239.933    21796085.393    89251321.90349
     -1745.405  
  21332494.830   112103022.49548      2852.680    21332495.474    87353009.21549
      2222.862  
  21260918.069   111726876.70249     -2257.711    21260917.870    87059902.20349
     -1759.257  
  21844400.233   114793100.23348      2670.117    21844400.574    89449170.33647
      2080.608  
  24798742.887   130318273.94846      -989.914    24798743.229   101546729.95245
      -771.362  
  23826632.162   125209798.88947       499.312    23826634.851    97566087.49046
       389.070  
  24368646.467   128058103.65946      3300.812    24368647.747    99785546.13145
      2572.063  
 20 10 03 04 37 30.0000000  0  9G13G 2G29G15G 5G18G 7G30G20
  20621864.330   108368631.79349      1037.875    20621864.134    84443090.79548
       808.730  
  23787105.754   125002076.39947     -3085.926    23787105.364    97404208.13246
     -2404.625  
  21798217.813   114550403.66348     -2242.780    21798218.088    89260054.90049
     -1747.624  
  21329781.809   112088765.28748      2850.292    21329782.304    87341899.70649
      2220.987  
  21263067.072   111738169.75849     -2259.374    21263066.691    87068701.98449
     -1760.554  
  21841860.380   114779753.18648      2668.590    21841860.784    89438770.03847
      2079.417  
  24799686.383   130323231.73846      -993.019    24799686.838   101550593.15345
      -773.784  
  23826158.471   125207309.87547       496.261    23826161.122    97564147.99446
       386.694  
  24365505.975   128041599.76446      3300.520    24365506.758    99772685.90143
      2571.823  
 20 10 03 04 37 35.0000000  0  9G13G 2G29G15G 5G18G 7G30G20
  20620878.405   108363450.13249      1034.433    20620878.245    84439053.14948
       806.051  
  23790042.559   125017509.13447     -3087.289    23790042.077    97416233.63646
     -2405.683  
  21800353.113   114561624.65048     -2245.667    21800353.485    89268798.52749
     -1749.874  
  21327070.871   112074519.61648      2847.800    21327071.576    87330799.19349
      2219.062  
  21265217.591   111749470.09249     -2260.945    21265217.203    87077507.44249
     -1761.776  
  21839321.875   114766413.59648      2666.944    21839322.217    89428375.56547
      2078.152  
  24800632.330   130328202.82147      -995.520    24800632.637   101554466.73145
      -775.734  
  23825687.681   125204835.35647       493.359    23825690.263    97562219.81046
       384.433  
  24362365.459   128025096.89746      3300.460    24362366.609    99759826.54844
      2571.788  
 20 10 03 04 37 40.0000000  0  9G13G 2G29G15G 5G18G 7G30G20
  20619895.747   108358286.75649      1031.059    20619895.527    84435029.74048
       803.418  
  23792980.525   125032948.81447     -3088.413    23792980.217    97428264.54846
     -2406.558  
  21802491.444   114572861.02848     -2248.555    21802491.794    89277554.14049
     -1752.140  
  21324362.626   112060287.22548      2845.370    21324363.282    87319709.02749
      2217.168  
  21267369.624   111760779.54449     -2262.395    21267369.190    87086319.99849
     -1762.906  
  21836785.264   114753083.27048      2665.422    21836785.608    89417988.29347
      2076.949  
  24801581.332   130333189.04347      -998.508    24801581.688   101558352.09145
      -778.062  
  23825219.927   125202377.13547       490.383    23825222.601    97560304.31646
       382.112  
  24359225.758   128008597.09446      3299.730    24359226.782    99746969.60643
      2571.219  
 20 10 03 04 37 45.0000000  0  9G13G 2G29G15G 5G18G 7G30G20
  20618916.300   108353139.20149      1027.690    20618915.980    84431018.65947
       800.796  
  23795919.415   125048392.90747     -3089.465    23795919.113    97440298.89745
     -2407.378  
  21804632.072   114584110.32548     -2251.461    21804632.303    89286319.82049
     -1754.386  
  21321656.273   112046065.68248      2842.961    21321656.944    87308627.30849
      2215.293  
  21269522.997   111772095.65349     -2264.140    21269522.642    87095137.74349
     -1764.269  
  21834249.815   114739759.74148      2663.831    21834250.248    89407606.32247
      2075.711  
  24802532.431   130338187.91646     -1001.382    24802532.948   101562247.31045
      -780.300  
  23824754.631   125199932.80247       487.242    23824757.373    97558399.62746
       379.668  
  24356086.012   127992097.71446      3299.593    24356086.886    99734112.88043
      2571.102  
 20 10 03 04 37 50.0000000  0  9G13G 2G29G15G 5G18G 7G30G20
  20617940.089   108348009.58149      1024.179    20617939.854    84427021.55647
       798.058  
  23798859.661   125063843.53847     -3090.960    23798859.419    97452338.33445
     -2408.543  
  21806775.533   114595374.63048     -2254.265    21806775.988    89295097.19849
     -1756.573  
  21318952.582   112031857.12848      2840.473    21318953.050    87297555.71849
      2213.352  
  21271678.078   111783420.52749     -2265.800    21271677.808    87103962.32049
     -1765.563  
  21831716.252   114726445.14848      2662.190    21831716.574    89397231.32147
      2074.390  
  24803486.585   130343201.56047     -1004.297    24803487.038   101566154.05545
      -782.570  
  23824292.552   125197504.40447       484.343    23824295.382    97556507.38146
       377.405  
  24352946.592   127975600.85846      3298.979    24352947.835    99721258.24044
      2570.640  
 20 10 03 04 37 55.0000000  0  9G13G 2G29G15G 5G18G 7G30G20
  20616967.123   108342896.35949      1020.910    20616966.894    84423037.23048
       795.511  
  23801800.819   125079299.17547     -3091.644    23801800.504    97464381.68145
     -2409.077  
  21808921.696   114606652.38948     -2256.988    21808922.113    89303885.06149
     -1758.695  
  21316250.973   112017660.01248      2838.203    21316251.597    87286493.03349
      2211.582  
  21273834.499   111794752.69049     -2267.246    21273834.194    87112792.57649
     -1766.688  
  21829183.839   114713137.94948      2660.570    21829184.367    89386862.07347
      2073.167  
  24804443.191   130348228.40246     -1007.112    24804443.621   101570071.07345
      -784.766  
  23823833.179   125195090.44447       481.234    23823835.997    97554626.37146
       374.983  
  24349807.746   127959105.11146      3298.840    24349808.869    99708404.41944
      2570.520  
 20 10 03 04 38  0.0000000  0  9G13G 2G29G15G 5G18G 7G30G20
  20615997.202   108337799.76549      1017.456    20615996.870    84419065.86348
       792.820  
  23804742.755   125094759.96947     -3092.641    23804742.761    97476429.04245
     -2409.852  
  21811070.308   114617943.79548     -2259.745    21811070.680    89312683.55549
     -1760.831  
  21313551.459   112003474.53448      2835.711    21313552.094    87275439.42649
      2209.641  
  21275992.445   111806092.27049     -2268.801    21275992.037    87121628.61549
     -1767.898  
  21826653.107   114699838.32948      2658.901    21826653.374    89376498.73847
      2071.867  
  24805402.268   130353268.57246     -1009.191    24805402.614   101573998.48745
      -786.387  
  23823376.664   125192691.10247       478.433    23823379.297    97552756.76046
       372.800  
  24346668.869   127942610.57546      3298.913    24346669.830    99695551.51744
      2570.577  
 20 10 03 04 38  5.0000000  0  9G13G 2G29G15G 5G18G 7G30G20
  20615030.890   108332721.35749      1013.668    20615030.513    84415108.66447
       789.866  
  23807686.190   125110227.51047     -3094.218    23807686.034    97488481.66146
     -2411.081  
  21813221.965   114629250.42348     -2262.925    21813222.190    89321493.91049
     -1763.300  
  21310854.592   111989302.34348      2833.191    21310855.285    87264396.16549
      2207.680  
  21278151.906   111817440.81649     -2270.547    21278151.600    87130471.63549
     -1769.261  
  21824123.932   114686547.92748      2657.069    21824124.341    89366142.58447
      2070.440  
  24806364.194   130358323.81046     -1012.762    24806364.598   101577937.62345
      -789.168  
  23822922.970   125190307.98447       475.027    23822925.797    97550899.78745
       370.147  
  24343530.447   127926118.86746      3297.952    24343531.520    99682700.87944
      2569.836  
 20 10 03 04 38 10.0000000  0  9G13G 2G29G15G 5G18G 7G30G20
  20614067.629   108327659.60749      1011.070    20614067.331    84411164.44147
       787.844  
  23810630.595   125125700.30547     -3094.944    23810630.505    97500538.37146
     -2411.647  
  21815376.079   114640570.74548     -2265.195    21815376.367    89330314.93449
     -1765.090  
  21308159.827   111975141.91348      2831.003    21308160.670    87253362.07149
      2205.973  
  21280312.876   111828796.79149     -2271.805    21280312.608    87139320.44349
     -1770.241  
  21821596.458   114673265.21348      2655.906    21821596.785    89355792.41347
      2069.534  
  24807328.791   130363392.42846     -1014.948    24807329.221   101581887.18645
      -790.870  
  23822472.329   125187939.59947       472.218    23822475.270    97549054.29546
       367.960  
  24340392.601   127909628.59246      3298.058    24340393.683    99669851.27744
      2569.913  
 20 10 03 04 38 15.0000000  0  9G13G 2G29G15G 5G18G 7G30G20
  20613107.410   108322613.89949      1007.159    20613107.075    84407232.72648
       784.796  
  23813575.803   125141177.66647     -3096.305    23813575.686    97512598.64346
     -2412.707  
  21817532.872   114651904.08148     -2268.179    21817533.226    89339146.09949
     -1767.414  
  21305467.344   111960992.53948      2828.344    21305467.990    87242336.58949
      2203.901  
  21282475.185   111840159.57949     -2273.476    21282474.851    87148174.56249
     -1771.542  
  21819070.132   114659989.52848      2654.183    21819070.438    89345447.72547
      2068.190  
  24808295.673   130368473.89846     -1017.706    24808296.040   101585846.77145
      -793.023  
  23822024.360   125185585.22547       469.358    23822027.179    97547219.72046
       365.730  
  24337254.604   127893138.89945      3297.328    24337255.707    99657002.19344
      2569.343  
 20 10 03 04 38 20.0000000  0  9G13G 2G29G15G 5G18G 7G30G20
  20612150.802   108317586.45349      1003.854    20612150.476    84403315.24148
       782.223  
  23816522.312   125156661.86147     -3097.227    23816522.370    97524664.22846
     -2413.429  
  21819692.350   114663252.71348     -2270.926    21819692.775    89347989.18649
     -1769.555  
  21302777.329   111946856.53948      2826.147    21302778.008    87231321.53449
      2202.190  
  21284639.198   111851531.42449     -2275.050    21284638.803    87157035.74049
     -1772.770  
  21816545.705   114646723.16848      2652.520    21816546.003    89335110.30447
      2066.894  
  24809265.579   130373570.44046     -1020.465    24809266.100   101589818.10046
      -795.171  
  23821579.416   125183247.18847       466.105    23821582.160    97545397.88046
       363.195  
  24334117.413   127876652.16246      3297.105    24334118.331    99644155.41444
      2569.167  
 20 10 03 04 38 25.0000000  0  9G13G 2G29G15G 5G18G 7G30G20
  20611197.236   108312575.40149      1000.534    20611196.835    84399410.52147
       779.633  
  23819469.802   125172150.99747     -3098.237    23819469.790    97536733.67346
     -2414.215  
  21821854.461   114674614.74548     -2273.819    21821854.766    89356842.70949
     -1771.812  
  21300089.627   111932732.00248      2823.636    21300090.222    87220315.40449
      2200.233  
  21286804.536   111862910.44349     -2276.679    21286804.218    87165902.50349
     -1774.039  
  21814022.601   114633464.23048      2650.945    21814022.856    89324778.66147
      2065.667  
  24810238.012   130378680.14146     -1023.047    24810238.339   101593799.69345
      -797.183  
  23821137.191   125180923.55747       463.379    23821140.122    97543587.24546
       361.069  
  24330980.342   127860166.49646      3297.262    24330981.104    99631309.40144
      2569.289  
 20 10 03 04 38 30.0000000  0  9G13G 2G29G15G 5G18G 7G30G20
  20610246.712   108307580.86249       997.187    20610246.355    84395518.68148
       777.026  
  23822418.389   125187645.20547     -3099.577    23822418.377    97548807.07946
     -2415.258  
  21824019.235   114685990.27148     -2276.563    21824019.441    89365706.75549
     -1773.949  
  21297403.990   111918619.07748      2821.316    21297404.632    87209318.33249
      2198.426  
  21288971.210   111874296.73749     -2278.042    21288970.851    87174774.94149
     -1775.101  
  21811500.843   114620212.86448      2649.452    21811501.130    89314452.92647
      2064.504  
  24811212.898   130383803.14246     -1026.117    24811213.224   101597791.62245
      -799.578  
  23820697.825   125178614.51947       460.277    23820700.506    97541787.99845
       358.655  
  24327843.484   127843682.03745      3296.539    24327844.339    99618464.40545
      2568.730  
 20 10 03 04 38 35.0000000  0  9G13G 2G29G15G 5G18G 7G30G20
  20609299.616   108302603.52549       993.711    20609299.299    84391640.24148
       774.316  
  23825367.925   125203145.09347     -3100.504    23825367.744    97560884.90045
     -2415.979  
  21826186.494   114697379.92148     -2279.550    21826186.795    89374581.79949
     -1776.276  
  21294720.660   111904518.45348      2818.758    21294721.237    87198330.83949
      2196.430  
  21291139.400   111885690.93149     -2279.659    21291139.186    87183653.53249
     -1776.363  
  21808980.797   114606969.74548      2647.496    21808981.118    89304133.61847
      2062.980  
  24812190.404   130388940.09246     -1028.823    24812190.914   101601794.44144
      -801.684  
  23820261.316   125176320.70947       457.281    23820264.081    97540000.62746
       356.319  
  24324706.885   127827199.38046      3296.140    24324707.751    99605620.78645
      2568.422  
 20 10 03 04 38 40.0000000  0  9G13G 2G29G15G 5G18G 7G30G20
  20608355.747   108297643.64949       990.300    20608355.429    84387775.40547
       771.660  
  23828318.645   125218651.00947     -3101.836    23828318.517    97572967.41745
     -2417.020  
  21828356.592   114708783.98848     -2282.394    21828357.098    89383468.07949
     -1778.492  
  21292039.795   111890430.38348      2816.461    21292040.536    87187353.13049
      2194.641  
  21293309.313   111897093.33949     -2281.305    21293308.999    87192538.52549
     -1777.645  
  21806462.468   114593735.12048      2646.077    21806462.570    89293820.92747
      2061.875  
  24813170.612   130394091.18646     -1031.496    24813171.188   101605808.28145
      -803.766  
  23819827.811   125174042.40947       453.890    23819830.589    97538225.33146
       353.680  
  24321570.725   127810718.87345      3295.897    24321571.445    99592778.82444
      2568.229  
 20 10 03 04 38 45.0000000  0  9G13G 2G29G15G 5G18G 7G30G20
  20607415.124   108292700.54949       986.979    20607414.720    84383923.64347
       769.074  
  23831270.324   125234162.15647     -3102.750    23831270.298    97585054.02746
     -2417.729  
  21830529.367   114720201.77548     -2285.120    21830529.832    89392365.06049
     -1780.617  
  21289361.210   111876354.17048      2814.031    21289361.794    87176384.66249
      2192.734  
  21295480.555   111908503.23049     -2282.988    21295480.274    87201429.34449
     -1778.957  
  21803945.446   114580508.32948      2644.569    21803945.748    89283514.33747
      2060.699  
  24814153.285   130399255.79146     -1034.090    24814153.807   101609832.66244
      -805.789  
  23819396.978   125171778.89647       451.097    23819399.802    97536461.55146
       351.499  
  24318434.794   127794239.72745      3295.702    24318435.590    99579937.96044
      2568.077  
 20 10 03 04 38 50.0000000  0  9G13G 2G29G15G 5G18G 7G30G20
  20606477.742   108287774.57349       983.547    20606477.445    84380085.22047
       766.397  
  23834223.002   125249678.93147     -3103.925    23834223.039    97597145.00845
     -2418.647  
  21832704.812   114731633.56948     -2287.641    21832704.998    89401272.94149
     -1782.581  
  21286684.907   111862290.22748      2811.687    21286685.486    87165425.75049
      2190.921  
  21297653.131   111919920.94348     -2284.234    21297653.030    87210326.26049
     -1779.926  
  21801429.966   114567289.73748      2642.871    21801430.395    89273214.13547
      2059.375  
  24815138.747   130404434.27246     -1036.953    24815139.098   101613867.82345
      -808.020  
  23818969.219   125169530.54047       448.223    23818971.972    97534709.59546
       349.262  
  24315299.360   127777762.37746      3295.479    24315300.181    99567098.45644
      2567.901  
 20 10 03 04 38 55.0000000  0 10G13G 2G29G15G 5G18G 7G30G20G23
  20605546.240   108282879.12449       977.855    20605545.766    84376270.58947
       761.961  
  23837179.434   125265214.73847     -3107.121    23837179.217    97609250.81546
     -2421.141  
  21834885.388   114743092.79248     -2292.559    21834885.791    89410202.20449
     -1786.413  
  21284013.355   111848251.93948      2807.030    21284014.053    87154486.83549
      2187.339  
  21299829.898   111931359.89949     -2288.093    21299829.669    87219239.73249
     -1782.933  
  21798918.641   114554092.72748      2639.117    21798918.928    89262930.75447
      2056.452  
  24816129.214   130409639.99246     -1041.991    24816129.867   101617924.23245
      -811.945  
  23818546.787   125167310.73747       443.105    23818549.527    97532979.88046
       345.272  
  24312166.756   127761300.21345      3292.987    24312167.575    99554270.80244
      2565.960  
  24678198.412   129684807.83316      3309.668           0.000           0.0000 
         0.000  
 20 10 03 04 39  0.0000000  0 10G13G 2G29G15G 5G18G 7G30G20G23
  20604615.303   108277987.20249       978.023    20604614.827    84372458.70547
       762.094  
  23840134.383   125280742.57247     -3104.766    23840134.087    97621350.42046
     -2419.300  
  21837066.145   114754552.46348     -2292.133    21837066.356    89419131.81449
     -1786.081  
  21281341.843   111834212.29848      2807.965    21281342.370    87143546.86849
      2187.960  
  21302005.715   111942793.11449     -2286.137    21302005.352    87228148.73149
     -1781.409  
  21796406.369   114540890.33848      2641.073    21796406.750    89252643.18047
      2057.976  
  24817119.892   130414845.94946     -1041.426    24817120.323   101621980.82945
      -811.503  
  23818124.751   125165092.51847       443.621    23818127.497    97531251.39246
       345.676  
  24309031.863   127744826.27046      3295.707    24309032.292    99541433.99845
      2568.081  
  24675047.153   129668249.60546      3312.526    24675050.470   101040208.25055
      2581.188  
 20 10 03 04 39  5.0000000  0 10G13G 2G29G15G 5G18G 7G30G20G23
  20603686.468   108273106.20449       974.055    20603686.089    84368655.33247
       758.999  
  23843089.103   125296269.76247     -3106.375    23843088.701    97633449.50846
     -2420.555  
  21839248.224   114766019.86948     -2295.292    21839248.629    89428067.45349
     -1788.542  
  21278671.264   111820178.71548      2805.050    21278671.900    87132611.61349
      2185.749  
  21304181.528   111954227.96349     -2288.194    21304181.262    87237058.99949
     -1783.012  
  21793894.296   114527689.96148      2638.882    21793894.809    89242357.17247
      2056.269  
  24818112.042   130420059.51546     -1044.523    24818112.560   101626043.37445
      -813.917  
  23817704.410   125162883.26747       440.011    23817706.948    97529529.91045
       342.862  
  24305896.037   127728347.89445      3295.218    24305896.775    99528593.70645
      2567.698  
  24671894.446   129651687.14246      3311.827    24671897.105   101027302.49645
      2580.644  
 20 10 03 04 39 10.0000000  0 10G13G 2G29G15G 5G18G 7G30G20G23
  20602761.435   108268245.06049       970.559    20602761.014    84364867.43147
       756.277  
  23846045.552   125311805.28647     -3107.840    23846045.082    97645555.11046
     -2421.694  
  21841433.523   114777503.97448     -2297.972    21841434.064    89437016.10049
     -1790.633  
  21276003.748   111806160.13848      2802.374    21276004.370    87121688.05649
      2183.664  
  21306359.629   111965673.33949     -2289.843    21306359.390    87245977.47349
     -1784.297  
  21791384.528   114514500.50948      2637.063    21791384.833    89232079.67847
      2054.851  
  24819107.308   130425289.60846     -1047.179    24819107.780   101630118.75846
      -815.988  
  23817287.337   125160691.90747       436.800    23817290.067    97527822.35146
       340.358  
  24302761.360   127711874.02346      3294.304    24302761.890    99515756.93844
      2566.991  
  24668743.825   129635129.39146      3311.425    24668744.941   101014400.31845
      2580.327  
 20 10 03 04 39 15.0000000  0 10G13G 2G29G15G 5G18G 7G30G20G23
  20601839.838   108263402.19449       966.707    20601839.371    84361093.77047
       753.272  
  23849003.113   125327347.52947     -3109.038    23849002.462    97657665.93146
     -2422.632  
  21843621.872   114789003.20148     -2301.473    21843622.187    89445976.53449
     -1793.358  
  21273338.494   111792154.97748      2799.604    21273339.042    87110774.95249
      2181.507  
  21308539.251   111977127.70448     -2291.862    21308538.967    87254902.94949
     -1785.870  
  21788876.447   114501320.42248      2635.008    21788876.800    89221809.48147
      2053.151  
  24820105.370   130430534.67646     -1050.647    24820105.881   101634205.81445
      -818.690  
  23816873.454   125158516.84447       433.137    23816876.114    97526127.50046
       337.507  
  24299627.001   127695403.04646      3293.862    24299627.590    99502922.44044
      2566.647  
  24665594.069   129618574.84346      3310.292    24665595.911   101001500.65945
      2579.444  
 20 10 03 04 39 20.0000000  0 10G13G 2G29G15G 5G18G 7G30G20G23
  20600921.673   108258577.67349       963.104    20600921.372    84357334.40447
       750.469  
  23851962.019   125342896.52947     -3110.280    23851961.487    97669782.01945
     -2423.598  
  21845812.891   114800517.58148     -2304.344    21845813.245    89454948.77049
     -1795.598  
  21270676.089   111778163.32148      2797.054    21270676.641    87099872.36449
      2179.519  
  21310720.768   111988591.05748     -2293.473    21310720.492    87263835.42749
     -1787.124  
  21786370.101   114488149.79748      2633.132    21786370.475    89211546.65947
      2051.813  
  24821106.309   130435794.77246     -1053.285    24821106.872   101638304.58145
      -820.746  
  23816462.812   125156358.18647       429.835    23816465.328    97524445.43346
       334.934  
  24296493.275   127678935.10946      3293.398    24296493.842    99490090.26644
      2566.281  
  24662443.970   129602023.42746      3310.281    24662446.540   100988603.51244
      2579.441  
 20 10 03 04 39 25.0000000  0 10G13G 2G29G15G 5G18G 7G30G20G23
  20600007.493   108253773.18249       959.434    20600007.040    84353590.65048
       747.605  
  23854922.426   125358453.98047     -3111.741    23854921.742    97681904.70746
     -2424.738  
  21848007.159   114812048.75548     -2307.276    21848007.738    89463934.10049
     -1797.882  
  21268016.346   111764186.84148      2794.444    21268016.917    87088981.61449
      2177.488  
  21312904.197   112000065.12049     -2295.313    21312903.980    87272776.25649
     -1788.558  
  21783866.022   114474990.27548      2631.457    21783866.340    89201292.48647
      2050.484  
  24822110.464   130441071.55046     -1056.597    24822111.135   101642416.37145
      -823.323  
  23816055.398   125154217.52447       427.159    23816057.961    97522777.39746
       332.848  
  24293360.233   127662471.80146      3292.781    24293360.973    99477261.72245
      2565.800  
  24659295.191   129585476.98346      3309.226    24659297.686   100975710.20045
      2578.617  
 20 10 03 04 39 30.0000000  0 10G13G 2G29G15G 5G18G 7G30G20G23
  20599095.967   108248983.52349       956.340    20599095.661    84349858.45347
       745.194  
  23857883.581   125374014.67247     -3112.597    23857882.755    97694029.90646
     -2425.402  
  21850203.716   114823591.52248     -2309.793    21850204.161    89472928.46249
     -1799.843  
  21265358.729   111750220.34148      2792.241    21265359.167    87078098.63649
      2175.770  
  21315088.589   112011544.73948     -2296.512    21315088.448    87281721.41249
     -1789.491  
  21781362.901   114461836.69348      2630.054    21781363.184    89191042.94847
      2049.390  
  24823116.728   130446359.78446     -1058.737    24823117.587   101646537.06245
      -824.991  
  23815650.469   125152089.76447       424.038    23815653.090    97521119.39346
       330.418  
  24290227.216   127646007.96646      3292.659    24290228.017    99464432.79144
      2565.706  
  24656146.844   129568930.21446      3309.277    24656148.192   100962816.61144
      2578.655  
 20 10 03 04 39 35.0000000  0 10G13G 2G29G15G 5G18G 7G30G20G23
  20598187.690   108244210.30449       952.715    20598187.432    84346139.06647
       742.370  
  23860845.678   125389580.25547     -3113.839    23860844.785    97706158.92245
     -2426.371  
  21852402.739   114835147.52848     -2312.789    21852403.287    89481933.13849
     -1802.176  
  21262703.180   111736265.49448      2789.515    21262703.589    87067224.73649
      2173.644  
  21317274.491   112023031.38648     -2298.382    21317274.383    87290672.04549
     -1790.949  
  21778861.292   114448690.71148      2628.229    21778861.717    89180799.33147
      2047.969  
  24824125.619   130451661.13446     -1061.844    24824126.157   101650667.98445
      -827.413  
  23815248.339   125149976.52747       420.977    23815250.855    97519472.71546
       328.030  
  24287094.669   127629545.28746      3292.148    24287095.229    99451604.70344
      2565.308  
  24652998.253   129552384.78845      3309.086    24652999.656   100949924.04045
      2578.503  
 20 10 03 04 39 40.0000000  0 10G13G 2G29G15G 5G18G 7G30G20G23
  20597282.839   108239455.56449       949.323    20597282.627    84342434.07247
       739.729  
  23863808.934   125405152.67547     -3115.313    23863808.298    97718293.26045
     -2427.520  
  21854604.620   114846718.74448     -2315.503    21854605.092    89490949.66449
     -1804.292  
  21260050.302   111722324.30648      2787.085    21260050.725    87056361.48149
      2171.754  
  21319462.105   112034527.03449     -2299.910    21319461.771    87299629.68949
     -1792.141  
  21776361.596   114435554.31148      2626.512    21776361.972    89170563.16847
      2046.628  
  24825137.208   130456977.60146     -1064.788    24825137.920   101654810.67245
      -829.706  
  23814849.316   125147879.77247       417.914    23814851.781    97517838.88545
       325.644  
  24283962.315   127613085.65946      3291.996    24283963.293    99438779.07645
      2565.195  
  24649850.201   129535842.69346      3308.175    24649852.055   100937034.17245
      2577.800  
 20 10 03 04 39 45.0000000  0 10G13G 2G29G15G 5G18G 7G30G20G23
  20596381.036   108234716.65049       946.227    20596380.751    84338741.41347
       737.315  
  23866773.140   125420729.33847     -3115.866    23866772.267    97730430.90746
     -2427.953  
  21856808.986   114858302.54448     -2318.069    21856809.330    89499975.99449
     -1806.293  
  21257399.511   111708394.11848      2784.871    21257399.815    87045506.79549
      2170.019  
  21321650.849   112046029.14548     -2301.183    21321650.624    87308592.36749
     -1793.132  
  21773863.023   114422424.87948      2625.156    21773863.457    89160332.44547
      2045.573  
  24826151.336   130462306.54046     -1066.973    24826152.114   101658963.09645
      -831.409  
  23814452.922   125145796.89547       415.089    23814455.467    97516215.85745
       323.444  
  24280830.299   127596626.58646      3291.840    24280830.988    99425953.80844
      2565.065  
  24646702.608   129519301.35546      3308.141    24646704.270   100924144.79845
      2577.769  
 20 10 03 04 39 50.0000000  0 10G13G 2G29G15G 5G18G 7G30G20G23
  20595482.462   108229994.70349       942.484    20595482.058    84335061.98047
       734.397  
  23869738.306   125436311.36247     -3117.234    23869737.459    97742572.74946
     -2429.016  
  21859016.023   114869900.04248     -2320.852    21859016.504    89509013.00349
     -1808.456  
  21254750.995   111694476.10348      2782.293    21254751.338    87034661.59849
      2168.015  
  21323840.926   112057538.79848     -2302.632    21323840.709    87317560.92949
     -1794.261  
  21771366.184   114409303.55748      2623.257    21771366.653    89150108.04347
      2044.093  
  24827168.094   130467649.13746     -1069.874    24827168.727   101663126.14645
      -833.672  
  23814059.574   125143729.02547       411.961    23814062.046    97514604.54946
       321.004  
  24277698.722   127580169.09845      3291.172    24277699.147    99413129.78944
      2564.546  
  24643555.233   129502761.85146      3307.565    24643556.743   100911256.89145
      2577.320  
 20 10 03 04 39 55.0000000  0 10G13G 2G29G15G 5G18G 7G30G20G23
  20594587.299   108225290.56149       939.046    20594587.027    84331396.41547
       731.723  
  23872704.618   125451899.52847     -3117.964    23872703.915    97754719.35946
     -2429.586  
  21861225.715   114881512.08248     -2323.847    21861226.125    89518061.34149
     -1810.793  
  21252104.947   111680571.08948      2779.769    21252105.304    87023826.53049
      2166.051  
  21326032.731   112069056.84248     -2304.362    21326032.749    87326536.02849
     -1795.608  
  21768871.067   114396191.19348      2621.706    21768871.308    89139890.61847
      2042.886  
  24828187.488   130473006.18146     -1072.902    24828188.040   101667300.46645
      -836.031  
  23813669.090   125141677.05047       408.851    23813671.558    97513005.59946
       318.582  
  24274567.350   127563714.09746      3290.479    24274567.818    99400307.76945
      2564.016  
  24640408.485   129486225.01946      3307.285    24640409.933   100898371.04145
      2577.101  
 20 10 03 04 40  0.0000000  0 10G13G 2G29G15G 5G18G 7G30G20G23
  20593695.381   108220603.75149       935.933    20593695.173    84327744.35947
       729.297  
  23875672.075   125467493.40447     -3118.984    23875671.290    97766870.41946
     -2430.379  
  21863438.085   114893138.13548     -2326.313    21863438.434    89527120.59849
     -1812.714  
  21249461.192   111666678.59748      2777.590    21249461.713    87013001.21749
      2164.352  
  21328226.054   112080582.76948     -2305.690    21328226.006    87335517.26649
     -1796.644  
  21766377.442   114383087.29248      2620.136    21766377.688    89129679.78747
      2041.660  
  24829209.535   130478377.10946     -1075.379    24829209.987   101671485.60945
      -837.961  
  23813281.409   125139640.39647       406.082    23813283.979    97511418.59146
       316.425  
  24271436.498   127547261.10846      3290.777    24271437.079    99387487.22744
      2564.238  
  24637261.999   129469690.40346      3306.793    24637263.408   100885486.95545
      2576.722  
 20 10 03 04 40  5.0000000  0 10G13G 2G29G15G 5G18G 7G30G20G23
  20592806.706   108215933.32549       932.284    20592806.482    84324105.06947
       726.452  
  23878640.500   125483092.01747     -3120.522    23878639.681    97779025.17145
     -2431.578  
  21865652.935   114904777.27848     -2329.250    21865653.426    89536190.05549
     -1815.004  
  21246819.708   111652797.72348      2774.769    21246820.066    87002184.95949
      2162.155  
  21330420.718   112092115.65248     -2307.417    21330420.487    87344503.92749
     -1797.991  
  21763885.151   114369990.96348      2618.438    21763885.509    89119474.85547
      2040.335  
  24830234.103   130483761.09146     -1078.460    24830234.465   101675680.92244
      -840.362  
  23812896.621   125137618.19847       402.741    23812899.099    97509842.85446
       313.819  
  24268305.733   127530809.17045      3290.227    24268306.431    99374667.55945
      2563.812  
  24634116.052   129453157.05745      3306.421    24634117.473   100872603.81446
      2576.429  
 20 10 03 04 40 10.0000000  0 10G13G 2G29G15G 5G18G 7G30G20G23
  20591921.261   108211280.93849       928.601    20591920.972    84320479.83548
       723.581  
  23881609.824   125498696.98647     -3121.526    23881609.006    97791184.87346
     -2432.362  
  21867870.622   114916431.11748     -2332.223    21867870.862    89545270.96249
     -1817.319  
  21244180.900   111638930.06948      2772.066    21244181.363    86991379.00449
      2160.046  
  21332617.083   112103657.16048     -2309.144    21332616.916    87353497.30949
     -1799.335  
  21761394.776   114356903.80248      2616.495    21761395.328    89109277.07547
      2038.824  
  24831261.343   130489159.64946     -1081.484    24831261.782   101679887.58445
      -842.718  
  23812514.882   125135612.08347       399.480    23812517.389    97508279.65945
       311.280  
  24265175.418   127514359.94246      3289.527    24265176.482    99361850.00444
      2563.266  
  24630970.232   129436626.63346      3305.972    24630971.825   100859723.00344
      2576.081  
 20 10 03 04 40 15.0000000  0 10G13G 2G29G15G 5G18G 7G30G20G23
  20591039.248   108206645.20849       925.757    20591038.868    84316867.57947
       721.367  
  23884580.503   125514307.00647     -3122.167    23884579.585    97803348.52145
     -2432.863  
  21870090.781   114928098.28848     -2334.594    21870091.241    89554362.26049
     -1819.168  
  21241544.172   111625074.28048      2770.347    21241544.619    86980582.29149
      2158.698  
  21334814.580   112115205.89448     -2310.280    21334814.565    87362496.31849
     -1800.222  
  21758905.912   114343824.48148      2615.172    21758906.340    89099085.39647
      2037.792  
  24832291.196   130494571.46846     -1083.477    24832291.622   101684104.57645
      -844.270  
  23812135.837   125133620.65847       396.835    23812138.349    97506727.89546
       309.218  
  24262045.741   127497912.09446      3289.366    24262046.409    99349033.47445
      2563.141  
  24627824.776   129420097.71246      3305.897    24627826.382   100846843.31546
      2576.023  
 20 10 03 04 40 20.0000000  0 10G13G 2G29G15G 5G18G 7G30G20G23
  20590160.282   108202026.55649       922.347    20590159.961    84313268.63147
       718.711  
  23887551.946   125529922.42347     -3123.512    23887551.158    97815516.36746
     -2433.910  
  21872313.619   114939779.19148     -2337.358    21872314.049    89563464.25549
     -1821.320  
  21238909.728   111611230.83948      2767.687    21238910.309    86969795.20149
      2156.637  
  21337013.808   112126762.23248     -2311.909    21337013.686    87371501.25549
     -1801.491  
  21756418.563   114330753.43748      2613.578    21756419.056    89088900.16647
      2036.550  
  24833323.514   130499996.99246     -1085.984    24833324.195   101688332.25844
      -846.226  
  23811759.828   125131644.37147       393.934    23811762.266    97505187.92946
       306.957  
  24258915.879   127481465.87246      3288.944    24258916.644    99336218.29745
      2562.819  
  24624679.951   129403570.82446      3305.582    24624681.663   100833965.24745
      2575.772  
 20 10 03 04 40 25.0000000  0 10G13G 2G29G15G 5G18G 7G30G20G23
  20589284.548   108197424.01049       918.746    20589284.210    84309682.23648
       715.901  
  23890524.326   125545542.26047     -3124.508    23890523.444    97827687.66146
     -2434.683  
  21874538.718   114951472.82348     -2340.124    21874539.287    89572576.17349
     -1823.477  
  21236277.565   111597398.73248      2765.078    21236277.966    86959016.94549
      2154.602  
  21339214.179   112138325.29048     -2313.483    21339214.009    87380511.42749
     -1802.719  
  21753932.556   114317689.69448      2611.702    21753932.987    89078720.63047
      2035.089  
  24834358.544   130505435.17546     -1089.414    24834358.912   101692569.78245
      -848.897  
  23811386.493   125129682.23347       390.987    23811388.861    97503658.99145
       304.664  
  24255786.563   127465020.54846      3288.558    24255787.115    99323403.74144
      2562.511  
  24621535.238   129387044.90346      3304.784    24621536.661   100821087.89645
      2575.151  
 20 10 03 04 40 30.0000000  0 10G13G 2G29G15G 5G18G 7G30G20G23
  20588412.049   108192839.90449       915.198    20588411.900    84306110.20848
       713.140  
  23893497.882   125561168.83747     -3125.953    23893497.215    97839864.19545
     -2435.812  
  21876766.878   114963181.53748     -2343.226    21876767.220    89581699.84149
     -1825.895  
  21233648.069   111583580.32248      2762.440    21233648.541    86948249.36049
      2152.516  
  21341416.276   112149897.32248     -2315.227    21341416.063    87389528.59549
     -1804.074  
  21751448.474   114304635.56548      2610.108    21751448.855    89068548.58747
      2033.848  
  24835396.184   130510888.35446     -1092.266    24835396.752   101696819.03445
      -851.120  
  23811016.150   125127736.59847       387.555    23811018.612    97502142.91546
       301.987  
  24252657.659   127448578.20645      3288.472    24252658.233    99310591.52544
      2562.440  
  24618391.059   129370522.28646      3304.265    24618392.843   100808213.14545
      2574.750  
 20 10 03 04 40 35.0000000  0 10G13G 2G29G15G 5G18G 7G30G20G23
  20587542.969   108188272.88649       911.902    20587542.756    84302551.49247
       710.570  
  23896472.568   125576800.79247     -3126.507    23896471.758    97852044.92146
     -2436.241  
  21878997.517   114974903.93748     -2345.516    21878998.085    89590834.17449
     -1827.676  
  21231020.850   111569774.25948      2760.250    21231021.336    86937491.39449
      2150.840  
  21343619.680   112161476.94448     -2316.492    21343619.568    87398551.67449
     -1805.062  
  21748965.897   114291589.75548      2608.477    21748966.442    89058383.01847
      2032.594  
  24836436.553   130516355.18446     -1094.577    24836436.977   101701078.89146
      -852.922  
  23810648.867   125125806.07747       384.972    23810651.347    97500638.62046
       299.976  
  24249529.028   127432137.73446      3288.253    24249529.646    99297780.82944
      2562.272  
  24615247.262   129354001.67746      3303.784    24615248.742   100795339.95045
      2574.374  
 20 10 03 04 40 40.0000000  0 10G13G 2G29G15G 5G18G 7G30G20G23
  20586676.936   108183721.91649       908.558    20586676.775    84299005.28648
       707.964  
  23899448.190   125592437.13847     -3127.832    23899447.494    97864229.09145
     -2437.273  
  21881230.624   114986638.99248     -2348.277    21881231.153    89599978.37049
     -1829.828  
  21228395.720   111555979.51148      2757.754    21228396.316    86926742.25049
      2148.894  
  21345824.610   112173063.12148     -2317.983    21345824.290    87407579.86349
     -1806.226  
  21746484.841   114278551.21648      2606.988    21746485.245    89048223.12047
      2031.418  
  24837479.171   130521834.68346     -1097.456    24837479.752   101705348.60145
      -855.163  
  23810284.082   125123889.71347       381.659    23810286.760    97499145.35645
       297.395  
  24246400.874   127415698.01546      3288.030    24246401.273    99284970.63044
      2562.098  
  24612103.916   129337482.03246      3303.574    24612105.308   100782467.49146
      2574.211  
 20 10 03 04 40 45.0000000  0 10G13G 2G29G15G 5G18G 7G30G20G23
  20585814.131   108179187.94149       904.800    20585813.966    84295472.32048
       705.035  
  23902424.575   125608078.73747     -3129.098    23902424.003    97876417.33946
     -2438.262  
  21883466.392   114998387.59948     -2351.328    21883466.906    89609133.12249
     -1832.206  
  21225773.054   111542197.02848      2755.000    21225773.491    86916002.65649
      2146.750  
  21348030.678   112184656.77348     -2319.723    21348030.480    87416613.87349
     -1807.578  
  21744005.103   114265520.88848      2604.796    21744005.527    89038069.62047
      2029.695  
  24838524.504   130527327.72546     -1100.046    24838525.061   101709628.90445
      -857.184  
  23809922.325   125121988.38247       378.543    23809924.802    97497663.79246
       294.964  
  24243272.515   127399259.84846      3287.039    24243273.307    99272161.72944
      2561.328  
  24608960.595   129320964.24246      3303.366    24608962.142   100769596.50245
      2574.055  
 20 10 03 04 40 50.0000000  0 10G13G 2G29G15G 5G18G 7G30G20G23
  20584954.967   108174672.31349       901.538    20584954.595    84291953.65247
       702.495  
  23905402.317   125623726.97147     -3130.120    23905401.648    97888610.76345
     -2439.058  
  21885705.013   115010151.12748     -2354.004    21885705.338    89618299.50349
     -1834.292  
  21223152.872   111528428.19148      2752.773    21223153.347    86905273.70149
      2145.015  
  21350238.634   112196259.25148     -2321.211    21350238.388    87425654.76049
     -1808.738  
  21741527.469   114252500.11548      2603.390    21741527.771    89027923.56347
      2028.612  
  24839572.630   130532835.69546     -1102.918    24839573.218   101713920.83845
      -859.418  
  23809563.599   125120103.45447       375.574    23809566.258    97496195.01945
       292.651  
  24240145.140   127382824.82047      3286.887    24240145.859    99259355.19344
      2561.206  
  24605817.921   129304449.69146      3302.761    24605819.606   100756728.06145
      2573.578  
 20 10 03 04 40 55.0000000  0 10G13G 2G29G15G 5G18G 7G30G20G23
  20584098.652   108170172.84949       898.167    20584098.407    84288447.57948
       699.867  
  23908381.024   125639379.65447     -3131.066    23908380.236    97900807.64546
     -2439.796  
  21887945.920   115021927.36048     -2356.582    21887946.226    89627475.78549
     -1836.301  
  21220534.790   111514670.79748      2750.073    21220535.396    86894553.65949
      2142.910  
  21352447.752   112207868.40448     -2322.698    21352447.513    87434700.85249
     -1809.898  
  21739050.983   114239486.75248      2601.758    21739051.465    89017783.28547
      2027.340  
  24840623.266   130538356.35346     -1105.527    24840623.887   101718222.61945
      -861.453  
  23809207.579   125118232.74547       372.395    23809210.206    97494737.32746
       290.176  
  24237017.784   127366390.51546      3286.750    24237018.523    99246549.24645
      2561.105  
  24602675.665   129287936.24146      3302.504    24602677.044   100743860.41745
      2573.375  
 20 10 03 04 41  0.0000000  0 10G13G 2G29G15G 5G18G 7G30G20G23
  20583245.949   108165691.17649       894.316    20583245.627    84284955.36947
       696.866  
  23911360.809   125655038.34147     -3132.519    23911360.088    97913009.20745
     -2440.925  
  21890189.478   115033717.90448     -2359.624    21890190.021    89636663.21749
     -1838.672  
  21217919.367   111500926.43448      2747.426    21217919.871    86883843.77449
      2140.847  
  21354658.397   112219485.79748     -2324.551    21354658.343    87443753.36349
     -1811.339  
  21736576.396   114226482.39848      2599.808    21736576.865    89007650.02147
      2025.820  
  24841676.535   130543891.25946     -1108.319    24841677.205   101722535.52946
      -863.628  
  23808854.612   125116377.85847       369.246    23808857.043    97493291.96446
       287.722  
  24233890.874   127349958.70746      3285.926    24233891.606    99233745.29044
      2560.460  
  24599533.666   129271425.42646      3301.511    24599534.885   100730994.86745
      2572.605  
 20 10 03 04 41  5.0000000  0 10G13G 2G29G15G 5G18G 7G30G20G23
  20582396.289   108161226.90449       891.250    20582396.012    84281476.71348
       694.476  
  23914341.568   125670702.71047     -3133.191    23914340.952    97925215.19045
     -2441.448  
  21892435.894   115045522.36748     -2362.145    21892436.265    89645861.49249
     -1840.637  
  21215306.256   111487194.79248      2745.219    21215306.812    86873143.79649
      2139.129  
  21356870.744   112231111.07048     -2325.688    21356870.642    87452812.01249
     -1812.227  
  21734103.353   114213486.71448      2598.305    21734103.754    88997523.51347
      2024.647  
  24842732.505   130549440.13746     -1111.234    24842733.158   101726859.32546
      -865.898  
  23808504.684   125114538.47647       366.406    23808507.125    97491858.67445
       285.507  
  24230764.398   127333528.99846      3286.155    24230764.958    99220942.87845
      2560.636  
  24596392.052   129254916.94546      3301.507    24596393.653   100718131.14045
      2572.605  
 20 10 03 04 41 10.0000000  0 10G13G 2G29G15G 5G18G 7G30G20G23
  20581550.051   108156779.64349       887.684    20581549.819    84278011.32248
       691.698  
  23917323.483   125686372.31247     -3134.421    23917322.793    97937425.26745
     -2442.409  
  21894684.768   115057340.27848     -2365.016    21894685.184    89655070.25249
     -1842.870  
  21212695.612   111473475.42048      2742.590    21212696.204    86862453.38649
      2137.077  
  21359084.240   112242743.78748     -2327.383    21359084.152    87461876.46849
     -1813.546  
  21731631.993   114200499.25748      2596.616    21731632.332    88987403.42647
      2023.335  
  24843790.921   130555002.52847     -1113.883    24843791.498   101731193.64545
      -867.965  
  23808157.591   125112714.11347       363.254    23808160.105    97490437.09046
       283.051  
  24227638.102   127317100.86046      3285.194    24227638.776    99208141.78144
      2559.895  
  24593251.132   129238410.35946      3301.202    24593252.330   100705268.85445
      2572.363  
 20 10 03 04 41 15.0000000  0 10G13G 2G29G15G 5G18G 7G30G20G23
  20580706.867   108152348.61849       884.555    20580706.563    84274558.57948
       689.262  
  23920306.172   125702046.41347     -3135.249    23920305.361    97949638.85446
     -2443.054  
  21896935.941   115069170.93148     -2367.387    21896936.305    89664288.93649
     -1844.718  
  21210087.032   111459767.61548      2740.363    21210087.537    86851771.98749
      2135.344  
  21361299.264   112254383.22348     -2328.522    21361299.132    87470946.15949
     -1814.437  
  21729161.968   114187519.31348      2595.183    21729162.400    88977289.18447
      2022.180  
  24844851.850   130560577.74746     -1116.488    24844852.377   101735537.98745
      -869.992  
  23807813.179   125110904.06147       360.483    23807815.504    97489026.66245
       280.894  
  24224512.220   127300673.80046      3285.144    24224512.803    99195341.47344
      2559.852  
  24590110.134   129221904.90146      3301.066    24590111.519   100692407.44345
      2572.258  
 20 10 03 04 41 20.0000000  0 10G13G 2G29G15G 5G18G 7G30G20G23
  20579866.922   108147934.89349       881.086    20579866.759    84271119.31448
       686.559  
  23923289.995   125717726.00947     -3136.534    23923289.167    97961856.69446
     -2444.059  
  21899189.977   115081015.34548     -2370.319    21899190.359    89673518.34749
     -1847.007  
  21207480.953   111446072.41948      2737.809    21207481.582    86841100.41149
      2133.354  
  21363515.621   112266030.41548     -2330.191    21363515.327    87480021.88849
     -1815.738  
  21726693.462   114174547.94548      2593.382    21726693.939    88967181.62547
      2020.815  
  24845915.400   130566166.76846     -1118.987    24845916.156   101739893.07545
      -871.940  
  23807471.565   125109109.39847       357.492    23807474.093    97487628.23746
       278.563  
  24221386.636   127284248.64946      3284.624    24221387.291    99182542.65245
      2559.449  
  24586969.645   129205401.64446      3300.410    24586970.978   100679547.79945
      2571.746  
 20 10 03 04 41 25.0000000  0 10G13G 2G29G15G 5G18G 7G30G20G23
  20579030.408   108143538.79749       877.465    20579030.102    84267693.78448
       683.733  
  23926274.773   125733411.43547     -3137.402    23926274.131    97974079.09546
     -2444.729  
  21901446.467   115092873.80948     -2372.969    21901446.849    89682758.70249
     -1849.070  
  21204877.328   111432390.18248      2735.280    21204877.802    86830438.93049
      2131.387  
  21365733.484   112277685.67548     -2331.780    21365733.241    87489103.90549
     -1816.977  
  21724226.881   114161585.47648      2591.555    21724227.417    88957081.00247
      2019.391  
  24846981.628   130571769.96246     -1122.023    24846982.404   101744259.18545
      -874.309  
  23807133.047   125107330.37847       354.234    23807135.394    97486241.97545
       276.023  
  24218261.409   127267825.84947      3284.086    24218262.194    99169745.71544
      2559.022  
  24583829.661   129188900.91646      3300.082    24583831.185   100666690.08846
      2571.488  
 20 10 03 04 41 30.0000000  0 10G13G 2G29G15G 5G18G 7G30G20G23
  20578197.103   108139159.52949       874.133    20578196.848    84264281.37247
       681.140  
  23929260.480   125749101.96347     -3138.632    23929259.840    97986305.47845
     -2445.690  
  21903705.625   115104745.54748     -2375.820    21903706.025    89692009.39949
     -1851.292  
  21202276.002   111418720.06248      2732.746    21202276.474    86819786.89549
      2129.409  
  21367952.873   112289348.24048     -2333.348    21367952.621    87498191.61649
     -1818.194  
  21721761.797   114148631.12148      2589.987    21721762.110    88946986.70047
      2018.168  
  24848050.487   130577386.38547     -1124.745    24848051.040   101748635.60145
      -876.430  
  23806797.351   125105566.28847       351.258    23806799.792    97484867.36546
       273.702  
  24215136.659   127251404.55146      3283.745    24215137.179    99156949.89344
      2558.761  
  24580690.025   129172401.92246      3299.816    24580691.358   100653833.74045
      2571.281  
 20 10 03 04 41 35.0000000  0 10G13G 2G29G15G 5G18G 7G30G20G23
  20577367.053   108134797.49449       870.699    20577366.803    84260882.38148
       678.465  
  23932247.363   125764797.92347     -3139.824    23932246.747    97998536.08145
     -2446.621  
  21905967.242   115116630.95648     -2378.461    21905967.650    89701270.75349
     -1853.347  
  21199676.948   111405062.53248      2730.160    21199677.586    86809144.66449
      2127.395  
  21370173.606   112301018.42348     -2334.835    21370173.466    87507285.26049
     -1819.354  
  21719298.240   114135685.26048      2588.323    21719298.747    88936899.01747
      2016.871  
  24849121.854   130583016.48746     -1127.022    24849122.274   101753022.68745
      -878.202  
  23806464.539   125103817.46947       348.359    23806466.919    97483504.65046
       271.445  
  24212012.168   127234985.11546      3283.753    24212012.701    99144155.52144
      2558.766  
  24577550.861   129155905.03646      3298.875    24577552.272   100640979.02245
      2570.546  
 20 10 03 04 41 40.0000000  0 10G13G 2G29G15G 5G18G 7G30G20G23
  20576540.234   108130452.81349       867.234    20576539.917    84257496.92248
       675.766  
  23935235.373   125780499.33247     -3140.637    23935234.488    98010770.94446
     -2447.254  
  21908231.739   115128530.15748     -2381.258    21908231.977    89710542.85349
     -1855.527  
  21197080.384   111391417.68648      2727.699    21197081.136    86798512.32449
      2125.477  
  21372395.850   112312696.36348     -2336.257    21372395.521    87516384.95649
     -1820.465  
  21716836.407   114122748.05048      2586.577    21716836.825    88926818.07847
      2015.512  
  24850195.836   130588660.45946     -1130.413    24850196.250   101757420.59745
      -880.843  
  23806134.746   125102084.05547       345.355    23806136.995    97482153.95046
       269.105  
  24208887.960   127218567.76246      3283.159    24208888.486    99131362.82144
      2558.305  
  24574412.007   129139410.40646      3298.862    24574413.457   100628126.06845
      2570.538  
 20 10 03 04 41 45.0000000  0 10G13G 2G29G15G 5G18G 7G30G20G23
  20575716.652   108126124.76649       863.984    20575716.440    84254124.42248
       673.230  
  23938224.173   125796205.61847     -3141.933    23938223.384    98023009.59846
     -2448.261  
  21910498.498   115140442.43148     -2383.805    21910498.974    89719825.14149
     -1857.511  
  21194486.132   111377784.82848      2725.323    21194486.876    86787889.32549
      2123.641  
  21374619.437   112324381.33348     -2337.636    21374619.296    87525490.12749
     -1821.538  
  21714375.894   114109818.78348      2585.117    21714376.407    88916743.32647
      2014.374  
  24851272.305   130594317.49646     -1132.921    24851272.759   101761828.65945
      -882.801  
  23805807.647   125100365.35747       342.245    23805810.036    97480814.69946
       266.683  
  24205764.038   127202151.74846      3283.140    24205764.798    99118571.12144
      2558.288  
  24571273.488   129122917.31346      3298.488    24571274.885   100615274.32746
      2570.249  
 20 10 03 04 41 50.0000000  0 10G13G 2G29G15G 5G18G 7G30G20G23
  20574896.489   108121814.71949       860.315    20574896.136    84250765.94448
       670.374  
  23941214.287   125811918.05247     -3143.254    23941213.472    98035253.04246
     -2449.292  
  21912768.151   115152369.09748     -2386.625    21912768.413    89729118.64449
     -1859.710  
  21191894.506   111364165.33848      2722.679    21191895.052    86777276.74049
      2121.566  
  21376844.555   112336074.71748     -2339.515    21376844.296    87534601.85049
     -1823.003  
  21711917.311   114096898.84148      2583.230    21711917.694    88906675.84047
      2012.902  
  24852351.438   130599988.97346     -1135.469    24852352.140   101766248.01245
      -884.785  
  23805483.591   125098662.74447       338.840    23805485.956    97479487.99246
       264.026  
  24202640.759   127185738.46446      3282.402    24202641.258    99105781.55944
      2557.715  
  24568135.520   129106427.14946      3297.984    24568136.717   100602424.86645
      2569.855  
 20 10 03 04 41 55.0000000  0 10G13G 2G29G15G 5G18G 7G30G20G23
  20574079.578   108117521.22749       856.934    20574079.272    84247420.36748
       667.738  
  23944205.129   125827635.15747     -3144.023    23944204.328    98047500.12645
     -2449.891  
  21915040.069   115164308.70148     -2389.223    21915040.549    89738422.22449
     -1861.733  
  21189304.992   111350557.72548      2720.390    21189305.679    86766673.40749
      2119.781  
  21379070.990   112347774.99548     -2340.719    21379070.762    87543718.95049
     -1823.940  
  21709460.215   114083986.74748      2581.480    21709460.689    88896614.47147
      2011.538  
  24853433.285   130605673.46046     -1138.168    24853433.813   101770677.46946
      -886.886  
  23805162.361   125096974.72847       335.979    23805164.789    97478172.64446
       261.801  
  24199517.680   127169326.38646      3282.164    24199518.199    99092992.93544
      2557.526  
  24564997.835   129089938.47046      3297.723    24564999.136   100589576.52845
      2569.651  
 20 10 03 04 42  0.0000000  0 10G13G 2G29G15G 5G18G 7G30G20G23
  20573265.887   108113245.16149       853.608    20573265.565    84244088.37148
       665.147  
  23947196.933   125843357.91347     -3145.508    23947196.213    98059751.61545
     -2451.046  
  21917314.838   115176262.07048     -2391.879    21917315.114    89747736.53149
     -1863.804  
  21186717.940   111336962.86248      2717.707    21186718.748    86756080.01549
      2117.690  
  21381299.144   112359483.08448     -2342.464    21381298.935    87552842.13449
     -1825.300  
  21707004.858   114071083.41548      2579.683    21707005.160    88886559.92847
      2010.194  
  24854517.594   130611371.82647     -1141.288    24854518.190   101775117.77945
      -889.320  
  23804844.173   125095302.17447       333.172    23804846.614    97476869.36545
       259.609  
  24196394.937   127152916.38646      3281.851    24196395.571    99080205.98444
      2557.293  
  24561860.642   129073452.09846      3296.839    24561861.984   100576730.00845
      2568.964  
 20 10 03 04 42  5.0000000  0 10G13G 2G29G15G 5G18G 7G30G20G23
  20572455.241   108108985.68349       850.136    20572455.052    84240769.30248
       662.441  
  23950189.888   125859085.30747     -3145.956    23950189.064    98072006.71645
     -2451.398  
  21919591.879   115188228.34648     -2394.679    21919592.127    89757060.89449
     -1865.987  
  21184133.182   111323379.95948      2715.300    21184133.764    86745495.93749
      2115.816  
  21383528.447   112371198.08648     -2343.820    21383528.080    87561970.70449
     -1826.354  
  21704550.838   114058187.95348      2578.351    21704551.335    88876511.51847
      2009.102  
  24855604.574   130617083.16146     -1143.608    24855605.184   101779568.15145
      -891.129  
  23804528.676   125093644.28447       329.897    23804531.158    97475577.50146
       257.058  
  24193272.423   127136507.65046      3281.730    24193272.911    99067419.93244
      2557.184  
  24558723.540   129056967.13946      3296.687    24558724.871   100563884.61545
      2568.847  
 20 10 03 04 42 10.0000000  0 10G13G 2G29G15G 5G18G 7G30G20G23
  20571648.011   108104743.72849       846.551    20571647.698    84237463.88348
       659.647  
  23953183.797   125874818.40647     -3147.234    23953183.140    98084266.26746
     -2452.394  
  21921871.599   115200208.44648     -2397.426    21921872.085    89766396.03749
     -1868.128  
  21181550.892   111309809.99548      2712.542    21181551.479    86734921.94349
      2113.668  
  21385759.255   112382921.06248     -2345.421    21385758.941    87571105.48949
     -1827.604  
  21702098.722   114045301.37248      2576.265    21702099.207    88866470.02847
      2007.476  
  24856694.007   130622808.45246     -1146.253    24856694.589   101784029.42846
      -893.187  
  23804216.063   125092001.99247       326.723    23804218.596    97474297.80145
       254.585  
  24190150.439   127120101.17346      3281.027    24190150.939    99054635.66745
      2556.640  
  24555587.010   129040484.68946      3295.964    24555588.549   100551041.12145
      2568.277  
 20 10 03 04 42 15.0000000  0 10G13G 2G29G15G 5G18G 7G30G20G23
  20570844.215   108100519.06449       843.203    20570843.749    84234171.94048
       657.038  
  23956178.647   125890556.91847     -3148.563    23956178.114    98096530.03246
     -2453.430  
  21924153.973   115212202.18648     -2400.175    21924154.227    89775741.80549
     -1870.270  
  21178971.076   111296252.69048      2710.176    21178971.634    86724357.81649
      2111.819  
  21387991.406   112394651.69248     -2346.934    21387991.267    87580246.23949
     -1828.780  
  21699648.128   114032423.44448      2574.699    21699648.550    88856435.27847
      2006.300  
  24857786.077   130628547.50346     -1149.147    24857786.780   101788501.42245
      -895.445  
  23803906.596   125090375.04747       323.914    23803909.180    97473030.04546
       252.397  
  24187028.666   127103696.70446      3280.382    24187029.689    99041853.01244
      2556.144  
  24552450.930   129024004.41646      3295.582    24552452.425   100538199.37645
      2567.983  
 20 10 03 04 42 20.0000000  0 10G13G 2G29G15G 5G18G 7G30G20G23
  20570043.467   108096311.41549       839.729    20570043.213    84230893.25647
       654.332  
  23959174.666   125906300.63747     -3149.152    23959173.874    98108797.85446
     -2453.887  
  21926438.831   115224209.28848     -2402.772    21926439.062    89785097.98049
     -1872.292  
  21176393.536   111282707.84748      2707.776    21176394.236    86713803.39449
      2109.952  
  21390225.107   112406389.67848     -2348.398    21390224.816    87589392.71849
     -1829.926  
  21697199.016   114019553.89548      2573.062    21697199.604    88846407.06347
      2004.980  
  24858880.634   130634299.94246     -1151.546    24858881.273   101792983.81445
      -897.312  
  23803599.853   125088763.22347       320.992    23803602.399    97471774.07746
       250.121  
  24183907.496   127087294.00247      3280.195    24183907.934    99029071.69844
      2555.992  
  24549315.180   129007526.12346      3295.531    24549316.683   100525359.16144
      2567.940  
 20 10 03 04 42 25.0000000  0 10G13G 2G29G15G 5G18G 7G30G20G23
  20569246.132   108092121.23649       836.457    20569245.879    84227628.18148
       651.780  
  23962171.617   125922049.90747     -3149.890    23962170.773    98121069.99645
     -2454.465  
  21928726.325   115236230.15248     -2405.457    21928726.586    89794464.88249
     -1874.387  
  21173818.471   111269175.91248      2705.331    21173819.272    86703259.03549
      2108.047  
  21392460.314   112418135.46048     -2349.668    21392460.071    87598545.27649
     -1830.913  
  21694751.845   114006693.20648      2571.479    21694752.137    88836385.75247
      2003.706  
  24859978.042   130640066.32746     -1154.066    24859978.785   101797477.09845
      -899.277  
  23803295.901   125087166.97647       317.866    23803298.598    97470530.25146
       247.683  
  24180786.440   127070893.43246      3279.995    24180786.807    99016291.98845
      2555.836  
  24546179.970   128991050.23447      3295.164    24546181.070   100512520.78844
      2567.655  
 20 10 03 04 42 30.0000000  0 10G13G 2G29G15G 5G18G 7G30G20G23
  20568451.868   108087947.94449       832.784    20568451.714    84224376.26948
       648.921  
  23965169.719   125937804.19947     -3151.277    23965168.910    98133346.05545
     -2455.543  
  21931016.300   115248264.17248     -2408.276    21931016.797    89803842.03849
     -1876.581  
  21171245.875   111255656.23948      2702.671    21171246.511    86692724.22849
      2105.976  
  21394696.854   112429888.46349     -2351.426    21394696.546    87607703.45549
     -1832.280  
  21692305.991   113993840.75548      2569.543    21692306.366    88826370.85547
      2002.238  
  24861077.754   130645845.94646     -1157.066    24861078.474   101801980.70345
      -901.612  
  23802995.029   125085585.66947       314.566    23802997.718    97469298.07246
       245.112  
  24177665.782   127054494.38646      3279.496    24177666.449    99003513.58145
      2555.457  
  24543045.044   128974576.08645      3294.711    24543046.171   100499683.77546
      2567.305  
 20 10 03 04 42 35.0000000  0 10G13G 2G29G15G 5G18G 7G30G20G23
  20567661.018   108083791.84249       829.609    20567660.698    84221137.75348
       646.444  
  23968168.568   125953563.75347     -3152.397    23968167.828    98145626.21845
     -2456.418  
  21933308.760   115260311.66348     -2410.645    21933309.211    89813229.68749
     -1878.426  
  21168675.570   111242149.19148      2700.347    21168676.199    86682199.26249
      2104.163  
  21396934.724   112441648.95648     -2352.663    21396934.494    87616867.47749
     -1833.245  
  21689861.850   113980996.86348      2568.012    21689862.278    88816362.63047
      2001.027  
  24862180.375   130651639.22846     -1159.886    24862180.767   101806494.93846
      -903.815  
  23802697.013   125084019.61247       311.812    23802699.576    97468077.76346
       242.968  
  24174545.546   127038097.31246      3279.305    24174546.019    98990736.63045
      2555.301  
  24539910.437   128958104.05746      3294.336    24539911.752   100486848.47845
      2567.015  
 20 10 03 04 42 40.0000000  0 10G13G 2G29G15G 5G18G 7G30G20G23
  20566873.400   108079652.72449       826.104    20566873.119    84217912.46848
       643.714  
  23971168.529   125969328.34347     -3153.348    23971167.704    98157910.30345
     -2457.155  
  21935603.880   115272372.38348     -2413.382    21935604.305    89822627.64949
     -1880.562  
  21166107.564   111228654.57248      2697.758    21166108.075    86671683.97449
      2102.145  
  21399174.118   112453416.73948     -2354.344    21399173.904    87626037.17549
     -1834.558  
  21687419.441   113968161.35148      2566.387    21687419.693    88806360.93347
      1999.777  
  24863285.262   130657445.79347     -1162.457    24863285.812   101811019.53945
      -905.812  
  23802401.851   125082468.62247       308.663    23802404.539    97466869.19846
       240.516  
  24171425.485   127021701.90746      3278.722    24171425.927    98977960.99944
      2554.848  
  24536776.375   128941634.01346      3293.819    24536777.596   100474014.66345
      2566.609  
 20 10 03 04 42 45.0000000  0 10G13G 2G29G15G 5G18G 7G30G20G23
  20566089.009   108075530.94049       822.776    20566088.716    84214700.68948
       641.120  
  23974169.475   125985098.39047     -3154.754    23974168.590    98170198.64846
     -2458.253  
  21937901.490   115284446.65448     -2416.175    21937902.098    89832036.16749
     -1882.737  
  21163542.031   111215172.70148      2695.055    21163542.630    86661178.62449
      2100.039  
  21401415.040   112465192.11149     -2355.714    21401414.529    87635212.78749
     -1835.625  
  21684978.540   113955334.55048      2564.574    21684979.033    88796366.02747
      1998.366  
  24864393.005   130663266.20646     -1165.422    24864393.342   101815554.93946
      -908.125  
  23802109.738   125080933.05547       305.784    23802112.224    97465672.65446
       238.270  
  24168306.006   127005308.55646      3278.487    24168306.551    98965186.98944
      2554.664  
  24533642.631   128925166.16646      3293.491    24533643.920   100461182.56644
      2566.355  
 20 10 03 04 42 50.0000000  0 10G13G 2G29G15G 5G18G 7G30G20G23
  20565308.049   108071426.12749       819.270    20565307.733    84211502.13348
       638.387  
  23977171.357   126000873.41847     -3155.593    23977170.442    98182490.85245
     -2458.909  
  21940201.753   115296534.09048     -2418.854    21940202.076    89841454.94249
     -1884.824  
  21160978.967   111201703.20848      2692.687    21160979.402    86650682.91549
      2098.194  
  21403657.089   112476974.69349     -2357.265    21403656.871    87644394.01849
     -1836.832  
  21682539.354   113942516.10348      2562.815    21682539.618    88786377.62347
      1996.995  
  24865503.012   130669099.83347     -1167.812    24865503.553   101820100.59845
      -909.988  
  23801820.318   125079412.49047       302.516    23801822.908    97464487.79646
       235.722  
  24165186.710   126988916.82946      3278.394    24165187.295    98952414.21645
      2554.590  
  24530509.119   128908700.16846      3292.957    24530510.538   100448351.95145
      2565.945  
 20 10 03 04 42 55.0000000  0 10G13G 2G29G15G 5G18G 7G30G20G23
  20564530.121   108067338.83549       815.625    20564529.910    84208317.23448
       635.546  
  23980174.195   126016653.96647     -3156.785    23980173.477    98194787.37445
     -2459.835  
  21942504.491   115308635.21548     -2421.609    21942504.980    89850884.38549
     -1886.972  
  21158418.201   111188246.67048      2689.937    21158418.839    86640197.30549
      2096.051  
  21405900.839   112488765.05349     -2358.937    21405900.425    87653581.31149
     -1838.136  
  21680101.676   113929706.55048      2560.953    21680102.187    88776396.15647
      1995.542  
  24866615.877   130674947.41446     -1170.820    24866616.381   101824657.16545
      -912.331  
  23801533.970   125077907.53447       299.398    23801536.661    97463315.10146
       233.293  
  24162067.974   126972527.32047      3277.737    24162068.404    98939643.19545
      2554.077  
  24527376.238   128892236.64446      3292.371    24527377.779   100435523.23345
      2565.480  
 20 10 03 04 43  0.0000000  0 10G13G 2G29G15G 5G18G 7G30G20G23
  20563755.634   108063268.75349       812.453    20563755.256    84205145.74548
       633.077  
  23983178.179   126032439.70047     -3157.328    23983177.295    98207087.94444
     -2460.257  
  21944809.703   115320749.71648     -2424.168    21944810.339    89860324.25649
     -1888.964  
  21155859.923   111174802.76448      2687.722    21155860.489    86629721.54049
      2094.323  
  21408145.740   112500562.86949     -2360.156    21408145.452    87662774.41449
     -1839.085  
  21677665.724   113916905.59848      2559.461    21677666.164    88766421.39247
      1994.382  
  24867731.114   130680808.43546     -1173.644    24867731.581   101829224.18945
      -914.531  
  23801250.408   125076417.81047       296.461    23801253.146    97462154.27746
       231.003  
  24158949.462   126956139.74546      3277.194    24158950.096    98926873.64845
      2553.656  
  24524243.811   128875775.19346      3291.840    24524245.220   100422696.08744
      2565.065  
 20 10 03 04 43  5.0000000  0 10G13G 2G29G15G 5G18G 7G30G20G23
  20562984.371   108059215.92949       808.854    20562984.037    84201987.70448
       630.272  
  23986183.134   126048230.78247     -3158.776    23986182.282    98219392.67546
     -2461.386  
  21947117.560   115332877.64648     -2427.203    21947118.129    89869774.58549
     -1891.331  
  21153304.110   111161371.56148      2684.813    21153304.594    86619255.67249
      2092.058  
  21410392.361   112512368.22449     -2362.086    21410391.943    87671973.39049
     -1840.590  
  21675231.486   113904113.31148      2557.421    21675231.896    88756453.37847
      1992.793  
  24868849.093   130686683.07746     -1176.944    24868849.323   101833801.84244
      -917.101  
  23800969.915   125074943.40147       293.141    23800972.555    97461005.39846
       228.418  
  24155831.426   126939754.07246      3276.832    24155831.798    98914105.64644
      2553.374  
  24521111.419   128859315.89046      3291.563    24521113.087   100409870.71045
      2564.854  
 20 10 03 04 43 10.0000000  0 10G13G 2G29G15G 5G18G 7G30G20G23
  20562216.532   108055180.59349       805.386    20562216.223    84198843.28948
       627.569  
  23989189.187   126064027.38347     -3159.483    23989188.286    98231701.69645
     -2461.941  
  21949428.119   115345019.18748     -2429.315    21949428.617    89879235.52249
     -1892.976  
  21150750.764   111147953.29348      2682.570    21150751.122    86608799.88049
      2090.312  
  21412640.305   112524181.34149     -2363.108    21412639.897    87681178.41649
     -1841.387  
  21672798.785   113891329.91348      2555.901    21672799.327    88746492.28947
      1991.608  
  24869969.502   130692571.52547     -1178.620    24869970.053   101838390.23445
      -918.410  
  23800692.303   125073484.57347       290.300    23800694.912    97459868.65346
       226.207  
  24152713.669   126923370.58546      3276.694    24152714.200    98901339.26144
      2553.266  
  24517979.993   128842859.04247      3291.413    24517981.692   100397047.20345
      2564.734  
 20 10 03 04 43 15.0000000  0 10G13G 2G29G15G 5G18G 7G30G20G23
  20561451.729   108051161.43549       802.168    20561451.356    84195711.47548
       625.063  
  23992196.028   126079828.21947     -3160.593    23992195.258    98244014.02645
     -2462.805  
  21951740.943   115357173.12648     -2432.112    21951741.547    89888706.11649
     -1895.155  
  21148199.506   111134546.71848      2679.999    21148200.096    86598353.20049
      2088.309  
  21414889.384   112536000.92649     -2364.762    21414889.072    87690388.47349
     -1842.675  
  21670367.778   113878554.16648      2554.339    21670368.213    88736537.16047
      1990.410  
  24871092.417   130698472.60447     -1181.918    24871092.971   101842988.45745
      -920.980  
  23800417.577   125072040.03347       287.168    23800420.183    97458743.02846
       223.766  
  24149596.206   126906988.02146      3276.359    24149596.787    98888573.66244
      2553.007  
  24514848.522   128826403.30446      3291.151    24514850.150   100384224.50245
      2564.526  
 20 10 03 04 43 20.0000000  0 10G13G 2G29G15G 5G18G 7G30G20G23
  20560690.352   108047160.46249       798.265    20560689.876    84192593.84048
       622.023  
  23995204.036   126095635.28747     -3162.147    23995203.239    98256331.20745
     -2464.016  
  21954056.451   115369341.38948     -2435.065    21954056.931    89898187.88049
     -1897.457  
  21145650.926   111121153.77848      2677.190    21145651.513    86587917.14749
      2086.121  
  21417140.185   112547828.90249     -2366.483    21417139.961    87699605.08249
     -1844.016  
  21667938.490   113865788.04548      2552.417    21667938.817    88726589.53647
      1988.894  
  24872218.210   130704388.12847     -1184.382    24872218.500   101847597.96845
      -922.749  
  23800145.646   125070611.71547       283.945    23800148.401    97457630.06246
       221.253  
  24146479.149   126890608.36946      3275.929    24146479.725    98875810.31645
      2552.667  
  24511717.479   128809950.65246      3290.015    24511719.290   100371404.30845
      2563.648  
 20 10 03 04 43 25.0000000  0 10G13G 2G29G15G 5G18G 7G30G20G23
  20559932.218   108043176.09749       794.937    20559931.846    84189489.14948
       619.430  
  23998212.771   126111446.98347     -3163.012    23998212.198    98268652.01646
     -2464.687  
  21956374.414   115381522.40048     -2437.473    21956374.990    89907679.56949
     -1899.331  
  21143104.630   111107772.96648      2674.612    21143105.123    86577490.54249
      2084.108  
  21419392.325   112559663.75749     -2367.827    21419392.074    87708827.04349
     -1845.062  
  21665510.723   113853030.01148      2550.659    21665511.098    88716648.21247
      1987.523  
  24873346.309   130710316.66846     -1186.847    24873346.773   101852217.61745
      -924.820  
  23799876.742   125069198.14447       281.055    23799879.294    97456528.58446
       218.999  
  24143362.501   126874230.02646      3275.210    24143362.795    98863047.97445
      2552.108  
  24508587.021   128793499.61346      3289.875    24508588.844   100358585.31245
      2563.534  
 20 10 03 04 43 30.0000000  0 10G13G 2G29G15G 5G18G 7G30G20G23
  20559177.100   108039208.92849       791.598    20559176.744    84186397.84948
       616.824  
  24001222.635   126127263.86047     -3164.128    24001221.901    98280976.83946
     -2465.558  
  21958694.884   115393716.71048     -2440.315    21958695.489    89917181.62749
     -1901.546  
  21140560.800   111094404.82948      2672.379    21140561.168    86567073.81349
      2082.370  
  21421645.970   112571506.14649     -2369.254    21421645.399    87718054.87849
     -1846.175  
  21663084.488   113840280.62648      2549.035    21663084.855    88706713.62147
      1986.258  
  24874477.087   130716258.66547     -1189.429    24874477.436   101856847.74545
      -926.831  
  23799610.532   125067799.85847       277.897    23799613.414    97455439.00746
       216.542  
  24140245.945   126857853.62846      3275.136    24140246.883    98850287.18345
      2552.058  
  24505456.894   128777050.68146      3289.823    24505458.577   100345767.95345
      2563.495  
 20 10 03 04 43 35.0000000  0 10G13G 2G29G15G 5G18G 7G30G20G23
  20558425.633   108035259.22149       788.362    20558425.315    84183320.15548
       614.305  
  24004233.644   126143086.19747     -3164.858    24004232.742    98293305.91946
     -2466.128  
  21961018.010   115405924.56848     -2442.684    21961018.680    89926694.23749
     -1903.395  
  21138019.456   111081049.66448      2669.847    21138019.902    86556667.19449
      2080.397  
  21423900.971   112583356.23049     -2370.710    21423900.433    87727288.70749
     -1847.308  
  21660660.148   113827540.19348      2547.237    21660660.584    88696786.01147
      1984.858  
  24875610.499   130722214.47347     -1193.152    24875610.839   101861488.61945
      -929.730  
  23799347.546   125066417.10947       275.199    23799350.141    97454361.54145
       214.438  
  24137130.067   126841479.48646      3274.676    24137130.679    98837528.09644
      2551.687  
  24502327.221   128760604.14246      3289.219    24502328.917   100332952.48845
      2563.023  
 20 10 03 04 43 40.0000000  0 10G13G 2G29G15G 5G18G 7G30G20G23
  20557677.187   108031326.45649       784.902    20557676.806    84180255.66748
       611.608  
  24007245.425   126158913.49147     -3165.991    24007244.544    98305638.86745
     -2467.012  
  21963343.624   115418145.43848     -2445.452    21963344.059    89936216.99149
     -1905.550  
  21135480.388   111067706.96148      2667.229    21135480.840    86546270.28449
      2078.358  
  21426157.295   112595213.53949     -2372.241    21426156.933    87736528.16949
     -1848.503  
  21658237.321   113814808.18448      2545.339    21658237.543    88686864.97047
      1983.379  
  24876746.356   130728183.50847     -1195.147    24876746.658   101866139.82745
      -931.288  
  23799087.213   125065049.42247       272.093    23799089.839    97453295.80446
       212.020  
  24134014.304   126825106.91546      3274.414    24134015.118    98824770.27244
      2551.492  
  24499197.887   128744159.50646      3288.925    24499199.496   100320138.46945
      2562.796  
 20 10 03 04 43 45.0000000  0 10G13G 2G29G15G 5G18G 7G30G20G23
  20556932.181   108027411.01749       781.491    20556931.723    84177204.67648
       608.952  
  24010258.341   126174746.10047     -3166.929    24010257.424    98317975.95146
     -2467.741  
  21965671.699   115430379.65248     -2448.059    21965672.387    89945750.13949
     -1907.581  
  21132943.983   111054377.06048      2664.858    21132944.222    86535883.35149
      2076.512  
  21428415.129   112607078.31849     -2373.621    21428414.656    87745773.44649
     -1849.578  
  21655816.051   113802084.94948      2543.788    21655816.469    88676950.76447
      1982.210  
  24877884.887   130734166.14947     -1198.077    24877885.124   101870801.62646
      -933.570  
  23798829.927   125063697.09747       269.062    23798832.699    97452242.04746
       209.656  
  24130899.164   126808736.46247      3273.913    24130900.132    98812014.11145
      2551.102  
  24496069.111   128727717.14546      3288.234    24496070.815   100307326.26245
      2562.258  
 20 10 03 04 43 50.0000000  0 10G13G 2G29G15G 5G18G 7G30G20G23
  20556190.220   108023512.98949       777.754    20556190.045    84174167.25548
       606.039  
  24013272.224   126190584.03547     -3168.230    24013271.411    98330317.19546
     -2468.753  
  21968002.421   115442627.39748     -2451.034    21968002.886    89955293.82849
     -1909.902  
  21130409.857   111041060.07448      2662.062    21130410.036    86525506.47249
      2074.331  
  21430674.309   112618950.63849     -2375.316    21430673.836    87755024.60149
     -1850.897  
  21653396.640   113789370.60948      2541.902    21653397.079    88667043.48447
      1980.698  
  24879025.883   130740162.40947     -1200.179    24879026.233   101875474.02745
      -935.207  
  23798575.535   125062360.28947       265.757    23798578.222    97451200.38146
       207.082  
  24127784.422   126792368.13246      3273.254    24127785.168    98799259.54045
      2550.586  
  24492940.652   128711277.10846      3287.679    24492942.225   100294515.86644
      2561.827  
 20 10 03 04 43 55.0000000  0 10G13G 2G29G15G 5G18G 7G30G20G23
  20555451.691   108019631.74049       774.633    20555451.317    84171142.91048
       603.604  
  24016286.900   126206426.70347     -3168.840    24016286.192    98342662.12545
     -2469.229  
  21970335.448   115454887.97348     -2453.270    21970336.080    89964847.52649
     -1911.640  
  21127878.018   111027755.42448      2659.722    21127878.309    86515139.22349
      2072.507  
  21432934.810   112630829.90249     -2376.363    21432934.485    87764281.17449
     -1851.714  
  21650978.770   113776664.55548      2540.425    21650979.130    88657142.67047
      1979.559  
  24880169.360   130746171.82346     -1202.680    24880169.663   101880156.68245
      -937.156  
  23798323.980   125061038.35847       262.832    23798326.692    97450170.31246
       204.800  
  24124669.800   126776001.27746      3273.211    24124670.648    98786506.19544
      2550.558  
  24489812.413   128694838.78546      3287.546    24489813.926   100281706.78445
      2561.722  
 20 10 03 04 44  0.0000000  0 10G13G 2G29G15G 5G18G 7G30G20G23
  20554716.412   108015767.79449       770.957    20554716.245    84168132.04248
       600.742  
  24019302.711   126222274.64747     -3170.148    24019301.897    98355011.14945
     -2470.253  
  21972671.150   115467161.85748     -2456.176    21972671.707    89974411.58849
     -1913.905  
  21125348.648   111014463.58748      2656.977    21125348.773    86504781.94649
      2070.367  
  21435196.867   112642716.59549     -2378.090    21435196.362    87773543.52649
     -1853.058  
  21648562.613   113763967.28148      2538.363    21648562.918    88647248.68647
      1977.940  
  24881315.500   130752194.74147     -1205.761    24881315.833   101884849.86945
      -939.558  
  23798075.227   125059731.77647       259.784    23798078.087    97449152.19146
       202.426  
  24121555.657   126759636.50246      3272.535    24121556.650    98773754.39744
      2550.022  
  24486684.802   128678402.67146      3287.125    24486686.405   100268899.39345
      2561.394  
