     2.11           OBSERVATION DATA    G                   RINEX VERSION / TYPE
LEICA GEO OFFICE 8.4                    1-10-20 21:50       PGM / RUN BY / DATE
                                                            OBSERVER / AGENCY
obg2                                                        MARKER NAME
obg2                                                        MARKER NUMBER
457569              LEICA GX1220        2.14                REC # / TYPE / VERS
                    LEIAX1202                               ANT # / TYPE
 -1251311.2004  3776424.0855  4969926.3766                  APPROX POSITION XYZ
        1.2960        0.0000        0.0000                  ANTENNA: DELTA H/E/N
L1PhaOff:   0.0648  L2PhaOff:   0.0622                      COMMENT
     1     1                                                WAVELENGTH FACT L1/2
     6    C1    L1    D1    P2    L2    D2                  # / TYPES OF OBSERV
  2020    10     1     7    26   55.0000000     GPS         TIME OF FIRST OBS
  2020    10     1     9     0   20.0000000     GPS         TIME OF LAST OBS
    18                                                      LEAP SECONDS
    12                                                      # OF SATELLITES
          C1    L1    D1    P2    L2    D2                  COMMENT
   G 1     0     0     0     0     0     0                  PRN / # OF OBS
   G 2     0     0     0     0     0     0                  PRN / # OF OBS
   G 3     0     0     0     0     0     0                  PRN / # OF OBS
   G 4     0     0     0     0     0     0                  PRN / # OF OBS
   G 5     0     0     0     0     0     0                  PRN / # OF OBS
   G 6     0     0     0     0     0     0                  PRN / # OF OBS
   G 7     0     0     0     0     0     0                  PRN / # OF OBS
   G 8   344   344   344   344   344   344                  PRN / # OF OBS
   G 9     0     0     0     0     0     0                  PRN / # OF OBS
   G10  1122  1122  1122  1122  1122  1122                  PRN / # OF OBS
   G11   383   383   383   382   382   382                  PRN / # OF OBS
   G12   302   302   302   301   301   301                  PRN / # OF OBS
   G13    84    84    84    78    78    78                  PRN / # OF OBS
   G14     0     0     0     0     0     0                  PRN / # OF OBS
   G15  1119  1119  1119  1118  1118  1118                  PRN / # OF OBS
   G16     0     0     0     0     0     0                  PRN / # OF OBS
   G17     0     0     0     0     0     0                  PRN / # OF OBS
   G18   920   920   920   920   920   920                  PRN / # OF OBS
   G19     0     0     0     0     0     0                  PRN / # OF OBS
   G20  1122  1122  1122  1122  1122  1122                  PRN / # OF OBS
   G21  1113  1113  1113  1113  1113  1113                  PRN / # OF OBS
   G22     0     0     0     0     0     0                  PRN / # OF OBS
   G23     0     0     0     0     0     0                  PRN / # OF OBS
   G24  1122  1122  1122  1122  1122  1122                  PRN / # OF OBS
   G25     0     0     0     0     0     0                  PRN / # OF OBS
   G26     0     0     0     0     0     0                  PRN / # OF OBS
   G27   296   296   296   296   296   296                  PRN / # OF OBS
   G28     0     0     0     0     0     0                  PRN / # OF OBS
   G29     0     0     0     0     0     0                  PRN / # OF OBS
   G30     0     0     0     0     0     0                  PRN / # OF OBS
   G31     0     0     0     0     0     0                  PRN / # OF OBS
   G32   669   669   669   668   668   668                  PRN / # OF OBS
                                                            END OF HEADER
 20 10 01 07 26 55.0000000  0  8G 8G27G15G21G18G24G20G10
  24636978.646   129468195.78045       140.437    24636981.346   100884311.74049
       109.434  
  24306171.442   127729794.09446     -1657.507    24306174.562    99529721.25949
     -1291.565  
  21229732.091   111563013.40648     -2475.191    21229732.149    86932224.92149
     -1928.722  
  24816676.487   130412506.99247      2696.668    24816676.508   101620135.69944
      2101.296  
  21566006.162   113330135.54548     -2690.460    21566006.754    88309201.83847
     -2096.464  
  20939258.635   110036577.71648      1684.249    20939261.711    85742810.06549
      1312.397  
  20029471.504   105255583.95248       660.012    20029470.908    82017335.75248
       514.293  
  22049101.740   115868810.81648      2586.632    22049103.940    90287395.21449
      2015.550  
 20 10 01 07 27  0.0000000  0  8G 8G27G15G21G18G24G20G10
  24636846.442   129467501.60345       137.766    24636849.300   100883770.81249
       107.348  
  24307749.785   127738088.34646     -1660.055    24307752.835    99536184.30249
     -1293.551  
  21232088.092   111575394.21248     -2476.906    21232088.310    86941872.31649
     -1930.059  
  24814111.726   130399028.11847      2695.347    24814111.596   101609632.69044
      2100.270  
  21568567.281   113343594.50648     -2692.796    21568568.026    88319689.32147
     -2098.285  
  20937657.725   110028164.62849      1681.219    20937660.688    85736254.42449
      1310.039  
  20028844.873   105252290.29648       657.573    20028844.270    82014769.27148
       512.391  
  22046641.443   115855881.21448      2585.476    22046643.455    90277320.21849
      2014.656  
 20 10 01 07 27  5.0000000  0  9G 8G27G13G15G21G18G24G20G10
  24636716.497   129466819.70944       134.382    24636719.728   100883239.42549
       104.706  
  24309330.087   127746392.48246     -1662.484    24309333.117    99542655.04249
     -1295.444  
  23808173.596   125112799.78555     -3476.265    23808169.378    97490470.81153
     -2708.766  
  21234445.054   111587780.32248     -2478.328    21234445.231    86951523.85749
     -1931.167  
  24811547.391   130385552.41547      2693.866    24811547.076   101599132.15944
      2099.112  
  21571129.938   113357061.92148     -2694.816    21571130.779    88330183.39747
     -2099.862  
  20936059.293   110019764.31148      1678.229    20936062.098    85729708.74849
      1307.710  
  20028219.963   105249006.05948       655.319    20028219.315    82012210.12448
       510.637  
  22044181.538   115842954.38748      2584.574    22044183.382    90267247.38048
      2013.948  
 20 10 01 07 27 10.0000000  0  7G27G15G21G18G24G20G10
  24310913.177   127754712.23845     -1666.262    24310916.106    99549137.96349
     -1298.391  
  21236804.122   111600177.37148     -2481.199    21236804.313    86961183.87649
     -1933.406  
  24808984.641   130372085.47747      2691.750    24808983.995   101588638.42444
      2097.465  
  21573695.465   113370543.42248     -2698.414    21573696.236    88340688.44847
     -2102.664  
  20934464.279   110011382.42748      1673.694    20934467.124    85723177.40949
      1304.175  
  20027597.740   105245736.91448       651.750    20027597.040    82009662.73348
       507.854  
  22041723.332   115830036.08648      2582.077    22041725.143    90257181.17848
      2012.003  
 20 10 01 07 27 15.0000000  0  7G27G15G21G18G24G20G10
  24312500.056   127763052.25146     -1668.835    24312503.272    99555636.67449
     -1300.395  
  21239166.238   111612590.06048     -2482.820    21239166.589    86970856.09249
     -1934.667  
  24806424.599   130358632.05547      2690.733    24806423.785   101578155.26444
      2096.672  
  21576264.422   113384043.66048     -2700.741    21576265.369    88351208.11947
     -2104.477  
  20932873.639   110003023.49548      1670.679    20932876.298    85716663.95849
      1301.823  
  20026979.497   105242487.58748       649.030    20026978.684    82007130.79348
       505.734  
  22039267.435   115817130.98048      2581.015    22039269.431    90247125.26249
      2011.180  
 20 10 01 07 27 20.0000000  0  7G27G15G21G18G24G20G10
  24314088.627   127771400.43546     -1670.569    24314091.930    99562141.74349
     -1301.745  
  21241528.951   111625006.29549     -2483.706    21241529.333    86980531.07449
     -1935.352  
  24803864.748   130345180.04247      2690.285    24803864.035   101567673.13944
      2096.320  
  21578834.733   113397550.61248     -2702.375    21578835.702    88361733.01947
     -2105.750  
  20931285.085   109994675.52448      1668.233    20931287.927    85710159.03149
      1299.918  
  20026362.572   105239245.96548       647.340    20026361.795    82004604.86148
       504.418  
  22036811.910   115804226.94948      2580.520    22036813.916    90237070.15249
      2010.793  
 20 10 01 07 27 25.0000000  0  8G27G13G15G21G18G24G20G10
  24315679.479   127779760.48146     -1673.288    24315682.948    99568656.04249
     -1303.862  
  23821409.465   125182354.77615     -3478.660           0.000           0.0000 
         0.000  
  21243892.962   111637429.84748     -2485.605    21243893.307    86990211.77649
     -1936.839  
  24801305.881   130331733.26047      2688.832    24801305.335   101557195.13044
      2095.191  
  21581406.965   113411067.90548     -2704.499    21581407.743    88372265.96846
     -2107.406  
  20929699.405   109986342.21848      1665.258    20929701.976    85703665.54949
      1297.601  
  20025747.938   105236015.82348       644.862    20025747.098    82002087.87148
       502.487  
  22034357.330   115791327.79548      2579.292    22034359.225    90227018.85049
      2009.831  
 20 10 01 07 27 30.0000000  0  8G27G13G15G21G18G24G20G10
  24317272.437   127788131.62445     -1674.488    24317275.889    99575179.02448
     -1304.801  
  23824719.748   125199746.74044     -3477.746    23824718.054    97558201.03151
     -2709.933  
  21246258.336   111649859.82048     -2485.901    21246258.785    86999897.48049
     -1937.070  
  24798747.821   130318290.81446      2688.374    24798747.334   101546720.51143
      2094.835  
  21583981.107   113424594.83148     -2705.625    21583982.027    88382806.42147
     -2108.281  
  20928116.208   109978022.93448      1663.063    20928118.741    85697182.99749
      1295.891  
  20025135.380   105232796.31048       643.530    20025134.629    81999579.16447
       501.449  
  22031903.470   115778432.70648      2579.406    22031905.422    90216970.71948
      2009.921  
 20 10 01 07 27 35.0000000  0  7G27G15G21G18G24G20G10
  24318868.313   127796518.07346     -1680.390    24318871.500    99581713.90849
     -1309.397  
  21248625.773   111662300.40748     -2490.776    21248626.199    87009591.42749
     -1940.866  
  24796191.441   130304856.94846      2684.492    24796190.844   101536252.51944
      2091.804  
  21586557.917   113438135.53148     -2711.043    21586558.700    88393357.62247
     -2112.503  
  20926536.630   109969721.82148      1656.874    20926539.174    85690714.58949
      1291.065  
  20024525.493   105229591.70648       637.871    20024524.835    81997082.06547
       497.039  
  22029451.151   115765545.87048      2574.980    22029453.219    90206929.04447
      2006.479  
 20 10 01 07 27 40.0000000  0  7G27G15G21G18G24G20G10
  24320467.693   127804923.02546     -1681.512    24320471.114    99588263.18649
     -1310.272  
  21250995.721   111674754.85248     -2491.104    21250996.299    87019296.18249
     -1941.124  
  24793637.298   130291434.92646      2684.813    24793636.682   101525793.83944
      2092.062  
  21589137.975   113451693.23048     -2712.038    21589138.843    88403922.06247
     -2113.280  
  20924961.201   109961442.04048      1654.855    20924963.466    85684262.82949
      1289.495  
  20023919.224   105226405.20948       636.706    20023918.464    81994599.07747
       496.132  
  22027001.072   115752670.55648      2575.211    22027002.909    90196896.37547
      2006.715  
 20 10 01 07 27 45.0000000  0  7G27G15G21G18G24G20G10
  24322068.868   127813337.07146     -1683.980    24322072.226    99594819.59648
     -1312.195  
  21253366.627   111687213.79748     -2492.496    21253367.111    87029004.45149
     -1942.206  
  24791083.675   130278015.48746      2683.054    24791082.963   101515337.16043
      2090.691  
  21591719.352   113465258.58448     -2713.992    21591720.168    88414492.47147
     -2114.800  
  20923387.900   109953174.44348      1652.085    20923390.262    85677820.54049
      1287.336  
  20023314.468   105223227.51048       634.293    20023313.563    81992122.95347
       494.249  
  22024551.428   115739797.43648      2574.141    22024553.075    90186865.33847
      2005.797  
 20 10 01 07 27 50.0000000  0  7G27G15G21G18G24G20G10
  24323672.471   127821764.06045     -1686.984    24323676.039    99601386.06949
     -1314.535  
  21255739.269   111699681.05048     -2494.347    21255739.626    87038719.19249
     -1943.652  
  24788531.236   130264602.29846      2681.702    24788530.385   101504885.34444
      2089.641  
  21594302.980   113478835.33048     -2716.555    21594303.696    88425071.74347
     -2116.801  
  20921817.642   109944922.71648      1648.742    20921819.956    85671390.62049
      1284.729  
  20022712.188   105220062.31648       631.781    20022711.332    81989656.57247
       492.292  
  22022102.895   115726930.24548      2572.702    22022104.511    90176839.00448
      2004.702  
 20 10 01 07 27 55.0000000  0  7G27G15G21G18G24G20G10
  24325278.735   127830205.53446     -1689.629    24325282.228    99607963.83248
     -1316.597  
  21258113.629   111712158.20948     -2496.332    21258113.768    87048441.65449
     -1945.194  
  24785980.326   130251197.01646      2680.473    24785979.237   101494439.66244
      2088.675  
  21596889.085   113492425.11948     -2719.125    21596889.939    88435661.19147
     -2118.801  
  20920250.764   109936688.55648      1645.226    20920253.012    85664974.40049
      1281.992  
  20022112.560   105216911.31748       628.909    20022111.748    81987201.25347
       490.059  
  22019655.675   115714070.67348      2571.102    22019657.164    90166818.58947
      2003.457  
 20 10 01 07 28  0.0000000  0  7G27G15G21G18G24G20G10
  24326887.429   127838659.84145     -1692.129    24326891.070    99614551.61449
     -1318.547  
  21260489.500   111724643.55848     -2498.059    21260489.620    87058170.49849
     -1946.542  
  24783430.325   130237797.95446      2679.034    24783429.485   101483998.85642
      2087.559  
  21599477.264   113506026.22148     -2721.668    21599478.094    88446259.44147
     -2120.785  
  20918686.937   109928470.05948      1641.988    20918689.047    85658570.38449
      1279.469  
  20021515.229   105213772.78948       626.284    20021514.384    81984755.64747
       488.011  
  22017209.617   115701216.95848      2570.156    22017211.015    90156802.70347
      2002.714  
 20 10 01 07 28  5.0000000  0  7G27G15G21G18G24G20G10
  24328498.844   127847127.35346     -1695.073    24328502.414    99621149.67449
     -1320.840  
  21262867.048   111737137.37748     -2499.624    21262866.947    87067905.97049
     -1947.758  
  24780881.916   130224405.56747      2677.690    24780881.101   101473563.21343
      2086.507  
  21602067.511   113519638.99648     -2723.801    21602068.445    88456866.77747
     -2122.444  
  20917125.975   109920267.61648      1638.870    20917128.056    85652178.85449
      1277.038  
  20020920.548   105210647.15448       623.698    20020919.723    81982320.07648
       485.996  
  22014764.890   115688369.58148      2568.968    22014766.096    90146791.73148
      2001.785  
 20 10 01 07 28 10.0000000  0  7G27G15G21G18G24G20G10
  24330112.716   127855608.83846     -1697.530    24330116.452    99627758.60649
     -1322.753  
  21265246.291   111749640.66548     -2501.405    21265246.219    87077648.78849
     -1949.151  
  24778334.813   130211020.63846      2676.401    24778334.035   101463133.43144
      2085.507  
  21604660.428   113533264.27248     -2726.331    21604661.257    88467483.87747
     -2124.417  
  20915568.418   109912082.25948      1635.339    20915570.497    85645800.66149
      1274.288  
  20020328.348   105207535.21848       621.030    20020327.511    81979895.19248
       483.918  
  22012321.486   115675529.27848      2567.469    22012322.680    90136786.32048
      2000.625  
 20 10 01 07 28 15.0000000  0  7G27G15G21G18G24G20G10
  24331729.277   127864103.26646     -1700.534    24331732.876    99634377.62549
     -1325.094  
  21267627.251   111762152.25548     -2503.183    21267627.199    87087398.06549
     -1950.534  
  24775789.068   130197642.09446      2675.015    24775788.122   101452708.59545
      2084.425  
  21607255.265   113546900.98448     -2728.570    21607256.267    88478109.88547
     -2126.160  
  20914013.719   109903912.75648      1632.390    20914015.864    85639434.82249
      1271.988  
  20019738.411   105204435.89148       618.569    20019737.743    81977480.12848
       481.999  
  22009879.215   115662695.05948      2566.073    22009880.262    90126785.65448
      1999.539  
 20 10 01 07 28 20.0000000  0  7G27G15G21G18G24G20G10
  24333348.270   127872611.97746     -1702.565    24333351.976    99641007.78849
     -1326.680  
  21270009.918   111774673.59948     -2505.191    21270009.634    87097154.95549
     -1952.102  
  24773244.624   130184271.38846      2673.604    24773243.688   101442289.84544
      2083.323  
  21609852.762   113560550.54648     -2731.026    21609853.706    88488745.90247
     -2128.078  
  20912462.435   109895760.80248      1628.577    20912464.646    85633082.65749
      1269.020  
  20019151.354   105201350.66948       615.827    20019150.652    81975076.06048
       479.863  
  22007438.278   115649868.34948      2564.804    22007439.365    90116790.80448
      1998.546  
 20 10 01 07 28 25.0000000  0  7G27G15G21G18G24G20G10
  24334970.012   127881133.63246     -1705.590    24334973.788    99647648.02348
     -1329.035  
  21272394.319   111787203.27148     -2506.590    21272394.039    87106918.32149
     -1953.190  
  24770701.580   130170907.10246      2671.984    24770701.056   101431876.09743
      2082.058  
  21612452.354   113574211.46548     -2733.203    21612453.307    88499390.77247
     -2129.773  
  20910914.221   109887624.75348      1625.754    20910916.367    85626742.87149
      1266.816  
  20018566.758   105198278.06248       613.206    20018565.765    81972681.82747
       477.819  
  22004998.502   115637047.67548      2563.512    22004999.716    90106800.63347
      1997.534  
 20 10 01 07 28 30.0000000  0  7G27G15G21G18G24G20G10
  24336594.064   127889667.30646     -1707.546    24336597.559    99654297.65748
     -1330.559  
  21274780.048   111799740.39548     -2508.187    21274779.684    87116687.51249
     -1954.433  
  24768159.480   130157548.43446      2671.352    24768158.845   101421466.76244
      2081.569  
  21615054.081   113587883.00748     -2735.453    21615054.919    88510043.90647
     -2131.523  
  20909369.030   109879504.00248      1622.538    20909371.298    85620415.00549
      1264.313  
  20017984.251   105195217.31148       611.007    20017983.317    81970296.83247
       476.105  
  22002559.833   115624232.32348      2562.589    22002560.994    90096814.66147
      1996.820  
 20 10 01 07 28 35.0000000  0  7G27G15G21G18G24G20G10
  24338220.500   127898214.47046     -1711.120    24338224.079    99660957.76748
     -1333.343  
  21277167.513   111812286.29448     -2510.206    21277167.002    87126463.52449
     -1955.999  
  24765618.688   130144196.79646      2669.492    24765618.143   101411062.88544
      2080.121  
  21617657.863   113601566.44548     -2737.895    21617658.907    88520706.33147
     -2133.426  
  20907826.705   109871399.68748      1619.059    20907828.858    85614099.97349
      1261.601  
  20017404.256   105192169.75948       608.164    20017403.562    81967922.11147
       473.890  
  22000122.366   115611423.59848      2560.972    22000123.452    90086833.86647
      1995.558  
 20 10 01 07 28 40.0000000  0  7G27G15G21G18G24G20G10
  24339849.662   127906775.83445     -1713.801    24339853.194    99667628.94048
     -1335.434  
  21279556.655   111824841.85348     -2512.039    21279556.308    87136247.08249
     -1957.437  
  24763079.403   130130852.97845      2668.296    24763079.086   101400665.15543
      2079.190  
  21620264.148   113615262.65548     -2740.457    21620265.109    88531378.69947
     -2135.426  
  20906287.805   109863312.71448      1615.684    20906290.064    85607798.43449
      1258.972  
  20016827.089   105189136.26148       605.449    20016826.248    81965558.35647
       471.776  
  21997686.388   115598622.35148      2559.504    21997687.493    90076858.89547
      1994.418  
 20 10 01 07 28 45.0000000  0  7G27G15G21G18G24G20G10
  24341481.330   127915349.87246     -1716.519    24341485.030    99674310.03549
     -1337.550  
  21281947.504   111837405.34848     -2513.535    21281946.877    87146036.81549
     -1958.602  
  24760541.453   130117515.40047      2666.621    24760540.863   101390272.24444
      2077.883  
  21622872.537   113628969.98748     -2742.840    21622873.544    88542059.71147
     -2137.284  
  20904751.931   109855241.57848      1612.574    20904754.186    85601509.23849
      1256.546  
  20016252.220   105186115.20948       602.898    20016251.367    81963204.28348
       469.789  
  21995251.401   115585826.96948      2558.453    21995252.760    90066888.44448
      1993.594  
 20 10 01 07 28 50.0000000  0  8G 8G27G15G21G18G24G20G10
  24634694.342   129456192.21455        68.168    24634698.124   100874970.60958
        53.113  
  24343115.593   127923937.51546     -1718.945    24343119.022    99681001.70849
     -1339.441  
  21284340.100   111849978.02749     -2515.469    21284339.401    87155833.70549
     -1960.109  
  24758004.820   130104185.11947      2665.223    24758004.137   101379885.02544
      2076.792  
  21625483.411   113642689.47348     -2745.050    21625484.442    88552750.21747
     -2139.003  
  20903219.276   109847187.26348      1609.312    20903221.509    85595233.15149
      1254.008  
  20015679.839   105183107.70048       600.277    20015678.950    81960860.76848
       467.745  
  21992817.930   115573038.52748      2557.250    21992819.232    90056923.43048
      1992.659  
 20 10 01 07 28 55.0000000  0  7G27G15G21G18G24G20G10
  24344752.348   127932538.50045     -1721.602    24344755.785    99687703.72849
     -1341.515  
  21286734.208   111862559.36648     -2517.438    21286733.625    87165637.34049
     -1961.644  
  24755469.357   130090861.76445      2663.929    24755468.627   101369503.25343
      2075.796  
  21628096.371   113656420.70648     -2747.645    21628097.208    88563449.89847
     -2141.023  
  20901689.701   109839149.29648      1605.804    20901691.734    85588969.78749
      1251.273  
  20015110.091   105180113.24848       597.437    20015109.191    81958527.45147
       465.530  
  21990385.625   115560256.64747      2555.737    21990386.888    90046963.54547
      1991.483  
 20 10 01 07 29  0.0000000  0  7G27G15G21G18G24G20G10
  24346391.619   127941152.86545     -1724.347    24346395.194    99694416.20849
     -1343.652  
  21289130.028   111875149.51948     -2518.694    21289129.307    87175447.85149
     -1962.620  
  24752935.445   130077545.52845      2662.507    24752934.609   101359126.90543
      2074.679  
  21630711.600   113670163.88748     -2749.577    21630712.426    88574158.87247
     -2142.531  
  20900163.338   109831128.04648      1602.823    20900165.350    85582719.47249
      1248.949  
  20014542.799   105177132.07948       595.124    20014541.857    81956204.47147
       463.730  
  21987954.611   115547481.51947      2554.546    21987955.882    90037008.91747
      1990.555  
 20 10 01 07 29  5.0000000  0  7G27G15G21G18G24G20G10
  24348033.288   127949779.61145     -1726.753    24348036.817    99701138.35049
     -1345.527  
  21291527.383   111887747.48248     -2520.188    21291526.722    87185264.45849
     -1963.784  
  24750402.640   130064235.32745      2661.160    24750401.544   101348755.36443
      2073.629  
  21633328.913   113683917.96248     -2751.707    21633329.866    88584876.32047
     -2144.190  
  20898639.861   109823122.33748      1599.734    20898641.899    85576481.25849
      1246.542  
  20013977.794   105174163.17648       592.456    20013976.939    81953891.03847
       461.652  
  21985524.716   115534712.05548      2553.577    21985526.079    90027058.65747
      1989.808  
 20 10 01 07 29 10.0000000  0  7G27G15G21G18G24G20G10
  24349677.662   127958420.35845     -1729.503    24349681.114    99707871.40749
     -1347.668  
  21293926.407   111900354.90648     -2522.430    21293925.839    87195088.41249
     -1965.531  
  24747871.165   130050932.83546      2659.878    24747870.093   101338389.80741
      2072.628  
  21635948.726   113697684.57448     -2754.613    21635949.489    88595603.55447
     -2146.456  
  20897119.606   109815133.90748      1596.012    20897121.630    85570256.50949
      1243.641  
  20013415.473   105171208.18948       589.637    20013414.483    81951588.43647
       459.453  
  21983096.186   115521950.01247      2551.684    21983097.720    90017114.21547
      1988.319  
 20 10 01 07 29 15.0000000  0  7G27G15G21G18G24G20G10
  24351324.436   127967074.30745     -1732.015    24351327.809    99714614.69348
     -1349.632  
  21296327.155   111912970.89348     -2524.062    21296326.682    87204919.02549
     -1966.809  
  24745341.259   130037637.25046      2658.444    24745340.135   101328029.61343
      2071.516  
  21638570.589   113711462.84048     -2756.641    21638571.344    88606339.85847
     -2148.081  
  20895602.563   109807161.85648      1592.675    20895604.546    85564044.52349
      1241.043  
  20012855.607   105168266.29448       586.972    20012854.734    81949296.04847
       457.379  
  21980668.804   115509194.49848      2550.374    21980670.358    90007174.85348
      1987.301  
 20 10 01 07 29 20.0000000  0  7G27G15G21G18G24G20G10
  24352973.725   127975741.43946     -1735.054    24352977.191    99721368.32449
     -1351.991  
  21298729.617   111925595.38848     -2525.925    21298728.968    87214756.29849
     -1968.258  
  24742812.407   130024348.66547      2656.680    24742811.438   101317674.80544
      2070.133  
  21641194.741   113725252.82448     -2759.300    21641195.647    88617085.28447
     -2150.109  
  20894088.727   109799206.25148      1589.367    20894090.669    85557845.35449
      1238.465  
  20012298.224   105165337.47548       584.339    20012297.187    81947013.83048
       455.323  
  21978242.778   115496445.52548      2548.757    21978244.469    89997240.58948
      1986.042  
 20 10 01 07 29 25.0000000  0  7G27G15G21G18G24G20G10
  24354625.653   127984422.07046     -1736.987    24354629.007    99728132.45649
     -1353.499  
  21301133.571   111938228.87448     -2527.382    21301132.976    87224600.58749
     -1969.391  
  24740285.125   130011067.33647      2655.530    24740284.152   101307325.71044
      2069.242  
  21643821.184   113739054.80948     -2761.323    21643822.142    88627840.06147
     -2151.684  
  20892577.936   109791267.46148      1586.180    20892580.029    85551659.28549
      1235.979  
  20011743.511   105162422.12748       582.086    20011742.601    81944742.13948
       453.569  
  21975818.083   115483703.47948      2547.750    21975819.705    89987311.70848
      1985.257  
 20 10 01 07 29 30.0000000  0  7G27G15G21G18G24G20G10
  24356279.863   127993115.34345     -1739.867    24356283.188    99734906.42249
     -1355.742  
  21303539.276   111950870.40548     -2529.023    21303538.692    87234451.12349
     -1970.672  
  24737758.957   129997792.41947      2654.410    24737758.052   101296981.62944
      2068.367  
  21646449.693   113752867.93748     -2763.620    21646450.580    88638603.54747
     -2153.391  
  20891070.225   109783344.72748      1583.152    20891072.321    85545485.72449
      1233.621  
  20011191.073   105159519.38648       579.347    20011190.204    81942480.26048
       451.438  
  21973394.518   115470967.49648      2546.397    21973396.240    89977387.55748
      1984.203  
 20 10 01 07 29 35.0000000  0  9G 8G27G13G15G21G18G24G20G10
  24634230.865   129453755.46555        39.340    24634235.804   100873077.54458
        30.651  
  24357936.524   128001821.21946     -1742.831    24357939.826    99741690.23549
     -1358.054  
  23907638.454   125635485.39155     -3492.316    23907639.343    97897789.47254
     -2721.284  
  21305946.487   111963520.01349     -2530.980    21305945.628    87244307.93749
     -1972.195  
  24735233.997   129984523.97646      2652.753    24735233.163   101286642.62744
      2067.082  
  21649080.530   113766692.20348     -2766.297    21649081.255    88649375.68847
     -2155.558  
  20889565.733   109775438.00548      1579.441    20889567.806    85539324.64549
      1230.729  
  20010641.113   105156629.23448       576.698    20010640.242    81940228.19548
       449.371  
  21970972.090   115458237.57948      2545.097    21970974.007    89967468.16848
      1983.190  
 20 10 01 07 29 40.0000000  0  9G 8G27G13G15G21G18G24G20G10
  24634194.845   129453564.46145        36.780    24634199.649   100872928.68648
        28.655  
  24359595.913   128010541.24046     -1745.292    24359599.204    99748485.07949
     -1359.972  
  23910961.277   125652949.34745     -3493.602    23910960.406    97911397.72944
     -2722.293  
  21308355.405   111976179.20948     -2532.848    21308354.765    87254172.26349
     -1973.651  
  24732710.677   129971263.49947      2650.952    24732709.841   101276309.76745
      2065.676  
  21651713.684   113780529.08648     -2768.551    21651714.311    88660157.67747
     -2157.315  
  20888064.343   109767548.77648      1576.245    20888066.732    85533177.18249
      1228.241  
  20010093.822   105153753.23248       573.781    20010092.980    81937987.15548
       447.097  
  21968551.174   115445515.26948      2543.788    21968552.966    89957554.62948
      1982.168  
 20 10 01 07 29 45.0000000  0  9G 8G27G13G15G21G18G24G20G10
  24634161.903   129453389.66244        33.488    24634166.471   100872792.48249
        26.089  
  24361257.887   128019275.03645     -1748.558    24361260.988    99755290.65049
     -1362.516  
  23914284.971   125670416.23045     -3493.477    23914284.328    97925008.32444
     -2722.190  
  21310766.034   111988847.49448     -2534.387    21310765.379    87264043.63849
     -1974.852  
  24730188.746   129958010.56746      2650.151    24730187.899   101265982.80444
      2065.050  
  21654349.067   113794378.20748     -2771.046    21654349.803    88670949.19947
     -2159.270  
  20886566.353   109759676.37849      1572.804    20886568.572    85527042.84249
      1225.558  
  20009549.020   105150890.90648       571.238    20009548.169    81935756.77648
       445.117  
  21966131.605   115432800.09848      2542.340    21966133.424    89947646.69448
      1981.039  
 20 10 01 07 29 50.0000000  0  9G 8G27G13G15G21G18G24G20G10
  24634131.711   129453229.06744        31.183    24634136.049   100872667.31549
        24.292  
  24362922.032   128028020.33645     -1750.848    24362925.246    99762105.10149
     -1364.304  
  23917609.297   125687884.14845     -3493.796    23917606.747    97938619.66741
     -2722.444  
  21313177.982   112001522.80648     -2535.827    21313177.458    87273920.51049
     -1975.972  
  24727667.889   129944763.06147      2648.765    24727667.275   101255660.08244
      2063.968  
  21656986.405   113808237.35748     -2772.819    21656987.041    88681748.53047
     -2160.641  
  20885071.218   109751819.04748      1569.785    20885073.583    85520920.27049
      1223.206  
  20009006.694   105148040.18148       568.819    20009005.791    81933535.42348
       443.234  
  21963712.736   115420089.98048      2541.641    21963714.857    89937742.78448
      1980.503  
 20 10 01 07 29 55.0000000  0  9G 8G27G13G15G21G18G24G20G10
  24634103.995   129453083.85745        27.305    24634108.241   100872554.19649
        21.276  
  24364588.662   128036778.37745     -1753.270    24364591.638    99768929.54549
     -1366.187  
  23920934.179   125705354.20645     -3493.777    23920932.994    97952232.71744
     -2722.421  
  21315591.645   112014206.34448     -2537.359    21315590.991    87283803.77649
     -1977.167  
  24725148.197   129931522.33247      2647.573    24725147.415   101245342.67844
      2063.042  
  21659625.801   113822107.85448     -2775.363    21659626.494    88692556.71247
     -2162.625  
  20883578.926   109743977.93649      1566.683    20883581.498    85514810.30849
      1220.788  
  20008466.649   105145202.28748       566.378    20008465.880    81931324.07748
       441.331  
  21961295.385   115407386.24648      2539.906    21961297.475    89927843.76048
      1979.144  
 20 10 01 07 30  0.0000000  0  7G27G15G21G18G24G20G10
  24366257.870   128045550.87244     -1756.401    24366260.993    99775765.30649
     -1368.625  
  21318007.008   112026899.72748     -2540.082    21318006.505    87293694.71449
     -1979.289  
  24722630.054   129918289.87247      2645.487    24722629.387   101235031.67844
      2061.422  
  21662267.845   113835991.23248     -2778.406    21662268.392    88703374.90347
     -2164.999  
  20882090.259   109736154.50148      1562.453    20882092.843    85508714.10849
      1217.492  
  20007929.243   105142378.91948       562.734    20007928.654    81929124.04248
       438.492  
  21958879.393   115394690.43448      2537.852    21958881.551    89917950.83049
      1977.526  
 20 10 01 07 30  5.0000000  0  9G 8G27G13G15G21G18G24G20G10
  24634058.282   129452842.72355        20.809    24634062.534   100872370.84559
        16.211  
  24367930.188   128054338.12246     -1758.242    24367933.088    99782612.44349
     -1370.074  
  23927584.768   125740309.22555     -3495.562    23927582.362    97979443.04953
     -2723.827  
  21320424.450   112039603.18948     -2541.105    21320423.966    87303593.53049
     -1980.086  
  24720113.814   129905066.06947      2644.460    24720113.043   101224727.36044
      2060.612  
  21664912.180   113849887.80348     -2779.663    21664912.954    88714203.41047
     -2165.977  
  20880605.025   109728349.13748      1559.921    20880607.588    85502632.01949
      1215.520  
  20007394.873   105139570.22548       561.117    20007394.087    81926935.45448
       437.229  
  21956464.934   115382002.80548      2537.433    21956467.330    89908064.43648
      1977.226  
 20 10 01 07 30 10.0000000  0  9G 8G27G13G15G21G18G24G20G10
  24634039.011   129452744.89145        17.977    24634044.464   100872294.60548
        14.003  
  24369604.312   128063135.76545     -1760.679    24369607.179    99789467.75149
     -1371.961  
  23930910.875   125757787.13345     -3495.847    23930912.390    97993062.24041
     -2724.031  
  21322842.859   112052312.57848     -2542.844    21322842.389    87313496.97349
     -1981.440  
  24717598.097   129891846.63746      2643.211    24717597.514   101214426.53444
      2059.641  
  21667558.412   113863793.31448     -2782.241    21667559.007    88725038.87047
     -2167.983  
  20879122.250   109720557.66548      1556.495    20879124.785    85496560.75149
      1212.851  
  20006862.432   105136772.07148       558.308    20006861.726    81924755.08548
       435.042  
  21954051.439   115369319.17948      2535.925    21954053.774    89898181.07948
      1976.043  
 20 10 01 07 30 15.0000000  0  9G 8G27G13G15G21G18G24G20G10
  24634024.913   129452664.11845        15.054    24634029.280   100872231.67749
        11.727  
  24371281.154   128071947.78646     -1763.574    24371284.158    99796334.26449
     -1374.219  
  23934237.468   125775268.87345     -3496.222    23934237.711    98006684.31243
     -2724.336  
  21325263.159   112065031.84248     -2544.409    21325262.995    87323408.07749
     -1982.659  
  24715084.113   129878635.65647      2641.558    24715083.641   101204132.26845
      2058.354  
  21670206.919   113877711.75348     -2784.683    21670207.764    88735884.39947
     -2169.887  
  20877643.082   109712784.14549      1553.163    20877645.625    85490503.46149
      1210.254  
  20006332.655   105133988.44748       555.684    20006332.050    81922586.02848
       432.995  
  21951639.240   115356643.61348      2534.715    21951641.680    89888304.01848
      1975.097  
 20 10 01 07 30 20.0000000  0  9G 8G27G13G15G21G18G24G20G10
  24634013.117   129452597.16245        11.699    24634016.210   100872179.47249
         9.113  
  24372960.380   128080771.08146     -1766.284    24372963.156    99803209.57349
     -1376.327  
  23937564.512   125792751.28945     -3496.355    23937563.213    98020306.96541
     -2724.437  
  21327684.815   112077757.79148     -2546.112    21327684.607    87333324.39349
     -1983.987  
  24712571.111   129865429.86747      2640.457    24712570.866   101193842.06144
      2057.495  
  21672857.342   113891639.97548     -2787.038    21672858.202    88746737.56047
     -2171.723  
  20876166.555   109705025.44348      1550.147    20876169.121    85484457.70449
      1207.905  
  20005805.156   105131216.20148       553.081    20005804.357    81920425.83848
       430.969  
  21949227.995   115343972.90148      2533.480    21949230.291    89878430.69248
      1974.132  
 20 10 01 07 30 25.0000000  0  9G 8G27G13G15G21G18G24G20G10
  24634003.383   129452546.16445         8.492    24634006.431   100872139.74048
         6.613  
  24374641.854   128089607.56845     -1769.390    24374644.787    99810095.13349
     -1378.750  
  23940891.926   125810236.40746     -3497.359    23940889.456    98033931.81341
     -2725.211  
  21330108.202   112090492.34048     -2548.081    21330107.913    87343247.39249
     -1985.526  
  24710059.511   129852231.34846      2639.129    24710059.114   101183557.51145
      2056.461  
  21675510.032   113905579.89148     -2789.405    21675510.852    88757599.81547
     -2173.559  
  20874693.304   109697283.33448      1546.413    20874695.812    85478424.90649
      1204.995  
  20005280.140   105128457.25748       550.156    20005279.590    81918276.00348
       428.690  
  21946818.094   115331308.97747      2531.858    21946820.355    89868562.78248
      1972.882  
 20 10 01 07 30 30.0000000  0  9G 8G27G13G15G21G18G24G20G10
  24633996.696   129452512.21645         5.578    24633999.945   100872113.30648
         4.344  
  24376326.135   128098458.49546     -1771.069    24376328.854    99816991.94849
     -1380.059  
  23944219.945   125827725.35845     -3498.077    23944217.952    98047559.44841
     -2725.784  
  21332533.293   112103236.77648     -2549.695    21332533.198    87353178.12349
     -1986.776  
  24707549.503   129839041.29547      2637.272    24707549.142   101173279.56844
      2055.016  
  21678165.191   113919532.72248     -2791.703    21678166.179    88768472.15347
     -2175.354  
  20873223.471   109689559.18449      1543.148    20873226.176    85472406.08849
      1202.449  
  20004757.803   105125712.91748       547.656    20004757.244    81916137.55448
       426.741  
  21944409.895   115318653.14648      2530.621    21944412.083    89858701.09148
      1971.910  
 20 10 01 07 30 35.0000000  0  9G 8G27G13G15G21G18G24G20G10
  24633992.961   129452494.21245         2.616    24633996.417   100872099.26649
         2.034  
  24378012.850   128107322.64945     -1773.538    24378015.798    99823899.07749
     -1381.979  
  23947548.239   125845216.91145     -3498.487    23947543.310    98061189.29543
     -2726.093  
  21334960.312   112115990.00449     -2551.499    21334959.943    87363115.70949
     -1988.183  
  24705040.873   129825858.51047      2636.023    24705040.656   101163007.26544
      2054.043  
  21680822.628   113933497.30648     -2794.054    21680823.438    88779353.65247
     -2177.187  
  20871756.702   109681851.82448      1539.933    20871759.460    85466400.35149
      1199.945  
  20004238.318   105122982.01048       544.926    20004237.608    81914009.57348
       424.613  
  21942002.813   115306004.22048      2529.042    21942004.854    89848844.79848
      1970.679  
 20 10 01 07 30 40.0000000  0  9G 8G27G13G15G21G18G24G20G10
  24633992.446   129452492.44345        -1.034    24633995.653   100872097.88548
        -0.808  
  24379702.250   128116200.25445     -1776.737    24379704.991    99830816.66849
     -1384.476  
  23950877.074   125862711.27944     -3498.776    23950873.005    98074821.18243
     -2726.332  
  21337388.822   112128752.09749     -2553.062    21337388.691    87373060.18349
     -1989.401  
  24702533.761   129812683.20147      2634.582    24702533.474   101152740.80644
      2052.918  
  21683482.174   113947473.78048     -2796.410    21683483.124    88790244.40447
     -2179.022  
  20870293.354   109674161.44248      1536.555    20870295.886    85460407.85149
      1197.312  
  20003721.106   105120264.66448       542.328    20003720.644    81911892.16348
       422.589  
  21939597.072   115293362.37648      2527.898    21939599.319    89838994.00349
      1969.788  
 20 10 01 07 30 45.0000000  0  9G 8G27G13G15G21G18G24G20G10
  24633995.364   129452506.46445        -4.007    24633998.476   100872108.79048
        -3.124  
  24381394.108   128125091.03145     -1779.727    24381396.816    99837744.56349
     -1386.805  
  23954206.518   125880208.21645     -3500.343    23954203.883    98088455.25841
     -2727.531  
  21339818.868   112141522.82848     -2555.073    21339818.890    87383011.40749
     -1990.969  
  24700027.991   129799515.20147      2633.015    24700027.954   101142480.02944
      2051.698  
  21686143.983   113961461.99248     -2798.855    21686145.021    88801144.30347
     -2180.929  
  20868833.019   109666487.88848      1532.952    20868835.719    85454428.46349
      1194.503  
  20003206.582   105117560.76048       539.363    20003206.123    81909785.22448
       420.280  
  21937192.668   115280727.45848      2525.983    21937194.801    89829148.61948
      1968.296  
 20 10 01 07 30 50.0000000  0  8G 8G27G15G21G18G24G20G10
  24634001.055   129452535.77945        -6.293    24634004.143   100872131.65049
        -4.905  
  24383088.278   128133994.35745     -1781.843    24383091.118    99844682.22649
     -1388.452  
  21342250.636   112154301.53849     -2556.479    21342250.557    87392968.83449
     -1992.066  
  24697523.352   129786353.94947      2631.523    24697523.306   101132224.53845
      2050.538  
  21688808.090   113975461.31548     -2800.996    21688808.866    88812052.86247
     -2182.597  
  20867375.937   109658830.46448      1529.851    20867378.514    85448461.63949
      1192.089  
  20002694.535   105114869.65648       537.069    20002694.039    81907688.26248
       418.491  
  21934789.382   115268098.85548      2525.520    21934791.710    89819308.14748
      1967.933  
 20 10 01 07 30 55.0000000  0  8G 8G27G15G21G18G24G20G10
  24634009.541   129452580.52645       -10.784    24634012.629   100872166.52749
        -8.406  
  24384784.874   128142910.43846     -1784.707    24384787.611    99851629.77149
     -1390.687  
  21344683.938   112167088.40849     -2558.430    21344683.947    87402932.63049
     -1993.585  
  24695020.228   129773199.53847      2629.961    24695020.177   101121974.32944
      2049.315  
  21691474.080   113989471.78048     -2803.339    21691475.167    88822970.11147
     -2184.426  
  20865921.892   109651189.28249      1526.449    20865924.469    85442507.47349
      1189.437  
  20002184.955   105112191.45148       534.147    20002184.386    81905601.35148
       416.214  
  21932387.460   115255476.63948      2523.854    21932389.659    89809472.68248
      1966.640  
 20 10 01 07 31  0.0000000  0  9G 8G27G13G15G21G18G24G20G10
  24634021.069   129452641.63645       -13.617    24634024.419   100872214.14848
       -10.613  
  24386484.225   128151840.11946     -1787.023    24386486.805    99858587.96749
     -1392.488  
  23964199.240   125932703.60554     -3501.320    23964195.810    98129371.77951
     -2728.304  
  21347118.930   112179884.34649     -2559.854    21347119.013    87412903.50349
     -1994.695  
  24692518.441   129760052.90647      2628.707    24692518.321   101111730.20944
      2048.340  
  21694142.569   114003494.43948     -2805.578    21694143.421    88833896.85047
     -2186.147  
  20864471.044   109643565.58848      1523.270    20864473.607    85436566.93649
      1186.960  
  20001678.023   105109527.12848       531.809    20001677.429    81903525.25748
       414.395  
  21929986.872   115242861.87048      2522.499    21929989.056    89799642.95748
      1965.577  
 20 10 01 07 31  5.0000000  0  8G 8G27G15G21G18G24G20G10
  24634035.430   129452716.20146       -17.144    24634038.606   100872272.24249
       -13.362  
  24388185.466   128160780.54446     -1789.968    24388188.222    99865554.54949
     -1394.785  
  21349555.059   112192686.47849     -2561.854    21349555.304    87422879.17849
     -1996.253  
  24690017.804   129746911.15247      2626.808    24690017.400   101101489.88844
      2046.858  
  21696812.743   114017526.26948     -2808.051    21696813.574    88844830.74247
     -2188.094  
  20863023.085   109635956.01048      1519.519    20863025.691    85430637.40149
      1184.038  
  20001173.010   105106873.76948       528.753    20001172.421    81901457.70748
       412.012  
  21927587.238   115230251.58048      2521.051    21927589.423    89789816.76448
      1964.452  
 20 10 01 07 31 10.0000000  0  8G 8G27G15G21G18G24G20G10
  24634053.091   129452809.25846       -20.339    24634056.115   100872344.75049
       -15.852  
  24389889.722   128169736.62645     -1792.445    24389892.595    99872533.35749
     -1396.710  
  21351993.271   112205499.77849     -2563.483    21351993.546    87432863.55749
     -1997.522  
  24687518.916   129733779.31847      2625.594    24687518.587   101091257.29044
      2045.914  
  21699485.609   114031572.33548     -2810.335    21699486.438    88855775.70747
     -2189.875  
  20861578.521   109628365.87348      1516.379    20861581.419    85424723.00649
      1181.589  
  20000671.208   105104236.34348       526.484    20000670.581    81899402.57048
       410.246  
  21925189.321   115217650.75847      2519.348    21925191.534    89779997.90448
      1963.124  
 20 10 01 07 31 15.0000000  0  8G 8G27G15G21G18G24G20G10
  24634073.492   129452917.00146       -23.101    24634076.527   100872428.70748
       -18.003  
  24391596.316   128178704.61946     -1794.776    24391599.188    99879521.38249
     -1398.530  
  21354433.027   112218320.46649     -2564.977    21354433.265    87442853.70749
     -1998.688  
  24685021.112   129720653.64047      2624.316    24685020.809   101081029.49744
      2044.918  
  21702160.388   114045628.80148     -2812.433    21702161.249    88866728.79847
     -2191.511  
  20860137.151   109620791.32948      1513.288    20860139.813    85418820.77649
      1179.184  
  20000171.693   105101611.18448       523.636    20000170.939    81897356.99348
       408.027  
  21922792.545   115205055.70548      2518.226    21922794.841    89770183.59748
      1962.249  
 20 10 01 07 31 20.0000000  0  8G 8G27G15G21G18G24G20G10
  24634096.794   129453040.35945       -26.238    24634099.866   100872524.84248
       -20.448  
  24393305.381   128187685.66046     -1797.448    24393308.196    99886519.57849
     -1400.612  
  21356874.320   112231149.64549     -2566.734    21356874.667    87452850.46549
     -2000.054  
  24682524.841   129707535.14947      2622.816    24682524.601   101070807.31844
      2043.754  
  21704837.427   114059696.80148     -2814.655    21704838.261    88877690.86947
     -2193.241  
  20858698.856   109613233.63048      1509.999    20858701.653    85412931.65549
      1176.621  
  19999674.673   105098999.36248       520.965    19999673.979    81895321.80848
       405.945  
  21920397.133   115192467.45048      2516.905    21920399.368    89760374.56848
      1961.222  
 20 10 01 07 31 25.0000000  0  8G 8G27G15G21G18G24G20G10
  24634123.160   129453179.84745       -29.499    24634126.405   100872633.54348
       -22.988  
  24395016.871   128196679.97746     -1800.395    24395019.890    99893528.12049
     -1402.905  
  21359317.323   112243987.58548     -2568.562    21359317.775    87462854.05349
     -2001.480  
  24680029.868   129694424.22647      2621.565    24680029.896   101060591.04345
      2042.780  
  21707516.734   114073776.58948     -2816.976    21707517.726    88888662.14347
     -2195.051  
  20857263.799   109605692.94648      1506.340    20857266.658    85407055.80949
      1173.770  
  19999180.300   105096401.09948       518.293    19999179.674    81893297.18148
       403.863  
  21918003.066   115179886.35547      2515.585    21918005.407    89750571.13447
      1960.194  
 20 10 01 07 31 30.0000000  0  8G 8G27G15G21G18G24G20G10
  24634152.595   129453334.96945       -32.047    24634155.884   100872754.41348
       -24.976  
  24396731.016   128205687.21246     -1802.476    24396733.838    99900546.75949
     -1404.531  
  21361761.840   112256833.86149     -2569.938    21361762.348    87472864.13849
     -2002.551  
  24677536.264   129681320.50247      2620.152    24677536.325   101050380.31545
      2041.676  
  21710198.157   114087867.78148     -2819.378    21710199.147    88899642.27247
     -2196.921  
  20855832.030   109598168.82748      1503.479    20855834.846    85401192.84449
      1171.539  
  19998688.398   105093816.10748       515.699    19998687.601    81891282.90948
       401.839  
  21915610.343   115167312.04348      2514.292    21915612.471    89740772.93048
      1959.187  
 20 10 01 07 31 35.0000000  0  8G 8G27G15G21G18G24G20G10
  24634185.059   129453505.25645       -35.543    24634188.342   100872887.10348
       -27.698  
  24398447.251   128214706.71446     -1804.976    24398450.158    99907574.93048
     -1406.477  
  21364208.084   112269688.02349     -2571.675    21364208.362    87482880.37449
     -2003.905  
  24675043.949   129668223.45347      2618.683    24675043.801   101040174.84845
      2040.531  
  21712881.670   114101969.79848     -2821.395    21712882.482    88910630.86147
     -2198.491  
  20854403.303   109590660.84348      1499.895    20854406.212    85395342.47949
      1168.746  
  19998198.780   105091243.76948       513.105    19998198.206    81889278.48148
       399.820  
  21913218.586   115154743.93348      2512.843    21913220.975    89730979.62248
      1958.059  
 20 10 01 07 31 40.0000000  0  8G 8G27G15G21G18G24G20G10
  24634220.616   129453692.45145       -38.684    24634223.689   100873032.96949
       -30.144  
  24400166.342   128223740.37746     -1807.948    24400169.422    99914614.15349
     -1408.792  
  21366655.865   112282551.79049     -2573.727    21366656.312    87492904.07149
     -2005.503  
  24672553.226   129655134.83347      2617.168    24672553.173   101029975.92445
      2039.348  
  21715567.684   114116084.43348     -2824.086    21715568.550    88921629.26547
     -2200.589  
  20852978.004   109583170.72349      1496.230    20852980.985    85389506.00749
      1165.891  
  19997712.025   105088685.88948       510.437    19997711.458    81887285.33048
       397.742  
  21910828.528   115142183.87248      2511.438    21910830.915    89721192.54048
      1956.952  
 20 10 01 07 31 45.0000000  0  8G 8G27G15G21G18G24G20G10
  24634259.001   129453894.26145       -41.629    24634262.238   100873190.22749
       -32.440  
  24401887.610   128232785.73346     -1810.031    24401890.634    99921662.47949
     -1410.418  
  21369105.160   112295422.76549     -2574.930    21369105.488    87502933.41249
     -2006.440  
  24670063.792   129642052.30346      2616.233    24670063.754   101019781.73245
      2038.620  
  21718255.608   114130209.31548     -2826.047    21718256.325    88932635.66147
     -2202.116  
  20851555.753   109575696.17948      1493.483    20851558.420    85383681.68549
      1163.750  
  19997227.748   105086140.12248       508.211    19997226.946    81885301.61848
       396.004  
  21908439.604   115129629.43048      2510.394    21908441.834    89711409.84148
      1956.147  
 20 10 01 07 31 50.0000000  0  8G 8G27G15G21G18G24G20G10
  24634300.228   129454111.75445       -45.113    24634303.506   100873359.71348
       -35.155  
  24403611.293   128241843.99845     -1813.352    24403614.242    99928720.83448
     -1413.008  
  21371556.142   112308302.07849     -2576.684    21371556.361    87512969.23549
     -2007.808  
  24667575.502   129628976.99947      2614.559    24667575.703   101009593.20245
      2037.316  
  21720945.574   114144345.56048     -2828.468    21720946.296    88943650.92647
     -2204.003  
  20850136.560   109568238.33649      1489.730    20850139.298    85377870.40249
      1160.827  
  19996745.746   105083607.62048       505.073    19996745.102    81883328.23348
       393.563  
  21906051.807   115117081.78348      2508.727    21906054.216    89701632.54048
      1954.854  
 20 10 01 07 31 55.0000000  0  8G 8G27G15G21G18G24G20G10
  24634344.581   129454344.86146       -47.866    24634347.981   100873541.33049
       -37.301  
  24405337.439   128250914.92945     -1815.487    24405340.487    99935789.14248
     -1414.663  
  21374008.438   112321189.63248     -2578.276    21374008.734    87523011.47849
     -2009.050  
  24665088.739   129615908.81646      2613.065    24665088.888   100999410.23845
      2036.156  
  21723637.895   114158493.05148     -2830.405    21723638.482    88954674.91547
     -2205.520  
  20848720.591   109560797.08649      1486.523    20848723.318    85372072.01249
      1158.327  
  19996266.373   105081088.21548       502.761    19996265.692    81881365.06748
       391.757  
  21903665.319   115104540.86448      2507.734    21903667.832    89691860.32148
      1954.065  
 20 10 01 07 32  0.0000000  0  8G 8G27G15G21G18G24G20G10
  24634391.753   129454592.78545       -51.632    24634395.104   100873734.50848
       -40.237  
  24407065.868   128259997.94746     -1818.059    24407068.743    99942866.78049
     -1416.671  
  21376462.275   112334084.66449     -2580.058    21376462.537    87533059.54949
     -2010.437  
  24662603.294   129602847.08647      2611.316    24662603.390   100989232.25545
      2034.788  
  21726332.092   114172651.05848     -2832.891    21726332.899    88965707.13147
     -2207.449  
  20847307.478   109553371.59448      1483.183    20847310.031    85366285.93049
      1155.723  
  19995789.309   105078581.26248       499.777    19995788.498    81879411.59848
       389.433  
  21901279.975   115092005.94948      2506.203    21901282.395    89682092.88448
      1952.883  
 20 10 01 07 32  5.0000000  0  8G 8G27G15G21G18G24G20G10
  24634442.230   129454857.23145       -54.765    24634445.406   100873940.58049
       -42.676  
  24408796.973   128269094.65346     -1820.313    24408799.898    99949955.13349
     -1418.430  
  21378917.831   112346988.95348     -2581.519    21378918.066    87543114.84149
     -2011.578  
  24660119.165   129589793.52947      2610.183    24660119.291   100979060.66145
      2033.906  
  21729028.602   114186821.31648     -2835.151    21729029.263    88976748.88447
     -2209.211  
  20845897.794   109545963.75249      1479.969    20845900.415    85360513.57249
      1153.219  
  19995314.891   105076088.51948       497.148    19995314.227    81877469.19848
       387.386  
  21898896.142   115079478.79448      2504.886    21898898.674    89672331.44448
      1951.851  
 20 10 01 07 32 10.0000000  0  8G 8G27G15G21G18G24G20G10
  24634495.498   129455137.90446       -58.168    24634498.887   100874159.29449
       -45.328  
  24410530.565   128278204.70545     -1824.026    24410533.321    99957053.86949
     -1421.324  
  21381375.095   112359901.98849     -2583.757    21381375.291    87553176.95449
     -2013.319  
  24657636.545   129576747.67746      2608.191    24657636.937   100968895.05545
      2032.354  
  21731727.387   114201003.33748     -2837.957    21731728.075    88987799.82047
     -2211.397  
  20844491.547   109538573.12449      1476.019    20844493.987    85354754.64049
      1150.141  
  19994843.169   105073609.51248       494.168    19994842.413    81875537.50948
       385.062  
  21896513.623   115066958.88447      2502.897    21896516.186    89662575.68048
      1950.309  
 20 10 01 07 32 15.0000000  0  8G 8G27G15G21G18G24G20G10
  24634551.618   129455432.94345       -60.770    24634555.048   100874389.20449
       -47.354  
  24412266.457   128287326.13045     -1825.866    24412269.196    99964161.42548
     -1422.765  
  21383833.889   112372822.07149     -2584.940    21383833.990    87563244.54249
     -2014.242  
  24655155.085   129563707.82947      2607.238    24655155.494   100958734.18045
      2031.613  
  21734428.080   114215195.39048     -2839.621    21734428.854    88998858.55947
     -2212.694  
  20843087.958   109531197.86848      1473.187    20843090.495    85349007.70149
      1147.933  
  19994373.714   105071142.57148       491.976    19994373.045    81873615.21148
       383.355  
  21894132.280   115054444.56248      2501.988    21894134.901    89652824.27748
      1949.601  
 20 10 01 07 32 20.0000000  0  8G 8G27G15G21G18G24G20G10
  24634610.990   129455744.35045       -63.542    24634614.151   100874631.84648
       -49.515  
  24414004.864   128296461.20846     -1828.535    24414007.533    99971279.65349
     -1424.836  
  21386294.187   112385751.18048     -2586.836    21386294.379    87573319.17449
     -2015.718  
  24652675.126   129550675.99447      2605.335    24652675.515   100948579.51945
      2030.128  
  21737131.010   114229399.47648     -2841.972    21737131.821    89009926.69147
     -2214.526  
  20841687.946   109523840.07048      1469.690    20841690.410    85343274.36749
      1145.211  
  19993906.929   105068689.69348       489.034    19993906.109    81871703.87548
       381.063  
  21891752.317   115041937.80448      2500.711    21891754.806    89643078.81248
      1948.604  
 20 10 01 07 32 25.0000000  0  8G 8G27G15G21G18G24G20G10
  24634673.158   129456071.98345       -67.523    24634676.683   100874887.15349
       -52.616  
  24415745.716   128305609.50845     -1830.562    24415748.604    99978408.20549
     -1426.413  
  21388756.212   112398689.11449     -2588.312    21388756.233    87583400.67749
     -2016.871  
  24650196.687   129537651.98947      2604.034    24650197.040   100938430.92045
      2029.112  
  21739836.264   114243615.39948     -2844.293    21739837.179    89021004.02747
     -2216.336  
  20840291.020   109516499.51448      1466.538    20840293.532    85337554.44849
      1142.753  
  19993442.798   105066250.63448       486.456    19993442.104    81869803.32048
       379.054  
  21889373.883   115029438.51748      2499.187    21889376.437    89633339.07248
      1947.417  
 20 10 01 07 32 30.0000000  0  8G 8G27G15G21G18G24G20G10
  24634738.440   129456414.20045       -69.934    24634741.648   100875153.83049
       -54.496  
  24417488.843   128314769.51746     -1833.237    24417491.572    99985545.89949
     -1428.499  
  21391219.567   112411634.19749     -2589.773    21391219.547    87593487.75749
     -2018.007  
  24647719.602   129524634.19447      2602.733    24647719.990   100928287.19045
      2028.101  
  21742543.408   114257841.47348     -2846.125    21742544.250    89032089.27847
     -2217.761  
  20838897.127   109509174.53048      1463.421    20838899.595    85331846.66449
      1140.323  
  19992980.972   105063823.75448       483.960    19992980.314    81867912.24248
       377.109  
  21886996.403   115016944.96147      2497.854    21886998.780    89623603.83748
      1946.379  
 20 10 01 07 32 35.0000000  0  8G 8G27G15G21G18G24G20G10
  24634806.736   129456773.25145       -73.534    24634809.997   100875433.61448
       -57.304  
  24419234.558   128323943.31045     -1836.308    24419237.446    99992694.30349
     -1430.894  
  21393684.649   112424588.60348     -2591.949    21393684.842    87603582.10049
     -2019.702  
  24645243.839   129511624.75647      2600.938    24645244.046   100918149.98945
      2026.702  
  21745252.820   114272079.90348     -2848.953    21745253.783    89043184.14747
     -2219.964  
  20837506.672   109501867.29249      1459.503    20837509.068    85326152.71949
      1137.273  
  19992521.969   105061411.24148       481.019    19992521.213    81866032.36348
       374.816  
  21884620.607   115004459.31848      2496.035    21884622.843    89613874.77348
      1944.965  
 20 10 01 07 32 40.0000000  0  8G 8G27G15G21G18G24G20G10
  24634877.859   129457147.91345       -76.520    24634881.279   100875725.53548
       -59.628  
  24420982.592   128333129.91745     -1838.586    24420985.536    99999852.69349
     -1432.668  
  21396151.419   112437551.28548     -2593.534    21396151.361    87613682.89949
     -2020.941  
  24642769.624   129498622.54247      2599.718    24642769.908   100908018.40045
      2025.749  
  21747964.500   114286329.53348     -2850.980    21747965.282    89054287.74747
     -2221.546  
  20836119.253   109494576.76749      1456.397    20836121.719    85320471.78949
      1134.851  
  19992065.447   105059012.04548       478.422    19992064.569    81864162.85848
       372.792  
  21882245.989   114991980.52348      2494.991    21882248.320    89604151.05948
      1944.152  
 20 10 01 07 32 45.0000000  0  9G 8G27G13G15G21G18G24G20G10
  24634952.266   129457538.70746       -79.726    24634955.736   100876030.04648
       -62.128  
  24422733.299   128342329.72746     -1841.129    24422736.301   100007021.34549
     -1434.651  
  24034248.144   126300826.42414     -3511.972           0.000           0.0000 
         0.000  
  21398619.701   112450522.69348     -2595.030    21398619.854    87623790.49649
     -2022.105  
  24640296.902   129485628.23747      2598.195    24640296.987   100897892.98644
      2024.566  
  21750678.275   114300590.95848     -2853.397    21750679.180    89065400.55147
     -2223.387  
  20834735.249   109487303.65048      1452.867    20834737.786    85314804.43849
      1132.101  
  19991611.401   105056626.67548       475.894    19991610.854    81862304.12748
       370.823  
  21879872.883   114979509.17648      2493.488    21879875.016    89594433.12148
      1942.976  
 20 10 01 07 32 50.0000000  0  8G 8G27G15G21G18G24G20G10
  24635029.119   129457942.78945       -82.628    24635032.349   100876344.89048
       -64.391  
  24424485.868   128351539.94446     -1843.195    24424489.001   100014198.14049
     -1436.258  
  21401089.284   112463500.03448     -2596.362    21401089.298    87633902.70649
     -2023.145  
  24637824.962   129472638.98247      2596.871    24637825.267   100887771.48444
      2023.530  
  21753393.963   114314861.27648     -2855.226    21753394.834    89076520.26347
     -2224.855  
  20833353.893   109480044.98249      1449.952    20833356.552    85309148.32949
      1129.832  
  19991159.651   105054252.30448       473.492    19991158.843    81860453.96948
       368.952  
  21877500.531   114967042.41248      2492.382    21877502.439    89584718.75448
      1942.113  
 20 10 01 07 32 55.0000000  0  8G 8G27G15G21G18G24G20G10
  24635109.585   129458365.64345       -86.051    24635112.857   100876674.40148
       -67.054  
  24426241.556   128360765.98946     -1846.323    24426244.643   100021387.26249
     -1438.698  
  21403560.808   112476488.69948     -2598.445    21403560.951    87644023.74449
     -2024.765  
  24635355.300   129459660.19747      2595.097    24635355.507   100877658.16644
      2022.152  
  21756112.111   114329145.92848     -2857.960    21756113.157    89087651.15447
     -2226.984  
  20831976.561   109472806.17848      1446.266    20831978.978    85303507.70649
      1126.956  
  19990710.925   105051894.35748       470.352    19990710.233    81858616.60948
       366.504  
  21875130.078   114954585.65648      2490.922    21875132.145    89575012.20248
      1940.976  
 20 10 01 07 33  0.0000000  0  8G 8G27G15G21G18G24G20G10
  24635192.694   129458802.75945       -88.905    24635196.109   100877015.02149
       -69.281  
  24427999.566   128370003.30445     -1848.918    24428002.463   100028585.14848
     -1440.718  
  21406033.845   112489484.19148     -2599.891    21406034.059    87654150.08349
     -2025.891  
  24632886.610   129446687.36147      2593.874    24632886.781   100867549.46245
      2021.199  
  21758832.352   114343440.39148     -2859.843    21758833.204    89098789.69647
     -2228.452  
  20830601.906   109465582.62748      1443.159    20830604.328    85297878.96549
      1124.539  
  19990264.484   105049548.29548       467.957    19990263.832    81856788.51548
       364.637  
  21872760.737   114942134.40648      2489.378    21872762.556    89565309.94148
      1939.773  
 20 10 01 07 33  5.0000000  0  8G 8G27G15G21G18G24G20G10
  24635278.971   129459255.42446       -92.207    24635282.171   100877367.74349
       -71.851  
  24429759.889   128379253.05046     -1851.589    24429762.539   100035792.77049
     -1442.800  
  21408508.185   112502487.65548     -2601.683    21408508.400    87664282.65649
     -2027.288  
  24630419.261   129433721.60647      2592.390    24630419.531   100857446.26645
      2020.042  
  21761554.491   114357745.76448     -2862.234    21761555.434    89109936.71447
     -2230.315  
  20829230.492   109458375.61448      1439.585    20829233.091    85292263.10149
      1121.753  
  19989820.512   105047215.30348       465.242    19989819.855    81854970.60048
       362.523  
  21870392.516   114929689.78948      2488.120    21870394.399    89555612.79748
      1938.793  
 20 10 01 07 33 10.0000000  0  8G 8G27G15G21G18G24G20G10
  24635368.078   129459723.09345       -95.570    24635371.308   100877732.15048
       -74.472  
  24431522.275   128388514.76045     -1853.655    24431524.996   100043009.67549
     -1444.410  
  21410984.070   112515498.67448     -2603.121    21410984.460    87674421.11749
     -2028.410  
  24627953.255   129420762.59047      2590.878    24627953.469   100847348.34045
      2018.863  
  21764278.722   114372061.66248     -2864.343    21764279.616    89121091.97047
     -2231.960  
  20827862.115   109451184.67848      1436.590    20827864.512    85286659.78249
      1119.417  
  19989378.821   105044894.98048       462.667    19989378.312    81853162.55648
       360.515  
  21868025.644   114917251.44848      2487.230    21868027.523    89545920.61748
      1938.098  
 20 10 01 07 33 15.0000000  0  8G 8G27G15G21G18G24G20G10
  24635460.231   129460207.32945       -98.332    24635463.396   100878109.48748
       -76.625  
  24433287.475   128397790.29345     -1856.604    24433290.200   100050237.32849
     -1446.710  
  21413461.693   112528518.98548     -2604.839    21413462.005    87684566.81149
     -2029.749  
  24625488.971   129407812.03647      2589.288    24625489.206   100837257.00245
      2017.625  
  21767005.245   114386389.79748     -2866.651    21767006.210    89132256.76146
     -2233.757  
  20826497.124   109444011.66448      1432.968    20826499.614    85281070.43949
      1116.597  
  19988940.172   105042589.08648       459.906    19988939.475    81851365.74748
       358.367  
  21865660.322   114904821.13248      2485.551    21865662.121    89536234.66248
      1936.789  
 20 10 01 07 33 20.0000000  0  8G 8G27G15G21G18G24G20G10
  24635555.360   129460707.54945      -101.647    24635558.761   100878499.27348
       -79.211  
  24435054.930   128407078.74046     -1859.098    24435057.845   100057475.09949
     -1448.651  
  21415941.014   112541547.80948     -2606.441    21415941.496    87694719.13249
     -2030.996  
  24623026.006   129394869.25547      2587.812    24623026.113   100827171.73644
      2016.472  
  21769734.013   114400729.47448     -2868.980    21769734.984    89143430.50947
     -2235.577  
  20825135.377   109436855.70048      1429.284    20825137.892    85275494.35449
      1113.726  
  19988503.837   105040296.87648       457.145    19988503.306    81849579.61248
       356.214  
  21863296.338   114892398.12448      2484.046    21863298.160    89526554.38748
      1935.616  
 20 10 01 07 33 25.0000000  0  8G 8G27G15G21G18G24G20G10
  24635653.419   129461222.59945      -103.930    24635656.776   100878900.62549
       -80.988  
  24436824.818   128416379.03245     -1861.031    24436827.658   100064722.06449
     -1450.156  
  21418421.861   112554584.02848     -2607.976    21418422.223    87704877.23149
     -2032.163  
  24620564.372   129381933.06247      2586.433    24620564.478   100817091.59645
      2015.397  
  21772464.753   114415079.48348     -2871.073    21772465.746    89154612.33547
     -2237.202  
  20823776.671   109429715.68449      1426.206    20823779.085    85269930.70449
      1111.327  
  19988070.140   105038017.16048       454.715    19988069.576    81847803.21948
       354.320  
  21860933.520   114879981.21048      2482.800    21860935.242    89516878.88048
      1934.647  
 20 10 01 07 33 30.0000000  0  8G 8G27G15G21G18G24G20G10
  24635754.490   129461753.48646      -107.581    24635757.902   100879314.28549
       -83.832  
  24438597.079   128425692.01346     -1863.417    24438599.675   100071978.92849
     -1452.016  
  21420904.036   112567628.50748     -2609.566    21420904.404    87715041.75349
     -2033.429  
  24618104.043   129369004.38647      2585.270    24618104.241   100807017.30445
      2014.491  
  21775197.530   114429440.69948     -2873.210    21775198.482    89165802.87147
     -2238.866  
  20822421.215   109422592.65149      1423.242    20822423.716    85264380.29049
      1109.016  
  19987638.728   105035750.92048       451.886    19987638.287    81846037.31848
       352.117  
  21858571.986   114867571.38948      2481.453    21858573.691    89507208.88348
      1933.597  
 20 10 01 07 33 35.0000000  0  9G 8G27G13G15G21G18G24G20G10
  24635858.405   129462299.24945      -110.847    24635861.642   100879739.54949
       -86.378  
  24440371.341   128435016.94945     -1866.729    24440374.369   100079245.09749
     -1454.597  
  24067671.640   126476469.42754     -3515.983    24067670.169    98553114.70152
     -2739.730  
  21423387.770   112580680.37148     -2611.129    21423388.318    87725212.02849
     -2034.647  
  24615645.048   129356082.33947      2583.766    24615645.272   100796948.17744
      2013.319  
  21777932.400   114443812.22348     -2875.320    21777933.430    89177001.46047
     -2240.511  
  20821068.780   109415485.61948      1419.758    20821071.278    85258842.34249
      1106.301  
  19987209.978   105033497.22548       449.547    19987209.438    81844281.19148
       350.292  
  21856211.613   114855167.67148      2480.242    21856213.430    89497543.63148
      1932.652  
 20 10 01 07 33 40.0000000  0  8G 8G27G15G21G18G24G20G10
  24635965.323   129462861.20045      -114.397    24635968.577   100880177.43248
       -89.144  
  24442148.241   128444354.96645     -1869.241    24442151.261   100086521.45249
     -1456.558  
  21425873.024   112593740.99848     -2613.327    21425873.695    87735389.13749
     -2036.363  
  24613187.581   129343168.26347      2581.780    24613187.772   100786885.28245
      2011.773  
  21780669.405   114458195.46948     -2878.194    21780670.550    89188209.19747
     -2242.819  
  20819719.584   109408395.95548      1415.879    20819722.025    85253317.94249
      1103.277  
  19986783.711   105031257.49148       446.289    19986783.056    81842535.94548
       347.754  
  21853852.743   114842771.60048      2478.069    21853854.632    89487884.37248
      1930.961  
 20 10 01 07 33 45.0000000  0  9G 8G27G13G15G21G18G24G20G10
  24636075.665   129463441.51944      -117.425    24636078.926   100880629.63549
       -91.503  
  24443928.170   128453708.24445     -1871.819    24443931.064   100093809.73049
     -1458.565  
  24074361.928   126511625.78215     -3515.944           0.000           0.0000 
         0.000  
  21428360.532   112606812.44248     -2614.901    21428361.019    87745574.68649
     -2037.589  
  24610731.997   129330264.33447      2580.016    24610732.152   100776830.26945
      2010.398  
  21783409.017   114472592.51148     -2880.344    21783410.048    89199427.67146
     -2244.464  
  20818374.206   109401325.72648      1412.379    20818376.690    85247808.67549
      1100.551  
  19986360.473   105029033.80048       443.499    19986360.083    81840803.19348
       345.581  
  21851495.800   114830385.12548      2476.668    21851497.560    89478232.58948
      1929.866  
 20 10 01 07 33 50.0000000  0  9G 8G27G13G15G21G18G24G20G10
  24636188.433   129464034.96545      -119.449    24636192.037   100881092.05749
       -93.081  
  24445709.872   128463071.68245     -1873.358    24445712.767   100101105.91249
     -1459.766  
  24077708.004   126529206.56244     -3515.659    24077700.007    98594171.36751
     -2739.479  
  21430848.998   112619889.60848     -2615.667    21430849.571    87755764.67249
     -2038.188  
  24608277.365   129317365.40347      2579.714    24608277.575   100766779.18645
      2010.167  
  21786150.317   114486998.20448     -2881.695    21786151.252    89210652.88047
     -2245.468  
  20817031.681   109394270.05449      1409.969    20817034.032    85242310.74449
      1098.671  
  19985939.549   105026821.04748       441.593    19985938.828    81839078.97148
       344.098  
  21849139.640   114818003.23648      2476.421    21849141.464    89468584.36448
      1929.675  
 20 10 01 07 33 55.0000000  0  9G 8G27G13G15G21G18G24G20G10
  24636304.420   129464644.16945      -123.905    24636307.847   100881566.78048
       -96.551  
  24447494.094   128472447.73545     -1876.930    24447496.923   100108411.88749
     -1462.550  
  24081053.678   126546789.45104     -3516.480           0.000           0.0000 
         0.000  
  21433339.140   112632975.01648     -2618.020    21433339.796    87765961.10449
     -2040.019  
  24605824.065   129304473.97747      2577.266    24605824.181   100756733.91844
      2008.254  
  21788893.521   114501414.99248     -2884.702    21788894.661    89221886.74446
     -2247.824  
  20815692.205   109387231.18648      1405.891    20815694.547    85236825.93249
      1095.496  
  19985520.894   105024621.65748       438.390    19985520.481    81837365.16048
       341.602  
  21846784.791   114805628.35948      2474.023    21846786.544    89458941.61048
      1927.809  
 20 10 01 07 34  0.0000000  0  9G 8G27G13G15G21G18G24G20G10
  24636423.683   129465271.05445      -126.578    24636427.327   100882055.24748
       -98.637  
  24449281.164   128481838.44545     -1879.703    24449284.062   100115729.33149
     -1464.706  
  24084400.199   126564376.62705     -3517.242           0.000           0.0000 
         0.000  
  21435831.016   112646070.59948     -2619.836    21435831.673    87776165.45349
     -2041.378  
  24603372.841   129291592.11147      2575.694    24603373.041   100746696.13045
      2007.035  
  21791639.446   114515844.92548     -2886.843    21791640.512    89233130.82946
     -2249.491  
  20814356.334   109380211.32148      1402.425    20814358.719    85231355.91149
      1092.797  
  19985105.302   105022437.77048       435.496    19985104.825    81835663.43248
       339.343  
  21844431.610   114793262.59048      2472.453    21844433.371    89449305.94748
      1926.581  
 20 10 01 07 34  5.0000000  0  9G 8G27G13G15G21G18G24G20G10
  24636545.295   129465910.94245      -128.988    24636548.989   100882553.84148
      -100.511  
  24451069.919   128491238.92045     -1881.304    24451072.836   100123054.37249
     -1465.953  
  24087746.646   126581963.17345     -3516.652    24087748.206    98635254.40454
     -2740.249  
  21438324.046   112659171.59348     -2620.679    21438324.762    87786374.01849
     -2042.089  
  24600922.417   129278715.04947      2575.030    24600922.544   100736662.06644
      2006.520  
  21794387.087   114530283.28248     -2888.469    21794388.087    89244381.49946
     -2250.723  
  20813023.105   109373205.59649      1399.875    20813025.566    85225896.90249
      1090.808  
  19984691.803   105020264.60048       433.746    19984691.353    81833970.05248
       337.980  
  21842079.367   114780901.12648      2472.027    21842081.189    89439673.62448
      1926.249  
 20 10 01 07 34 10.0000000  0  8G 8G27G15G21G18G24G20G10
  24636670.107   129466566.49045      -133.409    24636673.846   100883064.67148
      -103.961  
  24452861.333   128500652.20945     -1884.715    24452864.102   100130389.40349
     -1468.612  
  21440818.592   112672280.83248     -2623.140    21440819.336    87796589.00649
     -2044.007  
  24598473.313   129265845.66847      2572.526    24598473.267   100726633.96545
      2004.563  
  21797136.610   114544732.81148     -2891.465    21797137.631    89255640.86246
     -2253.188  
  20811693.136   109366216.87348      1395.628    20811695.855    85220451.14749
      1087.500  
  19984280.788   105018104.97848       429.941    19984280.345    81832287.23148
       335.016  
  21839728.251   114768546.86248      2469.391    21839730.202    89430046.94348
      1924.198  
 20 10 01 07 34 15.0000000  0  8G 8G27G15G21G18G24G20G10
  24636798.182   129467239.80744      -135.898    24636802.062   100883589.32149
      -105.898  
  24454655.267   128510079.92545     -1886.558    24454658.074   100137735.66948
     -1470.050  
  21443315.255   112685400.16748     -2624.440    21443315.609    87806811.86049
     -2045.023  
  24596026.131   129252985.76547      2571.594    24596026.238   100716613.26245
      2003.836  
  21799888.781   114559195.38148     -2893.265    21799889.855    89266910.38146
     -2254.585  
  20810366.789   109359246.90548      1392.633    20810369.568    85215020.00549
      1085.164  
  19983872.816   105015960.72748       427.875    19983872.269    81830616.38548
       333.405  
  21837379.068   114756201.63648      2468.477    21837381.175    89420427.28948
      1923.483  
 20 10 01 07 34 20.0000000  0  8G 8G27G15G21G18G24G20G10
  24636929.037   129467927.86345      -139.465    24636933.000   100884125.49049
      -108.676  
  24456451.576   128519519.43545     -1889.636    24456454.470   100145091.14049
     -1472.448  
  21445813.069   112698526.73648     -2626.198    21445813.617    87817040.34749
     -2046.347  
  24593580.281   129240132.58547      2569.824    24593580.125   100706597.77445
      2002.456  
  21802642.846   114573668.18348     -2895.766    21802643.779    89278187.89946
     -2256.445  
  20809043.670   109352293.08648      1388.863    20809046.214    85209601.43249
      1082.226  
  19983467.307   105013829.04848       424.808    19983466.625    81828955.33948
       331.015  
  21835031.014   114743862.59148      2466.940    21835033.175    89410812.46648
      1922.289  
 20 10 01 07 34 25.0000000  0  9G 8G27G13G15G21G18G24G20G10
  24637062.897   129468631.14445      -141.621    24637066.823   100884673.50349
      -110.354  
  24458249.863   128528970.99945     -1890.315    24458252.843   100152455.99049
     -1472.976  
  24101139.211   126652341.01154     -3517.890    24101142.732    98690141.53253
     -2741.210  
  21448312.601   112711661.02148     -2626.676    21448312.814    87827274.86149
     -2046.762  
  24591135.781   129227286.55547      2569.074    24591135.569   100696587.91345
      2001.871  
  21805398.889   114588151.59748     -2896.777    21805399.884    89289473.65447
     -2257.233  
  20807723.390   109345355.77948      1386.613    20807726.044    85204195.74549
      1080.476  
  19983064.097   105011710.41648       423.284    19983063.425    81827304.46048
       329.827  
  21832684.288   114731530.27448      2466.511    21832686.339    89401202.84548
      1921.953  
 20 10 01 07 34 30.0000000  0  9G 8G27G13G15G21G18G24G20G10
  24637198.735   129469345.82345      -144.870    24637202.916   100885230.40649
      -112.891  
  24460049.973   128538430.92446     -1894.073    24460053.166   100159827.35549
     -1475.905  
  24104487.015   126669934.90345     -3519.520    24104489.983    98703851.02952
     -2742.488  
  21450812.706   112724799.19348     -2629.101    21450812.972    87837512.40149
     -2048.651  
  24588691.869   129214443.86747      2567.276    24588691.783   100686580.61245
      2000.473  
  21808156.243   114602641.87248     -2899.719    21808157.278    89300764.78447
     -2259.523  
  20806405.803   109338431.09348      1382.706    20806408.311    85198799.88249
      1077.429  
  19982662.773   105009601.03548       419.832    19982661.939    81825660.78548
       327.137  
  21830337.973   114719200.80948      2464.417    21830340.249    89391595.46948
      1920.324  
 20 10 01 07 34 35.0000000  0  9G 8G27G13G15G21G18G24G20G10
  24637338.559   129470080.19845      -148.996    24637342.645   100885802.63649
      -116.104  
  24461853.362   128547907.29646     -1896.671    24461856.371   100167211.52049
     -1477.930  
  24107836.148   126687534.83945     -3520.577    24107841.039    98717565.23141
     -2743.324  
  21453315.064   112737949.42648     -2631.112    21453315.297    87847759.34849
     -2050.222  
  24586250.179   129201612.75947      2565.382    24586250.228   100676582.38445
      1998.999  
  21810916.661   114617147.12248     -2902.367    21810917.582    89312067.54947
     -2261.590  
  20805092.022   109331527.34448      1378.953    20805094.704    85193420.34949
      1074.503  
  19982264.681   105007509.04948       416.847    19982263.871    81824030.67048
       324.813  
  21827993.873   114706882.41848      2462.800    21827996.059    89381996.74748
      1919.063  
 20 10 01 07 34 40.0000000  0  9G 8G27G13G15G21G18G24G20G10
  24637481.253   129470830.21645      -152.406    24637485.584   100886387.03849
      -118.762  
  24463658.998   128557396.22546     -1899.022    24463662.024   100174605.46349
     -1479.765  
  24111185.901   126705136.78645     -3520.586    24111190.486    98731281.15451
     -2743.301  
  21455818.949   112751107.73948     -2632.496    21455819.128    87858012.58549
     -2051.301  
  24583810.019   129188789.19547      2563.897    24583810.065   100666590.01045
      1997.839  
  21813678.947   114631663.38148     -2904.574    21813679.857    89323378.91746
     -2263.309  
  20803781.453   109324640.47648      1375.507    20803784.016    85188053.95949
      1071.820  
  19981869.062   105005430.52448       414.133    19981868.486    81822411.03948
       322.698  
  21825651.114   114694571.10248      2461.602    21825653.328    89372403.50049
      1918.128  
 20 10 01 07 34 45.0000000  0  9G 8G27G13G15G21G18G24G20G10
  24637627.060   129471596.28045      -154.292    24637631.440   100886984.01349
      -120.226  
  24465466.956   128566897.95345     -1901.301    24465470.135   100182009.40749
     -1481.535  
  24114535.824   126722741.25145     -3521.113    24114538.264    98744998.84041
     -2743.726  
  21458324.541   112764274.52748     -2634.133    21458324.690    87868272.41449
     -2052.573  
  24581371.202   129175973.65647      2562.777    24581371.176   100656603.85645
      1996.964  
  21816443.581   114646191.03448     -2906.437    21816444.568    89334699.16446
     -2264.757  
  20802474.122   109317770.97248      1372.543    20802477.008    85182701.10449
      1069.512  
  19981476.117   105003365.83648       411.772    19981475.551    81820802.19348
       320.859  
  21823309.679   114682267.31048      2460.136    21823312.039    89362816.12348
      1916.983  
 20 10 01 07 34 50.0000000  0  9G 8G27G13G15G21G18G24G20G10
  24637775.542   129472377.03045      -157.769    24637779.934   100887592.38749
      -122.940  
  24467277.476   128576411.17345     -1903.753    24467280.448   100189422.30448
     -1483.448  
  24117886.169   126740346.71545     -3520.929    24117887.199    98758717.41854
     -2743.581  
  21460831.465   112777448.37748     -2635.313    21460831.505    87878537.74249
     -2053.491  
  24578933.707   129163164.72247      2561.242    24578933.748   100646622.87344
      1995.769  
  21819209.919   114660728.67448     -2908.409    21819210.995    89346027.18946
     -2266.273  
  20801170.045   109310917.40548      1369.183    20801172.681    85177360.66349
      1066.894  
  19981085.655   105001313.60048       409.323    19981085.053    81819203.04648
       318.948  
  21820969.379   114669969.63848      2459.019    21820971.786    89353233.52049
      1916.117  
 20 10 01 07 34 55.0000000  0  9G 8G27G13G15G21G18G24G20G10
  24637927.195   129473175.97144      -160.695    24637931.887   100888214.94949
      -125.219  
  24469090.637   128585939.30746     -1905.953    24469093.481   100196846.84048
     -1485.160  
  24121237.598   126757956.74715     -3521.253           0.000           0.0000 
         0.000  
  21463340.308   112790632.75048     -2636.656    21463340.531    87888811.28549
     -2054.491  
  24576498.141   129150365.79747      2560.077    24576498.242   100636649.72445
      1994.866  
  21821978.876   114675279.74048     -2910.323    21821979.860    89357365.66646
     -2267.789  
  20799869.589   109304083.30749      1366.081    20799872.272    85172035.39649
      1064.477  
  19980698.235   104999277.25348       406.882    19980697.511    81817616.28048
       317.047  
  21818630.983   114657681.53448      2458.253    21818633.474    89343658.36949
      1915.519  
 20 10 01 07 35  0.0000000  0  9G 8G27G13G15G21G18G24G20G10
  24638081.534   129473987.99644      -164.273    24638086.467   100888847.68149
      -128.007  
  24470905.717   128595477.48846     -1909.078    24470908.685   100204279.17248
     -1487.597  
  24124587.865   126775566.49045     -3522.241    24124588.696    98786149.36851
     -2744.590  
  21465850.284   112803822.73048     -2638.937    21465850.539    87899089.19249
     -2056.315  
  24574063.751   129137572.08947      2557.699    24574063.680   100626680.60345
      1993.007  
  21824749.574   114689839.35348     -2913.289    21824750.470    89368710.82147
     -2270.098  
  20798571.802   109297263.73649      1362.116    20798574.559    85166721.44449
      1061.386  
  19980312.730   104997251.94348       403.761    19980312.145    81816038.11648
       314.617  
  21816293.566   114645398.17148      2455.522    21816295.858    89334086.91149
      1913.390  
 20 10 01 07 35  5.0000000  0  8G27G13G15G21G18G24G20G10
  24472723.024   128605027.97446     -1911.621    24472726.044   100211721.11148
     -1489.578  
  24127939.423   126793178.13744     -3522.280    24127933.893    98799872.54551
     -2744.664  
  21468361.796   112817020.63048     -2640.457    21468361.985    87909373.26849
     -2057.507  
  24571630.466   129124785.86847      2556.488    24571630.631   100616717.32945
      1992.066  
  21827522.166   114704409.79848     -2915.479    21827523.247    89380064.41146
     -2271.805  
  20797277.250   109290460.88148      1358.827    20797280.012    85161420.52449
      1058.823  
  19979929.874   104995239.95948       400.934    19979929.225    81814470.34248
       312.414  
  21813957.272   114633121.76648      2454.473    21813959.708    89324520.89349
      1912.574  
 20 10 01 07 35 10.0000000  0  7G27G15G21G18G24G20G10
  24474543.543   128614594.14546     -1914.577    24474546.320   100219175.27248
     -1491.882  
  21470875.394   112830229.89249     -2642.852    21470875.646    87919666.16649
     -2059.371  
  24569199.471   129112010.59247      2553.858    24569199.520   100606762.55545
      1990.016  
  21830297.631   114718994.46648     -2918.175    21830298.675    89391429.07447
     -2273.972  
  20795986.678   109283678.19049      1354.629    20795989.370    85156135.30949
      1055.550  
  19979550.261   104993244.77048       397.335    19979549.490    81812915.63848
       309.609  
  21811623.069   114620855.85648      2452.359    21811625.801    89314963.02549
      1910.926  
 20 10 01 07 35 15.0000000  0  7G27G15G21G18G24G20G10
  24476366.024   128624171.85046     -1916.277    24476368.813   100226638.42249
     -1493.206  
  21473390.519   112843446.18248     -2643.601    21473390.509    87929964.58049
     -2059.952  
  24566769.775   129099242.01847      2553.401    24566769.817   100596813.04345
      1989.659  
  21833075.037   114733589.11548     -2919.578    21833075.832    89402801.53546
     -2275.000  
  20794698.954   109276911.53148      1352.082    20794701.657    85150862.59249
      1053.566  
  19979173.098   104991262.10548       395.710    19979172.172    81811370.71248
       308.343  
  21809290.252   114608596.09948      2451.934    21809292.592    89305409.98749
      1910.594  
 20 10 01 07 35 20.0000000  0  8G27G13G15G21G18G24G20G10
  24478190.391   128633758.99446     -1918.703    24478193.022   100234108.90849
     -1495.097  
  24137997.748   126846033.33956     -3523.578    24137995.730    98841057.24351
     -2745.647  
  21475906.408   112856667.61548     -2645.104    21475906.646    87940267.01849
     -2061.050  
  24564340.888   129086478.22047      2552.034    24564340.874   100586867.24045
      1988.598  
  21835853.741   114748191.80448     -2921.570    21835854.683    89414180.24747
     -2276.551  
  20793414.087   109270159.04249      1348.733    20793416.633    85145600.91449
      1050.957  
  19978797.841   104989290.02348       393.042    19978797.058    81809834.02648
       306.265  
  21806957.968   114596340.64548      2450.383    21806960.646    89295860.27949
      1909.387  
 20 10 01 07 35 25.0000000  0 10G 8G27G13G15G21G18G24G32G20G10
  24638899.218   129478287.29855      -180.402    24638905.042   100892195.13759
      -140.577  
  24480017.970   128643362.14146     -1922.406    24480020.461   100241591.90349
     -1497.980  
  24141350.961   126863656.05745     -3525.272    24141354.449    98854789.16652
     -2746.973  
  21478424.580   112869900.60148     -2647.504    21478424.688    87950578.41949
     -2062.992  
  24561914.016   129073725.67447      2549.527    24561914.244   100576930.19345
      1986.640  
  21838635.271   114762808.96348     -2924.762    21838636.248    89425570.23047
     -2279.078  
  20792133.028   109263427.21748      1344.237    20792135.755    85140355.34049
      1047.456  
  24687821.439   129735380.96015      3353.824           0.000           0.0000 
         0.000  
  19978425.818   104987335.02948       389.180    19978424.898    81808310.65348
       303.253  
  21804627.828   114584095.92948      2447.566    21804630.370    89286318.93948
      1907.190  
 20 10 01 07 35 30.0000000  0 10G 8G27G13G15G21G18G24G32G20G10
  24639071.932   129479194.10144      -182.504    24639077.522   100892901.69749
      -142.214  
  24481847.325   128652975.68546     -1923.815    24481849.823   100249082.95948
     -1499.082  
  24144703.766   126881278.85645     -3524.159    24144705.547    98868521.25943
     -2746.101  
  21480943.883   112883139.59748     -2648.198    21480943.957    87960894.52949
     -2063.535  
  24559488.336   129060978.79547      2549.097    24559488.482   100566997.57045
      1986.308  
  21841418.685   114777435.06348     -2925.952    21841419.511    89436967.19447
     -2279.965  
  20790854.828   109256710.26448      1341.973    20790857.564    85135121.35849
      1045.690  
  24684630.914   129718612.82645      3353.726    24684632.897   101079446.84257
      2613.289  
  19978055.880   104985391.52648       387.741    19978055.169    81806796.24048
       302.133  
  21802298.819   114571856.40548      2447.641    21802301.346    89276781.65949
      1907.249  
 20 10 01 07 35 35.0000000  0  9G27G13G15G21G18G24G32G20G10
  24483678.739   128662599.89346     -1925.813    24483681.438   100256582.33649
     -1500.637  
  24148057.096   126898901.91245     -3524.473    24148057.394    98882253.51353
     -2746.343  
  21483464.311   112896384.88148     -2649.906    21483464.419    87971215.52549
     -2064.874  
  24557063.791   129048237.91447      2547.391    24557063.913   100557069.61545
      1984.977  
  21844203.644   114792070.33948     -2928.112    21844204.445    89448371.28546
     -2281.647  
  20789579.461   109250008.66548      1338.609    20789582.306    85129899.32849
      1043.070  
  24681439.784   129701845.48345      3353.672    24681441.958   101066381.38547
      2613.246  
  19977688.222   104983459.81448       385.012    19977687.638    81805291.01248
       300.007  
  21799970.742   114559622.36948      2446.261    21799973.320    89267248.66049
      1906.176  
 20 10 01 07 35 40.0000000  0  9G27G13G15G21G18G24G32G20G10
  24485512.215   128672234.56346     -1928.624    24485514.788   100264089.87749
     -1502.828  
  24151410.968   126916525.03645     -3525.172    24151411.380    98895985.80743
     -2746.895  
  21485986.058   112909636.21948     -2651.280    21485986.088    87981541.24349
     -2065.938  
  24554640.407   129035502.81847      2546.164    24554640.506   100547146.17045
      1984.019  
  21846990.310   114806714.58848     -2930.113    21846991.060    89459782.38146
     -2283.137  
  20788307.140   109243322.13248      1335.426    20788309.984    85124689.03849
      1040.589  
  24678248.944   129685078.59845      3353.054    24678251.535   101053316.29447
      2612.765  
  19977322.843   104981539.66848       382.538    19977322.056    81803794.79348
       298.078  
  21797643.618   114547393.62648      2445.031    21797646.297    89257719.76449
      1905.214  
 20 10 01 07 35 45.0000000  0  9G27G13G15G21G18G24G32G20G10
  24487348.355   128681883.70246     -1931.250    24487351.054   100271608.67448
     -1504.875  
  24154765.077   126934152.34045     -3525.836    24154766.623    98909721.40344
     -2747.405  
  21488509.534   112922897.67248     -2653.273    21488509.441    87991874.82749
     -2067.488  
  24552218.935   129022777.58647      2544.035    24552218.885   100537230.41045
      1982.363  
  21849779.466   114821371.82648     -2932.683    21849780.125    89471203.60646
     -2285.210  
  20787038.231   109236654.75248      1331.633    20787041.055    85119493.67549
      1037.632  
  24675058.852   129668316.29845      3351.476    24675062.400   101040254.78847
      2611.539  
  19976960.511   104979635.16748       379.375    19976959.648    81802310.76348
       295.612  
  21795318.369   114535174.20448      2442.886    21795321.232    89248198.13748
      1903.542  
 20 10 01 07 35 50.0000000  0  9G27G13G15G21G18G24G32G20G10
  24489186.976   128691545.68846     -1933.159    24489189.758   100279137.48649
     -1506.362  
  24158119.876   126951782.14845     -3525.706    24158121.081    98923458.84652
     -2747.320  
  21491034.696   112936167.64448     -2654.660    21491034.755    88002215.06749
     -2068.569  
  24549799.006   129010060.55647      2542.766    24549799.022   100527321.04045
      1981.371  
  21852570.937   114836040.44948     -2934.647    21852571.395    89482633.70146
     -2286.742  
  20785772.753   109230004.87148      1328.395    20785775.550    85114311.95549
      1035.109  
  24671869.435   129651557.04944      3351.008    24671873.581   101027195.63847
      2611.172  
  19976600.634   104977744.65748       376.866    19976599.941    81800837.63848
       293.660  
  21792994.493   114522962.55848      2441.680    21792997.365    89238682.57049
      1902.604  
 20 10 01 07 35 55.0000000  0  8G27G13G15G21G18G24G20G10
  24491027.162   128701215.83646     -1936.781    24491029.906   100286672.64448
     -1509.183  
  24161473.891   126969409.73745     -3527.074    24161475.430    98937194.71844
     -2748.363  
  21493560.649   112949441.37048     -2656.839    21493560.579    88012558.23649
     -2070.269  
  24547379.786   128997347.03147      2540.632    24547379.705   100517414.40445
      1979.711  
  21855363.515   114850715.70148     -2937.410    21855363.903    89494068.96046
     -2288.895  
  20784509.764   109223367.69449      1324.546    20784512.769    85109140.14249
      1032.109  
  19976242.678   104975863.45948       373.629    19976241.925    81799371.77548
       291.136  
  21790671.236   114510753.91548      2439.890    21790674.190    89229169.33749
      1901.211  
 20 10 01 07 36  0.0000000  0  9G 8G27G13G15G21G18G24G20G10
  24640168.388   129484959.48554      -202.038    24640173.465   100897391.08759
      -157.437  
  24492871.739   128710908.68246     -1939.563    24492874.451   100294225.50048
     -1511.352  
  24164830.270   126987049.69145     -3527.977    24164832.426    98950940.05754
     -2749.078  
  21496090.035   112962733.47748     -2659.129    21496089.852    88022915.72049
     -2072.050  
  24544963.817   128984651.71347      2538.246    24544963.701   100507521.95645
      1977.852  
  21858160.276   114865412.18648     -2939.965    21858160.587    89505520.75846
     -2290.887  
  20783251.915   109216757.90449      1320.624    20783254.852    85103989.65249
      1029.054  
  19975889.280   104974006.21348       370.229    19975888.555    81797924.56548
       288.487  
  21788351.445   114498562.89648      2437.718    21788354.196    89219669.85049
      1899.520  
 20 10 01 07 36  5.0000000  0  9G 8G27G13G15G21G18G24G20G10
  24640362.159   129485976.82245      -205.191    24640366.746   100898183.85549
      -159.891  
  24494717.888   128720609.76446     -1940.953    24494720.462   100301784.79249
     -1512.434  
  24168186.426   127004687.72445     -3527.433    24168188.701    98964683.97243
     -2748.659  
  21498620.178   112976029.53048     -2659.909    21498620.104    88033276.27149
     -2072.659  
  24542548.812   128971960.18148      2537.780    24542548.743   100497632.45445
      1977.487  
  21860958.175   114880115.49348     -2941.440    21860958.455    89516977.87446
     -2292.035  
  20781996.741   109210161.13749      1317.820    20781999.620    85098849.31149
      1026.871  
  19975537.608   104972158.47648       368.512    19975536.895    81796484.76748
       287.147  
  21786032.371   114486375.11148      2436.964    21786034.946    89210172.88049
      1898.930  
 20 10 01 07 36 10.0000000  0  9G 8G27G13G15G21G18G24G20G10
  24640558.629   129487008.37645      -207.660    24640563.230   100898987.67449
      -161.816  
  24496566.121   128730321.73246     -1943.609    24496568.615   100309352.54649
     -1514.504  
  24171543.048   127022326.23445     -3527.488    24171545.552    98978428.34154
     -2748.691  
  21501151.632   112989332.09848     -2661.086    21501151.338    88043641.90749
     -2073.577  
  24540134.802   128959274.91548      2536.479    24540134.680   100487747.82844
      1976.476  
  21863757.955   114894828.15448     -2943.628    21863758.305    89528442.28846
     -2293.737  
  20780744.447   109203580.00649      1314.573    20780747.311    85093721.15649
      1024.339  
  19975188.232   104970322.83648       365.944    19975187.685    81795054.40348
       285.148  
  21783714.218   114474193.13248      2435.770    21783716.950    89200680.44848
      1898.000  
 20 10 01 07 36 15.0000000  0  9G 8G27G13G15G21G18G24G20G10
  24640757.500   129488053.94745      -210.492    24640762.298   100899802.38749
      -164.022  
  24498416.447   128740044.22846     -1945.598    24498418.815   100316928.52649
     -1516.055  
  24174899.413   127039964.92845     -3528.226    24174901.692    98992172.80043
     -2749.261  
  21503684.078   113002640.78548     -2662.449    21503684.065    88054012.31549
     -2074.641  
  24537722.076   128946595.67347      2535.086    24537721.824   100477867.90245
      1975.386  
  21866559.313   114909549.85748     -2945.655    21866559.562    89539913.75246
     -2295.319  
  20779494.988   109197014.27549      1311.332    20779497.709    85088604.99549
      1021.812  
  19974841.146   104968498.98148       363.367    19974840.672    81793633.22148
       283.141  
  21781397.073   114462016.64348      2434.562    21781399.903    89191192.27848
      1897.059  
 20 10 01 07 36 20.0000000  0  9G 8G27G13G15G21G18G24G20G10
  24640959.829   129489116.28644      -214.750    24640964.502   100900630.15948
      -167.344  
  24500269.198   128749780.34546     -1948.983    24500271.693   100324515.09349
     -1518.690  
  24178256.482   127057606.91345     -3528.719    24178259.076    99005919.72843
     -2749.651  
  21506218.404   113015958.75748     -2664.609    21506218.243    88064389.94349
     -2076.319  
  24535311.064   128933925.52847      2533.050    24535311.015   100467995.07245
      1973.800  
  21869363.135   114924283.73348     -2948.156    21869363.373    89551394.67047
     -2297.269  
  20778249.141   109190467.05649      1307.444    20778251.993    85083503.27849
      1018.785  
  19974497.077   104966690.01548       360.242    19974496.343    81792223.63048
       280.702  
  21779081.643   114449848.78648      2432.504    21779084.324    89181710.80549
      1895.452  
 20 10 01 07 36 25.0000000  0  9G 8G27G13G15G21G18G24G20G10
  24641164.872   129490194.63945      -217.145    24641169.963   100901470.42349
      -169.207  
  24502124.369   128759529.05546     -1950.848    24502126.751   100332111.49749
     -1520.145  
  24181614.101   127075251.16445     -3528.769    24181616.602    99019668.51442
     -2749.694  
  21508754.463   113029285.02648     -2665.991    21508754.363    88074774.05549
     -2077.398  
  24532901.573   128921263.50447      2531.565    24532901.391   100458128.56645
      1972.644  
  21872169.070   114939028.73548     -2950.202    21872169.366    89562884.27147
     -2298.862  
  20777006.543   109183937.22049      1304.172    20777009.452    85078415.09349
      1016.234  
  19974155.309   104964894.98048       357.594    19974154.707    81790824.90648
       278.641  
  21776767.737   114437688.56948      2431.102    21776770.472    89172235.34449
      1894.363  
 20 10 01 07 36 30.0000000  0  9G 8G27G13G15G21G18G24G20G10
  24641373.103   129491287.93345      -220.109    24641378.107   100902322.33249
      -171.520  
  24503981.665   128769289.27146     -1952.629    24503983.990   100339716.86049
     -1521.531  
  24184971.713   127092896.53545     -3528.496    24184973.830    99033418.11543
     -2749.483  
  21511291.662   113042618.40648     -2667.320    21511291.488    88085163.68949
     -2078.433  
  24530493.385   128908608.51947      2530.491    24530493.173   100448267.53445
      1971.808  
  21874976.882   114953783.73148     -2951.905    21874977.146    89574381.66347
     -2300.190  
  20775766.973   109177423.58048      1301.214    20775769.826    85073339.53449
      1013.929  
  19973816.212   104963112.73148       355.272    19973815.746    81789436.13748
       276.831  
  21774454.943   114425534.84848      2429.914    21774457.535    89162764.90849
      1893.438  
 20 10 01 07 36 35.0000000  0  8G27G13G15G21G18G24G20G10
  24505841.232   128779061.83046     -1955.809    24505843.663   100347331.81949
     -1524.012  
  24188329.916   127110543.94745     -3529.343    24188331.442    99047169.35052
     -2750.140  
  21513830.364   113055959.81448     -2668.952    21513830.293    88095559.61049
     -2079.727  
  24528086.726   128895961.44147      2528.578    24528086.473   100438412.68645
      1970.315  
  21877786.788   114968549.57448     -2954.265    21877787.086    89585887.52346
     -2302.026  
  20774530.837   109170927.01648      1297.772    20774533.640    85068277.27649
      1011.250  
  19973479.761   104961344.10648       352.413    19973478.976    81788057.99148
       274.605  
  21772143.695   114413388.53048      2428.616    21772146.308    89153300.25649
      1892.425  
 20 10 01 07 36 40.0000000  0  8G27G13G15G21G18G24G20G10
  24507703.080   128788845.09446     -1957.449    24507705.511   100354955.14749
     -1525.289  
  24191688.322   127128191.89845     -3530.624    24191689.878    99060920.92643
     -2751.151  
  21516370.396   113069307.65048     -2670.270    21516370.339    88105960.51749
     -2080.831  
  24525681.239   128883320.70847      2527.422    24525680.967   100428562.76044
      1969.418  
  21880598.414   114983324.71048     -2956.104    21880598.701    89597400.61746
     -2303.460  
  20773297.544   109164446.01649      1294.543    20773300.408    85063227.14749
      1008.730  
  19973145.406   104959587.52748       349.882    19973144.895    81786689.23648
       272.633  
  21769833.562   114401248.01148      2427.457    21769836.059    89143840.11049
      1891.523  
 20 10 01 07 36 45.0000000  0  9G 8G27G13G15G21G18G24G20G10
  24642015.472   129494663.16455      -229.813    24642019.597   100904950.31659
      -179.078  
  24509567.253   128798641.38846     -1960.801    24509569.560   100362588.61749
     -1527.898  
  24195047.342   127145842.41545     -3530.438    24195049.198    99074674.56353
     -2751.000  
  21518912.148   113082664.11348     -2672.144    21518912.118    88116368.14749
     -2082.194  
  24523277.483   128870688.57347      2525.453    24523277.222   100418719.54745
      1967.883  
  21883412.299   114998111.30548     -2958.503    21883412.523    89608922.65446
     -2305.332  
  20772067.480   109157982.80148      1290.676    20772070.331    85058190.87449
      1005.719  
  19972813.889   104957845.29848       346.933    19972813.276    81785331.65848
       270.336  
  21767524.721   114389115.56548      2425.641    21767527.192    89134386.28348
      1890.109  
 20 10 01 07 36 50.0000000  0  9G 8G27G13G15G21G18G24G20G10
  24642235.200   129495819.00145      -232.680    24642239.859   100905850.97148
      -181.313  
  24511433.836   128808450.69546     -1963.566    24511436.254   100370232.22949
     -1530.054  
  24198406.633   127163495.76245     -3531.831    24198408.415    99088430.49544
     -2752.077  
  21521455.438   113096029.31748     -2674.089    21521455.354    88126782.58449
     -2083.691  
  24520875.428   128858065.09547      2523.460    24520875.164   100408883.08046
      1966.328  
  21886228.260   115012909.49648     -2961.019    21886228.551    89620453.69146
     -2307.293  
  20770841.012   109151537.66749      1286.949    20770843.908    85053168.72249
      1002.812  
  19972485.088   104956117.47048       343.805    19972484.549    81783985.29248
       267.898  
  21765217.679   114376991.32048      2423.645    21765219.817    89124938.78049
      1888.546  
 20 10 01 07 36 55.0000000  0  9G 8G27G13G15G21G18G24G20G10
  24642458.438   129496991.59245      -236.022    24642462.643   100906764.64049
      -183.921  
  24513303.084   128818273.28646     -1965.515    24513305.369   100377886.19549
     -1531.573  
  24201766.655   127181152.01745     -3531.284    24201768.412    99102188.58742
     -2751.652  
  21524000.444   113109403.47548     -2675.516    21524000.557    88137204.01349
     -2084.819  
  24518474.886   128845450.53847      2522.230    24518474.624   100399053.58445
      1965.375  
  21889046.510   115027719.47248     -2962.910    21889046.792    89631993.91747
     -2308.766  
  20769617.954   109145110.70648      1283.887    20769620.890    85048160.69949
      1000.430  
  19972159.108   104954404.31048       341.440    19972158.515    81782650.36548
       266.055  
  21762912.122   114364875.44448      2422.601    21762914.120    89115497.86849
      1887.738  
 20 10 01 07 37  0.0000000  0  9G 8G27G13G15G21G18G24G20G10
  24642684.422   129498177.92845      -238.734    24642688.423   100907689.04649
      -186.031  
  24515174.208   128828106.29646     -1967.563    24515176.473   100385548.26949
     -1533.168  
  24205126.571   127198808.43145     -3531.559    24205128.660    99115946.83843
     -2751.866  
  21526546.567   113122783.72548     -2676.765    21526546.690    88147630.19049
     -2085.793  
  24516075.669   128832842.12747      2520.991    24516075.317   100389228.85445
      1964.405  
  21891866.440   115042538.42948     -2964.733    21891866.993    89643541.16846
     -2310.188  
  20768397.976   109138699.08148      1280.594    20768400.820    85043164.62349
       997.862  
  19971835.416   104952703.04448       338.952    19971834.687    81781324.71748
       264.116  
  21760607.687   114352765.17948      2421.609    21760609.669    89106061.30648
      1886.965  
 20 10 01 07 37  5.0000000  0  9G 8G27G13G15G21G18G24G20G10
  24642913.072   129499379.83844      -242.362    24642917.209   100908625.63549
      -188.854  
  24517047.634   128837951.49346     -1970.281    24517049.790   100393219.84749
     -1535.288  
  24208486.934   127216466.66645     -3532.055    24208489.151    99129706.45543
     -2752.262  
  21529094.217   113136171.81048     -2678.468    21529094.304    88158062.46149
     -2087.121  
  24513677.768   128820241.54547      2519.175    24513677.689   100379410.22045
      1962.992  
  21894688.474   115057368.06948     -2967.284    21894688.866    89655096.73646
     -2312.172  
  20767181.036   109132304.55049      1277.016    20767183.944    85038181.87449
       995.074  
  19971514.193   104951015.32048       336.101    19971513.532    81780009.61048
       261.895  
  21758304.606   114340662.25148      2419.637    21758306.500    89096630.46348
      1885.430  
 20 10 01 07 37 10.0000000  0  9G 8G27G13G15G21G18G24G20G10
  24643144.897   129500597.67844      -245.527    24643149.025   100909574.63449
      -191.323  
  24518923.350   128847808.88646     -1972.319    24518925.547   100400900.94649
     -1536.874  
  24211847.598   127234126.95045     -3531.887    24211849.760    99143467.77443
     -2752.120  
  21531643.403   113149567.87249     -2679.973    21531643.390    88168500.95049
     -2088.293  
  24511281.400   128807648.98347      2517.628    24511281.282   100369597.83145
      1961.785  
  21897512.358   115072208.46048     -2969.133    21897512.885    89666660.68347
     -2313.714  
  20765967.528   109125927.39848      1273.629    20765970.452    85033212.67349
       992.434  
  19971195.630   104949341.32148       333.414    19971195.065    81778705.19848
       259.800  
  21756002.886   114328566.78848      2418.218    21756004.786    89087205.42549
      1884.324  
 20 10 01 07 37 15.0000000  0  9G 8G27G13G15G21G18G24G20G10
  24643379.546   129501831.57745      -248.202    24643383.780   100910536.07248
      -193.409  
  24520801.698   128857679.11046     -1975.343    24520804.061   100408592.02149
     -1539.230  
  24215208.779   127251789.63945     -3532.434    24215210.656    99157230.92543
     -2752.547  
  21534194.325   113162972.34048     -2681.601    21534194.195    88178945.97649
     -2089.563  
  24508886.710   128795064.89348      2516.094    24508886.851   100359792.07044
      1960.594  
  21900338.628   115087060.16848     -2971.031    21900339.209    89678233.41347
     -2315.097  
  20764757.226   109119567.90749      1270.085    20764760.392    85028257.23949
       989.676  
  19970879.749   104947681.51548       330.624    19970879.045    81777411.83448
       257.625  
  21753702.792   114316479.27648      2416.805    21753704.528    89077786.59448
      1883.223  
 20 10 01 07 37 20.0000000  0  9G 8G27G13G15G21G18G24G20G10
  24643617.335   129503080.57846      -251.633    24643621.255   100911509.33949
      -196.082  
  24522682.028   128867560.93546     -1977.098    24522684.488   100416292.14949
     -1540.597  
  24218570.230   127269453.74545     -3533.487    24218572.154    99170995.10355
     -2753.374  
  21536746.575   113176384.19049     -2683.015    21536746.432    88189396.77549
     -2090.664  
  24506493.596   128782488.18148      2515.074    24506493.637   100349992.04045
      1959.793  
  21903166.542   115101921.99148     -2973.223    21903167.396    89689814.05546
     -2316.789  
  20763550.184   109113224.98249      1267.172    20763553.265    85023314.69349
       987.402  
  19970566.321   104946034.78148       328.285    19970565.721    81776128.67148
       255.804  
  21751403.861   114304398.59648      2415.801    21751405.712    89068373.07748
      1882.437  
 20 10 01 07 37 25.0000000  0  9G 8G27G13G15G21G18G24G20G10
  24643858.098   129504345.82345      -254.828    24643862.006   100912495.23448
      -198.569  
  24524564.928   128877455.55046     -1979.956    24524567.422   100424002.23149
     -1542.827  
  24221932.099   127287120.48345     -3534.253    24221934.291    99184761.39942
     -2753.969  
  21539300.344   113189804.65149     -2684.683    21539300.399    88199854.27949
     -2091.964  
  24504102.012   128769920.13448      2512.741    24504101.890   100340198.73345
      1957.976  
  21905996.985   115116795.19248     -2975.679    21905997.478    89701403.57946
     -2318.714  
  20762346.576   109106899.85749      1263.195    20762349.738    85018386.01549
       984.305  
  19970255.746   104944402.38448       325.042    19970255.063    81774856.67148
       253.276  
  21749106.628   114292326.05548      2413.766    21749108.105    89058965.88848
      1880.851  
 20 10 01 07 37 30.0000000  0  9G 8G27G13G15G21G18G24G20G10
  24644101.977   129505626.00945      -257.328    24644105.506   100913492.73149
      -200.523  
  24526449.905   128887361.73246     -1982.503    24526452.565   100431721.32749
     -1544.813  
  24225294.131   127304788.39645     -3533.590    24225296.246    99198528.60545
     -2753.448  
  21541855.628   113203232.25848     -2686.319    21541855.550    88210317.35049
     -2093.237  
  24501711.743   128757359.34548      2511.516    24501711.855   100330411.12845
      1957.022  
  21908829.123   115131678.42848     -2977.905    21908829.549    89713000.87347
     -2320.449  
  20761146.197   109100591.25949      1260.039    20761149.154    85013470.23049
       981.844  
  19969947.459   104942782.95548       322.468    19969946.851    81773594.78048
       251.270  
  21746810.569   114280260.27248      2412.343    21746811.969    89049563.96749
      1879.745  
 20 10 01 07 37 35.0000000  0  9G 8G27G13G15G21G18G24G20G10
  24644348.862   129506922.55545      -261.327    24644352.405   100914503.05649
      -203.637  
  24528337.371   128897280.65146     -1984.815    24528340.073   100439450.35449
     -1546.613  
  24228656.567   127322458.92945     -3534.276    24228658.910    99212297.87144
     -2753.983  
  21544412.431   113216668.34749     -2688.066    21544412.420    88220787.02549
     -2094.602  
  24499323.170   128744807.21547      2509.507    24499323.274   100320630.25845
      1955.456  
  21911663.340   115146572.96548     -2980.128    21911663.872    89724606.98647
     -2322.179  
  20759949.041   109094300.59849      1256.409    20759951.986    85008568.43349
       979.019  
  19969642.047   104941177.84348       319.601    19969641.580    81772344.02948
       249.035  
  21744515.997   114268202.59248      2410.809    21744517.536    89040168.39849
      1878.551  
 20 10 01 07 37 40.0000000  0  9G 8G27G13G15G21G18G24G20G10
  24644598.395   129508234.14645      -264.039    24644602.105   100915525.09749
      -205.745  
  24530227.112   128907211.33745     -1988.140    24530229.778   100447188.53649
     -1549.203  
  24232019.369   127340130.82444     -3534.999    24232022.043    99226068.15244
     -2754.546  
  21546970.556   113230111.79348     -2689.522    21546970.509    88231262.44049
     -2095.734  
  24496935.895   128732262.56547      2507.847    24496936.113   100310855.20245
      1954.164  
  21914499.697   115161477.68148     -2982.167    21914500.400    89736221.06347
     -2323.770  
  20758755.120   109088026.59649      1252.770    20758758.022    85003679.59949
       976.180  
  19969339.091   104939585.89548       316.921    19969338.491    81771103.55748
       246.949  
  21742222.745   114256151.87848      2409.215    21742224.364    89030778.24548
      1877.309  
 20 10 01 07 37 45.0000000  0  9G 8G27G13G15G21G18G24G20G10
  24644850.942   129509561.13146      -266.945    24644854.515   100916559.11248
      -208.012  
  24532118.926   128917153.79446     -1990.086    24532121.693   100454935.89549
     -1550.718  
  24235382.499   127357804.37545     -3535.027    24235385.196    99239839.73044
     -2754.570  
  21549530.184   113243562.85448     -2690.988    21549530.084    88241743.78449
     -2096.878  
  24494550.175   128719725.67347      2506.730    24494550.463   100301086.20746
      1953.293  
  21917337.922   115176392.84248     -2984.184    21917338.623    89747843.26647
     -2325.340  
  20757564.448   109081769.53849      1249.651    20757567.223    84998803.97749
       973.750  
  19969038.809   104938007.37248       314.452    19969038.094    81769873.54348
       245.023  
  21739930.987   114244108.35848      2408.023    21739932.434    89021393.70349
      1876.382  
 20 10 01 07 37 50.0000000  0  9G 8G27G13G15G21G18G24G20G10
  24645106.333   129510903.87645      -269.905    24645109.885   100917605.40348
      -210.320  
  24534013.289   128927108.45646     -1992.101    24534016.039   100462692.77049
     -1552.288  
  24238745.838   127375479.81245     -3535.594    24238748.570    99253612.78143
     -2755.012  
  21552091.318   113257021.79948     -2692.394    21552091.336    88252231.27949
     -2097.980  
  24492165.928   128707196.81247      2505.206    24492166.297   100291323.47645
      1952.104  
  21920178.241   115191318.66548     -2986.020    21920178.813    89759473.77646
     -2326.773  
  20756377.000   109075529.80548      1246.222    20756379.854    84993941.84049
       971.078  
  19968741.008   104936442.57148       311.562    19968740.385    81768654.22548
       242.773  
  21737640.604   114232072.40948      2406.535    21737642.227    89012015.03348
      1875.218  
 20 10 01 07 37 55.0000000  0  9G 8G27G13G15G21G18G24G20G10
  24645364.801   129512262.22845      -273.159    24645368.227   100918663.86349
      -212.855  
  24535909.919   128937075.12645     -1994.402    24535912.865   100470459.01749
     -1554.082  
  24242109.821   127393157.00545     -3535.004    24242112.506    99267387.22143
     -2754.551  
  21554653.990   113270488.48148     -2694.113    21554653.813    88262724.78849
     -2099.313  
  24489783.253   128694675.92547      2503.468    24489783.552   100281566.94146
      1950.749  
  21923020.617   115206255.04748     -2988.151    21923021.189    89771112.51846
     -2328.433  
  20755192.991   109069307.10648      1242.913    20755195.651    84989092.97649
       968.500  
  19968445.873   104934891.34548       308.934    19968445.129    81767445.48048
       240.722  
  21735351.571   114220043.83648      2405.144    21735353.237    89002642.09748
      1874.132  
 20 10 01 07 38  0.0000000  0  9G 8G27G13G15G21G18G24G20G10
  24645626.340   129513636.37445      -276.285    24645629.727   100919734.60149
      -215.288  
  24537808.781   128947054.12346     -1997.473    24537811.643   100478234.84949
     -1556.477  
  24245473.979   127410836.27245     -3536.320    24245476.599    99281163.24444
     -2755.582  
  21557218.170   113283963.14848     -2695.722    21557218.001    88273224.52149
     -2100.566  
  24487402.295   128682163.31447      2501.765    24487402.483   100271816.86045
      1949.425  
  21925864.896   115221202.24148     -2990.434    21925865.516    89782759.65447
     -2330.211  
  20754012.022   109063101.94648      1239.340    20754014.872    84984257.78949
       965.715  
  19968153.371   104933354.04948       305.979    19968152.557    81766247.57348
       238.421  
  21733064.021   114208022.92848      2403.308    21733065.699    88993275.16849
      1872.702  
 20 10 01 07 38  5.0000000  0  9G 8G27G13G15G21G18G24G20G10
  24645890.532   129515025.43044      -279.633    24645894.206   100920817.00349
      -217.898  
  24539709.800   128957044.44846     -1999.249    24539712.884   100486019.49249
     -1557.858  
  24248838.416   127428516.70045     -3536.840    24248841.096    99294940.17344
     -2755.984  
  21559783.527   113297444.94348     -2696.835    21559783.419    88283729.82249
     -2101.433  
  24485022.684   128669658.03048      2500.473    24485022.908   100262072.49245
      1948.418  
  21928711.094   115236159.35948     -2992.343    21928711.832    89794414.56246
     -2331.698  
  20752834.462   109056913.26448      1236.285    20752837.276    84979435.44749
       963.335  
  19967863.191   104931829.73748       303.683    19967862.438    81765059.80248
       236.633  
  21730777.836   114196008.82148      2402.191    21730779.422    88983913.52548
      1871.836  
 20 10 01 07 38 10.0000000  0  9G 8G27G13G15G21G18G24G20G10
  24646157.732   129516430.29345      -282.465    24646161.261   100921911.73748
      -220.101  
  24541613.286   128967047.12046     -2001.156    24541616.347   100493813.78949
     -1559.348  
  24252203.462   127446199.16545     -3536.645    24252205.909    99308718.77045
     -2755.831  
  21562350.593   113310934.83848     -2698.601    21562350.566    88294241.42149
     -2102.770  
  24482644.620   128657161.03148      2498.835    24482644.777   100252334.57146
      1947.140  
  21931559.394   115251127.34148     -2994.503    21931560.048    89806077.90846
     -2333.383  
  20751660.175   109050742.00149      1232.601    20751662.822    84974626.66149
       960.465  
  19967575.831   104930319.36948       300.866    19967575.002    81763882.89448
       234.438  
  21728493.153   114184002.50948      2400.663    21728494.611    88974557.95149
      1870.645  
 20 10 01 07 38 15.0000000  0  9G 8G27G13G15G21G18G24G20G10
  24646427.712   129517849.67345      -285.589    24646431.364   100923017.70149
      -222.543  
  24543518.770   128977060.72446     -2003.878    24543521.994   100501616.56749
     -1561.469  
  24255568.555   127463882.38045     -3537.234    24255570.654    99322497.83743
     -2756.289  
  21564919.016   113324431.34048     -2700.215    21564918.906    88304758.18849
     -2104.066  
  24480267.630   128644670.95547      2497.124    24480268.094   100242602.04545
      1945.809  
  21934409.388   115266104.75548     -2996.937    21934410.229    89817748.63846
     -2335.277  
  20750488.745   109044586.84349      1229.043    20750491.542    84969830.43449
       957.690  
  19967290.747   104928821.58748       297.960    19967290.038    81762715.79648
       232.175  
  21726209.628   114172002.56948      2398.940    21726211.277    88965207.36149
      1869.304  
 20 10 01 07 38 20.0000000  0 10G 8G27G13G15G21G18G24G32G20G10
  24646701.030   129519285.68845      -288.722    24646704.705   100924136.67549
      -224.979  
  24545426.817   128987087.41946     -2006.655    24545430.056   100509429.57149
     -1563.632  
  24258934.080   127481568.46045     -3536.883    24258936.047    99336279.27842
     -2756.007  
  21567488.953   113337936.66548     -2701.972    21567488.736    88315281.80549
     -2105.437  
  24477892.564   128632189.96647      2495.265    24477892.892   100232876.61545
      1944.359  
  21937261.675   115281093.77948     -2998.808    21937262.651    89829428.39447
     -2336.737  
  20749320.917   109038449.99448      1225.711    20749323.718    84965048.48449
       955.097  
  24576417.485   129149945.60455      3336.597    24576420.915   100636335.77455
      2599.945  
  19967008.536   104927338.52648       295.323    19967007.980    81761560.15748
       230.121  
  21723927.841   114160011.16548      2397.516    21723929.417    88955863.43149
      1868.190  
 20 10 01 07 38 25.0000000  0 10G 8G27G13G15G21G18G24G32G20G10
  24646976.568   129520733.36945      -290.824    24646980.196   100925264.73449
      -226.620  
  24547336.416   128997122.11646     -2007.238    24547339.520   100517248.82249
     -1564.085  
  24262299.253   127499252.43445     -3536.695    24262301.036    99350058.91142
     -2755.879  
  21570059.654   113351445.72848     -2701.862    21570059.554    88325808.34549
     -2105.352  
  24475518.473   128619713.03347      2495.382    24475518.635   100223154.33345
      1944.449  
  21940115.257   115296089.39048     -2999.659    21940116.284    89841113.26347
     -2337.401  
  20748155.745   109032326.43949      1223.473    20748158.370    84960276.89049
       953.352  
  24573243.358   129133258.27055      3336.901    24573245.698   100623333.97756
      2600.179  
  19966728.238   104925865.17548       293.854    19966727.655    81760412.08648
       228.976  
  21721646.564   114148023.28648      2397.547    21721648.272    88946522.21049
      1868.215  
 20 10 01 07 38 30.0000000  0  9G 8G27G13G15G21G18G24G20G10
  24647255.151   129522197.74045      -296.276    24647258.897   100926405.81049
      -230.867  
  24549248.297   129007169.96646     -2013.148    24549251.720   100525078.30549
     -1568.690  
  24265665.075   127516939.26045     -3539.433    24265666.669    99363840.86644
     -2758.003  
  21572632.067   113364963.66048     -2706.444    21572631.848    88336341.80249
     -2108.922  
  24473145.870   128607245.32647      2490.565    24473146.103   100213439.24545
      1940.698  
  21942970.925   115311096.62348     -3004.684    21942972.089    89852807.21146
     -2341.315  
  20746994.001   109026221.18448      1217.070    20746996.668    84955519.54149
       948.363  
  19966450.595   104924406.61948       288.355    19966450.013    81759275.56448
       224.688  
  21719367.023   114136044.05848      2392.929    21719368.625    88937187.75248
      1864.616  
 20 10 01 07 38 35.0000000  0  9G 8G27G13G15G21G18G24G20G10
  24647538.235   129523685.57745      -298.679    24647542.259   100927565.16249
      -232.742  
  24551164.162   129017237.65246     -2013.520    24551167.564   100532923.24149
     -1568.979  
  24269032.611   127534635.87645     -3539.237    24269034.447    99377630.44644
     -2757.852  
  21575207.542   113378497.18648     -2706.944    21575207.323    88346887.41349
     -2109.313  
  24470776.328   128594793.58047      2490.261    24470776.516   100203736.58845
      1940.460  
  21945830.264   115326122.27048     -3005.488    21945831.317    89864515.52146
     -2341.941  
  20745837.040   109020141.09349      1214.839    20745839.559    84950781.81149
       946.624  
  19966177.162   104922969.65748       286.601    19966176.514    81758155.85048
       223.324  
  21717090.348   114124080.21048      2392.503    21717092.050    88927865.27449
      1864.284  
 20 10 01 07 38 40.0000000  0 10G 8G27G13G15G21G18G24G32G20G10
  24647822.774   129525180.46345      -299.871    24647826.933   100928730.01049
      -233.668  
  24553080.665   129027308.97846     -2014.597    24553084.120   100540771.02748
     -1569.819  
  24272398.871   127552325.88145     -3537.222    24272400.587    99391414.88043
     -2756.281  
  21577782.819   113392030.10848     -2706.738    21577782.563    88357432.52549
     -2109.147  
  24468406.764   128582341.53047      2490.347    24468406.953   100194033.68644
      1940.527  
  21948689.977   115341150.10148     -3005.870    21948691.077    89876225.48247
     -2342.246  
  20744681.594   109014069.90649      1213.155    20744684.476    84946051.03349
       945.312  
  24563722.313   129083238.68554      3336.069    24563728.652   100584359.20056
      2599.531  
  19965904.848   104921538.07748       285.516    19965904.219    81757040.31748
       222.476  
  21714813.449   114112115.58748      2392.871    21714815.303    88918542.19149
      1864.569  
 20 10 01 07 38 45.0000000  0 10G 8G27G13G15G21G18G24G32G20G10
  24648110.397   129526692.62245      -304.597    24648114.659   100929908.32549
      -237.352  
  24554999.753   129037393.88146     -2019.347    24555003.098   100548629.39049
     -1573.519  
  24275765.940   127570019.32445     -3539.926    24275767.585    99405201.95743
     -2758.394  
  21580359.789   113405572.36548     -2710.090    21580359.522    88367984.93049
     -2111.762  
  24466039.105   128569899.20947      2486.636    24466039.304   100184338.37245
      1937.636  
  21951551.981   115356190.03248     -3009.714    21951552.955    89887944.89346
     -2345.233  
  20743529.949   109008017.53249      1207.922    20743532.550    84941334.89949
       941.234  
  24560550.069   129066567.24145      3333.156    24560556.309   100571368.48945
      2597.261  
  19965635.207   104920121.75748       281.437    19965634.603    81755936.69248
       219.296  
  21712538.477   114100160.09148      2389.613    21712540.269    88909226.21248
      1862.031  
 20 10 01 07 38 50.0000000  0 10G 8G27G13G15G21G18G24G32G20G10
  24648401.771   129528223.07945      -308.102    24648405.811   100931100.88849
      -240.082  
  24556921.732   129047493.35646     -2021.371    24556925.068   100556499.09949
     -1575.098  
  24279133.729   127587717.08044     -3540.207    24279135.652    99418992.37742
     -2758.612  
  21582938.676   113419124.91348     -2711.422    21582938.639    88378545.35849
     -2112.800  
  24463673.389   128557467.50747      2485.397    24463673.683   100174651.33046
      1936.671  
  21954416.503   115371243.00848     -3011.921    21954417.545    89899674.50647
     -2346.909  
  20742382.122   109001985.06649      1204.593    20742384.758    84936634.25949
       938.641  
  24557377.157   129049888.97355      3333.534    24557383.912   100558386.83455
      2597.559  
  19965368.774   104918721.74048       278.405    19965368.169    81754845.78048
       216.937  
  21710265.221   114088214.73948      2387.965    21710267.193    88899918.15949
      1860.749  
 20 10 01 07 38 55.0000000  0 10G 8G27G13G15G21G18G24G32G20G10
  24648696.045   129529769.22045      -310.250    24648700.108   100932305.67249
      -241.757  
  24558845.810   129057604.86146     -2022.995    24558849.216   100564378.19849
     -1576.363  
  24282501.729   127605416.66445     -3540.019    24282504.034    99432784.30843
     -2758.461  
  21585519.250   113432685.32848     -2712.797    21585518.999    88389111.90549
     -2113.870  
  24461309.388   128545044.12747      2483.761    24461309.465   100164970.78246
      1935.394  
  21957282.905   115386306.61648     -3013.523    21957284.056    89911412.35547
     -2348.203  
  20741237.328   108995969.97748      1201.227    20741240.154    84931947.20349
       936.016  
  24554207.218   129033225.55445      3333.319    24554212.322   100545402.32846
      2597.391  
  19965105.016   104917335.58848       275.988    19965104.404    81753765.64648
       215.051  
  21707993.640   114076277.06148      2386.745    21707995.559    88890616.06949
      1859.800  
 20 10 01 07 39  0.0000000  0  9G 8G27G13G15G21G18G24G20G10
  24648992.706   129531328.21845      -312.973    24648996.764   100933520.49049
      -243.879  
  24560771.758   129067725.60045     -2025.233    24560775.082   100572264.48449
     -1578.109  
  24285869.775   127623115.33245     -3539.875    24285872.000    99446575.44343
     -2758.348  
  21588100.601   113446250.69948     -2713.629    21588100.556    88399682.32649
     -2114.520  
  24458946.369   128532626.13147      2482.641    24458946.526   100155294.44245
      1934.523  
  21960150.864   115401377.96848     -3015.211    21960152.060    89923156.29047
     -2349.520  
  20740095.574   108989969.39648      1198.566    20740098.199    84927271.40149
       933.944  
  19964843.349   104915960.42448       273.793    19964842.870    81752694.11448
       213.344  
  21705722.878   114064344.25148      2385.886    21705724.639    88881317.78449
      1859.129  
 20 10 01 07 39  5.0000000  0 10G 8G27G13G15G21G18G24G32G20G10
  24649292.391   129532903.04245      -316.789    24649296.323   100934747.60449
      -246.851  
  24562699.948   129077858.42945     -2028.094    24562703.369   100580160.18448
     -1580.335  
  24289237.998   127640815.90444     -3540.812    24289240.784    99460368.14241
     -2759.074  
  21590683.663   113459824.03449     -2715.727    21590683.329    88410258.94349
     -2116.151  
  24456584.784   128520216.51248      2480.913    24456585.042   100145624.62545
      1933.180  
  21963020.873   115416459.99948     -3017.848    21963021.997    89934908.48447
     -2351.578  
  20738957.012   108983986.20949      1194.629    20738959.702    84922609.19849
       930.874  
  24547866.074   128999911.61555      3331.159    24547870.873   100519435.62356
      2595.698  
  19964584.341   104914599.23148       270.566    19964583.761    81751633.42048
       210.828  
  21703453.598   114052419.22948      2384.003    21703455.415    88872025.53649
      1857.663  
 20 10 01 07 39 10.0000000  0 10G 8G27G13G15G21G18G24G32G20G10
  24649594.707   129534492.34545      -319.136    24649598.816   100935986.04349
      -248.679  
  24564630.272   129088002.22546     -2030.054    24564633.597   100588064.42449
     -1581.862  
  24292606.595   127658517.21944     -3540.608    24292608.944    99474161.35343
     -2758.917  
  21593267.656   113473403.97648     -2716.542    21593267.544    88420840.71549
     -2116.789  
  24454224.567   128507813.98648      2479.969    24454225.001   100135960.33945
      1932.444  
  21965892.811   115431551.38448     -3018.797    21965893.856    89946668.01746
     -2352.313  
  20737821.538   108978019.25248      1191.906    20737824.143    84917959.61449
       928.753  
  24544696.987   128983252.76345      3331.546    24544700.383   100506454.68447
      2596.007  
  19964327.617   104913250.70348       268.644    19964327.085    81750582.62548
       209.332  
  21701185.473   114040500.77648      2383.054    21701187.427    88862738.43849
      1856.921  
 20 10 01 07 39 15.0000000  0 10G 8G27G13G15G21G18G24G32G20G10
  24649899.876   129536096.98945      -322.866    24649904.053   100937236.40749
      -251.590  
  24566562.706   129098157.64345     -2032.937    24566566.019   100595977.74449
     -1584.108  
  24295974.837   127676213.98055     -3541.198    24295973.427    99487956.66053
     -2759.379  
  21595853.352   113486991.37148     -2718.645    21595853.239    88431428.30049
     -2118.425  
  24451866.064   128495419.40648      2477.589    24451866.414   100126302.22545
      1930.586  
  21968766.662   115446653.04348     -3021.680    21968767.403    89958435.52446
     -2354.559  
  20736689.298   108972069.57349      1187.844    20736691.997    84913323.51049
       925.590  
  24541527.560   128966596.40745      3330.464    24541531.221   100493475.71247
      2595.163  
  19964073.596   104911915.68948       265.257    19964073.094    81749542.35348
       206.691  
  21698918.847   114028589.66848      2381.215    21698920.946    88853457.05049
      1855.487  
 20 10 01 07 39 20.0000000  0 10G 8G27G13G15G21G18G24G32G20G10
  24650208.469   129537718.93745      -325.457    24650212.690   100938500.25549
      -253.604  
  24568497.838   129108326.67146     -2034.746    24568501.173   100603901.62549
     -1585.523  
  24299344.992   127693920.20344     -3540.777    24299347.303    99501753.74145
     -2759.051  
  21598440.796   113500588.16749     -2719.597    21598440.661    88442023.20149
     -2119.172  
  24449509.301   128483034.69247      2476.663    24449509.503   100116651.78645
      1929.863  
  21971642.612   115461766.82448     -3023.257    21971643.437    89970212.49547
     -2355.788  
  20735560.651   108966138.80749      1184.988    20735563.517    84908702.13849
       923.363  
  24538358.504   128949944.43545      3330.589    24538362.440   100480500.14746
      2595.262  
  19963822.601   104910596.10548       262.956    19963822.029    81748514.09848
       204.898  
  21696653.942   114016687.92348      2380.230    21696655.899    88844182.96449
      1854.723  
 20 10 01 07 39 25.0000000  0  9G 8G27G15G21G18G24G32G20G10
  24650520.352   129539357.11445      -329.397    24650524.280   100939776.75749
      -256.675  
  24570435.469   129118508.33645     -2037.929    24570438.736   100611835.37549
     -1587.999  
  21601029.738   113514193.39848     -2722.082    21601029.540    88452624.66649
     -2121.104  
  24447154.235   128470658.86247      2474.168    24447154.574   100107008.27645
      1927.918  
  21974520.841   115476891.73848     -3026.203    21974521.686    89981998.13247
     -2358.082  
  20734435.619   108960226.13148      1180.690    20734438.220    84904094.86049
       920.016  
  24535190.164   128933295.88545      3329.472    24535194.033   100467527.30046
      2594.394  
  19963574.062   104909290.99448       259.457    19963573.652    81747497.13048
       202.171  
  21694390.786   114004794.48548      2377.828    21694392.830    88834915.35649
      1852.852  
 20 10 01 07 39 30.0000000  0 10G 8G27G13G15G21G18G24G32G20G10
  24650834.366   129541007.54645      -331.632    24650838.256   100941062.81249
      -258.417  
  24572374.544   129128698.49346     -2038.519    24572377.779   100619775.77649
     -1588.461  
  24306085.497   127729340.01654     -3541.030    24306085.186    99529361.52854
     -2759.237  
  21603619.441   113527802.94548     -2722.065    21603619.397    88463229.51249
     -2121.066  
  24444800.071   128458287.92847      2474.081    24444800.321   100097368.59746
      1927.852  
  21977400.440   115492023.75448     -3026.922    21977401.197    89993789.30946
     -2358.644  
  20733313.055   108954327.39348      1178.644    20733315.859    84899498.44649
       918.422  
  24532021.786   128916646.82245      3330.546    24532025.849   100454553.99146
      2595.226  
  19963327.822   104907996.30748       258.124    19963327.252    81746488.28848
       201.132  
  21692128.303   113992905.33748      2377.676    21692130.502    88825651.09749
      1852.729  
 20 10 01 07 39 35.0000000  0  9G 8G27G15G21G18G24G32G20G10
  24651151.736   129542675.36945      -335.863    24651155.623   100942362.40749
      -261.714  
  24574316.321   129138902.38445     -2043.097    24574319.494   100627726.83549
     -1592.026  
  21606211.037   113541421.96648     -2725.276    21606210.934    88473841.73549
     -2123.559  
  24442448.040   128445927.01647      2470.749    24442448.021   100087736.72945
      1925.258  
  21980282.291   115507167.98848     -3030.520    21980283.172    90005590.01546
     -2361.445  
  20732194.121   108948447.88549      1173.460    20732197.170    84894917.00949
       914.382  
  24528854.487   128900002.30145      3327.582    24528858.621   100441584.25547
      2592.917  
  19963084.439   104906717.22448       253.715    19963083.766    81745491.59748
       197.694  
  21689867.553   113981025.73848      2374.375    21689869.902    88816394.25549
      1850.159  
 20 10 01 07 39 40.0000000  0  9G 8G27G15G21G18G24G32G20G10
  24651472.633   129544361.22645      -338.218    24651476.463   100943676.07049
      -263.551  
  24576260.761   129149120.57646     -2044.785    24576264.164   100635689.09149
     -1593.339  
  21608804.742   113555051.13448     -2726.520    21608804.426    88484461.87149
     -2124.562  
  24440097.728   128433576.82547      2469.512    24440097.956   100078113.19846
      1924.293  
  21983166.800   115522325.08848     -3032.222    21983167.329    90017400.75147
     -2362.773  
  20731079.168   108942588.20548      1170.285    20731082.118    84890351.02449
       911.906  
  24525687.501   128883362.96045      3327.558    24525692.182   100428618.52846
      2592.897  
  19962844.104   104905454.38548       251.315    19962843.443    81744507.57648
       195.827  
  21687608.925   113969156.19148      2373.269    21687611.242    88807145.26349
      1849.297  
 20 10 01 07 39 45.0000000  0  9G 8G27G15G21G18G24G32G20G10
  24651795.749   129546059.46145      -340.776    24651799.556   100944999.36249
      -265.542  
  24578206.900   129159347.38645     -2046.003    24578210.291   100643658.03149
     -1594.292  
  21611399.037   113568684.71648     -2727.050    21611398.909    88495085.43749
     -2124.976  
  24437748.528   128421231.62947      2468.515    24437748.604   100068493.58845
      1923.515  
  21986052.450   115537489.37548     -3033.722    21986053.220    90029217.08547
     -2363.941  
  20729966.707   108936742.71648      1167.629    20729969.720    84885796.09649
       909.835  
  24522521.378   128866723.18245      3328.007    24522525.428   100415652.47946
      2593.250  
  19962605.854   104904202.11848       249.300    19962605.068    81743531.78448
       194.258  
  21685351.084   113957291.15548      2372.491    21685353.319    88797899.78849
      1848.691  
 20 10 01 07 39 50.0000000  0  8G 8G27G15G21G18G24G20G10
  24652122.190   129547774.35745      -344.887    24652125.843   100946335.67149
      -268.745  
  24580155.507   129169587.22945     -2049.280    24580158.864   100651637.11249
     -1596.847  
  21613995.227   113582327.06949     -2729.285    21613994.892    88505715.83649
     -2126.719  
  24435401.067   128408895.86047      2466.113    24435401.247   100058881.30646
      1921.644  
  21988940.377   115552665.19148     -3036.194    21988941.061    90041042.37347
     -2365.871  
  20728857.861   108930915.81249      1163.507    20728860.760    84881255.65549
       906.625  
  19962370.285   104902964.78948       245.918    19962369.649    81742567.62348
       191.621  
  21683094.761   113945434.94648      2370.046    21683097.364    88788661.18849
      1846.784  
 20 10 01 07 39 55.0000000  0  8G 8G27G15G21G18G24G20G10
  24652451.360   129549504.00446      -346.983    24652454.993   100947683.42249
      -270.378  
  24582106.003   129179837.93745     -2050.827    24582109.414   100659624.69449
     -1598.050  
  21616592.543   113595976.17749     -2730.277    21616592.340    88516351.51249
     -2127.491  
  24433055.086   128396567.39347      2465.222    24433055.090   100049274.71545
      1920.948  
  21991829.989   115567850.42348     -3037.891    21991830.857    90052875.01347
     -2367.191  
  20727752.235   108925105.11748      1160.730    20727754.961    84876727.84149
       904.461  
  19962137.367   104901740.32948       243.769    19962136.664    81741613.49848
       189.944  
  21680839.964   113933585.43748      2369.312    21680842.361    88779427.79749
      1846.215  
 20 10 01 07 40  0.0000000  0  9G 8G27G15G21G18G24G32G20G10
  24652783.367   129551249.74445      -351.308    24652787.121   100949043.74349
      -273.750  
  24584059.177   129190101.12546     -2054.246    24584062.377   100667621.93749
     -1600.718  
  21619191.401   113609633.55348     -2732.496    21619191.227    88526993.61649
     -2129.222  
  24430710.668   128384247.83447      2463.000    24430710.931   100039675.05745
      1919.218  
  21994721.707   115583046.63048     -3040.402    21994722.566    90064716.20347
     -2369.148  
  20726649.858   108919312.42849      1156.695    20726652.865    84872214.06949
       901.316  
  24513025.690   128816819.69355      3325.433    24513027.994   100376748.98457
      2591.241  
  19961907.143   104900530.30948       240.445    19961906.372    81740670.61448
       187.355  
  21678586.733   113921744.25448      2367.128    21678589.038    88770200.90749
      1844.512  
 20 10 01 07 40  5.0000000  0  9G 8G27G15G21G18G24G32G20G10
  24653118.472   129553010.20045      -353.508    24653122.168   100950415.55049
      -275.465  
  24586014.229   129200375.24345     -2055.808    24586017.515   100675627.77449
     -1601.929  
  21621791.585   113623297.70348     -2733.523    21621791.567    88537641.00949
     -2130.020  
  24428367.755   128371935.71147      2461.573    24428367.961   100030081.20545
      1918.105  
  21997615.327   115598252.36048     -3042.082    21997615.946    90076564.82847
     -2370.457  
  20725550.708   108913536.35848      1153.734    20725553.638    84867713.23049
       899.011  
  24509862.029   128800191.00945      3325.386    24509865.136   100363791.60846
      2591.210  
  19961679.356   104899333.24548       238.194    19961678.514    81739737.85348
       185.605  
  21676334.632   113909909.97448      2366.445    21676337.172    88760979.39349
      1844.007  
 20 10 01 07 40 10.0000000  0  9G 8G27G15G21G18G24G32G20G10
  24653456.063   129554784.69044      -356.343    24653459.897   100951798.24349
      -277.672  
  24587971.232   129210659.61146     -2058.578    24587974.624   100683641.55849
     -1604.090  
  21624392.894   113636967.92348     -2735.179    21624392.862    88548293.12849
     -2131.288  
  24426026.193   128359630.37347      2459.879    24426026.264   100020492.62945
      1916.784  
  22000510.470   115613466.84848     -3044.097    22000511.319    90088420.27047
     -2372.027  
  20724454.615   108907776.16148      1149.913    20724457.304    84863224.77049
       896.035  
  24506697.998   128783563.57445      3325.280    24506701.167   100350835.12245
      2591.117  
  19961453.861   104898148.44848       235.323    19961453.101    81738814.63948
       183.366  
  21674083.842   113898081.83648      2364.569    21674086.329    88751762.65949
      1842.520  
 20 10 01 07 40 15.0000000  0  9G 8G27G15G21G18G24G32G20G10
  24653796.879   129556575.44045      -359.164    24653800.583   100953193.64049
      -279.871  
  24589930.677   129220956.34845     -2059.652    24589933.886   100691664.97349
     -1604.929  
  21626995.934   113650646.30648     -2736.262    21626995.662    88558951.59849
     -2132.156  
  24423686.192   128347333.86647      2458.555    24423686.179   100010910.93345
      1915.754  
  22003407.888   115628692.25448     -3045.874    22003408.591    90100284.21147
     -2373.413  
  20723361.759   108902033.88649      1146.945    20723364.661    84858750.26649
       893.719  
  24503535.104   128766939.48344      3324.644    24503537.935   100337881.30745
      2590.628  
  19961231.217   104896978.04248       232.934    19961230.376    81737902.61948
       181.503  
  21671834.745   113886262.00548      2363.511    21671837.197    88742552.40649
      1841.694  
 20 10 01 07 40 20.0000000  0  8G 8G27G15G21G18G24G20G10
  24654140.810   129558382.74545      -363.891    24654144.454   100954601.95149
      -283.554  
  24591892.418   129231265.92846     -2063.574    24591895.811   100699698.38649
     -1607.984  
  21629600.480   113664333.41048     -2738.733    21629600.171    88569616.87449
     -2134.073  
  24421348.076   128335046.73547      2455.836    24421348.079   100001336.55646
      1913.636  
  22006307.379   115643929.09248     -3049.065    22006308.108    90112157.06147
     -2375.898  
  20722272.691   108896310.04449      1142.281    20722275.457    84854290.12949
       890.085  
  19961011.255   104895822.53848       228.991    19961010.591    81737002.22948
       178.433  
  21669587.170   113874451.01348      2360.680    21669589.780    88733349.04549
      1839.488  
 20 10 01 07 40 25.0000000  0  8G 8G27G15G21G18G24G20G10
  24654488.270   129560208.06745      -365.976    24654491.931   100956024.28149
      -285.179  
  24593857.057   129241589.73646     -2065.663    24593860.199   100707742.94449
     -1609.613  
  21632206.943   113678030.56048     -2739.722    21632206.674    88580289.97649
     -2134.851  
  24419012.050   128322770.36947      2454.772    24419011.905    99991770.56546
      1912.808  
  22009209.175   115659178.66348     -3050.781    22009209.836    90124039.83747
     -2377.234  
  20721187.271   108890606.06149      1139.500    20721189.920    84849845.47149
       887.918  
  19960794.511   104894683.29048       226.766    19960793.723    81736114.50348
       176.698  
  21667341.516   113862650.20748      2359.652    21667344.038    88724153.60649
      1838.688  
 20 10 01 07 40 30.0000000  0  8G 8G27G15G21G18G24G20G10
  24654838.018   129562046.37944      -368.891    24654841.688   100957456.72949
      -287.449  
  24595823.327   129251922.70945     -2067.539    24595826.571   100715794.59349
     -1611.073  
  21634814.317   113691732.65348     -2740.991    21634814.119    88590966.93149
     -2135.840  
  24416677.003   128310499.77147      2453.405    24416677.063    99982209.05745
      1911.742  
  22012112.535   115674435.92048     -3052.206    22012113.276    90135928.62647
     -2378.344  
  20720104.485   108884916.95048      1136.214    20720107.300    84845412.41749
       885.359  
  19960579.840   104893555.25348       224.461    19960579.055    81735235.53548
       174.902  
  21665096.804   113850854.54348      2358.456    21665099.547    88714962.16649
      1837.750  
 20 10 01 07 40 35.0000000  0  8G 8G27G15G21G18G24G20G10
  24655190.604   129563899.51445      -372.573    24655194.369   100958900.70949
      -290.319  
  24597791.602   129262266.75545     -2069.949    24597794.915   100723854.88649
     -1612.949  
  21637423.027   113705441.67648     -2742.508    21637423.001    88601649.27649
     -2137.022  
  24414343.496   128298236.82647      2451.722    24414343.420    99972653.52345
      1910.430  
  22015017.770   115689702.81548     -3054.679    22015018.470    90147824.87847
     -2380.273  
  20719025.128   108879244.42049      1132.695    20719027.834    84840992.24949
       882.616  
  19960367.668   104892440.40448       221.539    19960366.828    81734366.81248
       172.624  
  21662853.418   113839065.99848      2356.741    21662856.309    88705776.32549
      1836.422  
 20 10 01 07 40 40.0000000  0  8G 8G27G15G21G18G24G20G10
  24655546.289   129565768.80845      -375.238    24655550.196   100960357.29449
      -292.398  
  24599762.487   129272623.10645     -2072.277    24599765.663   100731924.77049
     -1614.765  
  21640033.258   113719158.90648     -2744.026    21640033.365    88612338.03049
     -2138.207  
  24412011.609   128285982.92447      2449.854    24412011.722    99963105.04845
      1908.976  
  22017925.083   115704980.60148     -3056.500    22017925.836    90159729.65047
     -2381.690  
  20717949.188   108873590.03948      1129.218    20717951.805    84836586.24449
       879.906  
  19960158.346   104891340.06648       218.848    19960157.561    81733509.40048
       170.527  
  21660611.750   113827285.82848      2355.460    21660614.524    88696596.96649
      1835.421  
 20 10 01 07 40 45.0000000  0  8G 8G27G15G21G18G24G20G10
  24655904.850   129567652.71645      -378.496    24655908.683   100961825.26849
      -294.933  
  24601735.175   129282990.37245     -2074.819    24601738.648   100740003.12749
     -1616.750  
  21642644.812   113732882.77948     -2745.733    21642644.696    88623031.96149
     -2139.535  
  24409681.281   128273736.47147      2448.206    24409681.209    99953562.36246
      1907.690  
  22020834.152   115720267.73548     -3058.522    22020834.924    90171641.69347
     -2383.269  
  20716876.348   108867952.19749      1125.895    20716878.998    84832193.12349
       877.316  
  19959951.292   104890252.64848       215.972    19959950.737    81732662.05348
       168.289  
  21658371.425   113815512.56348      2353.707    21658374.124    88687422.96649
      1834.050  
 20 10 01 07 40 50.0000000  0  8G 8G27G15G21G18G24G20G10
  24656266.509   129569552.24645      -381.863    24656270.153   100963305.42949
      -297.558  
  24603710.251   129293369.18545     -2076.718    24603713.580   100748090.51548
     -1618.226  
  21645257.927   113746614.10148     -2746.938    21645257.746    88633731.68349
     -2140.503  
  24407352.464   128261498.32847      2446.796    24407352.454    99944026.15445
      1906.589  
  22023745.278   115735565.05448     -3060.378    22023745.933    90183561.66347
     -2384.714  
  20715806.692   108862331.61749      1122.395    20715809.378    84827813.45749
       874.589  
  19959747.112   104889179.01548       213.305    19959746.370    81731825.45348
       166.207  
  21656132.636   113803747.02248      2352.425    21656135.437    88678255.04149
      1833.054  
 20 10 01 07 40 55.0000000  0  8G 8G27G15G21G18G24G20G10
  24656630.979   129571467.36345      -384.996    24656634.591   100964797.74149
      -299.999  
  24605687.452   129303759.82245     -2078.979    24605690.970   100756187.09649
     -1619.992  
  21647872.391   113760353.07849     -2748.632    21647872.263    88644437.37949
     -2141.796  
  24405025.184   128249268.67047      2445.081    24405025.089    99934496.54746
      1905.254  
  22026658.109   115750872.71048     -3062.617    22026658.882    90195489.70146
     -2386.456  
  20714740.503   108856728.53449      1118.710    20714743.146    84823447.41849
       871.719  
  19959545.393   104888119.32248       210.312    19959544.665    81730999.72548
       163.874  
  21653895.220   113791989.35348      2350.729    21653897.981    88669093.22149
      1831.734  
 20 10 01 07 41  0.0000000  0  8G 8G27G15G21G18G24G20G10
  24656998.374   129573397.53646      -387.789    24657001.955   100966301.75349
      -302.175  
  24607666.852   129314161.66846     -2081.655    24607670.301   100764292.40749
     -1622.078  
  21650488.196   113774099.13248     -2750.043    21650487.981    88655148.59149
     -2142.894  
  24402699.413   128237046.94547      2443.433    24402699.456    99924973.12746
      1903.973  
  22029573.025   115766190.10548     -3064.543    22029573.794    90207425.34446
     -2387.957  
  20713677.521   108851142.46449      1115.441    20713680.062    84819094.64149
       869.172  
  19959346.160   104887072.96948       207.726    19959345.658    81730184.38848
       161.863  
  21651659.317   113780239.01048      2349.136    21651661.971    88659937.10349
      1830.492  
 20 10 01 07 41  5.0000000  0  8G 8G27G15G21G18G24G20G10
  24657368.759   129575343.67146      -390.484    24657372.452   100967818.22249
      -304.276  
  24609648.598   129324575.68745     -2083.733    24609652.058   100772407.21749
     -1623.691  
  21653105.501   113787853.28948     -2751.538    21653105.445    88665866.10449
     -2144.059  
  24400375.507   128224834.14247      2441.371    24400375.307    99915456.65446
      1902.362  
  22032489.782   115781518.26448     -3066.750    22032490.612    90219369.35146
     -2389.679  
  20712617.965   108845574.36449      1111.891    20712620.449    84814755.85949
       866.405  
  19959149.971   104886041.02048       204.987    19959149.360    81729380.26648
       159.727  
  21649424.918   113768497.03848      2347.539    21649427.411    88650787.51549
      1829.246  
 20 10 01 07 41 10.0000000  0  8G 8G27G15G21G18G24G20G10
  24657742.183   129577305.24745      -393.401    24657745.627   100969346.71649
      -306.550  
  24611632.553   129335001.19345     -2086.883    24611635.766   100780530.98149
     -1626.144  
  21655724.128   113801614.73348     -2753.112    21655724.082    88676589.29949
     -2145.285  
  24398052.953   128212629.50947      2440.034    24398052.919    99905946.55246
      1901.323  
  22035408.484   115796856.39548     -3068.805    22035409.443    90231321.16147
     -2391.280  
  20711561.638   108840023.45749      1108.413    20711564.179    84810430.48449
       863.695  
  19958956.065   104885022.72348       202.206    19958955.467    81728586.81048
       157.562  
  21647191.842   113756762.64348      2346.094    21647194.318    88641643.84248
      1828.120  
 20 10 01 07 41 15.0000000  0  8G 8G27G15G21G18G24G20G10
  24658118.448   129579282.06245      -396.938    24658121.920   100970887.10349
      -309.304  
  24613618.451   129345437.96846     -2088.586    24613621.947   100788663.53048
     -1627.472  
  21658344.272   113815383.37249     -2754.367    21658344.209    88687318.12349
     -2146.262  
  24395731.929   128200432.94147      2438.604    24395731.918    99896442.75445
      1900.206  
  22038329.091   115812204.35348     -3070.395    22038329.951    90243280.59347
     -2392.520  
  20710508.572   108834489.64949      1105.151    20710511.132    84806118.43549
       861.155  
  19958764.818   104884017.90148       199.792    19958764.273    81727803.80948
       155.680  
  21644960.248   113745035.69348      2344.523    21644962.669    88632505.95649
      1826.875  
 20 10 01 07 41 20.0000000  0  8G 8G27G15G21G18G24G20G10
  24658497.416   129581273.55545      -400.215    24658500.668   100972438.92149
      -311.858  
  24615606.803   129355885.57845     -2090.891    24615610.028   100796804.51449
     -1629.269  
  21660965.564   113829158.75848     -2755.809    21660965.570    88698052.18949
     -2147.386  
  24393412.597   128188244.05247      2436.633    24393412.446    99886944.93445
      1898.676  
  22041251.433   115827561.73948     -3072.488    22041252.392    90255247.37447
     -2394.159  
  20709458.754   108828972.50649      1101.608    20709461.247    84801819.35949
       858.394  
  19958576.241   104883026.20648       196.813    19958575.746    81727031.07048
       153.355  
  21642730.023   113733315.84448      2343.062    21642732.521    88623373.62249
      1825.762  
 20 10 01 07 41 25.0000000  0  8G 8G27G15G21G18G24G20G10
  24658879.565   129583281.19646      -402.840    24658882.813   100974003.33549
      -313.905  
  24617597.364   129366345.42346     -2092.796    24617600.544   100804955.03349
     -1630.754  
  21663588.601   113842942.28848     -2757.520    21663588.388    88708792.60049
     -2148.719  
  24391094.791   128176064.21547      2435.266    24391094.928    99877454.14646
      1897.605  
  22044175.823   115842929.91948     -3074.742    22044176.781    90267222.57247
     -2395.906  
  20708412.353   108823473.53649      1098.116    20708414.797    84797534.44849
       855.671  
  19958390.319   104882049.02248       194.031    19958389.680    81726269.62848
       151.190  
  21640501.478   113721604.48048      2341.491    21640503.832    88614247.88749
      1824.504  
 20 10 01 07 41 30.0000000  0  8G 8G27G15G21G18G24G20G10
  24659264.485   129585304.05945      -405.801    24659267.678   100975579.57449
      -316.210  
  24619589.971   129376816.54846     -2095.074    24619593.054   100813114.37248
     -1632.526  
  21666212.748   113856732.92749     -2758.980    21666212.673    88719538.54549
     -2149.859  
  24388778.533   128163892.50647      2433.405    24388778.563    99867969.70745
      1896.156  
  22047102.147   115858307.92048     -3076.659    22047103.148    90279205.42847
     -2397.402  
  20707369.186   108817991.69049      1094.495    20707371.500    84793262.88549
       852.851  
  19958206.885   104881085.38548       191.183    19958206.268    81725518.74448
       148.973  
  21638274.296   113709900.62148      2339.836    21638276.585    88605127.99849
      1823.245  
 20 10 01 07 41 35.0000000  0  8G 8G27G15G21G18G24G20G10
  24659652.191   129587342.81545      -409.176    24659655.756   100977168.21949
      -318.839  
  24621584.806   129387299.72846     -2097.766    24621588.030   100821283.08949
     -1634.624  
  21668838.590   113870531.48048     -2760.465    21668838.408    88730290.67649
     -2151.016  
  24386463.982   128151729.68146      2431.379    24386464.117    99858492.19045
      1894.577  
  22050030.583   115873696.48448     -3078.699    22050031.479    90291196.51947
     -2398.987  
  20706329.463   108812527.71949      1090.925    20706331.865    84789005.25349
       850.070  
  19958026.300   104880136.05648       188.473    19958025.791    81724779.00348
       146.858  
  21636048.845   113698205.04748      2338.293    21636051.095    88596014.58049
      1822.043  
 20 10 01 07 41 40.0000000  0  8G 8G27G15G21G18G24G20G10
  24660043.032   129589397.13145      -412.660    24660046.545   100978768.99649
      -321.555  
  24623581.952   129397794.52145     -2100.327    24623584.974   100829460.83548
     -1636.621  
  21671465.780   113884337.61048     -2762.039    21671465.620    88741048.70249
     -2152.269  
  24384151.089   128139575.40747      2429.762    24384151.184    99849021.33445
      1893.316  
  22052960.910   115889095.20948     -3080.801    22052961.788    90303195.51746
     -2400.629  
  20705293.165   108807081.25049      1087.542    20705295.413    84784761.24949
       847.433  
  19957848.198   104879200.65948       185.655    19957847.745    81724050.12148
       144.664  
  21633824.723   113686517.39448      2336.590    21633827.067    88586907.30849
      1820.714  
 20 10 01 07 41 45.0000000  0  8G 8G27G15G21G18G24G20G10
  24660436.673   129591466.88945      -415.527    24660440.494   100980381.77849
      -323.788  
  24625581.229   129408300.79446     -2102.147    24625584.276   100837647.51949
     -1638.043  
  21674094.513   113898151.19848     -2763.590    21674094.303    88751812.53249
     -2153.448  
  24381839.747   128127429.50347      2428.421    24381839.720    99839556.99546
      1892.272  
  22055892.943   115904503.98748     -3082.613    22055894.070    90315202.34946
     -2402.039  
  20704260.092   108801652.13349      1083.965    20704262.151    84780530.77549
       844.645  
  19957672.941   104878279.08148       182.926    19957672.399    81723332.01448
       142.534  
  21631602.124   113674837.50048      2335.086    21631604.483    88577806.10249
      1819.543  
 20 10 01 07 41 50.0000000  0  8G 8G27G15G21G18G24G20G10
  24660833.341   129593551.54845      -418.729    24660837.362   100982006.20049
      -326.284  
  24627582.790   129418818.06645     -2105.054    24627585.579   100845842.79949
     -1640.305  
  21676724.352   113911971.62748     -2765.038    21676724.243    88762581.69749
     -2154.577  
  24379529.967   128115291.55947      2426.496    24379529.955    99830098.86045
      1890.773  
  22058827.025   115919922.28948     -3084.890    22058828.038    90327216.61147
     -2403.776  
  20703230.047   108796239.99249      1080.500    20703232.303    84776313.53249
       841.945  
  19957499.988   104877370.83348       180.081    19957499.489    81722624.28948
       140.320  
  21629381.053   113663165.00248      2333.402    21629383.121    88568710.65349
      1818.230  
 20 10 01 07 41 55.0000000  0  8G 8G27G15G21G18G24G20G10
  24661232.934   129595651.82745      -421.273    24661236.952   100983642.76649
      -328.269  
  24629586.303   129429346.97545     -2106.499    24629589.349   100854047.12249
     -1641.438  
  21679355.736   113925799.61048     -2766.050    21679355.634    88773356.74249
     -2155.366  
  24377221.882   128103162.14547      2425.003    24377221.905    99820647.37545
      1889.609  
  22061762.856   115935350.80848     -3086.417    22061763.971    90339238.82947
     -2405.004  
  20702203.626   108790845.48649      1077.483    20702205.891    84772110.01749
       839.593  
  19957329.870   104876476.57748       177.749    19957329.248    81721927.46448
       138.504  
  21627161.275   113651500.46148      2332.413    21627163.447    88559621.39749
      1817.461  
 20 10 01 07 42  0.0000000  0  8G 8G27G15G21G18G24G20G10
  24661635.363   129597766.51245      -425.004    24661639.405   100985290.58749
      -331.176  
  24631592.016   129439886.37845     -2109.456    24631594.830   100862259.67048
     -1643.733  
  21681988.273   113939633.93549     -2767.828    21681988.266    88784136.74049
     -2156.754  
  24374915.150   128091040.21947      2423.319    24374915.126    99811201.72045
      1888.297  
  22064700.601   115950788.38848     -3088.562    22064701.856    90351268.10347
     -2406.675  
  20701180.239   108785467.46149      1073.668    20701182.407    84767919.36349
       836.621  
  19957162.248   104875595.18548       174.804    19957161.457    81721240.66948
       136.207  
  21624942.845   113639842.81248      2330.718    21624945.012    88550537.52749
      1816.140  
 20 10 01 07 42  5.0000000  0  8G 8G27G15G21G18G24G20G10
  24662040.761   129599897.92644      -427.535    24662045.014   100986951.42549
      -333.148  
  24633599.985   129450438.48546     -2111.508    24633602.980   100870482.08349
     -1645.331  
  21684622.530   113953476.89448     -2769.351    21684622.593    88794923.46449
     -2157.941  
  24372610.139   128078927.99147      2421.785    24372610.203    99801763.63446
      1887.102  
  22067640.458   115966237.21848     -3090.848    22067641.698    90363306.14147
     -2408.469  
  20700160.480   108780108.08849      1070.136    20700162.597    84763743.22649
       833.870  
  19956997.279   104874728.92348       171.917    19956996.590    81720565.65848
       133.957  
  21622726.277   113628194.26548      2328.910    21622728.275    88541460.73349
      1814.730  
 20 10 01 07 42 10.0000000  0  8G 8G27G15G21G18G24G20G10
  24662449.256   129602044.48845      -430.996    24662453.577   100988624.07849
      -335.843  
  24635610.049   129461001.69246     -2113.496    24635613.077   100878713.15349
     -1646.883  
  21687258.088   113967326.90448     -2770.749    21687258.078    88805715.68049
     -2159.011  
  24370306.816   128066823.85547      2420.241    24370306.925    99792331.84545
      1885.898  
  22070582.040   115981695.68248     -3092.647    22070583.231    90375351.69347
     -2409.858  
  20699143.779   108774765.85349      1066.882    20699145.980    84759580.44349
       831.335  
  19956835.154   104873876.10848       169.242    19956834.427    81719901.13048
       131.875  
  21620510.991   113616553.20148      2327.550    21620512.923    88532389.77149
      1813.672  
 20 10 01 07 42 15.0000000  0  8G 8G27G15G21G18G24G20G10
  24662860.556   129604205.10146      -433.836    24662864.612   100990307.66549
      -338.058  
  24637622.099   129471574.99446     -2115.792    24637625.162   100886952.08649
     -1648.671  
  21689894.796   113981182.90148     -2771.620    21689894.758    88816512.56749
     -2159.706  
  24368004.762   128054726.88747      2418.672    24368004.959    99782905.61445
      1884.676  
  22073525.337   115997162.78248     -3094.194    22073526.470    90387403.98646
     -2411.066  
  20698130.281   108769439.69949      1063.784    20698132.541    84755430.20249
       828.921  
  19956675.132   104873035.77948       166.979    19956674.457    81719246.32848
       130.112  
  21618296.811   113604918.63648      2326.238    21618298.822    88523323.86649
      1812.648  
 20 10 01 07 42 20.0000000  0  8G 8G27G15G21G18G24G20G10
  24663274.454   129606380.65045      -436.832    24663278.568   100992002.90249
      -340.391  
  24639636.279   129482159.20646     -2118.194    24639639.171   100895199.52449
     -1650.547  
  21692532.828   113995045.82248     -2773.671    21692532.707    88827314.84049
     -2161.305  
  24365704.287   128042637.93247      2416.840    24365704.492    99773485.68146
      1883.254  
  22076470.518   116012639.40648     -3096.551    22076471.625    90399463.68447
     -2412.898  
  20697120.022   108764130.43749      1059.859    20697122.244    84751293.11449
       825.858  
  19956517.776   104872208.86848       163.727    19956516.932    81718601.97648
       127.573  
  21616084.274   113593291.52248      2324.460    21616086.277    88514263.80249
      1811.265  
 20 10 01 07 42 25.0000000  0  8G 8G27G15G21G18G24G20G10
  24663691.835   129608573.03845      -440.386    24663695.918   100993711.25649
      -343.160  
  24641652.853   129492756.37145     -2120.898    24641655.880   100903457.04848
     -1652.651  
  21695172.584   114008917.49048     -2775.140    21695172.382    88838123.92949
     -2162.448  
  24363405.744   128030558.88347      2414.980    24363405.950    99764073.44245
      1881.800  
  22079417.814   116028127.45848     -3098.934    22079418.963    90411532.28747
     -2414.757  
  20696113.376   108758840.10349      1056.113    20696115.377    84747170.78749
       822.941  
  19956363.433   104871397.22848       160.863    19956362.566    81717969.53148
       125.343  
  21613873.470   113581673.72948      2322.319    21613875.433    88505210.95049
      1809.598  
 20 10 01 07 42 30.0000000  0  8G 8G27G15G21G18G24G20G10
  24664111.886   129610780.57646      -442.933    24664115.976   100995431.41649
      -345.144  
  24643671.404   129503364.67746     -2122.839    24643674.515   100911723.24148
     -1654.163  
  21697813.662   114022796.28948     -2776.397    21697813.494    88848938.56049
     -2163.429  
  24361108.841   128018488.17247      2413.191    24361108.771    99754667.69145
      1880.406  
  22082366.947   116043625.25647     -3100.563    22082368.022    90423608.50446
     -2416.027  
  20695109.976   108753567.01349      1053.043    20695111.948    84743061.88249
       820.551  
  19956211.565   104870599.27948       158.254    19956210.655    81717347.76048
       123.313  
  21611664.149   113570063.64048      2321.449    21611666.286    88496164.14349
      1808.918  
 20 10 01 07 42 35.0000000  0  8G 8G27G15G21G18G24G20G10
  24664534.966   129613003.90546      -446.480    24664538.956   100997163.85849
      -347.913  
  24645692.225   129513984.79045     -2125.914    24645695.333   100919998.68349
     -1656.558  
  21700456.068   114036682.79148     -2778.141    21700456.098    88859759.20849
     -2164.788  
  24358813.484   128006426.39647      2411.214    24358813.443    99745268.89445
      1878.867  
  22085317.998   116059133.38248     -3102.707    22085319.044    90435692.75946
     -2417.695  
  20694109.785   108748311.75749      1048.948    20694111.902    84738966.89149
       817.359  
  19956062.374   104869815.58648       155.172    19956061.685    81716737.09948
       120.909  
  21609456.360   113558461.81848      2319.355    21609458.359    88487123.77049
      1807.284  
 20 10 01 07 42 40.0000000  0  8G 8G27G15G21G18G24G20G10
  24664961.126   129615242.45245      -449.487    24664965.100   100998908.18848
      -350.254  
  24647715.224   129524615.97145     -2127.304    24647718.361   100928282.70748
     -1657.644  
  21703099.986   114050576.36248     -2779.351    21703099.931    88870585.38649
     -2165.729  
  24356519.685   127994372.86547      2409.905    24356519.831    99735876.56045
      1877.847  
  22088270.963   116074651.19348     -3104.563    22088272.040    90447784.53647
     -2419.101  
  20693113.026   108743073.71849      1046.020    20693115.283    84734885.30749
       815.077  
  19955915.846   104869045.54848       152.727    19955915.141    81716137.05748
       119.004  
  21607250.115   113546867.70248      2317.991    21607252.176    88478089.38649
      1806.223  
 20 10 01 07 42 45.0000000  0  8G 8G27G15G21G18G24G20G10
  24665389.934   129617495.97944      -452.476    24665393.965   101000664.19649
      -352.582  
  24649740.386   129535258.11345     -2129.836    24649743.632   100936575.29048
     -1659.617  
  21705745.062   114064476.79648     -2781.156    21705744.942    88881416.88949
     -2167.137  
  24354227.611   127982327.40447      2407.437    24354227.678    99726490.48345
      1875.922  
  22091225.645   116090178.49448     -3106.585    22091226.729    90459883.74347
     -2420.719  
  20692119.470   108737852.83049      1041.879    20692121.851    84730817.09049
       811.851  
  19955771.806   104868288.92748       149.531    19955771.070    81715547.48648
       116.516  
  21605045.360   113535281.04448      2316.116    21605047.199    88469060.80949
      1804.761  
 20 10 01 07 42 50.0000000  0  8G 8G27G15G21G18G24G20G10
  24665821.940   129619765.06246      -455.855    24665825.780   101002432.34049
      -355.211  
  24651767.546   129545911.72245     -2131.479    24651770.833   100944876.81049
     -1660.898  
  21708391.638   114078384.64748     -2782.055    21708391.640    88892254.17549
     -2167.839  
  24351937.052   127970290.59547      2406.976    24351937.262    99717111.14645
      1875.585  
  22094182.218   116105715.83248     -3108.324    22094183.383    90471990.74447
     -2422.073  
  20691129.362   108732649.55749      1039.145    20691131.603    84726762.59449
       809.719  
  19955630.584   104867546.33148       147.289    19955629.691    81714968.84348
       114.765  
  21602841.963   113523702.45548      2315.085    21602843.944    88460038.50549
      1803.957  
 20 10 01 07 42 55.0000000  0  8G 8G27G15G21G18G24G20G10
  24666256.668   129622049.35545      -458.421    24666260.538   101004212.29049
      -357.218  
  24653796.969   129556576.47445     -2134.492    24653800.278   100953186.95548
     -1663.245  
  21711039.561   114092299.64048     -2783.917    21711039.613    88903097.02549
     -2169.289  
  24349648.151   127958262.12047      2404.602    24349648.204    99707738.30645
      1873.710  
  22097140.694   116121262.81748     -3110.522    22097141.989    90484105.27546
     -2423.789  
  20690142.499   108727463.52749      1035.382    20690144.765    84722721.53449
       806.788  
  19955491.849   104866817.33248       144.301    19955490.989    81714400.78848
       112.437  
  21600640.106   113512131.52848      2313.453    21600642.135    88451022.24449
      1802.691  
 20 10 01 07 43  0.0000000  0  8G 8G27G15G21G18G24G20G10
  24666694.217   129624348.28246      -461.116    24666697.953   101006003.65149
      -359.315  
  24655828.350   129567251.79845     -2136.397    24655831.908   100961505.41849
     -1664.730  
  21713688.806   114106221.23648     -2784.891    21713688.804    88913945.02049
     -2170.047  
  24347360.617   127946241.60747      2403.141    24347360.670    99698371.70245
      1872.578  
  22100101.117   116136819.04148     -3111.715    22100102.078    90496226.99947
     -2424.715  
  20689158.862   108722294.35449      1032.113    20689161.083    84718693.61349
       804.242  
  19955355.601   104866101.59748       141.851    19955354.980    81713843.07448
       110.531  
  21598439.519   113500567.92848      2312.023    21598441.549    88442011.65349
      1801.574  
 20 10 01 07 43  5.0000000  0  8G 8G27G15G21G18G24G20G10
  24667134.663   129626663.46946      -464.636    24667138.528   101007807.70249
      -362.058  
  24657862.190   129577939.38945     -2138.690    24657865.749   100969833.34749
     -1666.523  
  21716339.387   114120150.91248     -2786.870    21716339.414    88924799.29349
     -2171.589  
  24345075.026   127934230.40347      2400.905    24345075.116    99689012.30445
      1870.831  
  22103063.171   116152385.95947     -3114.727    22103064.656    90508357.07647
     -2427.062  
  20688178.644   108717143.52549      1028.128    20688180.827    84714679.97149
       801.136  
  19955222.198   104865400.56048       138.331    19955221.417    81713296.81148
       107.789  
  21596240.804   113489013.10148      2309.688    21596242.701    88433007.89449
      1799.753  
 20 10 01 07 43 10.0000000  0  8G 8G27G15G21G18G24G20G10
  24667578.069   129628993.70745      -467.293    24667582.015   101009623.45549
      -364.128  
  24659897.843   129588637.81845     -2140.351    24659901.533   100978169.78949
     -1667.809  
  21718991.517   114134087.44948     -2787.797    21718991.291    88935658.94349
     -2172.313  
  24342790.936   127922227.33347      2400.272    24342791.025    99679659.27245
      1870.340  
  22106027.353   116167962.30748     -3116.031    22106028.661    90520494.46146
     -2428.078  
  20687201.673   108712009.75749      1025.238    20687203.988    84710679.63849
       798.882  
  19955091.451   104864713.00948       136.375    19955090.756    81712761.05748
       106.262  
  21594043.262   113477465.78348      2309.011    21594045.337    88424009.99449
      1799.226  
 20 10 01 07 43 15.0000000  0  8G 8G27G15G21G18G24G20G10
  24668024.572   129631339.47346      -470.535    24668028.477   101011451.33049
      -366.651  
  24661935.883   129599347.72545     -2143.262    24661939.690   100986515.17449
     -1670.077  
  21721645.000   114148031.44148     -2789.477    21721644.908    88946524.40449
     -2173.621  
  24340508.604   127910233.13347      2397.828    24340508.626    99670313.13745
      1868.433  
  22108993.235   116183548.72048     -3118.276    22108994.595    90532639.71447
     -2429.828  
  20686228.092   108706893.74048      1021.394    20686230.574    84706693.13749
       795.886  
  19954963.183   104864039.55148       133.284    19954962.557    81712236.29048
       103.854  
  21591847.449   113465926.64548      2306.983    21591849.659    88415018.46249
      1797.648  
 20 10 01 07 43 20.0000000  0  8G 8G27G15G21G18G24G20G10
  24668473.632   129633699.89345      -473.288    24668477.591   101013290.62649
      -368.801  
  24663975.951   129610068.26145     -2145.241    24663979.636   100994868.81549
     -1671.625  
  21724299.783   114161982.01548     -2790.727    21724299.476    88957394.98049
     -2174.593  
  24338227.521   127898246.83247      2396.690    24338227.753    99660973.18445
      1867.551  
  22111961.051   116199144.29348     -3119.988    22111962.456    90544792.11046
     -2431.163  
  20685257.755   108701794.43148      1018.128    20685260.070    84702719.65049
       793.343  
  19954837.599   104863379.35348       130.742    19954836.788    81711721.85048
       101.875  
  21589652.956   113454394.85148      2305.519    21589655.173    88406032.63049
      1796.500  
 20 10 01 07 43 25.0000000  0  8G 8G27G15G21G18G24G20G10
  24668926.004   129636076.33946      -477.133    24668929.842   101015142.36549
      -371.796  
  24666018.149   129620800.58645     -2147.676    24666021.971   101003231.68049
     -1673.515  
  21726955.909   114175940.42548     -2792.582    21726955.786    88968271.65449
     -2176.043  
  24335948.343   127886269.67546      2394.922    24335948.579    99651640.31945
      1866.167  
  22114930.764   116214750.23848     -3122.105    22114932.026    90556952.59846
     -2432.710  
  20684290.812   108696713.23548      1014.343    20684293.228    84698760.28149
       790.394  
  19954714.676   104862733.63748       127.629    19954713.958    81711218.69248
        99.448  
  21587460.197   113442871.60848      2303.582    21587462.343    88397053.48349
      1794.996  
 20 10 01 07 43 30.0000000  0  8G 8G27G15G21G18G24G20G10
  24669381.248   129638468.19845      -479.706    24669385.013   101017006.18349
      -373.800  
  24668062.576   129631544.24845     -2150.085    24668066.506   101011603.33448
     -1675.398  
  21729613.535   114189906.12748     -2793.839    21729613.556    88979154.02949
     -2177.019  
  24333670.885   127874301.20446      2393.073    24333671.076    99642314.23045
      1864.730  
  22117902.377   116230366.10548     -3124.108    22117903.613    90569120.77947
     -2434.375  
  20683327.131   108691649.49449      1011.038    20683329.549    84694814.52049
       787.820  
  19954594.422   104862101.85348       124.925    19954593.825    81710726.39548
        97.339  
  21585268.919   113431356.39448      2302.238    21585271.037    88388080.60549
      1793.948  
 20 10 01 07 43 35.0000000  0  8G 8G27G15G21G18G24G20G10
  24669839.305   129640875.08545      -483.007    24669842.878   101018881.68649
      -376.371  
  24670109.028   129642298.89445     -2151.977    24670112.965   101019983.55449
     -1676.870  
  21732272.321   114203878.79548     -2795.257    21732272.233    88990041.80749
     -2178.124  
  24331394.917   127862341.03646      2391.023    24331395.013    99632994.63347
      1863.133  
  22120875.715   116245991.47847     -3125.983    22120877.184    90581296.39947
     -2435.836  
  20682366.888   108686603.04149      1007.715    20682369.308    84690882.21149
       785.230  
  19954476.814   104861483.75748       122.301    19954476.130    81710244.76748
        95.297  
  21583078.997   113419848.93448      2301.055    21583081.165    88379113.72849
      1793.026  
 20 10 01 07 43 40.0000000  0  8G 8G27G15G21G18G24G20G10
  24670300.006   129643296.20745      -486.097    24670303.690   101020768.26149
      -378.781  
  24672157.535   129653063.65445     -2154.227    24672161.381   101028371.69248
     -1678.620  
  21734932.433   114217857.59448     -2796.316    21734932.340    89000934.37649
     -2178.948  
  24329120.294   127850388.50046      2389.355    24329120.391    99623680.96846
      1861.832  
  22123850.721   116261625.55247     -3127.761    22123852.228    90593478.80247
     -2437.219  
  20681409.720   108681573.05749      1004.336    20681412.014    84686962.75249
       782.598  
  19954361.681   104860878.48148       119.737    19954361.112    81709773.12848
        93.300  
  21580890.598   113408348.41048      2299.363    21580892.767    88370152.29349
      1791.707  
 20 10 01 07 43 45.0000000  0  8G 8G27G15G21G18G24G20G10
  24670763.690   129645733.38646      -489.094    24670767.467   101022667.37949
      -381.112  
  24674208.408   129663840.43745     -2157.191    24674212.260   101036769.17049
     -1680.929  
  21737594.077   114231844.37448     -2798.348    21737593.947    89011833.17949
     -2180.535  
  24326847.618   127838445.41247      2387.491    24326847.746    99614374.64845
      1860.378  
  22126827.866   116277270.18247     -3130.254    22126829.379    90605669.39246
     -2439.163  
  20680455.975   108676561.40649      1000.257    20680458.351    84683057.56749
       779.417  
  19954249.222   104860287.90948       116.324    19954248.543    81709312.93048
        90.641  
  21578703.737   113396856.62748      2297.280    21578705.827    88361197.66749
      1790.085  
 20 10 01 07 43 50.0000000  0  8G 8G27G15G21G18G24G20G10
  24671230.690   129648187.04645      -491.547    24671234.372   101024579.31149
      -383.027  
  24676261.562   129674629.27445     -2158.581    24676265.275   101045176.04848
     -1682.015  
  21740257.236   114245839.27648     -2799.262    21740257.040    89022738.28749
     -2181.237  
  24324576.584   127826511.89347      2386.133    24324576.882    99605075.80645
      1859.319  
  22129806.896   116292925.49448     -3131.590    22129808.389    90617868.34846
     -2440.203  
  20679505.837   108671568.14449       997.128    20679508.120    84679166.71949
       776.980  
  19954139.797   104859712.15948       114.187    19954139.157    81708864.29448
        88.972  
  21576518.635   113385373.83848      2296.074    21576520.853    88352250.03349
      1789.145  
 20 10 01 07 43 55.0000000  0  8G 8G27G15G21G18G24G20G10
  24671700.099   129650654.96546      -495.007    24671703.995   101026502.36749
      -385.722  
  24678316.599   129685428.25045     -2160.414    24678320.057   101053590.81848
     -1683.441  
  21742921.529   114259840.32748     -2800.758    21742921.305    89033648.19349
     -2182.410  
  24322307.109   127814585.97446      2384.409    24322307.420    99595782.89846
      1857.979  
  22132787.656   116308589.49547     -3133.632    22132789.192    90630074.07847
     -2441.796  
  20678558.749   108666591.47849       993.734    20678561.069    84675288.79949
       774.335  
  19954032.675   104859149.29248       111.366    19954031.967    81708425.70948
        86.776  
  21574335.032   113373898.02048      2294.573    21574336.803    88343307.83949
      1787.977  
 20 10 01 07 44  0.0000000  0  8G 8G27G15G21G18G24G20G10
  24672172.566   129653137.73646      -498.265    24672176.537   101028437.00649
      -388.261  
  24680373.727   129696238.00245     -2163.183    24680377.176   101062014.00049
     -1685.601  
  21745587.142   114273848.15148     -2802.421    21745586.800    89044563.38849
     -2183.690  
  24320039.392   127802668.22646      2382.789    24320039.750    99586496.32345
      1856.715  
  22135770.163   116324262.80248     -3135.723    22135771.712    90642287.03446
     -2443.421  
  20677614.908   108661631.87149       989.977    20677617.426    84671424.17449
       771.405  
  19953928.023   104858599.90548       108.421    19953927.436    81707997.61248
        84.479  
  21572152.579   113362429.78248      2292.711    21572154.524    88334371.55349
      1786.522  
 20 10 01 07 44  5.0000000  0  8G 8G27G15G21G18G24G20G10
  24672647.950   129655635.80046      -501.269    24672651.750   101030383.54949
      -390.602  
  24682432.754   129707058.82045     -2165.171    24682436.073   101070445.80848
     -1687.148  
  21748254.091   114287863.06648     -2803.671    21748253.818    89055484.09849
     -2184.683  
  24317773.151   127790759.14346      2380.266    24317773.604    99577216.52245
      1854.749  
  22138754.558   116339945.74348     -3137.483    22138755.899    90654507.49846
     -2444.797  
  20676674.488   108656689.71249       986.749    20676676.958    84667573.14649
       768.894  
  19953826.194   104858064.38548       105.761    19953825.599    81707580.32648
        82.410  
  21569971.827   113350969.53948      2291.246    21569973.682    88325441.49349
      1785.383  
 20 10 01 07 44 10.0000000  0  8G 8G27G15G21G18G24G20G10
  24673126.371   129658149.29245      -503.953    24673130.178   101032342.10049
      -392.695  
  24684494.085   129717890.78646     -2167.429    24684497.484   101078886.31649
     -1688.909  
  21750922.397   114301885.20248     -2804.940    21750922.078    89066410.42649
     -2185.671  
  24315508.477   127778858.73546      2379.184    24315509.101    99567943.54145
      1853.914  
  22141740.878   116355638.46348     -3139.305    22141742.082    90666735.60747
     -2446.288  
  20675737.507   108651765.15649       983.253    20675739.664    84663735.83649
       766.168  
  19953726.859   104857542.84148       103.050    19953726.201    81707173.93248
        80.297  
  21567792.615   113339517.35748      2289.621    21567794.283    88316517.71949
      1784.117  
 20 10 01 07 44 15.0000000  0  8G 8G27G15G21G18G24G20G10
  24673607.401   129660677.65646      -507.105    24673611.275   101034312.26849
      -395.147  
  24686557.471   129728733.60945     -2169.754    24686560.850   101087335.26848
     -1690.718  
  21753591.992   114315914.17748     -2806.473    21753591.828    89077342.10649
     -2186.862  
  24313245.546   127766966.70146      2377.241    24313246.046    99558676.99045
      1852.394  
  22144728.927   116371340.51448     -3141.101    22144729.951    90678970.96146
     -2447.613  
  20674803.572   108646857.73549       979.894    20674805.813    84659911.87149
       763.551  
  19953630.166   104857034.87248       100.281    19953629.721    81706778.11448
        78.137  
  21565614.711   113328072.92848      2288.254    21565616.358    88307599.98149
      1783.050  
 20 10 01 07 44 20.0000000  0  8G 8G27G15G21G18G24G20G10
  24674091.569   129663221.85146      -510.019    24674095.341   101036294.75149
      -397.422  
  24688622.916   129739587.93745     -2171.929    24688626.396   101095793.17748
     -1692.414  
  21756262.951   114329950.72348     -2807.871    21756262.793    89088279.67149
     -2187.952  
  24310984.317   127755083.79946      2375.516    24310984.859    99549417.58846
      1851.047  
  22147718.834   116387052.74048     -3143.382    22147720.040    90691214.25246
     -2449.352  
  20673873.239   108641968.30349       976.300    20673875.371    84656101.93049
       760.749  
  19953536.337   104856541.29948        97.434    19953535.698    81706393.51148
        75.918  
  21563438.727   113316637.02248      2286.597    21563440.142    88298688.89649
      1781.762  
 20 10 01 07 44 25.0000000  0  8G 8G27G15G21G18G24G20G10
  24674578.753   129665781.33345      -513.531    24674582.577   101038289.14949
      -400.156  
  24690690.664   129750453.33745     -2174.136    24690693.869   101104259.72948
     -1694.137  
  21758935.430   114343994.34848     -2809.460    21758935.242    89099222.74749
     -2189.194  
  24308724.821   127743209.47346      2374.335    24308725.151    99540164.86646
      1850.128  
  22150710.607   116402774.54948     -3145.180    22150711.810    90703465.01646
     -2450.792  
  20672946.140   108637096.48549       972.656    20672948.342    84652305.71349
       757.910  
  19953444.986   104856061.59148        94.578    19953444.345    81706019.71448
        73.695  
  21561264.091   113305209.13848      2284.804    21561265.648    88289784.05249
      1780.363  
 20 10 01 07 44 30.0000000  0  8G 8G27G15G21G18G24G20G10
  24675068.620   129668355.94346      -516.215    24675072.479   101040295.34249
      -402.250  
  24692760.320   129761329.67546     -2176.473    24692763.583   101112734.79748
     -1695.956  
  21761609.051   114358044.94848     -2810.648    21761609.157    89110171.26249
     -2190.117  
  24306466.783   127731343.84147      2372.277    24306467.082    99530918.95445
      1848.527  
  22153704.106   116418505.89847     -3147.121    22153705.360    90715723.19847
     -2452.305  
  20672022.480   108632242.02849       969.101    20672024.723    84648523.02249
       755.141  
  19953356.319   104855595.67248        91.792    19953355.674    81705656.65548
        71.522  
  21559090.959   113293789.15848      2283.233    21559092.381    88280885.35649
      1779.141  
 20 10 01 07 44 35.0000000  0  8G 8G27G15G21G18G24G20G10
  24675561.521   129670945.59346      -519.468    24675565.266   101042313.25449
      -404.784  
  24694832.036   129772216.77245     -2178.343    24694835.510   101121218.24148
     -1697.413  
  21764284.191   114372102.33948     -2812.074    21764284.266    89121125.07349
     -2191.229  
  24304210.496   127719486.56846      2370.566    24304210.729    99521679.50445
      1847.190  
  22156699.504   116434246.54147     -3148.957    22156700.611    90727988.62446
     -2453.733  
  20671101.856   108627404.99149       965.710    20671104.037    84644753.90549
       752.500  
  19953270.308   104855143.37248        89.160    19953269.727    81705304.21648
        69.473  
  21556919.146   113282376.95448      2281.664    21556920.599    88271992.73849
      1777.918  
 20 10 01 07 44 40.0000000  0  8G 8G27G15G21G18G24G20G10
  24676057.272   129673550.78546      -522.707    24676060.981   101044343.27849
      -407.308  
  24696906.120   129783115.12645     -2180.702    24696909.340   101129710.45048
     -1699.253  
  21766960.684   114386167.06248     -2813.793    21766960.631    89132084.59149
     -2192.569  
  24301955.947   127707638.30146      2368.710    24301956.241    99512447.06545
      1845.746  
  22159696.827   116449997.01948     -3151.172    22159697.818    90740261.71746
     -2455.460  
  20670184.846   108622585.56849       962.175    20670187.022    84640998.50649
       749.746  
  19953186.965   104854705.24148        86.194    19953186.194    81704962.81948
        67.159  
  21554749.232   113270973.04348      2280.016    21554750.569    88263106.58049
      1776.633  
 20 10 01 07 44 45.0000000  0  8G 8G27G15G21G18G24G20G10
  24676555.880   129676170.85846      -525.855    24676559.370   101046384.88249
      -409.761  
  24698982.042   129794024.23045     -2183.090    24698985.416   101138211.04048
     -1701.112  
  21769638.287   114400238.58448     -2814.977    21769638.436    89143049.40849
     -2193.492  
  24299702.903   127695798.41045      2366.906    24299703.143    99503221.19045
      1844.339  
  22162695.651   116465756.82148     -3152.995    22162696.955    90752542.09046
     -2456.882  
  20669271.095   108617783.52449       958.729    20669273.187    84637256.66149
       747.058  
  19953106.085   104854280.74648        83.516    19953105.590    81704632.04048
        65.073  
  21552580.437   113259576.94848      2278.362    21552581.988    88254226.51049
      1775.343  
 20 10 01 07 44 50.0000000  0  8G 8G27G15G21G18G24G20G10
  24677057.541   129678806.76146      -528.690    24677060.943   101048438.83149
      -411.969  
  24701060.150   129804944.76345     -2184.695    24701063.422   101146720.53348
     -1702.362  
  21772317.417   114414317.63548     -2816.339    21772317.682    89154020.10149
     -2194.555  
  24297451.494   127683967.64545      2365.272    24297451.682    99494002.39646
      1843.063  
  22165696.556   116481526.64947     -3154.945    22165697.829    90764830.26146
     -2458.401  
  20668360.735   108612999.39549       955.120    20668362.745    84633528.77349
       744.246  
  19953028.070   104853870.65048        80.519    19953027.429    81704312.48348
        62.738  
  21550413.534   113248189.36048      2276.819    21550415.141    88245353.07149
      1774.141  
 20 10 01 07 44 55.0000000  0  8G 8G27G15G21G18G24G20G10
  24677562.022   129681457.26546      -531.741    24677565.491   101050504.15249
      -414.347  
  24703140.250   129815875.63745     -2187.476    24703143.650   101155238.09548
     -1704.531  
  21774997.872   114428403.08148     -2817.694    21774997.877    89164995.76749
     -2195.609  
  24295201.853   127672145.01846      2363.608    24295201.792    99484789.97445
      1841.770  
  22168699.187   116497305.36148     -3156.672    22168700.379    90777125.35746
     -2459.698  
  20667453.628   108608232.13949       951.733    20667455.742    84629814.02649
       741.608  
  19952952.505   104853473.80248        77.972    19952951.959    81704003.25848
        60.753  
  21548247.961   113236809.22648      2275.280    21548249.506    88236485.43749
      1772.940  
 20 10 01 07 45  0.0000000  0  8G 8G27G15G21G18G24G20G10
  24678069.521   129684124.10046      -535.046    24678072.944   101052582.21449
      -416.922  
  24705222.627   129826818.60045     -2189.542    24705226.026   101163765.07748
     -1706.140  
  21777679.687   114442496.64548     -2819.526    21777679.769    89175977.76149
     -2197.038  
  24292953.924   127660332.16646      2361.819    24292954.142    99475585.15944
      1840.375  
  22171703.767   116513094.72848     -3158.793    22171704.896    90789428.75847
     -2461.397  
  20666549.942   108603483.52249       947.839    20666551.920    84626113.80749
       738.574  
  19952879.833   104853091.94448        74.812    19952879.171    81703705.70548
        58.293  
  21546084.136   113225438.27948      2273.309    21546085.610    88227624.95749
      1771.405  
 20 10 01 07 45  5.0000000  0  8G 8G27G15G21G18G24G20G10
  24678579.668   129686805.43946      -537.621    24678583.061   101054671.55849
      -418.929  
  24707306.873   129837771.82445     -2191.440    24707310.389   101172300.03648
     -1707.621  
  21780362.815   114456596.54848     -2820.590    21780362.869    89186964.70349
     -2197.867  
  24290707.544   127648527.41947      2360.043    24290707.653    99466386.66545
      1838.992  
  22174710.042   116528892.93148     -3160.589    22174711.375    90801739.03546
     -2462.796  
  20665649.494   108598751.69549       944.773    20665651.506    84622426.67149
       736.184  
  19952809.801   104852723.29448        72.491    19952809.088    81703418.44548
        56.484  
  21543921.616   113214074.69448      2272.176    21543923.435    88218770.21149
      1770.523  
 20 10 01 07 45 10.0000000  0  8G 8G27G15G21G18G24G20G10
  24679092.753   129689501.81246      -540.844    24679096.097   101056772.60249
      -421.444  
  24709393.311   129848735.69545     -2193.722    24709396.650   101180843.30148
     -1709.397  
  21783047.274   114470703.25548     -2821.992    21783047.200    89197956.93449
     -2198.956  
  24288462.877   127636731.14547      2358.628    24288462.754    99457194.77244
      1837.891  
  22177718.260   116544700.38148     -3162.405    22177719.332    90814056.52347
     -2464.215  
  20664752.459   108594037.21449       941.202    20664754.501    84618753.05549
       733.401  
  19952742.238   104852368.31248        69.804    19952741.431    81703141.83748
        54.391  
  21541760.616   113202718.96648      2270.581    21541762.497    88209921.59649
      1769.280  
 20 10 01 07 45 15.0000000  0  8G 8G27G15G21G18G24G20G10
  24679608.909   129692213.01045      -544.047    24679612.071   101058885.21349
      -423.938  
  24711481.735   129859710.18745     -2195.800    24711484.902   101189394.87549
     -1711.016  
  21785732.871   114484816.66648     -2823.426    21785733.000    89208954.39849
     -2200.073  
  24286219.727   127624943.34546      2356.183    24286219.694    99448009.47045
      1835.984  
  22180728.135   116560517.03747     -3164.347    22180729.236    90826381.17247
     -2465.729  
  20663858.461   108589339.97349       937.563    20663860.427    84615092.87649
       730.565  
  19952677.141   104852026.97548        66.683    19952676.476    81702875.85748
        51.956  
  21539601.341   113191371.05548      2268.473    21539603.261    88201079.07449
      1767.636  
 20 10 01 07 45 20.0000000  0  8G 8G27G15G21G18G24G20G10
  24680127.667   129694939.85445      -546.422    24680130.988   101061010.02849
      -425.785  
  24713572.201   129870696.00245     -2198.312    24713575.601   101197955.25348
     -1712.972  
  21788420.010   114498937.48948     -2824.781    21788420.020    89219957.64049
     -2201.133  
  24283978.257   127613164.62245      2355.074    24283978.313    99438831.26646
      1835.120  
  22183739.760   116576343.57948     -3166.090    22183740.871    90838713.53447
     -2467.086  
  20662968.066   108584660.54349       934.112    20662970.023    84611446.57249
       727.878  
  19952614.917   104851699.92548        64.059    19952614.453    81702621.00848
        49.913  
  21537443.436   113180031.65648      2267.077    21537445.475    88192243.17549
      1766.550  
 20 10 01 07 45 25.0000000  0  8G 8G27G15G21G18G24G20G10
  24680649.608   129697682.26745      -549.796    24680652.836   101063147.00349
      -428.418  
  24715664.851   129881693.04545     -2200.093    24715668.292   101206524.37648
     -1714.362  
  21791108.481   114513065.65748     -2826.366    21791108.514    89230966.60349
     -2202.367  
  24281738.648   127601395.08345      2353.101    24281738.670    99429660.17545
      1833.581  
  22186753.298   116592179.95348     -3168.488    22186754.437    90851053.58147
     -2468.961  
  20662081.106   108579999.09749       930.430    20662083.039    84607814.27149
       725.007  
  19952555.535   104851387.21348        61.059    19952554.857    81702377.34748
        47.573  
  21535287.219   113168700.75548      2265.379    21535289.164    88183413.91249
      1765.227  
 20 10 01 07 45 30.0000000  0  8G 8G27G15G21G18G24G20G10
  24681174.424   129700440.00245      -553.277    24681177.352   101065295.90149
      -431.128  
  24717759.625   129892701.16045     -2202.438    24717763.144   101215102.10548
     -1716.187  
  21793798.309   114527200.91948     -2827.675    21793798.494    89241981.08849
     -2203.351  
  24279500.565   127589634.47346      2351.238    24279500.692    99420496.12744
      1832.137  
  22189768.718   116608025.93448     -3170.129    22189769.994    90863401.09747
     -2470.234  
  20661197.377   108575355.29049       927.226    20661199.248    84604195.73249
       722.512  
  19952498.621   104851088.53448        58.344    19952497.936    81702144.61048
        45.460  
  21533132.698   113157378.07648      2263.805    21533134.799    88174591.05349
      1763.999  
 20 10 01 07 45 35.0000000  0  8G 8G27G15G21G18G24G20G10
  24681701.901   129703212.13145      -556.082    24681704.885   101067455.99649
      -433.312  
  24719856.299   129903719.25745     -2204.835    24719859.669   101223687.64648
     -1718.058  
  21796489.452   114541342.22548     -2828.918    21796489.421    89253000.29749
     -2204.354  
  24277263.956   127577881.73346      2349.547    24277264.108    99411338.12544
      1830.813  
  22192785.861   116623880.44148     -3171.894    22192786.998    90875755.22347
     -2471.612  
  20660316.870   108570728.19349       923.593    20660318.886    84600590.20149
       719.679  
  19952444.205   104850802.88748        55.604    19952443.707    81701922.02248
        43.323  
  21530979.320   113146062.68848      2262.059    21530981.352    88165773.86049
      1762.640  
 20 10 01 07 45 40.0000000  0  8G 8G27G15G21G18G24G20G10
  24682232.262   129705999.69846      -558.930    24682235.603   101069628.10549
      -435.531  
  24721955.006   129914748.34845     -2206.773    24721958.367   101232281.74748
     -1719.565  
  21799181.720   114555490.71748     -2830.332    21799181.829    89264025.10249
     -2205.457  
  24275029.094   127566137.98545      2347.464    24275029.374    99402187.13845
      1829.190  
  22195804.682   116639744.60847     -3173.758    22195805.653    90888116.89246
     -2473.176  
  20659439.580   108566118.78748       920.327    20659441.705    84596998.44949
       717.136  
  19952392.627   104850531.34648        52.851    19952391.919    81701710.42848
        41.180  
  21528827.666   113134755.57448      2260.632    21528829.875    88156963.14049
      1761.527  
 20 10 01 07 45 45.0000000  0  8G 8G27G15G21G18G24G20G10
  24682765.771   129708803.43546      -562.020    24682768.989   101071812.82648
      -437.945  
  24724056.009   129925789.35045     -2209.633    24724059.579   101240885.10748
     -1721.796  
  21801875.720   114569647.09848     -2831.777    21801875.690    89275056.04549
     -2206.582  
  24272796.099   127554403.95145      2346.063    24272796.339    99393043.73446
      1828.098  
  22198825.580   116655619.15947     -3175.823    22198826.572    90900486.67446
     -2474.672  
  20658565.904   108561527.96249       916.464    20658568.177    84593421.18449
       714.125  
  19952343.716   104850274.75148        50.011    19952343.083    81701510.48448
        38.969  
  21526677.750   113123457.65748      2258.905    21526679.824    88148159.57049
      1760.183  
 20 10 01 07 45 50.0000000  0  8G 8G27G15G21G18G24G20G10
  24683302.038   129711621.59545      -565.343    24683305.274   101074008.79149
      -440.530  
  24726158.929   129936840.36245     -2211.516    24726162.456   101249496.25548
     -1723.266  
  21804570.676   114583809.71748     -2833.296    21804570.546    89286091.84449
     -2207.766  
  24270564.667   127542677.94945      2344.112    24270564.887    99383906.62144
      1826.577  
  22201848.032   116671502.41047     -3177.565    22201849.151    90912863.25647
     -2476.026  
  20657695.685   108556954.02349       912.894    20657697.850    84589857.08949
       711.343  
  19952297.463   104850031.38048        47.195    19952296.691    81701320.85648
        36.772  
  21524529.348   113112167.13948      2257.219    21524531.283    88139361.75049
      1758.866  
 20 10 01 07 45 55.0000000  0  8G 8G27G15G21G18G24G20G10
  24683841.402   129714455.03946      -567.995    24683844.452   101076216.66849
      -442.598  
  24728263.963   129947902.35845     -2213.828    24728267.362   101258115.99548
     -1725.063  
  21807267.124   114597979.45948     -2834.570    21807267.129    89297133.21249
     -2208.758  
  24268335.089   127530961.03245      2342.722    24268335.175    99374776.54445
      1825.491  
  22204872.368   116687395.21247     -3179.710    22204873.449    90925247.21746
     -2477.702  
  20656828.485   108552397.69948       909.430    20656830.687    84586306.70449
       708.644  
  19952253.888   104849802.04448        44.577    19952253.229    81701142.13748
        34.734  
  21522382.313   113100884.92548      2255.637    21522384.436    88130570.42749
      1757.637  
 20 10 01 07 46  0.0000000  0  7G 8G15G21G18G24G20G10
  24684383.362   129717303.92945      -571.621    24684386.571   101078436.58349
      -445.422  
  21809964.932   114612156.40948     -2836.324    21809964.933    89308180.17649
     -2210.125  
  24266107.119   127519253.12747      2340.723    24266107.282    99365653.47745
      1823.937  
  22207898.461   116703297.59648     -3181.460    22207899.486    90937638.67847
     -2479.062  
  20655964.885   108547859.23448       905.710    20655967.190    84582770.23449
       705.745  
  19952212.796   104849586.91948        41.601    19952212.185    81700974.50948
        32.413  
  21520237.186   113089611.17548      2253.770    21520239.055    88121785.70049
      1756.179  
 20 10 01 07 46  5.0000000  0  8G 8G27G15G21G18G24G20G10
  24684928.126   129720166.31045      -574.363    24684931.433   101080667.01749
      -447.558  
  24732479.851   129970052.62655     -2217.457    24732483.513   101275385.86458
     -1727.887  
  21812663.669   114626338.62148     -2837.215    21812663.756    89319231.24749
     -2210.820  
  24263880.490   127507552.45446      2339.624    24263880.688    99356536.10346
      1823.081  
  22210926.121   116719207.80548     -3182.925    22210927.214    90950036.28047
     -2480.207  
  20655104.154   108543336.62449       902.761    20655106.594    84579246.14249
       703.449  
  19952174.373   104849384.19448        39.160    19952173.611    81700816.55348
        30.512  
  21518092.961   113078343.97448      2252.702    21518095.142    88113006.04749
      1755.351  
 20 10 01 07 46 10.0000000  0  8G 8G27G15G21G18G24G20G10
  24685476.179   129723046.00246      -577.102    24685479.199   101082910.93449
      -449.691  
  24734591.753   129981147.77545     -2219.500    24734594.769   101284031.42048
     -1729.484  
  21815364.125   114640529.86048     -2838.472    21815364.243    89330289.35449
     -2211.801  
  24261655.922   127495862.77345      2337.374    24261656.197    99347427.27545
      1821.327  
  22213955.999   116735129.48548     -3185.055    22213956.918    90962442.75746
     -2481.863  
  20654247.243   108538833.87048       899.145    20654249.679    84575737.50149
       700.629  
  19952138.802   104849197.51548        36.437    19952138.207    81700671.08248
        28.390  
  21515951.023   113067087.11048      2250.776    21515952.920    88104234.47349
      1753.848  
 20 10 01 07 46 15.0000000  0  8G 8G27G15G21G18G24G20G10
  24686026.712   129725939.66945      -580.409    24686029.922   101085165.73849
      -452.269  
  24736704.445   129992252.48245     -2221.828    24736707.568   101292684.44748
     -1731.293  
  21818065.714   114654726.86948     -2840.237    21818065.717    89341351.96949
     -2213.175  
  24259432.869   127484180.86046      2335.538    24259433.056    99338324.48045
      1819.897  
  22216987.381   116751059.34947     -3186.815    22216988.334    90974855.61746
     -2483.242  
  20653393.570   108534347.53648       895.343    20653395.942    84572241.65149
       697.667  
  19952105.718   104849023.62548        33.405    19952105.000    81700535.57248
        26.026  
  21513810.215   113055837.27748      2248.901    21513812.140    88095468.36749
      1752.387  
 20 10 01 07 46 20.0000000  0  8G 8G27G15G21G18G24G20G10
  24686580.433   129728849.58346      -583.477    24686583.809   101087433.21849
      -454.660  
  24738820.013   130003369.18345     -2224.542    24738823.124   101301346.79548
     -1733.413  
  21820768.812   114668931.87048     -2841.640    21820768.903    89352420.78149
     -2214.270  
  24257211.720   127472508.92647      2333.797    24257211.981    99329229.45645
      1818.538  
  22220020.671   116766999.67548     -3188.945    22220021.720    90987276.66947
     -2484.894  
  20652543.332   108529879.82149       891.776    20652545.842    84568760.32449
       694.887  
  19952075.487   104848864.82648        30.429    19952074.726    81700411.85448
        23.707  
  21511671.116   113044596.79448      2247.448    21511673.066    88086709.56349
      1751.258  
 20 10 01 07 46 25.0000000  0  8G 8G27G15G21G18G24G20G10
  24687136.843   129731773.54146      -585.941    24687140.126   101089711.61849
      -456.582  
  24740937.234   130014495.34744     -2226.020    24740940.363   101310016.53248
     -1734.562  
  21823473.064   114683142.65348     -2842.710    21823473.338    89363494.11749
     -2215.102  
  24254992.146   127460844.73646      2331.999    24254992.365    99320140.52845
      1817.145  
  22223055.746   116782948.19447     -3190.464    22223056.763    90999704.09846
     -2486.078  
  20651696.352   108525428.59949       888.554    20651698.681    84565291.84249
       692.378  
  19952047.718   104848718.83648        28.125    19952047.150    81700298.09448
        21.913  
  21509533.547   113033363.35648      2245.862    21509535.521    88077956.23749
      1750.020  
 20 10 01 07 46 30.0000000  0  8G 8G27G15G21G18G24G20G10
  24687696.021   129734712.66546      -589.219    24687699.424   101092001.85349
      -459.133  
  24743056.788   130025632.39545     -2228.265    24743059.665   101318694.75348
     -1736.312  
  21826178.637   114697360.34948     -2844.456    21826178.714    89374572.83649
     -2216.464  
  24252774.316   127449189.36446      2330.246    24252774.367    99311058.38746
      1815.773  
  22226092.468   116798906.05848     -3192.609    22226093.240    91012138.77947
     -2487.749  
  20650852.768   108520995.00249       884.883    20650855.150    84561837.09649
       689.516  
  19952022.613   104848586.84348        25.035    19952022.009    81700195.23748
        19.503  
  21507397.504   113022138.21948      2244.116    21507399.425    88069209.37249
      1748.660  
 20 10 01 07 46 35.0000000  0  8G 8G27G15G21G18G24G20G10
  24688258.250   129737667.10746      -592.262    24688261.669   101094303.99549
      -461.503  
  24745178.463   130036780.09345     -2230.684    24745181.069   101327381.23448
     -1738.203  
  21828885.363   114711584.94748     -2845.453    21828885.594    89385656.93149
     -2217.237  
  24250557.991   127437542.94046      2328.598    24250558.167    99301983.26345
      1814.488  
  22229130.960   116814873.25348     -3194.190    22229131.648    91024580.76846
     -2488.983  
  20650012.446   108516579.10949       881.438    20650014.835    84558396.14649
       686.832  
  19952000.160   104848468.82048        22.371    19951999.552    81700103.27948
        17.430  
  21505262.994   113010921.29248      2242.784    21505264.809    88060468.91749
      1747.621  
 20 10 01 07 46 40.0000000  0  8G 8G27G15G21G18G24G20G10
  24688823.113   129740635.79246      -595.336    24688826.810   101096617.24749
      -463.901  
  24747301.657   130047937.76945     -2232.531    24747304.441   101336075.52749
     -1739.637  
  21831593.428   114725815.64548     -2846.878    21831593.668    89396745.78949
     -2218.351  
  24248343.399   127425904.64646      2326.816    24248343.404    99292914.45745
      1813.102  
  22232170.985   116830848.94548     -3196.125    22232171.823    91037029.34147
     -2490.488  
  20649175.118   108512179.95549       878.062    20649177.672    84554968.23049
       684.202  
  19951980.211   104848363.99248        19.433    19951979.527    81700021.59448
        15.140  
  21503129.794   112999711.84648      2241.155    21503131.890    88051734.27949
      1746.352  
 20 10 01 07 46 45.0000000  0  8G 8G27G15G21G18G24G20G10
  24689391.021   129743619.98446      -598.210    24689394.654   101098942.59749
      -466.141  
  24749426.937   130059106.35244     -2234.855    24749429.809   101344778.33348
     -1741.444  
  21834302.832   114740053.47248     -2848.366    21834303.218    89407840.19549
     -2219.511  
  24246130.518   127414275.59647      2325.047    24246130.415    99283852.88645
      1811.722  
  22235213.068   116846834.19748     -3198.124    22235213.692    91049485.37846
     -2492.047  
  20648341.419   108507798.70949       874.340    20648343.949    84551554.27449
       681.301  
  19951963.086   104848273.40348        16.590    19951962.434    81699951.00748
        12.926  
  21500998.288   112988510.92748      2239.203    21501000.452    88043006.30449
      1744.832  
 20 10 01 07 46 50.0000000  0  8G 8G27G15G21G18G24G20G10
  24689961.841   129746619.91045      -601.640    24689965.603   101101280.19349
      -468.812  
  24751554.519   130070286.36745     -2237.348    24751557.489   101353490.01648
     -1743.390  
  21837013.588   114754298.84048     -2849.887    21837014.008    89418940.49049
     -2220.762  
  24243919.478   127402656.13046      2322.940    24243919.354    99274798.77446
      1810.082  
  22238256.890   116862829.43748     -3200.140    22238257.538    91061949.20046
     -2493.620  
  20647511.142   108503435.73149       870.828    20647513.648    84548154.54949
       678.563  
  19951948.635   104848197.55548        13.737    19951947.801    81699891.89948
        10.703  
  21498868.504   112977318.99348      2237.457    21498870.726    88034285.30949
      1743.469  
 20 10 01 07 46 55.0000000  0  8G 8G27G15G21G18G24G20G10
  24690535.683   129749635.03445      -604.105    24690539.236   101103629.62649
      -470.734  
  24753684.153   130081477.01545     -2239.069    24753687.159   101362210.00048
     -1744.733  
  21839725.821   114768551.09548     -2850.934    21839726.291    89430046.14949
     -2221.512  
  24241709.946   127391045.61445      2321.413    24241710.036    99265751.61345
      1808.891  
  22241302.419   116878833.92448     -3201.633    22241303.034    91074420.21746
     -2494.780  
  20646684.300   108499090.33449       867.413    20646686.768    84544768.52149
       675.902  
  19951936.859   104848135.70248        11.104    19951936.084    81699843.70048
         8.651  
  21496740.442   112966135.32348      2236.042    21496742.448    88025570.77149
      1742.367  
 20 10 01 07 47  0.0000000  0  8G 8G27G15G21G18G24G20G10
  24691112.219   129752665.37345      -607.476    24691115.857   101105990.95049
      -473.363  
  24755815.373   130092678.55745     -2241.336    24755818.660   101370938.45349
     -1746.499  
  21842439.227   114782810.35748     -2852.218    21842439.797    89441157.25049
     -2222.538  
  24239502.374   127379444.18346      2319.542    24239502.414    99256711.55145
      1807.433  
  22244349.866   116894847.80548     -3203.430    22244350.277    91086898.57246
     -2496.183  
  20645860.692   108494762.77749       863.944    20645863.286    84541396.40649
       673.199  
  19951927.733   104848087.96448         8.391    19951927.030    81699806.50448
         6.535  
  21494613.882   112954960.08448      2234.347    21494615.886    88016862.79449
      1741.046  
 20 10 01 07 47  5.0000000  0  8G 8G27G15G21G18G24G20G10
  24691691.650   129755710.24445      -610.745    24691695.378   101108363.58449
      -475.910  
  24757948.809   130103889.99745     -2243.234    24757952.211   101379674.64549
     -1747.976  
  21845153.783   114797075.79148     -2853.930    21845154.501    89452273.16449
     -2223.843  
  24237296.259   127367851.06847      2317.418    24237296.156    99247677.95045
      1805.776  
  22247398.986   116910870.31648     -3205.534    22247399.236    91099383.64646
     -2497.824  
  20645040.501   108490452.20849       860.190    20645042.990    84538037.52349
       670.276  
  19951921.266   104848053.60648         5.207    19951920.439    81699779.73248
         4.055  
  21492488.689   112943792.52648      2232.512    21492490.786    88008160.80249
      1739.616  
 20 10 01 07 47 10.0000000  0  8G 8G27G15G21G18G24G20G10
  24692274.118   129758771.07146      -613.597    24692277.853   101110748.65949
      -478.132  
  24760084.281   130115112.91445     -2245.401    24760087.796   101388419.78948
     -1749.667  
  21847869.882   114811348.80049     -2855.167    21847870.413    89463394.99749
     -2224.809  
  24235091.890   127356267.74547      2315.819    24235092.157    99238652.00545
      1804.531  
  22250449.813   116926902.83148     -3207.351    22250450.195    91111876.50146
     -2499.238  
  20644223.748   108486160.11149       856.729    20644226.353    84534693.03249
       667.578  
  19951917.661   104848034.00648         2.593    19951916.778    81699764.45848
         2.020  
  21490365.375   112932634.02648      2230.895    21490367.389    87999465.87549
      1738.355  
 20 10 01 07 47 15.0000000  0  8G 8G27G15G21G18G24G20G10
  24692859.209   129761846.37145      -616.223    24692863.009   101113144.99649
      -480.176  
  24762221.809   130126345.82445     -2247.758    24762225.407   101397172.70148
     -1751.503  
  21850587.310   114825628.01349     -2856.617    21850587.754    89474521.64849
     -2225.938  
  24232889.261   127344692.72847      2314.086    24232889.404    99229632.50545
      1803.179  
  22253502.330   116942943.94848     -3209.352    22253502.877    91124376.06547
     -2500.797  
  20643410.040   108481884.95249       853.140    20643412.627    84531361.74149
       664.781  
  19951916.360   104848027.82548        -0.227    19951915.547    81699759.63848
        -0.180  
  21488243.393   112921483.24948      2229.257    21488245.451    87990776.95949
      1737.081  
 20 10 01 07 47 20.0000000  0  8G 8G27G15G21G18G24G20G10
  24693447.333   129764937.35646      -619.734    24693451.360   101115553.53749
      -482.914  
  24764361.292   130137589.85245     -2249.394    24764365.198   101405934.25749
     -1752.777  
  21853305.878   114839914.55548     -2858.116    21853306.578    89485654.02849
     -2227.109  
  24230688.543   127333127.19146      2311.805    24230688.588    99220620.40745
      1801.401  
  22256556.737   116958994.74848     -3211.184    22256557.279    91136883.17446
     -2502.223  
  20642599.937   108477627.92449       849.589    20642602.558    84528044.58049
       662.015  
  19951918.087   104848036.14848        -3.280    19951917.239    81699766.12948
        -2.558  
  21486123.119   112910341.26048      2227.601    21486125.248    87982094.89449
      1735.789  
 20 10 01 07 47 25.0000000  0  8G 8G27G15G21G18G24G20G10
  24694038.350   129768043.51646      -622.397    24694042.395   101117973.91249
      -484.988  
  24766503.045   130148844.65245     -2251.492    24766506.950   101414704.21449
     -1754.413  
  21856025.948   114854208.06048     -2859.136    21856026.367    89496791.82949
     -2227.898  
  24228489.348   127321570.84146      2310.754    24228489.522    99211615.47345
      1800.585  
  22259612.852   116975054.92948     -3212.848    22259613.350    91149397.58746
     -2503.519  
  20641793.285   108473388.60049       846.144    20641795.912    84524741.21849
       659.331  
  19951922.247   104848058.66648        -5.852    19951921.403    81699783.68048
        -4.562  
  21484004.363   112899207.78148      2225.991    21484006.728    87973419.46949
      1734.534  
 20 10 01 07 47 30.0000000  0  8G 8G27G15G21G18G24G20G10
  24694632.239   129771164.29846      -625.527    24694636.341   101120405.67849
      -487.426  
  24768646.744   130160109.58444     -2254.374    24768650.590   101423482.09348
     -1756.660  
  21858746.961   114868507.89148     -2860.641    21858747.595    89507934.55249
     -2229.073  
  24226292.008   127310023.02247      2308.479    24226292.074    99202617.16645
      1798.813  
  22262670.708   116991123.79048     -3214.780    22262671.167    91161918.77647
     -2505.026  
  20640989.861   108469166.45049       842.636    20640992.448    84521451.23049
       656.598  
  19951929.110   104848094.67048        -8.586    19951928.262    81699811.73348
        -6.694  
  21481887.308   112888082.14348      2224.293    21481889.675    87964750.14949
      1733.211  
 20 10 01 07 47 35.0000000  0  8G 8G27G15G21G18G24G20G10
  24695228.765   129774299.59346      -629.151    24695232.924   101122848.77648
      -490.250  
  24770792.234   130171384.39744     -2256.491    24770795.949   101432267.66648
     -1758.308  
  21861469.309   114882813.86248     -2862.121    21861470.031    89519082.03549
     -2230.230  
  24224096.062   127298483.62746      2306.644    24224096.066    99193625.41144
      1797.382  
  22265730.231   117007201.15948     -3216.636    22265730.735    91174446.59947
     -2506.472  
  20640189.680   108464961.47349       838.944    20640192.176    84518174.62849
       653.718  
  19951938.603   104848144.08748       -11.512    19951937.782    81699850.24948
        -8.973  
  21479771.604   112876964.23248      2222.519    21479773.843    87956086.82849
      1731.831  
 20 10 01 07 47 40.0000000  0  7G 8G15G21G18G24G20G10
  24695828.636   129777451.09446      -631.659    24695832.723   101125304.47849
      -492.206  
  21864193.183   114897127.76548     -2863.229    21864193.681    89530235.73949
     -2231.094  
  24221902.186   127286954.28947      2305.219    24221902.124    99184641.52645
      1796.269  
  22268791.439   117023288.88648     -3218.387    22268792.236    91186982.46647
     -2507.835  
  20639393.098   108460775.25049       835.637    20639395.563    84514912.62949
       651.141  
  19951950.780   104848208.70348       -14.183    19951950.000    81699900.59348
       -11.055  
  21477657.588   112865855.84548      2220.941    21477659.982    87947430.94949
      1730.602  
 20 10 01 07 47 45.0000000  0  7G 8G15G21G18G24G20G10
  24696430.571   129780614.25546      -634.395    24696434.696   101127769.26749
      -494.336  
  21866917.645   114911444.90948     -2864.144    21866918.086    89541391.97249
     -2231.804  
  24219709.221   127275430.55546      2303.547    24219709.378    99175662.03546
      1794.972  
  22271854.053   117039382.21948     -3219.773    22271854.695    91199522.72546
     -2508.917  
  20638599.214   108456603.17249       832.645    20638601.626    84511661.65449
       648.813  
  19951965.041   104848283.80048       -16.449    19951964.419    81699959.10648
       -12.820  
  21475544.752   112854752.28348      2219.895    21475547.085    87938778.83349
      1729.785  
 20 10 01 07 47 50.0000000  0  7G 8G15G21G18G24G20G10
  24697035.836   129783794.00445      -637.461    24697039.591   101130246.99349
      -496.727  
  21869643.817   114925770.44648     -2866.008    21869644.214    89552554.72749
     -2233.257  
  24217518.370   127263917.46447      2301.535    24217518.306    99166690.77445
      1793.401  
  22274918.585   117055486.31848     -3221.906    22274919.340    91212071.37146
     -2510.578  
  20637808.936   108452450.39249       828.687    20637811.366    84508425.73249
       645.727  
  19951982.347   104848374.56048       -19.519    19951981.545    81700029.82648
       -15.215  
  21473433.611   112843658.72848      2217.699    21473436.161    87930134.51449
      1728.073  
 20 10 01 07 47 55.0000000  0  8G 8G27G15G21G18G24G20G10
  24697643.871   129786989.65745      -640.504    24697647.930   101132737.10449
      -499.097  
  24779395.016   130216599.22755     -2264.870    24779398.318   101467493.61958
     -1764.832  
  21872371.301   114940103.43948     -2867.269    21872371.815    89563723.29849
     -2234.237  
  24215329.391   127252414.14446      2299.729    24215329.483    99157727.15944
      1791.996  
  22277985.020   117071600.23248     -3223.843    22277985.676    91224627.66146
     -2512.090  
  20637022.100   108448315.94549       824.940    20637024.768    84505204.08749
       642.808  
  19952002.506   104848480.09148       -22.688    19952001.820    81700112.06648
       -17.684  
  21471324.377   112832574.25448      2215.976    21471326.937    87921497.25349
      1726.729  
 20 10 01 07 48  0.0000000  0  8G 8G27G15G21G18G24G20G10
  24698255.031   129790201.63745      -643.983    24698258.944   101135239.97949
      -501.808  
  24781550.572   130227928.03345     -2267.020    24781553.975   101476321.23548
     -1766.512  
  21875100.311   114954444.51248     -2869.147    21875100.879    89574898.13947
     -2235.703  
  24213142.344   127240921.16947      2297.570    24213142.254    99148771.60145
      1790.312  
  22281053.313   117087724.56348     -3225.973    22281054.159    91237192.08647
     -2513.749  
  20636239.049   108444200.45349       821.191    20636241.578    84501997.21449
       639.887  
  19952025.355   104848600.91048       -25.832    19952024.781    81700206.21448
       -20.132  
  21469216.848   112821499.45748      2213.968    21469219.392    87912867.55349
      1725.168  
 20 10 01 07 48  5.0000000  0  8G 8G27G15G21G18G24G20G10
  24698869.027   129793428.27245      -646.733    24698873.146   101137754.25249
      -503.953  
  24783708.378   130239266.81945     -2268.964    24783711.735   101485156.65348
     -1768.026  
  21877830.414   114968791.89548     -2870.218    21877830.884    89586077.92847
     -2236.538  
  24210956.874   127229436.84847      2295.953    24210956.773    99139822.76745
      1789.051  
  22284123.280   117103857.53348     -3227.530    22284124.166    91249763.22147
     -2514.960  
  20635459.222   108440102.21749       818.019    20635461.580    84498803.78249
       637.414  
  19952051.045   104848735.34848       -28.229    19952050.196    81700310.97048
       -22.000  
  21467110.845   112810432.64848      2212.632    21467113.554    87904244.06149
      1724.124  
 20 10 01 07 48 10.0000000  0  7G 8G15G21G18G24G20G10
  24699485.734   129796669.43345      -649.645    24699489.800   101140279.81249
      -506.218  
  21880561.867   114983145.40448     -2871.297    21880562.364    89597262.47647
     -2237.425  
  24208773.142   127217960.97947      2294.445    24208773.059    99130880.54145
      1787.875  
  22287194.776   117119998.97848     -3229.171    22287195.613    91262340.97147
     -2516.242  
  20634682.623   108436021.06849       814.655    20634685.002    84495623.66949
       634.793  
  19952079.215   104848883.23048       -30.848    19952078.534    81700426.19948
       -24.038  
  21465006.383   112799373.62348      2210.965    21465008.938    87895626.63549
      1722.828  
 20 10 01 07 48 15.0000000  0  7G 8G15G21G18G24G20G10
  24700103.621   129799916.82546      -652.054    24700107.892   101142810.23749
      -508.097  
  21883292.773   114997496.81548     -2871.940    21883293.405    89608445.38447
     -2237.804  
  24206589.533   127206485.35247      2293.151    24206589.358    99121938.49345
      1786.866  
  22290266.435   117136140.65548     -3230.093    22290267.316    91274918.89247
     -2516.960  
  20633907.553   108431948.57948       811.813    20633910.132    84492450.30049
       632.578  
  19952108.328   104849036.27948       -32.910    19952107.613    81700545.45848
       -25.647  
  21462901.895   112788314.15648      2210.082    21462904.334    87887008.88149
      1722.137  
 20 10 01 07 48 20.0000000  0  7G 8G15G21G18G24G20G10
  24700726.447   129803189.48646      -656.163    24700730.577   101145360.37048
      -511.301  
  21886027.085   115011865.22548     -2874.840    21886027.550    89619641.56247
     -2240.066  
  24204409.533   127195029.12347      2289.874    24204409.303    99113011.59545
      1784.319  
  22293341.713   117152301.69748     -3233.527    22293342.634    91287511.89746
     -2519.637  
  20633137.992   108427904.22849       806.718    20633140.403    84489298.85849
       628.609  
  19952141.994   104849213.69848       -37.433    19952141.343    81700683.70148
       -29.171  
  21460800.855   112777273.39448      2206.707    21460803.370    87878405.69349
      1719.507  
 20 10 01 07 48 25.0000000  0  7G 8G15G21G18G24G20G10
  24701352.528   129806479.59245      -659.391    24701356.694   101147924.05849
      -513.816  
  21888762.956   115026242.60248     -2875.983    21888763.404    89630844.74047
     -2241.026  
  24202231.664   127183584.27946      2288.233    24202231.452    99104093.50346
      1783.034  
  22296419.319   117168474.03448     -3235.238    22296420.181    91300113.71847
     -2520.968  
  20632372.046   108423879.87049       803.190    20632374.564    84486162.99849
       625.858  
  19952178.868   104849407.43848       -39.945    19952178.226    81700834.67048
       -31.129  
  21458701.925   112766243.35048      2205.266    21458704.335    87869810.86949
      1718.386  
 20 10 01 07 48 30.0000000  0  7G 8G15G21G18G24G20G10
  24701981.408   129809784.75746      -661.832    24701985.466   101150499.52448
      -515.715  
  21891500.164   115040626.78948     -2876.805    21891500.764    89642053.17948
     -2241.668  
  24200055.466   127172148.59747      2286.723    24200055.280    99095182.60044
      1781.858  
  22299498.465   117184655.49148     -3236.414    22299499.408    91312722.64047
     -2521.883  
  20631609.725   108419873.13149       800.159    20631612.153    84483040.86549
       623.500  
  19952218.456   104849615.28848       -42.229    19952217.803    81700996.63748
       -32.909  
  21456604.529   112755221.80548      2203.996    21456607.064    87861222.64749
      1717.394  
 20 10 01 07 48 35.0000000  0  7G 8G15G21G18G24G20G10
  24702612.451   129813100.87745      -665.167    24702616.452   101153083.52449
      -518.316  
  21894237.948   115055013.57048     -2878.237    21894238.367    89653263.64448
     -2242.785  
  24197880.237   127160717.90947      2285.120    24197880.078    99086275.57645
      1780.608  
  22302578.492   117200841.85848     -3238.301    22302579.582    91325335.40846
     -2523.355  
  20630849.882   108415880.00249       796.663    20630852.447    84479929.34049
       620.772  
  19952259.953   104849833.10748       -45.129    19952259.305    81701166.36248
       -35.167  
  21454508.077   112744204.59148      2202.512    21454510.496    87852637.80249
      1716.238  
 20 10 01 07 48 40.0000000  0  7G 8G15G21G18G24G20G10
  24703246.718   129816433.47345      -668.215    24703250.632   101155680.35649
      -520.690  
  21896977.251   115069408.45048     -2879.702    21896977.660    89664480.43147
     -2243.926  
  24195707.097   127149297.79647      2282.914    24195706.819    99077376.78545
      1778.890  
  22305660.573   117217038.67748     -3240.305    22305661.740    91337956.29546
     -2524.914  
  20630093.628   108411906.01849       792.969    20630096.154    84476832.73049
       617.894  
  19952304.263   104850066.39248       -48.121    19952303.736    81701348.14548
       -37.499  
  21452413.521   112733197.28248      2200.550    21452415.891    87844060.68149
      1714.711  
 20 10 01 07 48 45.0000000  0  7G 8G15G21G18G24G20G10
  24703883.657   129819780.36245      -670.586    24703887.515   101158288.31649
      -522.538  
  21899717.699   115083809.35448     -2880.738    21899717.935    89675701.93148
     -2244.734  
  24193535.628   127137886.14847      2281.363    24193535.260    99068484.61345
      1777.629  
  22308744.270   117233243.80248     -3241.694    22308745.393    91350583.65446
     -2526.000  
  20629340.613   108407949.14449       789.637    20629343.255    84473749.45349
       615.296  
  19952351.234   104850313.07148       -50.647    19952350.630    81701540.35648
       -39.469  
  21450320.283   112722197.77248      2199.308    21450322.763    87835489.64049
      1713.741  
 20 10 01 07 48 50.0000000  0  8G 8G27G15G21G18G24G20G10
  24704523.265   129823141.55445      -673.523    24704527.093   101160907.40649
      -524.831  
  24803216.703   130341783.88654     -2287.500    24803219.643   101565038.39858
     -1782.476  
  21902459.296   115098216.13548     -2882.023    21902459.447    89686927.99747
     -2245.734  
  24191365.571   127126482.85747      2279.941    24191365.213    99059598.91845
      1776.574  
  22311829.663   117249457.15548     -3243.632    22311830.796    91363217.42347
     -2527.508  
  20628590.857   108404009.15249       786.262    20628593.547    84470679.33449
       612.668  
  19952400.681   104850573.01348       -53.395    19952399.975    81701742.91548
       -41.608  
  21448228.590   112711205.91748      2197.745    21448231.100    87826924.56849
      1712.527  
 20 10 01 07 48 55.0000000  0  8G 8G27G15G21G18G24G20G10
  24705165.667   129826517.58945      -676.272    24705169.656   101163538.09249
      -526.968  
  24805394.206   130353225.83244     -2289.477    24805396.967   101573954.20948
     -1784.012  
  21905202.002   115112629.43848     -2883.340    21905202.465    89698159.13648
     -2246.761  
  24189197.395   127115088.57847      2278.074    24189197.055    99050720.26644
      1775.121  
  22314916.540   117265679.30348     -3245.601    22314917.851    91375858.05446
     -2529.042  
  20627844.347   108400086.71649       782.738    20627846.996    84467622.89449
       609.922  
  19952452.629   104850846.87448       -56.145    19952452.234    81701956.31448
       -43.754  
  21446138.594   112700222.41048      2195.745    21446140.878    87818365.98949
      1710.968  
 20 10 01 07 49  0.0000000  0  8G 8G27G15G21G18G24G20G10
  24705811.106   129829909.45445      -679.991    24705815.151   101166181.13349
      -529.866  
  24807573.454   130364678.92144     -2291.909    24807575.756   101582878.67348
     -1785.910  
  21907946.263   115127050.15548     -2884.797    21907946.717    89709396.04448
     -2247.844  
  24187031.120   127103704.22847      2276.313    24187030.696    99041849.35846
      1773.745  
  22318005.341   117281911.12248     -3247.207    22318006.635    91388506.23546
     -2530.293  
  20627101.452   108396182.71249       778.929    20627104.119    84464580.81349
       606.952  
  19952507.591   104851135.54848       -59.175    19952507.190    81702181.25548
       -46.113  
  21444050.301   112689248.11048      2193.929    21444052.598    87809814.58349
      1709.550  
 20 10 01 07 49  5.0000000  0  8G 8G27G15G21G18G24G20G10
  24706459.368   129833316.18845      -682.854    24706463.284   101168835.72049
      -532.097  
  24809753.860   130376131.12754     -2293.272    24809758.280   101591808.05859
     -1786.969  
  21910691.643   115141477.44548     -2885.805    21910692.195    89720638.09847
     -2248.683  
  24184866.581   127092329.02747      2274.300    24184866.003    99032985.55245
      1772.180  
  22321095.697   117298151.83448     -3248.648    22321097.172    91401161.30946
     -2531.422  
  20626361.971   108392296.39949       775.738    20626364.655    84461552.51949
       604.469  
  19952565.238   104851438.20048       -61.706    19952564.828    81702417.08448
       -48.086  
  21441963.569   112678282.22848      2192.706    21441965.795    87801269.75149
      1708.602  
 20 10 01 07 49 10.0000000  0  8G 8G27G15G21G18G24G20G10
  24707110.482   129836738.65945      -686.175    24707114.541   101171502.57448
      -534.687  
  24811937.889   130387605.55545     -2296.089    24811940.491   101600749.16048
     -1789.168  
  21913438.551   115155912.16648     -2887.816    21913438.844    89731885.91647
     -2250.250  
  24182703.726   127080963.77347      2272.152    24182703.260    99024129.54245
      1770.503  
  22324188.098   117314402.25948     -3251.151    22324189.375    91413823.99146
     -2533.366  
  20625625.931   108388428.48549       771.613    20625628.608    84458538.56049
       601.254  
  19952625.536   104851755.69648       -65.082    19952625.138    81702664.48348
       -50.715  
  21439878.560   112667325.62048      2190.522    21439880.962    87792732.11649
      1706.898  
 20 10 01 07 49 15.0000000  0  8G 8G27G15G21G18G24G20G10
  24707764.532   129840175.11945      -688.808    24707768.512   101174180.31648
      -536.737  
  24814123.704   130399089.12345     -2297.171    24814126.168   101609697.39048
     -1790.007  
  21916186.396   115170352.44248     -2888.512    21916186.924    89743138.09747
     -2250.792  
  24180542.603   127069606.62047      2270.992    24180541.950    99015279.80645
      1769.602  
  22327281.858   117330660.48748     -3252.327    22327283.300    91426492.72246
     -2534.284  
  20624893.122   108384577.14149       768.671    20624895.707    84455537.51649
       598.961  
  19952688.521   104852086.15048       -67.202    19952687.899    81702921.97748
       -52.370  
  21437795.077   112656376.40348      2189.253    21437797.344    87784200.26949
      1705.909  
 20 10 01 07 49 20.0000000  0  8G 8G27G15G21G18G24G20G10
  24708421.297   129843626.16345      -691.690    24708425.213   101176869.42948
      -538.983  
  24816311.089   130410582.59645     -2299.694    24816313.561   101618653.33648
     -1791.972  
  21918935.371   115184798.96248     -2890.097    21918935.966    89754395.11847
     -2251.977  
  24178383.172   127058258.26747      2268.691    24178382.327    99006436.95045
      1767.809  
  22330377.350   117346927.25048     -3254.558    22330378.866    91439168.10747
     -2536.022  
  20624163.543   108380743.05149       764.843    20624165.983    84452549.92049
       595.979  
  19952753.963   104852430.30548       -70.308    19952753.573    81703190.15148
       -54.789  
  21435713.121   112645435.34048      2187.269    21435715.199    87775674.76449
      1704.363  
 20 10 01 07 49 25.0000000  0  8G 8G27G15G21G18G24G20G10
  24709080.695   129847091.63345      -694.339    24709084.561   101179569.81948
      -541.043  
  24818500.605   130422085.73644     -2301.081    24818502.173   101627616.80649
     -1793.058  
  21921685.686   115199251.46648     -2890.988    21921685.994    89765656.80648
     -2252.687  
  24176225.268   127046918.52947      2266.979    24176224.410    98997600.79545
      1766.477  
  22333474.352   117363202.26148     -3255.625    22333475.733    91451849.95147
     -2536.854  
  20623437.192   108376926.05248       761.815    20623439.671    84449575.63549
       593.621  
  19952821.920   104852787.91848       -72.738    19952821.459    81703468.81948
       -56.683  
  21433632.663   112634502.17648      2185.984    21433634.777    87767155.40749
      1703.358  
 20 10 01 07 49 30.0000000  0  8G 8G27G15G21G18G24G20G10
  24709743.125   129850572.98146      -698.136    24709747.049   101182282.56648
      -544.003  
  24820691.110   130433600.10845     -2304.387    24820693.581   101636589.06648
     -1795.629  
  21924437.326   115213711.46248     -2893.145    21924437.752    89776924.35747
     -2254.397  
  24174069.266   127035588.91547      2264.347    24174068.452    98988772.54145
      1764.421  
  22336573.248   117379487.13247     -3258.371    22336574.747    91464539.45447
     -2538.992  
  20622714.239   108373127.65849       757.464    20622716.770    84446615.85249
       590.229  
  19952892.916   104853160.56748       -76.379    19952892.516    81703759.19348
       -59.519  
  21431553.922   112623578.50648      2183.585    21431556.071    87758643.45549
      1701.491  
 20 10 01 07 49 35.0000000  0  8G 8G27G15G21G18G24G20G10
  24710408.941   129854071.14645      -701.547    24710412.683   101185008.38048
      -546.663  
  24822884.165   130445126.53445     -2306.554    24822887.006   101645570.68248
     -1797.320  
  21927190.462   115228179.85348     -2894.335    21927190.984    89788198.41248
     -2255.328  
  24171915.515   127024270.34147      2262.613    24171914.491    98979952.83646
      1763.070  
  22339674.002   117395782.64548     -3259.952    22339675.721    91477237.23847
     -2540.226  
  20621995.122   108369348.82949       753.827    20621997.783    84443671.31449
       587.394  
  19952966.956   104853549.12048       -79.262    19952966.264    81704061.96148
       -61.766  
  21429477.288   112612665.16148      2181.789    21429479.340    87750139.55849
      1700.094  
 20 10 01 07 49 40.0000000  0  8G 8G27G15G21G18G24G20G10
  24711077.226   129857583.44445      -703.645    24711081.068   101187745.24549
      -548.297  
  24825079.467   130456662.45445     -2308.218    24825082.329   101654559.72448
     -1798.613  
  21929944.924   115242654.05648     -2895.257    21929945.191    89799476.99547
     -2256.047  
  24169763.297   127012960.26647      2261.238    24169762.215    98971139.81444
      1762.000  
  22342776.542   117412086.25548     -3261.320    22342778.171    91489941.34547
     -2541.292  
  20621279.430   108365587.03349       750.836    20621281.969    84440740.05049
       585.062  
  19953043.262   104853950.95648       -81.526    19953042.921    81704375.07748
       -63.531  
  21427401.976   112601759.59948      2180.503    21427404.058    87741641.71649
      1699.089  
 20 10 01 07 49 45.0000000  0  8G 8G27G15G21G18G24G20G10
  24711748.421   129861110.19345      -707.168    24711752.068   101190493.37848
      -551.043  
  24827275.842   130468207.98045     -2310.418    24827279.452   101663556.23548
     -1800.327  
  21932700.345   115257134.20348     -2896.866    21932700.855    89810760.19547
     -2257.289  
  24167612.551   127001658.80447      2259.227    24167611.770    98962333.47545
      1760.433  
  22345880.620   117428398.14048     -3263.438    22345882.107    91502651.91347
     -2542.941  
  20620566.741   108361842.45249       747.015    20620569.351    84437822.18849
       582.086  
  19953122.439   104854366.34348       -84.769    19953121.824    81704698.76548
       -66.058  
  21425328.374   112590862.03049      2178.406    21425330.487    87733150.10549
      1697.457  
 20 10 01 07 49 50.0000000  0  8G 8G27G15G21G18G24G20G10
  24712422.254   129864651.80245      -709.648    24712426.023   101193253.01448
      -552.984  
  24829474.969   130479771.62655     -2311.636    24829477.866   101672560.58858
     -1801.276  
  21935456.921   115271620.82648     -2897.773    21935457.466    89822048.52647
     -2258.003  
  24165463.748   126990366.48447      2257.645    24165463.019    98953534.26145
      1759.198  
  22348986.188   117444718.79048     -3264.883    22348987.928    91515369.26246
     -2544.070  
  20619857.515   108358115.50349       743.780    20619860.125    84434918.08749
       579.566  
  19953204.073   104854795.73848       -87.194    19953203.624    81705033.34748
       -67.948  
  21423256.069   112579972.93248      2176.858    21423258.367    87724665.11849
      1696.253  
 20 10 01 07 49 55.0000000  0  8G 8G27G15G21G18G24G20G10
  24713099.151   129868208.67245      -713.265    24713102.728   101196024.60448
      -555.792  
  24831675.022   130491337.79644     -2314.242    24831679.536   101681573.18748
     -1803.309  
  21938215.041   115286114.28248     -2899.468    21938215.518    89833342.13247
     -2259.327  
  24163316.653   126979083.70947      2255.305    24163315.910    98944742.49145
      1757.379  
  22352093.631   117461048.51847     -3267.305    22352095.256    91528093.72246
     -2545.952  
  20619151.725   108354406.45849       739.879    20619154.081    84432027.92449
       576.527  
  19953288.554   104855239.47448       -90.413    19953288.082    81705379.12648
       -70.457  
  21421185.669   112569092.68848      2174.863    21421187.996    87716187.01449
      1694.695  
 20 10 01 07 50  0.0000000  0  7G 8G15G21G18G24G20G10
  24713778.685   129871779.80145      -715.297    24713782.383   101198807.30448
      -557.378  
  21940974.102   115300613.62249     -2899.972    21940974.565    89844640.30947
     -2259.722  
  24161171.275   126967809.51147      2254.660    24161170.576    98935957.42645
      1756.874  
  22355202.609   117477386.36747     -3267.929    22355204.254    91540824.51846
     -2546.441  
  20618449.187   108350714.50649       737.012    20618451.709    84429151.07849
       574.293  
  19953375.524   104855696.65648       -92.371    19953375.004    81705735.36948
       -71.979  
  21419116.795   112558220.33648      2174.245    21419119.060    87707715.03749
      1694.214  
 20 10 01 07 50  5.0000000  0  8G 8G27G15G21G18G24G20G10
  24714460.897   129875364.13345      -719.089    24714464.490   101201600.26149
      -560.332  
  24836082.699   130514492.64054     -2318.124    24836085.943   101699616.81058
     -1806.335  
  21943734.132   115315117.80048     -2901.859    21943734.587    89855942.26247
     -2261.191  
  24159027.190   126956542.89246      2252.175    24159026.612    98927178.21946
      1754.938  
  22358312.951   117493731.32248     -3270.363    22358314.458    91553560.84346
     -2548.340  
  20617749.673   108347038.69049       732.895    20617751.991    84426286.81849
       571.082  
  19953464.975   104856166.26148       -95.847    19953464.375    81706101.29748
       -74.690  
  21417049.051   112547354.89448      2171.644    21417051.347    87699248.47149
      1692.188  
 20 10 01 07 50 10.0000000  0  8G 8G27G15G21G18G24G20G10
  24715146.736   129878968.33245      -722.550    24715150.244   101204408.74449
      -563.031  
  24838288.987   130526091.91645     -2321.723    24838293.830   101708655.20948
     -1809.136  
  21946496.423   115329633.45748     -2903.914    21946496.785    89867253.19147
     -2262.793  
  24156885.998   126945290.57347      2249.292    24156885.385    98918410.19045
      1752.691  
  22361425.784   117510089.99848     -3272.694    22361427.365    91566307.86547
     -2550.156  
  20617054.542   108343385.37449       728.839    20617056.934    84423440.08549
       567.926  
  19953557.841   104856654.89848       -99.273    19953557.392    81706482.06148
       -77.358  
  21414984.167   112536503.01548      2169.374    21414986.317    87690792.45549
      1690.417  
 20 10 01 07 50 15.0000000  0  8G 8G27G15G21G18G24G20G10
  24715835.055   129882585.12945      -725.249    24715838.755   101207227.02248
      -565.132  
  24840498.338   130537698.79444     -2321.597    24840502.163   101717699.52648
     -1809.039  
  21949259.486   115344153.17148     -2904.054    21949259.744    89878567.23447
     -2262.901  
  24154746.135   126934045.08047      2248.613    24154745.403    98909647.48045
      1752.164  
  22364539.942   117526454.94547     -3273.390    22364541.448    91579059.76446
     -2550.694  
  20616362.250   108339747.38849       726.249    20616364.567    84420605.29949
       565.906  
  19953653.169   104857155.13148      -100.973    19953652.369    81706871.85248
       -78.684  
  21412920.233   112525657.21448      2168.613    21412922.490    87682341.21149
      1689.823  
 20 10 01 07 50 20.0000000  0  8G 8G27G15G21G18G24G20G10
  24716525.634   129886214.49445      -727.438    24716529.433   101210055.13948
      -566.832  
  24842708.693   130549313.47444     -2323.190    24842712.023   101726749.93848
     -1810.281  
  21952023.307   115358677.11749     -2905.422    21952023.434    89889884.58447
     -2263.968  
  24152607.424   126922806.54647      2247.004    24152606.954    98900890.19945
      1750.910  
  22367655.413   117542826.38948     -3275.253    22367656.800    91591816.73746
     -2552.148  
  20615672.816   108336124.82649       722.862    20615675.125    84417782.52649
       563.266  
  19953750.587   104857667.19048      -103.785    19953749.787    81707270.85748
       -80.875  
  21410857.444   112514817.75048      2167.265    21410859.659    87673894.85749
      1688.772  
 20 10 01 07 50 25.0000000  0  8G 8G27G15G21G18G24G20G10
  24717219.177   129889859.83645      -730.257    24717222.990   101212895.67048
      -569.035  
  24844920.898   130560939.59545     -2326.581    24844924.243   101735809.23548
     -1812.925  
  21954788.471   115373208.71348     -2907.133    21954788.629    89901207.90747
     -2265.301  
  24150470.740   126911578.50747      2244.440    24150470.361    98892141.08445
      1748.914  
  22370772.631   117559207.70048     -3277.128    22370774.105    91604581.39246
     -2553.609  
  20614987.167   108332521.18749       718.797    20614989.345    84414974.49849
       560.098  
  19953850.871   104858194.49748      -107.039    19953850.153    81707681.74648
       -83.409  
  21408796.700   112503988.09448      2164.813    21408798.997    87665456.16849
      1686.863  
 20 10 01 07 50 30.0000000  0  8G 8G27G15G21G18G24G20G10
  24717915.672   129893519.75145      -734.257    24717919.412   101215747.52648
      -572.152  
  24847135.412   130572575.25644     -2327.913    24847138.437   101744875.98947
     -1813.961  
  21957554.996   115387746.34049     -2908.113    21957555.008    89912535.92247
     -2266.034  
  24148335.821   126900359.37147      2242.906    24148335.261    98883398.89345
      1747.714  
  22373891.567   117575597.31547     -3278.578    22373892.949    91617352.50546
     -2554.738  
  20614304.583   108328934.86849       715.651    20614306.739    84412179.96349
       557.647  
  19953953.820   104858735.46848      -109.499    19953953.213    81708103.28748
       -85.327  
  21406737.315   112493166.57848      2163.504    21406739.560    87657023.83249
      1685.843  
 20 10 01 07 50 35.0000000  0  8G 8G27G15G21G18G24G20G10
  24718614.463   129897196.04855      -737.629    24718617.218   101218602.82958
      -574.777  
  24849351.358   130584222.57054     -2330.004    24849353.438   101753948.48357
     -1815.590  
  21960322.454   115402289.02048     -2909.645    21960322.399    89923867.89247
     -2267.257  
  24146202.447   126889148.00847      2240.824    24146201.851    98874662.77945
      1746.094  
  22377011.835   117591994.15647     -3280.780    22377013.214    91630129.24846
     -2556.406  
  20613625.246   108325364.74149       711.741    20613627.565    84409398.04649
       554.601  
  19954059.215   104859289.07648      -112.652    19954058.464    81708534.68048
       -87.785  
  21404679.435   112482352.21948      2161.496    21404681.832    87648597.06449
      1684.281  
 20 10 01 07 50 40.0000000  0  8G 8G27G15G21G18G24G20G10
  24719315.467   129900887.25745      -739.723    24719321.199   101221479.07848
      -576.409  
  24851569.665   130595880.00645     -2332.491    24851573.074   101763032.17848
     -1817.530  
  21963091.640   115416841.19448     -2911.030    21963091.715    89935207.24747
     -2268.316  
  24144071.317   126877949.03247      2239.109    24144070.878    98865936.29945
      1744.757  
  22380134.192   117608402.72147     -3282.612    22380135.619    91642915.13346
     -2557.883  
  20612949.900   108321815.33549       708.180    20612952.054    84406632.28749
       551.823  
  19954167.664   104859859.85348      -115.491    19954167.140    81708979.44248
       -89.995  
  21402623.665   112471549.54048      2159.741    21402626.062    87640179.40249
      1682.913  
 20 10 01 07 50 45.0000000  0  7G 8G15G21G18G24G20G10
  24720022.267   129904594.70145      -742.074    24720026.181   101224368.01848
      -578.241  
  21965862.298   115431401.25448     -2911.844    21965862.268    89946552.73347
     -2268.973  
  24141942.088   126866760.83047      2237.374    24141941.943    98857218.23045
      1743.405  
  22383258.657   117624821.36247     -3283.668    22383259.733    91655708.88946
     -2558.706  
  20612278.171   108318285.15849       705.016    20612280.209    84403881.50549
       549.358  
  19954279.359   104860446.15748      -117.886    19954278.732    81709436.29748
       -91.863  
  21400569.812   112460756.91048      2158.394    21400572.247    87631769.56349
      1681.862  
 20 10 01 07 50 50.0000000  0  7G 8G15G21G18G24G20G10
  24720730.031   129908311.12345      -744.688    24720733.017   101227263.92648
      -580.277  
  21968632.968   115445961.75648     -2912.828    21968633.085    89957898.57647
     -2269.738  
  24139813.647   126855575.95348      2236.090    24139813.406    98848502.75945
      1742.405  
  22386383.514   117641242.66347     -3285.137    22386384.647    91668504.69946
     -2559.852  
  20611608.532   108314766.71149       701.878    20611610.549    84401139.85849
       546.913  
  19954392.393   104861040.56048      -120.375    19954391.799    81709899.47648
       -93.800  
  21398516.522   112449966.89348      2156.938    21398518.915    87623361.76049
      1680.726  
 20 10 01 07 50 55.0000000  0  8G 8G27G15G21G18G24G20G10
  24721440.820   129912047.24945      -749.335    24721444.002   101230175.19648
      -583.901  
  24858234.751   130630906.30555     -2338.961    24858238.375   101790330.72458
     -1822.569  
  21971405.898   115460533.32248     -2915.132    21971406.098    89969253.04047
     -2271.534  
  24137688.076   126844405.06148      2232.922    24137687.885    98839798.16745
      1739.938  
  22389511.047   117657677.23848     -3287.815    22389511.959    91681310.86346
     -2561.938  
  20610943.278   108311270.59149       697.132    20610945.269    84398415.61949
       543.218  
  19954509.038   104861653.65848      -124.277    19954508.545    81710377.21848
       -96.843  
  21396465.920   112439190.18848      2154.378    21396468.254    87614964.33649
      1678.734  
 20 10 01 07 51  0.0000000  0  8G 8G27G15G21G18G24G20G10
  24722154.660   129915797.31445      -750.554    24722157.649   101233097.33648
      -584.851  
  24860461.390   130642603.15144     -2340.461    24860464.131   101799445.13248
     -1823.738  
  21974179.823   115475110.61248     -2915.394    21974179.843    89980611.96747
     -2271.737  
  24135563.856   126833242.83548      2232.113    24135563.762    98831100.33245
      1739.305  
  22392639.897   117674119.76948     -3288.891    22392640.997    91694123.22046
     -2562.773  
  20610281.263   108307791.55349       694.651    20610283.193    84395704.68549
       541.284  
  19954628.346   104862280.15748      -126.156    19954627.717    81710865.39648
       -98.309  
  21394416.633   112428421.42148      2153.655    21394419.070    87606573.08349
      1678.172  
 20 10 01 07 51  5.0000000  0  8G 8G27G15G21G18G24G20G10
  24722870.795   129919560.63045      -754.733    24722873.849   101236029.77448
      -588.113  
  24862688.456   130654308.21345     -2342.230    24862691.989   101808565.93448
     -1825.121  
  21976954.704   115489692.61848     -2917.339    21976954.784    89991974.57447
     -2273.219  
  24133441.319   126822088.20648      2229.875    24133441.066    98822408.43745
      1737.562  
  22395770.233   117690569.14047     -3290.847    22395771.010    91706940.91346
     -2564.301  
  20609622.280   108304328.45249       690.602    20609624.272    84393006.16749
       538.129  
  19954749.928   104862919.01348      -129.628    19954749.327    81711363.21148
      -101.011  
  21392368.684   112417659.56448      2151.198    21392371.105    87598187.22449
      1676.258  
 20 10 01 07 51 10.0000000  0  8G 8G27G15G21G18G24G20G10
  24723589.974   129923340.50745      -757.184    24723593.358   101238975.13548
      -590.016  
  24864918.386   130666025.01145     -2344.609    24864921.152   101817695.91947
     -1826.972  
  21979731.093   115504282.79348     -2918.664    21979731.175    90003343.52647
     -2274.276  
  24131320.704   126810944.73348      2227.867    24131320.565    98813725.21445
      1735.995  
  22398902.293   117707028.91547     -3292.953    22398903.232    91719766.68446
     -2565.945  
  20608966.902   108300884.94649       686.867    20608968.767    84390322.92249
       535.219  
  19954874.371   104863573.71548      -132.449    19954873.867    81711873.37048
      -103.211  
  21390322.802   112406908.13448      2149.359    21390325.093    87589809.49349
      1674.824  
 20 10 01 07 51 15.0000000  0  8G 8G27G15G21G18G24G20G10
  24724311.974   129927134.29645      -759.976    24724315.342   101241931.32248
      -592.190  
  24867149.850   130677750.80645     -2345.792    24867152.377   101826832.91448
     -1827.894  
  21982508.617   115518878.44048     -2919.691    21982508.553    90014716.76647
     -2275.086  
  24129201.792   126799809.68148      2226.238    24129201.554    98805048.56245
      1734.726  
  22402036.063   117723496.32748     -3294.151    22402036.906    91732598.42847
     -2566.875  
  20608314.942   108297458.15749       683.797    20608316.687    84387652.70249
       532.823  
  19955001.471   104864241.63248      -134.820    19955000.847    81712393.83148
      -105.059  
  21388278.277   112396164.45748      2148.202    21388280.520    87581437.80649
      1673.922  
 20 10 01 07 51 20.0000000  0  7G 8G15G21G18G24G20G10
  24725036.693   129930943.34846      -763.121    24725040.211   101244899.41448
      -594.644  
  21985287.281   115533480.91748     -2920.980    21985287.374    90026095.32647
     -2276.078  
  24127084.808   126788684.41848      2224.141    24127084.514    98796379.51045
      1733.094  
  22405171.340   117739972.72847     -3295.979    22405172.300    91745437.18646
     -2568.300  
  20607666.221   108294049.50849       680.140    20607668.043    84384996.61449
       529.977  
  19955131.434   104864924.05848      -137.711    19955130.754    81712925.59048
      -107.308  
  21386235.440   112385429.90148      2146.387    21386237.925    87573073.22049
      1672.507  
 20 10 01 07 51 25.0000000  0  7G 8G15G21G18G24G20G10
  24725764.278   129934766.23645      -765.870    24725767.943   101247878.29148
      -596.784  
  21988067.088   115548088.83748     -2922.008    21988067.163    90037478.12947
     -2276.890  
  24124969.329   126777567.59648      2222.464    24124969.125    98787717.06545
      1731.788  
  22408308.183   117756456.76348     -3297.644    22408308.918    91758281.89547
     -2569.597  
  20607020.732   108290657.56749       676.680    20607022.602    84382353.54649
       527.281  
  19955263.709   104865619.67148      -140.516    19955263.109    81713467.62448
      -109.496  
  21384194.347   112374703.07448      2144.660    21384196.541    87564714.65849
      1671.160  
 20 10 01 07 51 30.0000000  0  7G 8G15G21G18G24G20G10
  24726494.853   129938604.37345      -768.819    24726498.398   101250869.04148
      -599.082  
  21990848.244   115562703.56848     -2923.520    21990848.198    90048866.21847
     -2278.145  
  24122855.787   126766460.57648      2220.366    24122855.474    98779062.26945
      1730.155  
  22411446.730   117772949.77948     -3299.551    22411447.573    91771133.56846
     -2571.082  
  20606378.650   108287283.90449       672.797    20606380.555    84379724.72049
       524.253  
  19955398.816   104866329.84748      -143.620    19955398.397    81714021.01248
      -111.913  
  21382154.763   112363985.42348      2142.543    21382157.094    87556363.24549
      1669.512  
 20 10 01 07 51 35.0000000  0  7G 8G15G21G18G24G20G10
  24727228.044   129942457.44345      -772.176    24727231.402   101253871.44448
      -601.699  
  21993630.529   115577324.85448     -2925.000    21993630.481    90060259.42147
     -2279.222  
  24120744.123   126755363.20648      2218.421    24120743.508    98770414.96545
      1728.637  
  22414586.996   117789451.49048     -3301.292    22414587.942    91783992.04246
     -2572.438  
  20605740.182   108283928.20049       669.354    20605741.948    84377109.88749
       521.573  
  19955536.783   104867054.30848      -146.320    19955536.136    81714585.53448
      -114.020  
  21380116.880   112353276.58748      2140.894    21380119.148    87548018.69949
      1668.227  
 20 10 01 07 51 40.0000000  0  7G 8G15G21G18G24G20G10
  24727964.127   129946325.67745      -775.395    24727967.408   101256885.64148
      -604.206  
  21996414.163   115591952.70048     -2926.309    21996413.997    90071657.73447
     -2280.288  
  24118634.165   126744275.46048      2216.363    24118633.657    98761775.16444
      1727.030  
  22417728.824   117805961.97248     -3303.128    22417729.736    91796857.35246
     -2573.871  
  20605104.976   108280590.48249       665.722    20605107.046    84374509.07149
       518.741  
  19955677.406   104867793.13148      -149.358    19955676.775    81715161.23948
      -116.386  
  21378080.727   112342576.75248      2139.000    21378083.168    87539681.16849
      1666.750  
 20 10 01 07 51 45.0000000  0  7G 8G15G21G18G24G20G10
  24728703.069   129950208.56346      -777.621    24728706.450   101259911.26947
      -605.941  
  21999198.946   115606586.89948     -2927.327    21999199.058    90083061.03347
     -2281.039  
  24116526.113   126733197.13248      2214.789    24116525.320    98753142.72144
      1725.805  
  22420872.367   117822480.96347     -3304.593    22420873.180    91809729.28946
     -2575.012  
  20604473.192   108277270.53249       662.417    20604475.304    84371922.10149
       516.167  
  19955820.691   104868546.03748      -151.918    19955819.887    81715747.91548
      -118.379  
  21376046.293   112331885.60248      2137.363    21376048.648    87531350.39949
      1665.476  
 20 10 01 07 51 50.0000000  0  7G 8G15G21G18G24G20G10
  24729444.739   129954105.84446      -780.887    24729448.227   101262948.12648
      -608.488  
  22001984.856   115621226.95448     -2928.695    22001984.850    90094468.85547
     -2282.101  
  24114419.609   126722127.72248      2212.784    24114419.008    98744517.19644
      1724.246  
  22424017.431   117839007.94748     -3306.281    22424018.127    91822607.44947
     -2576.328  
  20603844.656   108273967.80249       658.730    20603846.754    84369348.54349
       513.293  
  19955966.467   104869312.53148      -154.918    19955965.929    81716345.18248
      -120.718  
  21374013.339   112321202.67048      2135.640    21374015.840    87523026.04449
      1664.132  
 20 10 01 07 51 55.0000000  0  7G 8G15G21G18G24G20G10
  24730189.352   129958018.09446      -784.230    24730192.671   101265996.62648
      -611.094  
  22004772.082   115635873.51748     -2930.171    22004772.132    90105881.74647
     -2283.254  
  24112314.975   126711067.92248      2210.862    24112314.361    98735899.17144
      1722.745  
  22427164.147   117855543.55448     -3308.145    22427164.833    91835492.34046
     -2577.776  
  20603219.561   108270682.96649       655.000    20603221.626    84366788.93549
       510.386  
  19956115.087   104870093.28248      -157.769    19956114.402    81716953.55848
      -122.940  
  21371982.127   112310528.64048      2133.808    21371984.486    87514708.61749
      1662.702  
 20 10 01 07 52  0.0000000  0  8G 8G27G15G21G18G24G20G10
  24730936.905   129961946.29445      -787.007    24730940.248   101269057.57748
      -613.258  
  24887316.003   130783726.66055     -2363.695    24887320.379   101909417.60658
     -1841.844  
  22007560.634   115650527.61748     -2931.190    22007560.802    90117300.53747
     -2284.047  
  24110212.445   126700018.83548      2209.121    24110211.715    98727289.50244
      1721.390  
  22430312.585   117872088.89148     -3309.620    22430313.244    91848384.80546
     -2578.929  
  20602598.236   108267417.16049       651.444    20602600.408    84364244.15249
       507.616  
  19956266.566   104870889.43848      -160.680    19956265.820    81717573.93548
      -125.206  
  21369952.832   112299864.62648      2131.945    21369955.113    87506398.98449
      1661.253  
 20 10 01 07 52  5.0000000  0  8G 8G27G15G21G18G24G20G10
  24731687.558   129965891.90845      -789.906    24731691.258   101272132.08848
      -615.515  
  24889568.235   130795555.00044     -2366.167    24889570.901   101918634.45848
     -1843.770  
  22010350.886   115665190.51748     -2932.827    22010351.162    90128726.15847
     -2285.323  
  24108112.156   126688981.64948      2207.202    24108111.554    98718689.09845
      1719.894  
  22433463.270   117888645.13747     -3311.499    22433463.830    91861285.77146
     -2580.394  
  20601980.534   108264171.55449       647.968    20601982.859    84361715.11049
       504.905  
  19956421.280   104871702.15348      -163.203    19956420.643    81718207.22048
      -127.176  
  21367925.611   112289211.78848      2130.352    21367928.160    87498098.07649
      1660.011  
 20 10 01 07 52 10.0000000  0  8G 8G27G15G21G18G24G20G10
  24732440.798   129969849.68046      -792.999    24732444.533   101275216.06148
      -617.926  
  24891819.655   130807390.66544     -2368.480    24891823.277   101927857.06347
     -1845.573  
  22013141.892   115679857.19948     -2933.991    22013142.044    90140154.73047
     -2286.229  
  24106013.213   126677951.43948      2204.992    24106012.572    98710094.15145
      1718.172  
  22436614.869   117905207.34047     -3313.359    22436615.686    91874191.37846
     -2581.839  
  20601365.906   108260941.10049       644.218    20601368.004    84359197.88249
       501.984  
  19956578.079   104872526.54248      -166.191    19956577.421    81718849.60648
      -129.504  
  21365899.739   112278565.22548      2128.573    21365902.196    87489802.06249
      1658.624  
 20 10 01 07 52 15.0000000  0  7G 8G15G21G18G24G20G10
  24733196.300   129973819.74446      -795.632    24733199.991   101278309.60048
      -619.976  
  22015933.457   115694527.72248     -2934.508    22015933.860    90151586.31047
     -2286.632  
  24103915.611   126666928.25048      2203.844    24103914.776    98701504.65044
      1717.277  
  22439767.662   117921775.53147     -3314.238    22439768.469    91887101.65346
     -2582.527  
  20600753.922   108257725.94549       641.457    20600756.311    84356692.57149
       499.831  
  19956737.160   104873362.61148      -168.386    19956736.634    81719501.08848
      -131.215  
  21363874.820   112267924.99048      2127.429    21363877.215    87481510.97749
      1657.733  
 20 10 01 07 52 20.0000000  0  8G 8G27G15G21G18G24G20G10
  24733955.066   129977806.65246      -799.815    24733958.710   101281416.30348
      -623.238  
  24896329.738   130831090.43455     -2372.819    24896332.391   101946318.85157
     -1848.952  
  22018726.743   115709206.66248     -2937.425    22018727.133    90163024.45247
     -2288.906  
  24101820.073   126655916.68548      2200.250    24101819.445    98692924.21644
      1714.477  
  22442922.523   117938354.25247     -3317.797    22442923.477    91900020.13246
     -2585.301  
  20600145.936   108254530.64449       636.336    20600148.275    84354202.73449
       495.844  
  19956899.267   104874214.89948      -172.929    19956898.766    81720165.21048
      -134.753  
  21361852.170   112257295.61148      2123.969    21361854.666    87473228.35249
      1655.038  
 20 10 01 07 52 25.0000000  0  8G 8G27G15G21G18G24G20G10
  24734716.752   129981809.83745      -801.722    24734720.389   101284535.65748
      -624.723  
  24898588.590   130842956.46945     -2373.773    24898591.266   101955565.09548
     -1849.694  
  22021521.569   115723893.32448     -2937.629    22021521.887    90174468.59747
     -2289.058  
  24099726.841   126644916.01948      2199.503    24099726.037    98684352.27845
      1713.894  
  22446079.164   117954942.76348     -3318.163    22446080.149    91912946.23846
     -2585.586  
  20599541.557   108251354.64449       633.827    20599543.888    84351727.93249
       493.891  
  19957064.444   104875082.72148      -174.573    19957063.845    81720841.43348
      -136.035  
  21359831.419   112246676.45948      2123.316    21359833.832    87464953.68849
      1654.527  
 20 10 01 07 52 30.0000000  0  8G 8G27G15G21G18G24G20G10
  24735480.845   129985825.76845      -804.983    24735484.584   101287664.93948
      -627.266  
  24900848.138   130854830.28644     -2375.964    24900850.356   101964817.41047
     -1851.406  
  22024317.172   115738584.28448     -2938.843    22024317.620    90185916.09647
     -2289.973  
  24097634.722   126633922.86048      2197.641    24097634.172    98675786.15845
      1712.444  
  22449237.118   117971537.70248     -3319.706    22449237.995    91925877.37346
     -2586.789  
  20598940.232   108248194.41049       630.358    20598942.652    84349265.40849
       491.187  
  19957231.889   104875962.68048      -177.269    19957231.358    81721527.11948
      -138.137  
  21357812.027   112236064.10748      2121.504    21357814.475    87456684.32049
      1653.116  
 20 10 01 07 52 35.0000000  0  8G 8G27G15G21G18G24G20G10
  24736248.053   129989857.40845      -807.620    24736251.909   101290806.47648
      -629.316  
  24903108.598   130866714.89944     -2378.737    24903112.157   101974078.13948
     -1853.566  
  22027114.137   115753282.52848     -2940.370    22027114.615    90197369.25947
     -2291.203  
  24095544.933   126622940.22648      2195.477    24095544.192    98667228.29245
      1710.762  
  22452396.954   117988142.03647     -3321.734    22452397.601    91938815.80846
     -2588.367  
  20598342.326   108245052.95649       626.437    20598344.832    84346817.52849
       488.128  
  19957402.211   104876857.78948      -180.430    19957401.563    81722224.61348
      -140.598  
  21355794.317   112225461.56548      2119.535    21355796.836    87448422.61249
      1651.581  
 20 10 01 07 52 40.0000000  0  8G 8G27G15G21G18G24G20G10
  24737018.047   129993904.16345      -810.988    24737021.831   101293959.79948
      -631.940  
  24905372.703   130878609.50645     -2379.410    24905375.828   101983346.64948
     -1854.094  
  22029912.442   115767987.40748     -2941.621    22029912.772    90208827.62147
     -2292.203  
  24093456.827   126611967.49848      2193.538    24093456.204    98658678.11245
      1709.245  
  22455558.308   118004755.15448     -3323.253    22455559.166    91951761.07446
     -2589.551  
  20597748.039   108241929.73649       622.882    20597750.427    84344383.85349
       485.358  
  19957575.380   104877767.39448      -183.348    19957574.690    81722933.38348
      -142.870  
  21353778.527   112214868.23548      2117.812    21353781.128    87440168.06349
      1650.242  
 20 10 01 07 52 45.0000000  0  8G 8G27G15G21G18G24G20G10
  24737790.384   129997963.62945      -813.289    24737794.473   101297123.01448
      -633.733  
  24907638.007   130890512.00945     -2382.000    24907641.091   101992621.30348
     -1856.108  
  22032711.485   115782696.66848     -2942.534    22032711.933    90220289.37147
     -2292.886  
  24091370.247   126601002.38248      2191.918    24091369.350    98650133.88444
      1707.988  
  22458720.805   118021374.69147     -3324.898    22458721.708    91964711.37447
     -2590.831  
  20597156.802   108238822.20049       619.563    20597159.197    84341962.39449
       482.772  
  19957750.835   104878689.22948      -185.875    19957749.990    81723651.70648
      -144.839  
  21351763.889   112204281.77548      2116.362    21351766.412    87431918.88849
      1649.108  
 20 10 01 07 52 50.0000000  0  8G 8G27G15G21G18G24G20G10
  24738565.834   130002038.80845      -816.773    24738569.828   101300298.46448
      -636.448  
  24909905.125   130902424.98345     -2383.500    24909908.147   102001904.14447
     -1857.277  
  22035511.848   115797412.95648     -2943.750    22035512.322    90231756.59047
     -2293.840  
  24089285.579   126590047.66048      2190.042    24089284.701    98641597.75245
      1706.523  
  22461885.195   118038003.42147     -3326.597    22461885.970    91977668.81046
     -2592.155  
  20596568.993   108235733.24749       615.949    20596571.397    84339555.42149
       479.957  
  19957929.137   104879626.08748      -188.703    19957928.237    81724381.72148
      -147.042  
  21349751.352   112193705.00548      2114.503    21349753.879    87423677.24849
      1647.664  
 20 10 01 07 52 55.0000000  0  8G 8G27G15G21G18G24G20G10
  24739344.110   130006128.95345      -819.574    24739348.209   101303485.58548
      -638.633  
  24912173.819   130914347.98645     -2386.507    24912176.853   102011194.77348
     -1859.620  
  22038313.533   115812135.78448     -2945.359    22038313.918    90243228.94047
     -2295.089  
  24087202.783   126579102.77448      2187.890    24087201.942    98633069.26545
      1704.848  
  22465051.088   118054640.77148     -3328.511    22465051.952    91990632.97746
     -2593.648  
  20595984.606   108232662.49249       612.176    20595987.014    84337162.62649
       477.016  
  19958110.119   104880577.40348      -191.831    19958109.411    81725123.00848
      -149.484  
  21347740.319   112183137.36248      2112.733    21347742.803    87415442.72849
      1646.284  
 20 10 01 07 53  0.0000000  0  8G 8G27G15G21G18G24G20G10
  24740125.433   130010234.11445      -822.749    24740129.452   101306684.42748
      -641.104  
  24914444.823   130926280.91345     -2387.473    24914447.705   102020493.19048
     -1860.371  
  22041116.541   115826865.16148     -2946.430    22041116.951    90254706.36047
     -2295.921  
  24085121.895   126568167.72948      2186.198    24085120.926    98624548.44845
      1703.526  
  22468218.732   118071286.75848     -3330.039    22468219.607    92003603.86846
     -2594.840  
  20595403.624   108229609.81349       608.855    20595406.042    84334783.92449
       474.429  
  19958293.941   104881543.18048      -194.460    19958293.040    81725875.56148
      -151.530  
  21345731.012   112172578.88348      2110.930    21345733.683    87407215.34249
      1644.878  
 20 10 01 07 53  5.0000000  0  8G 8G27G15G21G18G24G20G10
  24740908.987   130014352.94145      -824.792    24740913.148   101309893.90448
      -642.699  
  24916717.493   130938222.56245     -2389.449    24916719.983   102029798.31748
     -1861.913  
  22043920.316   115841599.78548     -2947.465    22043920.757    90266187.88147
     -2296.729  
  24083042.739   126557241.25448      2184.379    24083041.692    98616034.33244
      1702.108  
  22471387.890   118087940.07747     -3331.406    22471388.811    92016580.47946
     -2595.901  
  20594825.882   108226573.85549       605.409    20594828.494    84332418.24249
       471.746  
  19958480.240   104882522.15248      -197.289    19958479.340    81726638.39648
      -153.733  
  21343723.400   112162028.27948      2109.183    21343726.015    87398994.09049
      1643.516  
 20 10 01 07 53 10.0000000  0  8G 8G27G15G21G18G24G20G10
  24741695.714   130018487.62345      -828.522    24741699.944   101313115.73448
      -645.605  
  24918991.880   130950174.82845     -2391.266    24918994.421   102039111.79448
     -1863.328  
  22046725.596   115856341.62748     -2949.003    22046726.205    90277675.03747
     -2297.930  
  24080965.499   126546325.34848      2182.160    24080964.359    98607528.43745
      1700.383  
  22474558.573   118104602.69048     -3333.257    22474559.691    92029564.32946
     -2597.348  
  20594251.754   108223556.69849       601.612    20594254.364    84330067.21649
       468.785  
  19958669.394   104883516.28848      -200.250    19958668.601    81727413.04448
      -156.043  
  21341717.510   112151487.50848      2107.227    21341720.055    87390780.51749
      1641.992  
 20 10 01 07 53 15.0000000  0  8G 8G27G15G21G18G24G20G10
  24742485.301   130022637.08745      -831.395    24742489.642   101316349.07148
      -647.844  
  24921268.272   130962136.91145     -2393.316    24921270.639   102048432.90048
     -1864.926  
  22049532.042   115871089.88548     -2950.363    22049532.697    90289167.18347
     -2298.987  
  24078890.153   126535419.26948      2180.184    24078888.983    98599030.21444
      1698.840  
  22477730.965   118121273.78747     -3335.112    22477732.024    92042554.78446
     -2598.793  
  20593681.051   108220557.50549       598.063    20593683.638    84327730.18649
       466.020  
  19958861.224   104884524.77148      -203.141    19958860.280    81728198.87948
      -158.293  
  21339713.343   112140955.81948      2105.620    21339716.079    87382574.01149
      1640.742  
 20 10 01 07 53 20.0000000  0  8G 8G27G15G21G18G24G20G10
  24743277.506   130026800.55845      -834.229    24743281.863   101319593.33548
      -650.055  
  24923546.217   130974107.99745     -2395.734    24923548.640   102057761.02748
     -1866.809  
  22052339.635   115885843.72648     -2951.440    22052340.152    90300663.67847
     -2299.828  
  24076816.515   126524522.13148      2178.352    24076815.156    98590538.92445
      1697.413  
  22480904.864   118137952.48848     -3336.663    22480906.058    92055551.17047
     -2599.999  
  20593113.584   108217575.50949       594.632    20593116.083    84325406.54949
       463.347  
  19959055.723   104885546.77748      -205.960    19959054.892    81728995.25148
      -160.492  
  21337710.876   112130432.37648      2103.577    21337713.337    87374373.92649
      1639.147  
 20 10 01 07 53 25.0000000  0  8G 8G27G15G21G18G24G20G10
  24744072.715   130030979.34645      -838.206    24744076.970   101322849.53948
      -653.151  
  24925826.298   130986089.31245     -2397.280    24925828.605   102067097.07148
     -1868.020  
  22055148.555   115900604.38948     -2952.898    22055149.090    90312165.49647
     -2300.965  
  24074744.780   126513635.21548      2176.343    24074743.525    98582055.63044
      1695.847  
  22484080.414   118154640.08647     -3338.340    22484081.551    92068554.50446
     -2601.308  
  20592549.566   108214611.85649       590.866    20592552.179    84323097.20949
       460.413  
  19959253.076   104886583.52648      -208.871    19959252.185    81729803.10048
      -162.761  
  21335710.108   112119918.42748      2101.878    21335712.782    87366181.24049
      1637.823  
 20 10 01 07 53 30.0000000  0  8G 8G27G15G21G18G24G20G10
  24744870.615   130035172.09145      -839.671    24744874.779   101326116.62148
      -654.292  
  24928107.927   130998079.35046     -2398.746    24928110.158   102076439.96148
     -1869.155  
  22057958.417   115915370.40748     -2953.647    22057959.005    90323671.47447
     -2301.593  
  24072674.757   126502757.07848      2174.901    24072673.532    98573579.16744
      1694.727  
  22487257.335   118171335.10547     -3339.831    22487258.509    92081563.58646
     -2602.468  
  20591988.960   108211665.13449       587.726    20591991.459    84320801.05949
       457.964  
  19959452.905   104887633.60448      -211.241    19959451.932    81730621.34248
      -164.609  
  21333710.875   112109412.54448      2100.332    21333713.449    87357994.83849
      1636.621  
 20 10 01 07 53 35.0000000  0  7G 8G15G21G18G24G20G10
  24745670.032   130039373.36946      -842.324    24745674.302   101329390.34648
      -656.358  
  22060768.257   115930136.52748     -2954.652    22060768.888    90335177.53647
     -2302.327  
  24070605.279   126491882.49048      2172.977    24070604.044    98565105.45944
      1693.227  
  22490434.614   118188032.28547     -3341.027    22490435.939    92094574.38046
     -2603.402  
  20591430.452   108208730.21649       584.386    20591432.942    84318514.11849
       455.362  
  19959654.257   104888691.78048      -213.883    19959653.144    81731445.89648
      -166.663  
  21331712.206   112098909.49648      2098.957    21331714.854    87349810.64149
      1635.546  
 20 10 01 07 53 40.0000000  0  7G 8G15G21G18G24G20G10
  24746473.670   130043596.85645      -846.679    24746478.053   101332681.38748
      -659.753  
  22063580.742   115944916.33048     -2956.938    22063581.434    90346694.25447
     -2304.108  
  24068539.246   126481025.01048      2170.312    24068538.014    98556645.09844
      1691.148  
  22493614.947   118204745.17747     -3343.831    22493616.297    92107597.41546
     -2605.585  
  20590876.695   108205820.57849       579.742    20590879.065    84316246.86649
       451.741  
  19959859.781   104889771.65848      -217.663    19959858.759    81732287.35748
      -169.612  
  21329716.617   112088422.85848      2095.901    21329719.420    87341639.23649
      1633.168  
 20 10 01 07 53 45.0000000  0  7G 8G15G21G18G24G20G10
  24747280.522   130047836.95945      -849.394    24747284.974   101335985.37348
      -661.866  
  22066394.784   115959704.28548     -2958.160    22066395.425    90358217.33047
     -2305.062  
  24066475.263   126470179.20348      2168.266    24066473.936    98548193.82845
      1689.554  
  22496797.193   118221468.27547     -3345.527    22496798.495    92120628.39046
     -2606.905  
  20590326.751   108202930.73149       576.078    20590329.352    84313995.04249
       448.890  
  19960068.355   104890867.72548      -220.569    19960067.312    81733141.43948
      -171.874  
  21327723.295   112077947.12948      2094.237    21327725.940    87333476.33349
      1631.871  
 20 10 01 07 53 50.0000000  0  7G 8G15G21G18G24G20G10
  24748090.052   130052090.53445      -852.249    24748094.302   101339299.84447
      -664.094  
  22069209.789   115974497.26548     -2959.320    22069210.366    90369744.32347
     -2305.968  
  24064412.803   126459341.93848      2166.586    24064411.739    98539749.22344
      1688.250  
  22499980.725   118238198.47347     -3346.840    22499982.041    92133664.91346
     -2607.929  
  20589780.024   108200057.56549       572.960    20589782.561    84311756.21049
       446.460  
  19960279.406   104891976.86748      -223.176    19960278.303    81734005.69548
      -173.905  
  21325731.301   112067479.22448      2092.796    21325733.919    87325319.52549
      1630.745  
 20 10 01 07 53 55.0000000  0  7G 8G15G21G18G24G20G10
  24748902.174   130056358.16945      -855.390    24748906.526   101342625.29648
      -666.542  
  22072025.749   115989295.64548     -2960.335    22072026.280    90381275.52047
     -2306.757  
  24062352.274   126448513.59648      2164.905    24062351.091    98531311.56145
      1686.938  
  22503165.717   118254936.15247     -3348.159    22503167.254    92146707.23746
     -2608.960  
  20589236.536   108197201.35949       569.519    20589238.945    84309530.59949
       443.777  
  19960493.117   104893099.45448      -225.840    19960492.000    81734880.43648
      -175.979  
  21323740.838   112057019.55448      2091.147    21323743.600    87317169.12649
      1629.464  
 20 10 01 07 54  0.0000000  0  8G 8G15G21G18G24G32G20G10
  24749717.005   130060640.88545      -858.019    24749721.325   101345962.48047
      -668.590  
  22074843.086   116004100.62948     -2961.461    22074843.387    90392811.88547
     -2307.637  
  24060293.650   126437695.38847      2162.816    24060292.329    98522881.80444
      1685.309  
  22506352.311   118271682.50847     -3350.101    22506353.948    92159756.33946
     -2610.473  
  20588696.464   108194363.60849       565.851    20588698.987    84307319.37349
       440.922  
  23989215.093   126064176.42754      3223.332    23989218.303    98231838.26657
      2511.683  
  19960709.498   104894236.73648      -228.905    19960708.404    81735766.63748
      -178.371  
  21321752.267   112046569.32248      2089.401    21321754.996    87309026.09549
      1628.101  
 20 10 01 07 54  5.0000000  0  7G 8G15G21G18G24G20G10
  24750534.466   130064936.79745      -860.445    24750538.495   101349309.93547
      -670.479  
  22077661.367   116018910.42348     -2962.714    22077661.514    90404351.98447
     -2308.612  
  24058236.551   126426885.54447      2161.062    24058235.300    98514458.55144
      1683.940  
  22509540.271   118288435.66347     -3351.664    22509541.828    92172810.73746
     -2611.690  
  20588159.623   108191542.23749       562.319    20588161.950    84305120.89449
       438.168  
  19960928.354   104895386.83048      -231.378    19960927.229    81736662.81148
      -180.296  
  21319765.025   112036126.70348      2087.449    21319767.618    87300888.99149
      1626.581  
 20 10 01 07 54 10.0000000  0  7G 8G15G21G18G24G20G10
  24751354.863   130069247.51445      -863.762    24751358.586   101352668.91747
      -673.063  
  22080480.775   116033726.42048     -2963.781    22080480.835    90415896.91447
     -2309.441  
  24056181.406   126416085.55748      2159.156    24056179.968    98506042.96644
      1682.457  
  22512729.981   118305197.01347     -3353.168    22512731.429    92185871.52846
     -2612.862  
  20587626.021   108188738.76649       558.890    20587628.583    84302936.37549
       435.495  
  19961150.050   104896551.19548      -234.483    19961148.954    81737570.11548
      -182.718  
  21317779.688   112025693.08848      2085.706    21317782.201    87292758.91249
      1625.222  
 20 10 01 07 54 15.0000000  0  7G 8G15G21G18G24G20G10
  24752177.885   130073572.67645      -866.176    24752181.786   101356039.15748
      -674.944  
  22083301.307   116048548.41448     -2964.991    22083301.398    90427446.52547
     -2310.386  
  24054128.142   126405295.02347      2157.269    24054126.514    98497634.76045
      1680.983  
  22515921.049   118321966.34647     -3354.620    22515922.520    92198938.54146
     -2613.991  
  20587095.856   108185952.88849       555.323    20587098.379    84300765.55949
       432.719  
  19961374.219   104897729.58448      -237.097    19961373.148    81738488.34148
      -184.753  
  21315795.875   112015268.30148      2083.980    21315798.487    87284635.71749
      1623.878  
 20 10 01 07 54 20.0000000  0  7G 8G15G21G18G24G20G10
  24753003.716   130077912.39045      -869.152    24753007.411   101359420.76548
      -677.266  
  22086123.018   116063376.44948     -2966.190    22086122.954    90439000.82547
     -2311.319  
  24052076.555   126394514.14048      2155.266    24052075.087    98489234.07144
      1679.426  
  22519113.643   118338743.75948     -3356.437    22519115.064    92212011.85046
     -2615.410  
  20586569.127   108183184.78149       551.702    20586571.601    84298608.58649
       429.894  
  19961601.227   104898922.08448      -239.901    19961600.035    81739417.55948
      -186.940  
  21313813.805   112004852.45448      2082.219    21313816.454    87276519.46649
      1622.503  
 20 10 01 07 54 25.0000000  0  7G 8G15G21G18G24G20G10
  24753832.172   130082266.57745      -872.022    24753835.915   101362813.60147
      -679.508  
  22088945.862   116078210.43948     -2967.184    22088945.750    90450559.79747
     -2312.093  
  24050026.684   126383742.77548      2153.401    24050025.225    98480840.79344
      1677.972  
  22522307.946   118355529.12047     -3357.848    22522309.310    92225091.34746
     -2616.507  
  20586045.791   108180434.38349       548.390    20586048.233    84296465.41949
       427.313  
  19961830.718   104900128.62748      -242.582    19961829.618    81740357.72748
      -189.026  
  21311833.428   111994445.44148      2080.742    21311836.149    87268410.10449
      1621.355  
 20 10 01 07 54 30.0000000  0  7G 8G15G21G18G24G20G10
  24754663.511   130086635.88645      -875.304    24754667.401   101366218.27347
      -682.058  
  22091770.032   116093051.02148     -2968.425    22091769.775    90462123.86347
     -2313.066  
  24047978.941   126372981.43847      2151.538    24047977.509    98472455.36244
      1676.519  
  22525503.606   118372322.96047     -3359.074    22525505.018    92238177.45746
     -2617.465  
  20585525.876   108177702.11849       545.063    20585528.287    84294336.38749
       424.723  
  19962063.057   104901349.73548      -245.242    19962062.131    81741309.23348
      -191.101  
  21309854.787   111984047.76848      2078.968    21309857.547    87260308.02949
      1619.972  
 20 10 01 07 54 35.0000000  0  7G 8G15G21G18G24G20G10
  24755497.696   130091019.43545      -878.078    24755501.639   101369634.05648
      -684.218  
  22094595.180   116107897.30248     -2969.733    22094594.993    90473692.40847
     -2314.081  
  24045932.885   126362229.56248      2149.472    24045931.525    98464077.24645
      1674.905  
  22528700.938   118389124.58647     -3361.188    22528702.244    92251269.62546
     -2619.109  
  20585009.223   108174987.46148       541.195    20585011.773    84292221.06749
       421.706  
  19962298.065   104902584.73848      -248.391    19962297.082    81742271.56948
      -193.555  
  21307877.833   111973658.83248      2076.749    21307880.384    87252212.72149
      1618.237  
 20 10 01 07 54 40.0000000  0  8G 8G15G21G18G24G32G20G10
  24756334.614   130095417.43945      -881.551    24756338.587   101373061.03348
      -686.930  
  22097421.483   116122749.53348     -2970.969    22097421.190    90485265.55747
     -2315.042  
  24043888.757   126351487.28248      2147.491    24043887.312    98455706.65844
      1673.366  
  22531899.775   118405934.14647     -3362.723    22531900.948    92264367.97246
     -2620.304  
  20584495.985   108172290.47449       537.582    20584498.424    84290119.52349
       418.891  
  23964697.906   125935346.52155      3218.616    23964700.596    98131445.54356
      2508.011  
  19962535.713   104903833.84148      -251.343    19962534.704    81743244.90348
      -195.855  
  21305902.600   111963278.75748      2075.105    21305905.181    87244124.37749
      1616.965  
 20 10 01 07 54 45.0000000  0  8G 8G15G21G18G24G32G20G10
  24757173.285   130099824.81045      -882.430    24757177.261   101376495.35348
      -687.609  
  22100247.970   116137602.63248     -2970.512    22100247.678    90496839.39647
     -2314.687  
  24041845.396   126340749.53847      2147.391    24041843.976    98447339.60144
      1673.288  
  22535099.013   118422746.57047     -3362.566    22535100.375    92277468.56146
     -2620.184  
  20583985.209   108169606.07749       535.917    20583987.524    84288027.78449
       417.594  
  23961636.088   125919251.06045      3219.296    23961637.040    98118903.57748
      2508.535  
  19962775.115   104905091.93948      -252.305    19962774.287    81744225.23748
      -196.605  
  21303928.139   111952902.49048      2074.898    21303930.508    87236038.98449
      1616.801  
 20 10 01 07 54 50.0000000  0  7G 8G15G21G18G24G20G10
  24758016.297   130104254.14846      -888.531    24758020.042   101379946.77748
      -692.362  
  22103077.122   116152469.20948     -2974.813    22103076.677    90508423.73747
     -2318.038  
  24039805.265   126330028.95148      2142.022    24039803.787    98438985.93344
      1669.108  
  22538301.294   118439574.45147     -3367.332    22538302.760    92290581.19546
     -2623.897  
  20583479.004   108166946.92148       528.964    20583481.489    84285955.71849
       412.175  
  19963018.705   104906371.63848      -258.413    19963017.768    81745222.40948
      -201.362  
  21301956.727   111942542.68448      2069.976    21301959.253    87227966.40049
      1612.965  
 20 10 01 07 54 55.0000000  0  7G 8G15G21G18G24G20G10
  24758862.182   130108699.49245      -890.085    24758866.086   101383410.71748
      -693.574  
  22105907.583   116167343.31848     -2974.730    22105907.105    90520013.95947
     -2317.976  
  24037767.397   126319319.60147      2141.444    24037765.843    98430640.98445
      1668.656  
  22541505.218   118456411.84447     -3367.785    22541506.854    92303701.23746
     -2624.249  
  20582976.820   108164307.04949       526.714    20582979.117    84283898.68149
       410.426  
  19963265.320   104907667.01248      -259.973    19963264.154    81746231.78748
      -202.577  
  21299987.422   111932193.41348      2069.386    21299989.968    87219902.03649
      1612.507  
 20 10 01 07 55  0.0000000  0  7G 8G15G21G18G24G20G10
  24759710.132   130113155.62445      -892.448    24759714.014   101386882.99648
      -695.422  
  22108738.437   116182219.65048     -2975.823    22108738.037    90531605.90247
     -2318.827  
  24035730.663   126308616.17848      2139.651    24035729.141    98422300.65844
      1667.257  
  22544710.138   118473253.46747     -3369.297    22544711.674    92316824.56746
     -2625.429  
  20582477.120   108161681.20249       523.409    20582479.463    84281852.55749
       407.847  
  19963513.679   104908972.77348      -262.507    19963512.761    81747249.25848
      -204.555  
  21298019.052   111921849.34348      2067.979    21298021.372    87211841.71449
      1611.410  
 20 10 01 07 55  5.0000000  0  7G 8G15G21G18G24G20G10
  24760560.924   130117626.78445      -895.601    24760565.113   101390367.01148
      -697.875  
  22111570.584   116197102.43348     -2977.069    22111570.190    90543202.87647
     -2319.796  
  24033695.662   126297922.92448      2137.729    24033694.427    98413968.25044
      1665.761  
  22547916.597   118490103.49147     -3370.797    22547918.201    92329954.44446
     -2626.597  
  20581980.845   108159073.44949       519.671    20581983.211    84279820.55049
       404.937  
  19963765.067   104910293.16948      -265.679    19963764.039    81748278.13648
      -207.027  
  21296052.408   111911514.77749      2066.039    21296054.763    87203788.81449
      1609.898  
 20 10 01 07 55 10.0000000  0  7G 8G15G21G18G24G20G10
  24761414.679   130122112.23546      -898.780    24761418.753   101393862.15048
      -700.352  
  22114403.699   116211990.92749     -2978.495    22114403.489    90554804.32547
     -2320.905  
  24031662.770   126287239.19647      2135.753    24031661.464    98405643.23145
      1664.215  
  22551124.568   118506961.30447     -3372.562    22551126.137    92343090.37546
     -2627.977  
  20581487.973   108156483.29349       516.188    20581490.404    84277802.24349
       402.223  
  19964018.910   104911627.46648      -268.304    19964017.756    81749317.84848
      -209.070  
  21294087.483   111901188.99349      2064.305    21294089.807    87195742.74149
      1608.547  
 20 10 01 07 55 15.0000000  0  7G 8G15G21G18G24G20G10
  24762270.851   130126611.91645      -901.140    24762274.983   101397368.42248
      -702.191  
  22117238.151   116226885.20048     -2979.246    22117237.735    90566410.21547
     -2321.495  
  24029631.577   126276565.01847      2134.043    24029630.169    98397325.72745
      1662.891  
  22554333.901   118523826.71647     -3373.711    22554335.533    92356232.25346
     -2628.866  
  20580998.353   108153910.63749       512.905    20581000.762    84275797.58849
       399.663  
  19964275.412   104912975.74148      -270.917    19964274.416    81750368.45248
      -211.108  
  21292124.261   111890871.97249      2062.694    21292126.607    87187703.51249
      1607.293  
 20 10 01 07 55 20.0000000  0  7G 8G15G21G18G24G20G10
  24763130.106   130131126.67646      -905.141    24763134.131   101400886.39748
      -705.308  
  22120073.544   116241785.82548     -2980.964    22120073.323    90578021.09647
     -2322.831  
  24027602.319   126265901.03448      2131.698    24027601.027    98389016.13644
      1661.063  
  22557544.924   118540700.53747     -3375.824    22557546.457    92369380.70046
     -2630.516  
  20580512.337   108151356.25949       508.886    20580514.781    84273807.16749
       396.531  
  19964534.798   104914338.60048      -274.226    19964533.744    81751430.42248
      -213.687  
  21290162.952   111880564.44649      2060.457    21290165.098    87179671.68049
      1605.546  
 20 10 01 07 55 25.0000000  0  7G 8G15G21G18G24G20G10
  24763991.968   130135655.94645      -907.145    24763996.045   101404415.69848
      -706.867  
  22122910.262   116256692.56248     -2981.871    22122909.810    90589636.72547
     -2323.538  
  24025574.725   126255246.92448      2129.988    24025573.617    98380714.23145
      1659.726  
  22560757.460   118557582.40047     -3377.300    22560759.064    92382535.38446
     -2631.667  
  20580029.558   108148819.67849       505.477    20580031.978    84271830.60749
       393.875  
  19964796.834   104915715.76848      -276.848    19964795.772    81752503.53648
      -215.729  
  21288203.330   111870266.09149      2058.585    21288205.303    87171646.99249
      1604.090  
 20 10 01 07 55 30.0000000  0  7G 8G15G21G18G24G20G10
  24764856.767   130140199.68546      -910.272    24764860.848   101407956.23448
      -709.313  
  22125748.101   116271605.25648     -2983.180    22125747.785    90601257.00747
     -2324.559  
  24023549.251   126244602.64548      2127.883    24023548.173    98372420.00345
      1658.085  
  22563971.534   118574472.16247     -3378.691    22563973.115    92395696.23046
     -2632.750  
  20579550.193   108146300.97249       502.031    20579552.591    84269867.97349
       391.190  
  19965061.727   104917107.10248      -279.608    19965060.481    81753587.69548
      -217.879  
  21286245.251   111859976.78749      2057.101    21286247.459    87163629.35349
      1602.934  
 20 10 01 07 55 35.0000000  0  7G 8G15G21G18G24G20G10
  24765724.154   130144757.74145      -913.358    24765728.069   101411507.98348
      -711.711  
  22128586.898   116286523.76748     -2984.492    22128586.490    90612881.81247
     -2325.582  
  24021525.513   126233967.92248      2125.805    24021524.434    98364133.19245
      1656.468  
  22567186.932   118591369.62847     -3380.577    22567188.680    92408863.08546
     -2634.218  
  20579074.272   108143799.99149       498.129    20579076.878    84267919.16749
       388.147  
  19965329.097   104918512.45348      -282.753    19965327.895    81754682.77148
      -220.331  
  21284289.059   111849696.33649      2055.022    21284291.090    87155618.60049
      1601.312  
 20 10 01 07 55 40.0000000  0  7G 8G15G21G18G24G20G10
  24766594.420   130149330.92445      -916.676    24766598.516   101415071.50548
      -714.297  
  22131427.036   116301448.82648     -2985.563    22131426.695    90624511.72947
     -2326.414  
  24019503.848   126223343.59548      2123.676    24019502.720    98355854.51845
      1654.808  
  22570404.050   118608275.60247     -3381.909    22570405.673    92422036.57047
     -2635.258  
  20578601.970   108141317.34249       494.797    20578604.320    84265984.62049
       385.555  
  19965599.310   104919932.58648      -285.534    19965598.250    81755789.36348
      -222.500  
  21282334.583   111839425.61949      2053.227    21282336.678    87147615.45549
      1599.914  
 20 10 01 07 55 45.0000000  0  7G 8G15G21G18G24G20G10
  24767467.321   130153917.95645      -919.211    24767471.440   101418645.82648
      -716.269  
  22134268.333   116316379.19248     -2986.637    22134267.862    90636145.77047
     -2327.253  
  24017483.894   126212728.50848      2121.956    24017482.957    98347583.01944
      1653.468  
  22573622.522   118625188.81947     -3383.492    22573624.125    92435215.68646
     -2636.492  
  20578132.697   108138851.82449       491.266    20578135.167    84264063.45449
       382.801  
  19965872.185   104921366.30548      -288.054    19965871.056    81756906.55148
      -224.461  
  21280381.806   111829163.33049      2051.438    21280383.754    87139618.87049
      1598.519  
 20 10 01 07 55 50.0000000  0  7G 8G15G21G18G24G20G10
  24768343.049   130158519.46945      -921.855    24768347.165   101422231.43148
      -718.331  
  22137110.566   116331315.54048     -2987.875    22137110.211    90647784.49247
     -2328.218  
  24015465.843   126202123.17448      2120.160    24015464.835    98339319.14944
      1652.070  
  22576842.506   118642109.91747     -3384.991    22576844.119    92448400.96246
     -2637.660  
  20577667.045   108136404.27349       487.917    20577669.467    84262156.27449
       380.191  
  19966147.725   104922814.21548      -290.902    19966146.538    81758034.79348
      -226.679  
  21278430.751   111818910.15849      2049.828    21278432.766    87131629.39749
      1597.265  
 20 10 01 07 55 55.0000000  0  7G 8G15G21G18G24G20G10
  24769221.504   130163135.47245      -924.941    24769225.580   101425828.30048
      -720.737  
  22139953.956   116346257.80948     -2988.996    22139953.545    90659427.81447
     -2329.090  
  24013449.532   126191527.73447      2118.163    24013448.412    98331062.95345
      1650.516  
  22580064.025   118659038.89547     -3386.562    22580065.826    92461592.37546
     -2638.883  
  20577204.621   108133974.40749       484.051    20577206.926    84260262.86749
       377.179  
  19966425.949   104924276.35648      -293.875    19966424.927    81759174.12148
      -228.995  
  21276481.382   111808666.12049      2047.757    21276483.494    87123647.01949
      1595.651  
 20 10 01 07 56  0.0000000  0  7G 8G15G21G18G24G20G10
  24770102.620   130167765.76746      -927.956    24770106.753   101429436.33848
      -723.086  
  22142798.472   116361205.87648     -2990.491    22142798.066    90671075.65247
     -2330.257  
  24011435.097   126180941.99347      2115.901    24011434.191    98322814.33645
      1648.750  
  22583287.039   118675975.57648     -3388.577    22583288.713    92474789.77846
     -2640.453  
  20576745.615   108131562.22249       480.625    20576748.056    84258383.24949
       374.512  
  19966706.836   104925752.55048      -296.879    19966705.808    81760324.40748
      -231.335  
  21274533.724   111798431.04948      2045.809    21274535.647    87115671.65949
      1594.133  
