     2.11           OBSERVATION DATA    G                   RINEX VERSION / TYPE
LEICA GEO OFFICE 8.4                    1-10-20 21:50       PGM / RUN BY / DATE
                                                            OBSERVER / AGENCY
obgn                                                        MARKER NAME
obgn                                                        MARKER NUMBER
457569              LEICA GX1220        2.14                REC # / TYPE / VERS
                    LEIAX1202                               ANT # / TYPE
 -1251312.0481  3776423.6826  4969927.0200                  APPROX POSITION XYZ
        1.1810        0.0000        0.0000                  ANTENNA: DELTA H/E/N
L1PhaOff:   0.0648  L2PhaOff:   0.0622                      COMMENT
     1     1                                                WAVELENGTH FACT L1/2
     6    C1    L1    D1    P2    L2    D2                  # / TYPES OF OBSERV
  2020    10     1     4    24   20.0000000     GPS         TIME OF FIRST OBS
  2020    10     1     7    22   20.0000000     GPS         TIME OF LAST OBS
    18                                                      LEAP SECONDS
    14                                                      # OF SATELLITES
          C1    L1    D1    P2    L2    D2                  COMMENT
   G 1     0     0     0     0     0     0                  PRN / # OF OBS
   G 2   564   564   564   564   564   564                  PRN / # OF OBS
   G 3     0     0     0     0     0     0                  PRN / # OF OBS
   G 4     0     0     0     0     0     0                  PRN / # OF OBS
   G 5  1514  1514  1514  1514  1514  1514                  PRN / # OF OBS
   G 6     0     0     0     0     0     0                  PRN / # OF OBS
   G 7   507   507   507   506   506   506                  PRN / # OF OBS
   G 8   160   160   160   160   160   160                  PRN / # OF OBS
   G 9     0     0     0     0     0     0                  PRN / # OF OBS
   G10   911   911   911   911   911   911                  PRN / # OF OBS
   G11     0     0     0     0     0     0                  PRN / # OF OBS
   G12     0     0     0     0     0     0                  PRN / # OF OBS
   G13  1938  1938  1938  1934  1934  1934                  PRN / # OF OBS
   G14     0     0     0     0     0     0                  PRN / # OF OBS
   G15  2137  2137  2137  2137  2137  2137                  PRN / # OF OBS
   G16     0     0     0     0     0     0                  PRN / # OF OBS
   G17     0     0     0     0     0     0                  PRN / # OF OBS
   G18  2137  2137  2137  2137  2137  2137                  PRN / # OF OBS
   G19     0     0     0     0     0     0                  PRN / # OF OBS
   G20  1928  1928  1928  1927  1927  1927                  PRN / # OF OBS
   G21    94    94    94    94    94    94                  PRN / # OF OBS
   G22     0     0     0     0     0     0                  PRN / # OF OBS
   G23     0     0     0     0     0     0                  PRN / # OF OBS
   G24  1143  1143  1143  1143  1143  1143                  PRN / # OF OBS
   G25     0     0     0     0     0     0                  PRN / # OF OBS
   G26     0     0     0     0     0     0                  PRN / # OF OBS
   G27  1179  1179  1179  1178  1178  1178                  PRN / # OF OBS
   G28     0     0     0     0     0     0                  PRN / # OF OBS
   G29  1204  1204  1204  1204  1204  1204                  PRN / # OF OBS
   G30  1189  1189  1189  1189  1189  1189                  PRN / # OF OBS
   G31     0     0     0     0     0     0                  PRN / # OF OBS
   G32     0     0     0     0     0     0                  PRN / # OF OBS
                                                            END OF HEADER
 20 10 01 04 24 20.0000000  0  8G29G 2G13G15G 5G18G 7G30
  21379083.709   112347843.30148     -1494.304    21379084.119    87543773.14649
     -1164.394  
  23086855.984   121322243.67648     -2784.000    23086855.531    94536808.53147
     -2169.354  
  20991782.917   110312564.83949      1908.362    20991782.861    85957841.45847
      1487.031  
  22132774.117   116308518.34948      3416.839    22132775.167    90630017.52749
      2662.469  
  20744426.290   109012695.83349     -1798.640    20744426.466    84944956.36749
     -1401.543  
  22537989.440   118437936.14747      3019.788    22537990.593    92289305.14546
      2353.077  
  24589511.360   129218756.79147      -258.386    24589512.135   100689943.94146
      -201.344  
  23995511.158   126097259.81746      1251.191    23995514.971    98257620.72845
       974.949  
 20 10 01 04 24 25.0000000  0  8G29G 2G13G15G 5G18G 7G30
  21380507.098   112355323.13548     -1497.465    21380507.384    87549601.58449
     -1166.859  
  23089505.669   121336167.86848     -2785.438    23089505.192    94547658.51247
     -2170.477  
  20989968.615   110303030.83949      1905.285    20989968.639    85950412.36347
      1484.633  
  22129524.101   116291439.30148      3415.120    22129525.212    90616709.18949
      2661.129  
  20746138.760   109021694.14649     -1800.421    20746138.857    84951968.04149
     -1402.930  
  22535116.800   118422840.38647      3018.628    22535117.968    92277542.22446
      2352.176  
  24589758.558   129220055.85447      -261.323    24589759.589   100690956.19347
      -203.633  
  23994321.941   126091009.31246      1248.851    23994325.665    98252750.21945
       973.129  
 20 10 01 04 24 30.0000000  0  8G29G 2G13G15G 5G18G 7G30
  21381933.356   112362818.70148     -1500.979    21381933.832    87555442.27449
     -1169.597  
  23092156.672   121350098.32748     -2787.188    23092156.128    94558513.43247
     -2171.836  
  20988157.150   110293511.61848      1902.160    20988157.112    85942994.77647
      1482.199  
  22126275.608   116274368.73048      3412.909    22126276.691    90603407.44449
      2659.405  
  20747852.763   109030701.32149     -1802.628    20747852.711    84958986.61349
     -1404.647  
  22532245.112   118407749.59547      3017.355    22532246.255    92265783.16546
      2351.183  
  24590008.394   129221368.62647      -264.808    24590009.454   100691979.16146
      -206.343  
  23993134.816   126084771.64744      1245.637    23993138.649    98247889.67845
       970.620  
 20 10 01 04 24 35.0000000  0  8G29G 2G13G15G 5G18G 7G30
  21383362.862   112370330.55948     -1504.483    21383363.213    87561295.66249
     -1172.327  
  23094808.846   121364035.65748     -2788.754    23094808.261    94569373.69547
     -2173.059  
  20986348.530   110284007.72548      1898.835    20986348.737    85935589.15647
      1479.609  
  22123029.002   116257307.26748      3410.875    22123029.873    90590112.80249
      2657.820  
  20749568.464   109039717.95249     -1804.613    20749568.520    84966012.56249
     -1406.194  
  22529374.558   118392664.48147      3016.241    22529375.554    92254028.53146
      2350.315  
  24590261.223   129222695.75057      -267.293    24590261.786   100693013.26155
      -208.285  
  23991950.258   126078547.25145      1243.430    23991954.057    98243039.50344
       968.901  
 20 10 01 04 24 40.0000000  0  8G29G 2G13G15G 5G18G 7G30
  21384795.775   112377860.00348     -1507.675    21384796.020    87567162.76749
     -1174.815  
  23097462.753   121377981.12448     -2789.934    23097462.072    94580240.26247
     -2173.977  
  20984543.137   110274520.47648      1895.750    20984543.302    85928196.48347
      1477.202  
  22119784.301   116240256.21548      3409.105    22119785.269    90576826.28349
      2656.440  
  20751286.447   109048745.35949     -1806.597    20751286.256    84973046.90549
     -1407.742  
  22526505.343   118377586.30947      3014.992    22526506.345    92242279.31646
      2349.340  
  24590516.420   129224038.53947      -269.949    24590517.295   100694059.62546
      -210.347  
  23990768.433   126072337.47047      1240.578    23990772.413    98238200.74646
       966.683  
 20 10 01 04 24 45.0000000  0  8G29G 2G13G15G 5G18G 7G30
  21386231.564   112385405.44048     -1510.647    21386232.012    87573042.32049
     -1177.133  
  23100117.814   121391933.19048     -2791.085    23100117.070    94591112.00246
     -2174.875  
  20982740.610   110265048.25949      1892.918    20982740.741    85920815.54847
      1474.995  
  22116541.150   116223213.96548      3407.480    22116542.125    90563546.61849
      2655.175  
  20753005.953   109057781.95449     -1808.348    20753005.962    84980088.40849
     -1409.105  
  22523637.045   118362513.49047      3014.062    22523638.102    92230534.27946
      2348.616  
  24590774.995   129225395.30047      -272.480    24590775.260   100695116.85346
      -212.323  
  23989589.278   126066140.78447      1238.098    23989593.498    98233372.15946
       964.750  
 20 10 01 04 24 50.0000000  0  8G29G 2G13G15G 5G18G 7G30
  21387670.419   112392966.86348     -1513.999    21387670.925    87578934.33549
     -1179.742  
  23102774.016   121405891.78348     -2792.473    23102773.059    94601988.83346
     -2175.956  
  20980940.929   110255591.12348      1889.676    20980941.160    85913446.34747
      1472.473  
  22113299.919   116206180.55848      3405.668    22113300.707    90550273.83649
      2653.765  
  20754727.360   109066827.69949     -1810.120    20754727.370    84987137.03849
     -1410.488  
  22520769.719   118347445.96347      3013.129    22520770.839    92218793.34846
      2347.890  
  24591035.815   129226766.16947      -275.723    24591036.315   100696185.04846
      -214.851  
  23988412.721   126059957.21547      1235.148    23988416.660    98228553.80046
       962.449  
 20 10 01 04 24 55.0000000  0  8G29G 2G13G15G 5G18G 7G30
  21389112.502   112400544.68248     -1517.152    21389113.033    87584839.12049
     -1182.198  
  23105431.711   121419857.34448     -2793.695    23105430.830    94612871.08846
     -2176.910  
  20979144.117   110246149.46448      1886.746    20979144.496    85906089.21547
      1470.187  
  22110060.415   116189156.44348      3403.984    22110061.234    90537008.29849
      2652.453  
  20756450.653   109075883.04049     -1811.890    20756450.468    84994193.14949
     -1411.867  
  22517903.742   118332384.28247      3011.546    22517904.535    92207056.96846
      2346.656  
  24591299.427   129228151.48647      -278.332    24591300.078   100697264.51946
      -216.886  
  23987238.736   126053787.13147      1232.867    23987242.563    98223745.94146
       960.671  
 20 10 01 04 25  0.0000000  0  8G29G 2G13G15G 5G18G 7G30
  21390557.638   112408138.51948     -1520.430    21390558.075    87590756.39049
     -1184.754  
  23108090.598   121433829.48748     -2794.918    23108089.546    94623758.46046
     -2177.862  
  20977350.170   110236722.92948      1883.680    20977350.512    85898743.86747
      1467.800  
  22106822.602   116172141.21248      3401.991    22106823.244    90523749.67749
      2650.897  
  20758175.456   109084947.59749     -1813.852    20758175.281    85001256.43549
     -1413.394  
  22515038.670   118317328.00447      3010.722    22515039.486    92195324.82446
      2346.015  
  24591565.656   129229550.94047      -281.710    24591566.337   100698354.99246
      -219.520  
  23986067.071   126047630.20947      1230.184    23986071.178    98218948.35046
       958.581  
 20 10 01 04 25  5.0000000  0  8G29G 2G13G15G 5G18G 7G30
  21392005.818   112415748.84848     -1523.715    21392006.264    87596686.51249
     -1187.312  
  23110750.818   121447808.69148     -2796.440    23110749.757    94634651.33146
     -2179.047  
  20975559.481   110227312.04448      1880.745    20975559.698    85891410.72147
      1465.512  
  22103586.506   116155135.41548      3400.277    22103587.189    90510498.41549
      2649.563  
  20759902.170   109094021.88349     -1815.870    20759902.050    85008327.29849
     -1414.969  
  22512174.576   118302277.68647      3009.375    22512175.613    92183597.30345
      2344.965  
  24591834.777   129230964.93047      -283.941    24591835.539   100699456.80046
      -221.257  
  23984897.976   126041486.98047      1227.226    23984902.182    98214161.41246
       956.277  
 20 10 01 04 25 10.0000000  0  8G29G 2G13G15G 5G18G 7G30
  21393457.028   112423374.60148     -1526.858    21393457.371    87602628.64549
     -1189.766  
  23113412.163   121461793.93248     -2797.824    23113410.950    94645548.90946
     -2180.128  
  20973771.242   110217915.75548      1877.554    20973771.608    85884088.94847
      1463.027  
  22100352.128   116138138.02048      3398.515    22100352.578    90497253.69249
      2648.191  
  20761630.586   109103104.80349     -1817.570    20761630.281    85015404.89549
     -1416.292  
  22509311.638   118287232.25147      3008.530    22509312.502    92171873.59346
      2344.308  
  24592106.520   129232392.53947      -287.124    24592107.224   100700569.24146
      -223.737  
  23983731.458   126035356.32347      1224.723    23983735.718    98209384.27846
       954.324  
 20 10 01 04 25 15.0000000  0  8G29G 2G13G15G 5G18G 7G30
  21394911.475   112431017.80448     -1530.336    21394911.879    87608584.39349
     -1192.472  
  23116075.206   121475787.22948     -2799.304    23116073.794    94656452.77946
     -2181.281  
  20971986.474   110208536.08049      1874.390    20971986.929    85876780.11347
      1460.562  
  22097119.641   116121151.03148      3396.261    22097120.168    90484017.07949
      2646.434  
  20763361.112   109112198.37349     -1819.859    20763360.721    85022490.79049
     -1418.073  
  22506449.825   118272193.72547      3007.195    22506450.867    92160155.27146
      2343.265  
  24592381.052   129233835.71447      -290.223    24592381.737   100701693.79546
      -226.152  
  23982567.625   126029240.28147      1222.023    23982571.864    98204618.55546
       952.222  
 20 10 01 04 25 20.0000000  0  8G29G 2G13G15G 5G18G 7G30
  21396369.156   112438677.59448     -1533.804    21396369.563    87614553.05349
     -1195.176  
  23118739.364   121489787.62648     -2801.035    23118738.144    94667362.18746
     -2182.628  
  20970204.551   110199172.13849      1871.094    20970204.930    85869483.52947
      1457.991  
  22093888.862   116104173.51348      3394.519    22093889.222    90470787.86349
      2645.077  
  20765093.359   109121301.67349     -1821.664    20765093.137    85029584.27649
     -1419.480  
  22503589.327   118257161.20947      3005.624    22503590.215    92148441.62845
      2342.042  
  24592658.368   129235293.52245      -292.723    24592659.421   100702829.77045
      -228.097  
  23981406.402   126023138.01147      1218.733    23981410.679    98199863.53946
       949.659  
 20 10 01 04 25 25.0000000  0  8G29G 2G13G15G 5G18G 7G30
  21397830.064   112446354.15748     -1536.992    21397830.165    87620534.78949
     -1197.659  
  23121405.028   121503795.35048     -2802.296    23121403.695    94678277.29947
     -2183.608  
  20968425.691   110189824.16349      1867.961    20968426.098    85862199.38547
      1455.550  
  22090659.966   116087205.74048      3392.566    22090660.471    90457566.23149
      2643.555  
  20766827.513   109130414.96449     -1823.722    20766827.278    85036685.54449
     -1421.086  
  22500729.792   118242134.97147      3004.684    22500730.726    92136732.87246
      2341.309  
  24592938.559   129236766.15646      -295.945    24592940.050   100703977.27645
      -230.609  
  23980247.619   126017049.75047      1216.332    23980252.172    98195119.43046
       947.788  
 20 10 01 04 25 30.0000000  0  8G29G 2G13G15G 5G18G 7G30
  21399293.992   112454047.30748     -1540.168    21399294.190    87626529.44649
     -1200.132  
  23124071.968   121517810.21548     -2803.534    23124070.516    94689197.95446
     -2184.574  
  20966649.681   110180491.94849      1864.995    20966650.183    85854927.53147
      1453.241  
  22087432.987   116070247.50548      3390.862    22087433.447    90444352.04449
      2642.227  
  20768563.752   109139538.02449     -1825.508    20768563.377    85043794.42349
     -1422.476  
  22497871.592   118227114.77547      3003.526    22497872.434    92125028.83346
      2340.405  
  24593221.395   129238253.52847      -298.836    24593223.048   100705136.22845
      -232.866  
  23979091.718   126010975.26147      1213.520    23979096.297    98190386.03446
       945.593  
 20 10 01 04 25 35.0000000  0  8G29G 2G13G15G 5G18G 7G30
  21400760.974   112461756.85048     -1543.343    21400761.146    87632536.88449
     -1202.608  
  23126740.246   121531832.07848     -2804.722    23126739.016    94700124.07746
     -2185.500  
  20964876.917   110171175.32749      1862.030    20964877.206    85847667.82847
      1450.929  
  22084207.669   116053298.72248      3389.004    22084208.117    90431145.19849
      2640.776  
  20770301.528   109148670.69149     -1827.277    20770301.188    85050910.78149
     -1423.855  
  22495014.524   118212100.53147      3002.374    22495015.373    92113329.42846
      2339.511  
  24593507.242   129239755.38347      -301.538    24593508.648   100706306.52646
      -234.968  
  23977938.343   126004914.39247      1211.038    23977942.831    98185663.31646
       943.667  
 20 10 01 04 25 40.0000000  0  8G29G 2G13G15G 5G18G 7G30
  21402231.002   112469481.73948     -1546.789    21402231.293    87638556.26449
     -1205.292  
  23129409.461   121545859.86448     -2806.547    23129408.277    94711054.81746
     -2186.922  
  20963106.810   110161873.28549      1858.742    20963107.148    85840419.48747
      1448.366  
  22080984.070   116036358.28248      3387.102    22080984.280    90417944.87549
      2639.297  
  20772041.019   109157811.87449     -1829.229    20772040.697    85058033.77949
     -1425.379  
  22492158.371   118197091.13047      3001.284    22492159.006    92101633.80146
      2338.659  
  24593795.459   129241270.72447      -304.617    24593796.856   100707487.31546
      -237.366  
  23976787.473   125998866.09547      1208.086    23976791.824    98180950.35046
       941.363  
 20 10 01 04 25 45.0000000  0  8G29G 2G13G15G 5G18G 7G30
  21403704.265   112477223.72648     -1550.281    21403704.382    87644588.97749
     -1208.016  
  23132080.392   121559895.32648     -2807.828    23132079.233    94721991.53046
     -2187.921  
  20961339.767   110152587.56749      1855.554    20961340.042    85833183.85947
      1445.883  
  22077762.182   116019427.95848      3384.972    22077762.645    90404752.41449
      2637.636  
  20773782.611   109166963.34549     -1831.394    20773782.148    85065164.79049
     -1427.062  
  22489303.394   118182088.37547      2999.977    22489304.101    92089943.34646
      2337.641  
  24594086.743   129242801.30947      -307.484    24594087.788   100708679.97546
      -239.602  
  23975639.251   125992832.14547      1205.257    23975643.526    98176248.57646
       939.160  
 20 10 01 04 25 50.0000000  0  8G29G 2G13G15G 5G18G 7G30
  21405180.595   112484981.86548     -1553.023    21405180.883    87650634.27949
     -1210.151  
  23134752.451   121573937.56348     -2809.125    23134751.363    94732933.52147
     -2188.933  
  20959575.756   110143317.31849      1852.680    20959576.082    85825960.30047
      1443.644  
  22074542.181   116002506.92548      3383.406    22074542.728    90391567.20549
      2636.418  
  20775525.909   109176124.22049     -1833.007    20775525.571    85072303.13149
     -1428.319  
  22486449.577   118167091.37147      2999.063    22486450.203    92078257.36346
      2336.929  
  24594380.712   129244346.21847      -310.374    24594381.704   100709883.79346
      -241.855  
  23974493.511   125986811.71247      1203.012    23974497.916    98171557.34046
       937.410  
 20 10 01 04 25 55.0000000  0  8G29G 2G13G15G 5G18G 7G30
  21406659.960   112492755.20048     -1556.386    21406660.082    87656691.41549
     -1212.773  
  23137425.688   121587985.55048     -2810.288    23137424.528    94743879.99746
     -2189.839  
  20957814.417   110134061.57649      1849.563    20957814.812    85818748.03647
      1441.214  
  22071323.865   115985594.15348      3381.613    22071324.281    90378388.42049
      2635.019  
  20777270.730   109185293.50349     -1834.926    20777270.452    85079448.03249
     -1429.816  
  22483596.705   118152099.14547      2997.718    22483597.308    92066575.14045
      2335.886  
  24594677.198   129245904.41947      -313.082    24594678.026   100711097.96346
      -243.964  
  23973350.195   125980803.73146      1199.555    23973354.514    98166875.79946
       934.714  
 20 10 01 04 26  0.0000000  0  8G29G 2G13G15G 5G18G 7G30
  21408142.572   112500546.06348     -1559.539    21408142.695    87662762.21749
     -1215.227  
  23140100.470   121602041.68748     -2811.789    23140099.315    94754832.83246
     -2191.007  
  20956056.307   110124822.67749      1846.499    20956056.516    85811548.88947
      1438.828  
  22068107.505   115968692.03748      3379.554    22068107.772    90365217.94549
      2633.417  
  20779017.656   109194473.53449     -1836.727    20779017.291    85086601.29649
     -1431.219  
  22480745.169   118137114.03747      2996.534    22480745.604    92054898.42046
      2334.961  
  24594976.608   129247478.36246      -316.073    24594977.577   100712324.42046
      -246.293  
  23972209.693   125974810.57446      1197.320    23972214.063    98162205.81246
       932.972  
 20 10 01 04 26  5.0000000  0  8G29G 2G13G15G 5G18G 7G30
  21409628.024   112508352.76048     -1562.945    21409628.228    87668845.35549
     -1217.883  
  23142776.608   121616104.22948     -2813.254    23142775.264    94765790.64646
     -2192.147  
  20954301.052   110115598.87049      1843.207    20954301.384    85804361.51347
      1436.262  
  22064892.668   115951798.85948      3377.581    22064893.198    90352054.42849
      2631.878  
  20780766.276   109203662.62549     -1838.848    20780765.848    85093761.62449
     -1432.870  
  22477894.571   118122134.38447      2995.140    22477894.926    92043225.96346
      2333.870  
  24595278.701   129249066.24446      -319.203    24595279.615   100713561.71546
      -248.733  
  23971071.733   125968830.55046      1194.749    23971076.194    98157546.05346
       930.972  
 20 10 01 04 26 10.0000000  0  8G29G 2G13G15G 5G18G 7G30
  21411116.679   112516175.50748     -1566.159    21411116.686    87674940.99649
     -1220.387  
  23145453.855   121630173.41548     -2814.179    23145452.523    94776753.63746
     -2192.871  
  20952548.845   110106390.43049      1840.113    20952549.133    85797186.11747
      1433.851  
  22061679.677   115934914.88847      3375.738    22061680.361    90338898.08749
      2630.441  
  20782516.610   109212860.94449     -1840.667    20782516.369    85100929.15549
     -1434.288  
  22475045.108   118107160.35647      2994.328    22475045.438    92031557.91345
      2333.237  
  24595583.466   129250668.26346      -321.805    24595584.638   100714810.04346
      -250.761  
  23969936.291   125962863.92147      1191.827    23969940.578    98152896.73846
       928.694  
 20 10 01 04 26 15.0000000  0  8G29G 2G13G15G 5G18G 7G30
  21412608.374   112524014.41748     -1569.543    21412608.585    87681049.22849
     -1223.022  
  23148132.445   121644249.40548     -2816.047    23148131.005    94787721.94646
     -2194.324  
  20950799.500   110097197.49749      1836.976    20950799.607    85790022.78847
      1431.406  
  22058468.594   115918040.21948      3373.671    22058469.036    90325748.99849
      2628.831  
  20784268.827   109222068.62249     -1842.589    20784268.345    85108103.95449
     -1435.788  
  22472196.814   118092192.15647      2992.879    22472197.209    92019894.36046
      2332.108  
  24595890.895   129252284.66246      -325.077    24595892.096   100716069.59546
      -253.313  
  23968803.505   125956910.80747      1188.976    23968807.689    98148257.96745
       926.473  
 20 10 01 04 26 20.0000000  0  8G29G 2G13G15G 5G18G 7G30
  21414103.123   112531869.71948     -1572.512    21414103.382    87687170.23749
     -1225.336  
  23150812.368   121658332.37148     -2817.164    23150810.946    94798695.67246
     -2195.194  
  20949053.195   110088020.35449      1833.960    20949053.270    85782871.77047
      1429.058  
  22055259.212   115901175.17848      3372.163    22055259.925    90312607.41049
      2627.656  
  20786022.755   109231285.91949     -1844.272    20786022.513    85115286.25749
     -1437.097  
  22469349.665   118077230.06847      2991.789    22469349.866    92008235.62046
      2331.265  
  24596201.235   129253915.63146      -327.395    24596202.537   100717340.45646
      -255.117  
  23967673.291   125950971.49546      1186.789    23967677.566    98143629.95645
       924.770  
 20 10 01 04 26 25.0000000  0  8G29G 2G13G15G 5G18G 7G30
  21415601.128   112539741.06948     -1575.965    21415601.118    87693303.74749
     -1228.027  
  23153493.619   121672422.03148     -2818.730    23153492.146    94809674.61146
     -2196.422  
  20947309.756   110078858.61249      1830.688    20947309.857    85775732.75347
      1426.507  
  22052051.565   115884319.38148      3370.108    22052052.504    90299473.02749
      2626.055  
  20787778.583   109240512.48549     -1846.519    20787778.125    85122475.78949
     -1438.847  
  22466503.423   118062273.68647      2990.663    22466503.801    91996581.30446
      2330.382  
  24596514.187   129255560.92746      -330.781    24596515.687   100718622.50246
      -257.754  
  23966545.535   125945045.59546      1183.961    23966550.051    98139012.37746
       922.562  
 20 10 01 04 26 30.0000000  0  8G29G 2G13G15G 5G18G 7G30
  21417102.149   112547629.30448     -1579.206    21417102.261    87699450.42649
     -1230.555  
  23156176.178   121686519.19248     -2820.276    23156174.757    94820659.39446
     -2197.621  
  20945569.563   110069713.15249      1827.574    20945569.627    85768606.42647
      1424.082  
  22048845.816   115867473.77348      3368.187    22048846.809    90286346.58549
      2624.559  
  20789536.299   109249749.12649     -1848.304    20789535.951    85129673.16849
     -1440.242  
  22463658.506   118047323.91947      2989.327    22463658.930    91984932.12646
      2329.344  
  24596830.252   129257221.23146      -333.480    24596831.775   100719916.23947
      -259.858  
  23965420.711   125939134.01246      1180.820    23965424.879    98134405.95445
       920.116  
 20 10 01 04 26 35.0000000  0  8G29G 2G13G15G 5G18G 7G30
  21418606.044   112555532.97848     -1582.261    21418606.309    87705609.12449
     -1232.933  
  23158859.913   121700622.41048     -2821.219    23158858.364    94831648.90746
     -2198.354  
  20943832.024   110060582.50849      1824.711    20943832.108    85761491.63847
      1421.847  
  22045641.815   115850636.82048      3366.605    22045642.821    90273226.88549
      2623.324  
  20791295.538   109258994.39749     -1849.894    20791295.221    85136877.27449
     -1441.480  
  22460814.782   118032379.27147      2988.379    22460814.827    91973286.94146
      2328.605  
  24597148.743   129258895.16746      -336.132    24597150.201   100721220.61046
      -261.925  
  23964298.160   125933235.28147      1178.495    23964302.534    98129809.57746
       918.308  
 20 10 01 04 26 40.0000000  0  8G29G 2G13G15G 5G18G 7G30
  21420113.179   112563452.46748     -1585.636    21420113.270    87711780.15849
     -1235.562  
  23161544.964   121714732.07248     -2822.750    23161543.426    94842643.44446
     -2199.546  
  20942097.505   110051467.11449      1821.464    20942097.500    85754388.73947
      1419.320  
  22042439.537   115833808.92248      3364.508    22042440.777    90260114.23849
      2621.691  
  20793056.492   109268248.73849     -1851.922    20793056.224    85144088.44249
     -1443.058  
  22457971.975   118017440.18847      2987.176    22457972.230    91961646.10546
      2327.668  
  24597469.914   129260583.11746      -338.785    24597471.335   100722535.91147
      -263.992  
  23963178.056   125927349.84247      1175.621    23963182.565    98125223.52346
       916.065  
 20 10 01 04 26 45.0000000  0  8G29G 2G13G15G 5G18G 7G30
  21421623.374   112571388.65848     -1588.815    21421623.397    87717964.18949
     -1238.043  
  23164231.346   121728849.01348     -2823.930    23164229.737    94853643.65646
     -2200.469  
  20940365.876   110042367.84249      1818.301    20940366.065    85747298.39747
      1416.855  
  22039239.195   115816990.98348      3362.554    22039240.476    90247009.35249
      2620.167  
  20794819.541   109277513.03249     -1853.813    20794819.198    85151307.37049
     -1444.531  
  22455130.330   118002507.55447      2985.672    22455130.532    91950010.29745
      2326.496  
  24597794.022   129262286.00146      -342.000    24597795.417   100723862.81646
      -266.496  
  23962060.896   125921478.50447      1172.977    23962065.338    98120648.44545
       914.004  
 20 10 01 04 26 50.0000000  0  8G29G 2G13G15G 5G18G 7G30
  21423136.618   112579340.24748     -1591.961    21423136.473    87724160.23249
     -1240.491  
  23166918.846   121742972.01648     -2825.358    23166917.215    94864648.58846
     -2201.581  
  20938637.267   110033283.47349      1815.226    20938637.322    85740219.67247
      1414.461  
  22036040.573   115800181.73348      3360.969    22036041.844    90233911.23849
      2618.933  
  20796584.107   109286786.01449     -1855.620    20796583.880    85158533.07449
     -1445.940  
  22452289.820   117987580.10647      2984.867    22452289.862    91938378.50845
      2325.867  
  24598120.561   129264002.54146      -344.726    24598122.122   100725200.40146
      -268.620  
  23960946.211   125915620.07647      1170.328    23960950.480    98116083.41745
       911.940  
 20 10 01 04 26 55.0000000  0  8G29G 2G13G15G 5G18G 7G30
  21424652.911   112587308.32448     -1595.206    21424652.734    87730369.13149
     -1243.023  
  23169607.694   121757102.16148     -2826.684    23169606.212    94875659.08246
     -2202.612  
  20936911.712   110024215.05349      1812.003    20936911.751    85733153.37347
      1411.948  
  22032843.836   115783382.29948      3358.914    22032844.930    90220820.78349
      2617.331  
  20798350.389   109296068.69948     -1857.608    20798350.270    85165766.33349
     -1447.491  
  22449450.264   117972658.95247      2983.285    22449450.367    91926751.62645
      2324.633  
  24598449.995   129265733.81946      -347.871    24598451.606   100726549.45646
      -271.069  
  23959834.030   125909775.64947      1167.507    23959838.351    98111529.33846
       909.742  
 20 10 01 04 27  0.0000000  0  8G29G 2G13G15G 5G18G 7G30
  21426172.236   112595292.89748     -1598.238    21426171.949    87736590.87449
     -1245.382  
  23172297.856   121771239.40548     -2827.769    23172296.363    94886675.08146
     -2203.465  
  20935188.991   110015162.59649      1809.168    20935189.128    85726099.51847
      1409.738  
  22029648.821   115766592.66548      3357.129    22029649.939    90207737.95849
      2615.940  
  20800118.770   109305361.07348     -1859.085    20800118.612    85173007.14949
     -1448.640  
  22446612.234   117957744.03347      2982.687    22446612.112    91915129.63445
      2324.168  
  24598782.161   129267479.80045      -350.624    24598783.716   100727909.98447
      -273.218  
  23958724.646   125903945.20447      1164.999    23958728.944    98106986.12646
       907.788  
 20 10 01 04 27  5.0000000  0  8G29G 2G13G15G 5G18G 7G30
  21427694.772   112603293.31748     -1601.551    21427694.346    87742824.96249
     -1247.964  
  23174989.352   121785383.12248     -2829.519    23174987.851    94897696.17946
     -2204.824  
  20933469.290   110006125.47449      1806.031    20933469.418    85719057.59547
      1407.293  
  22026455.704   115749812.25148      3355.293    22026456.911    90194662.32249
      2614.512  
  20801888.693   109314662.52349     -1860.983    20801888.670    85180255.02149
     -1450.120  
  22443774.943   117942834.81148      2981.331    22443775.104    91903512.03046
      2323.113  
  24599117.046   129269239.94646      -353.550    24599118.746   100729281.50346
      -275.496  
  23957617.773   125898128.07847      1162.387    23957621.920    98102453.29945
       905.753  
 20 10 01 04 27 10.0000000  0  8G29G 2G13G15G 5G18G 7G30
  21429220.168   112611309.63848     -1604.909    21429219.923    87749071.44449
     -1250.582  
  23177682.010   121799533.38648     -2830.984    23177680.576    94908722.34646
     -2205.964  
  20931752.476   109997103.74549      1802.516    20931752.620    85712027.68747
      1404.554  
  22023264.242   115733041.13348      3353.063    22023265.363    90181593.93549
      2612.773  
  20803660.523   109323973.11049     -1863.288    20803660.408    85187510.02249
     -1451.918  
  22440938.986   117927931.32147      2980.098    22440938.824    91891898.93745
      2322.152  
  24599454.781   129271014.19246      -356.305    24599456.097   100730663.99346
      -277.647  
  23956513.367   125892324.41747      1159.031    23956517.312    98097930.98746
       903.136  
 20 10 01 04 27 15.0000000  0  8G29G 2G13G15G 5G18G 7G30
  21430748.981   112619343.13848     -1608.382    21430748.674    87755331.30149
     -1253.288  
  23180376.192   121813691.46848     -2832.245    23180374.661    94919754.57946
     -2206.953  
  20930038.888   109988098.65549      1799.460    20930039.024    85705010.73447
      1402.176  
  22020074.719   115716280.60548      3351.214    22020076.016    90168533.77849
      2611.331  
  20805434.259   109333294.06249     -1865.210    20805434.096    85194773.10349
     -1453.414  
  22438104.144   117913034.87247      2978.628    22438104.256    91880291.32145
      2321.008  
  24599795.174   129272803.87546      -359.265    24599796.662   100732058.54645
      -279.948  
  23955411.760   125886535.43247      1156.066    23955415.856    98093420.08546
       900.827  
 20 10 01 04 27 20.0000000  0  8G29G 2G13G15G 5G18G 7G30
  21432280.636   112627392.54248     -1611.448    21432280.350    87761603.56949
     -1255.680  
  23183071.685   121827856.10248     -2833.581    23183069.998    94930791.97346
     -2207.988  
  20928328.342   109979109.05049      1796.410    20928328.338    85698005.85347
      1399.797  
  22016887.124   115699529.39948      3349.358    22016888.368    90155480.89449
      2609.887  
  20807209.708   109342624.11049     -1866.929    20807209.499    85202043.26949
     -1454.753  
  22435270.656   117898144.16848      2977.758    22435270.636    91868688.18546
      2320.328  
  24600138.421   129274607.77946      -362.226    24600139.900   100733464.17746
      -282.258  
  23954312.672   125880759.96947      1153.866    23954316.635    98088919.74046
       899.113  
 20 10 01 04 27 25.0000000  0  8G29G 2G13G15G 5G18G 7G30
  21433815.135   112635456.54548     -1614.413    21433814.942    87767887.21449
     -1257.988  
  23185767.917   121842025.95648     -2834.585    23185766.550    94941833.40246
     -2208.769  
  20926620.288   109970133.57249      1793.527    20926620.551    85691012.00247
      1397.554  
  22013701.031   115682786.21048      3347.718    22013702.403    90142434.24149
      2608.609  
  20808986.500   109351961.93549     -1868.508    20808986.377    85209319.50749
     -1455.983  
  22432437.751   117883257.96347      2976.695    22432437.762    91857088.54045
      2319.500  
  24600484.207   129276424.49146      -364.358    24600485.406   100734879.77746
      -283.922  
  23953216.164   125874996.65147      1151.233    23953219.747    98084428.85445
       897.062  
 20 10 01 04 27 30.0000000  0  8G29G 2G13G15G 5G18G 7G30
  21435352.833   112643537.35448     -1617.679    21435352.449    87774183.95549
     -1260.530  
  23188465.869   121856203.29047     -2836.241    23188464.332    94952880.64845
     -2210.063  
  20924915.458   109961174.50249      1790.324    20924915.461    85684030.91447
      1395.055  
  22010516.925   115666053.27948      3345.776    22010518.147    90129395.55849
      2607.093  
  20810765.393   109361309.83049     -1870.496    20810765.215    85216603.58149
     -1457.531  
  22429606.376   117868378.49147      2975.188    22429606.408    91845494.14845
      2318.323  
  24600832.818   129278256.32845      -367.542    24600834.001   100736307.15546
      -286.401  
  23952122.340   125869247.72747      1148.742    23952125.842    98079949.18645
       895.121  
 20 10 01 04 27 35.0000000  0  8G29G 2G13G15G 5G18G 7G30
  21436893.597   112651634.84648     -1621.156    21436893.371    87780493.67949
     -1263.241  
  23191164.959   121870387.94947     -2837.690    23191163.550    94963933.62046
     -2211.191  
  20923213.680   109952231.72649      1786.961    20923213.794    85677062.52747
      1392.434  
  22007334.689   115649330.48448      3343.516    22007335.832    90116364.82649
      2605.332  
  20812546.180   109370667.71149     -1872.554    20812546.014    85223895.43649
     -1459.137  
  22426776.125   117853505.60847      2973.895    22426776.003    91833904.89746
      2317.316  
  24601184.181   129280103.15945      -371.167    24601185.417   100737746.29947
      -289.219  
  23951031.357   125863513.16547      1145.429    23951034.380    98075480.70546
       892.538  
 20 10 01 04 27 40.0000000  0  8G29G 2G13G15G 5G18G 7G30
  21438437.614   112659748.86348     -1624.438    21438437.472    87786816.26649
     -1265.796  
  23193865.572   121884579.79448     -2839.027    23193864.239    94974992.20746
     -2212.229  
  20921515.146   109943305.11649      1783.729    20921515.066    85670106.70847
      1389.917  
  22004154.326   115632617.71848      3341.519    22004155.461    90103341.92349
      2603.781  
  20814328.866   109380035.35249     -1874.492    20814328.493    85231194.89149
     -1460.645  
  22423947.187   117838639.19047      2972.597    22423947.022    91822320.69245
      2316.308  
  24601538.315   129281964.76845      -374.343    24601539.587   100739196.87847
      -291.699  
  23949942.731   125857792.70847      1142.449    23949945.871    98071023.19145
       890.219  
 20 10 01 04 27 45.0000000  0  8G29G 2G13G15G 5G18G 7G30
  21439984.669   112667878.16148     -1627.304    21439984.238    87793150.79549
     -1268.030  
  23196567.359   121898777.59447     -2839.859    23196565.856    94986055.40946
     -2212.879  
  20919819.266   109934393.39549      1780.925    20919819.259    85663162.53547
      1387.729  
  22000975.711   115615913.73348      3340.026    22000976.809    90090325.81349
      2602.616  
  20816113.074   109389411.61449     -1876.086    20816112.958    85238501.06849
     -1461.886  
  22421119.183   117823778.02047      2971.960    22421119.075    91810740.56245
      2315.809  
  24601895.254   129283840.02745      -376.473    24601896.630   100740658.12945
      -293.359  
  23948856.787   125852085.19047      1140.585    23948859.556    98066575.78846
       888.765  
 20 10 01 04 27 50.0000000  0  8G29G 2G13G15G 5G18G 7G30
  21441534.803   112676024.10948     -1631.015    21441534.420    87799498.28049
     -1270.925  
  23199270.485   121912982.77548     -2842.129    23199269.047    94997124.40146
     -2214.648  
  20918126.421   109925497.96649      1777.319    20918126.603    85656231.01947
      1384.921  
  21997798.945   115599219.96948      3337.523    21997800.112    90077317.70749
      2600.663  
  20817899.174   109398797.79149     -1878.374    20817898.881    85245814.97049
     -1463.672  
  22418292.369   117808923.51347      2969.984    22418292.329    91799165.60746
      2314.270  
  24602254.837   129285730.17945      -379.512    24602256.322   100742131.00645
      -295.722  
  23947773.475   125846392.00747      1137.168    23947776.230    98062139.53246
       886.101  
 20 10 01 04 27 55.0000000  0  8G29G 2G13G15G 5G18G 7G30
  21443087.795   112684185.72848     -1633.866    21443087.309    87805857.97949
     -1273.144  
  23201974.957   121927194.27648     -2843.008    23201973.358    95008198.25845
     -2215.336  
  20916436.614   109916617.87549      1774.413    20916436.645    85649311.48447
      1382.656  
  21994624.117   115582535.44548      3335.777    21994625.130    90064316.78149
      2599.304  
  20819686.975   109408192.84049     -1880.081    20819686.768    85253135.78949
     -1465.004  
  22415466.666   117794074.62647      2969.257    22415466.897    91787595.05946
      2313.702  
  24602617.162   129287634.40044      -382.710    24602618.409   100743614.81746
      -298.218  
  23946692.632   125840712.13447      1134.711    23946695.365    98057713.66645
       884.187  
 20 10 01 04 28  0.0000000  0  8G29G 2G13G15G 5G18G 7G30
  21444644.047   112692363.70148     -1637.276    21444643.602    87812230.42649
     -1275.805  
  23204680.616   121941412.73748     -2844.675    23204678.889    95019277.58045
     -2216.633  
  20914749.807   109907753.80149      1771.262    20914749.867    85642404.40947
      1380.199  
  21991450.981   115565860.81748      3334.128    21991452.116    90051323.56749
      2598.019  
  20821476.690   109417597.48549     -1881.898    20821476.611    85260464.08149
     -1466.418  
  22412642.311   117779232.13347      2967.921    22412642.389    91776029.48346
      2312.663  
  24602982.341   129289553.30145      -385.195    24602983.791   100745110.06145
      -300.156  
  23945614.490   125835046.33647      1132.066    23945617.171    98053298.76646
       882.125  
 20 10 01 04 28  5.0000000  0  8G29G 2G13G15G 5G18G 7G30
  21446203.122   112700556.88548     -1640.363    21446202.614    87818614.72449
     -1278.207  
  23207387.605   121955637.09348     -2845.722    23207385.744    95030361.51346
     -2217.448  
  20913065.911   109898904.64949      1768.004    20913065.807    85635508.96547
      1377.664  
  21988279.735   115549195.02448      3331.983    21988280.806    90038337.24349
      2596.348  
  20823267.911   109427010.60249     -1883.694    20823267.675    85267798.97249
     -1467.815  
  22409818.696   117764394.84347      2966.519    22409818.805    91764467.97445
      2311.570  
  24603349.978   129291485.77845      -387.722    24603351.315   100746615.91645
      -302.125  
  23944538.828   125829393.47847      1128.871    23944541.443    98048893.96246
       879.641  
 20 10 01 04 28 10.0000000  0  8G29G 2G13G15G 5G18G 7G30
  21447765.440   112708766.79748     -1643.691    21447765.061    87825012.05849
     -1280.801  
  23210095.699   121969868.84948     -2847.144    23210094.037    95041451.17646
     -2218.559  
  20911385.056   109890071.88449      1765.038    20911385.134    85628626.29647
      1375.352  
  21985110.198   115532539.55948      3329.941    21985111.228    90025358.97249
      2594.758  
  20825061.051   109436433.67649     -1885.597    20825060.933    85275141.62749
     -1469.301  
  22406996.612   117749564.31747      2965.491    22406996.676    91752911.73246
      2310.770  
  24603720.791   129293433.38345      -390.922    24603722.031   100748133.49746
      -304.620  
  23943466.007   125823755.01147      1125.979    23943468.710    98044500.33346
       877.382  
 20 10 01 04 28 15.0000000  0  8G29G 2G13G15G 5G18G 7G30
  21449330.796   112716992.54548     -1646.426    21449330.230    87831421.72649
     -1282.933  
  23212805.325   121984107.09148     -2848.035    23212803.278    95052545.90745
     -2219.249  
  20909707.223   109881254.71849      1762.144    20909707.152    85621755.77547
      1373.097  
  21981942.579   115515893.57948      3328.366    21981943.841    90012388.08349
      2593.531  
  20826855.907   109445865.86649     -1887.219    20826855.895    85282491.38349
     -1470.562  
  22404175.495   117734739.74447      2964.766    22404175.781    91741360.10945
      2310.202  
  24604094.298   129295395.20645      -393.894    24604095.495   100749662.17745
      -306.938  
  23942395.598   125818130.16347      1123.854    23942398.310    98040117.37946
       875.729  
 20 10 01 04 28 20.0000000  0  8G29G 2G13G15G 5G18G 7G30
  21450898.983   112725233.02148     -1649.839    21450898.307    87837842.86349
     -1285.594  
  23215515.716   121998350.69848     -2849.520    23215513.759    95063644.81046
     -2220.406  
  20908032.086   109872451.93849      1758.812    20908032.096    85614896.44847
      1370.499  
  21978776.467   115499255.92148      3326.363    21978777.703    89999423.68549
      2591.968  
  20828652.275   109455305.96649     -1889.144    20828652.309    85289847.30549
     -1472.063  
  22401355.340   117719919.91747      2963.012    22401355.642    91729812.20245
      2308.835  
  24604470.023   129297369.99845      -396.914    24604471.074   100751200.98345
      -309.284  
  23941327.453   125812517.77347      1120.827    23941330.381    98035744.07646
       873.371  
 20 10 01 04 28 25.0000000  0  8G29G 2G13G15G 5G18G 7G30
  21452470.404   112733491.23748     -1653.312    21452469.826    87844277.84749
     -1288.297  
  23218227.785   122012602.77648     -2851.054    23218225.925    95074750.33346
     -2221.605  
  20906360.394   109863666.67249      1755.344    20906360.220    85608050.80347
      1367.797  
  21975612.624   115482629.71848      3324.066    21975613.992    89986468.19049
      2590.180  
  20830450.952   109464757.08149     -1891.480    20830450.665    85297211.80249
     -1473.882  
  22398536.734   117705107.94947      2961.644    22398537.009    91718270.40445
      2307.773  
  24604848.880   129299360.97146      -400.188    24604850.189   100752752.42745
      -311.835  
  23940262.401   125806920.88647      1117.773    23940265.154    98031382.86846
       870.988  
 20 10 01 04 28 30.0000000  0  8G29G 2G13G15G 5G18G 7G30
  21454044.861   112741765.16048     -1656.382    21454044.486    87850725.06749
     -1290.690  
  23220941.158   122026861.27647     -2852.398    23220939.163    95085860.84146
     -2222.652  
  20904691.523   109854896.91349      1752.363    20904691.530    85601217.23547
      1365.476  
  21972450.510   115466012.85648      3322.554    21972451.733    89973519.99049
      2589.000  
  20832251.113   109474217.17849     -1892.894    20832250.975    85304583.30349
     -1474.983  
  22395719.260   117690301.80447      2960.680    22395719.503    91706733.15545
      2307.019  
  24605230.664   129301366.00846      -402.449    24605231.659   100754314.73246
      -313.604  
  23939200.008   125801337.50647      1115.211    23939202.827    98027032.19346
       868.991  
 20 10 01 04 28 35.0000000  0  8G29G 2G13G15G 5G18G 7G30
  21455622.374   112750055.26148     -1659.414    21455621.870    87857184.87749
     -1293.054  
  23223655.689   122041126.63648     -2853.854    23223653.830    95096976.69946
     -2223.784  
  20903025.878   109846143.07949      1749.233    20903025.801    85594396.07147
      1363.034  
  21969290.310   115449405.95548      3320.555    21969291.666    89960579.54249
      2587.441  
  20834053.021   109483686.73849     -1894.766    20834053.027    85311962.18749
     -1476.444  
  22392902.908   117675501.96247      2959.444    22392903.017    91695200.80446
      2306.059  
  24605614.912   129303385.55846      -404.987    24605616.099   100755888.41946
      -315.577  
  23938140.302   125795768.08947      1113.219    23938142.950    98022692.39446
       867.441  
 20 10 01 04 28 40.0000000  0  8G29G 2G13G15G 5G18G 7G30
  21457202.729   112758360.67848     -1662.633    21457202.432    87863656.60949
     -1295.562  
  23226371.355   122055397.96448     -2854.957    23226369.746    95108097.20246
     -2224.645  
  20901362.929   109837404.34749      1746.054    20901362.694    85587586.64247
      1360.558  
  21966131.963   115432808.01148      3318.328    21966133.289    89947646.11149
      2585.711  
  20835856.653   109493164.79449     -1896.444    20835856.565    85319347.68249
     -1477.754  
  22390087.703   117660707.55647      2958.323    22390087.792    91683672.70946
      2305.184  
  24606001.805   129305418.75445      -408.007    24606002.941   100757472.75446
      -317.922  
  23937082.867   125790211.85748      1109.672    23937085.503    98018362.85546
       864.676  
 20 10 01 04 28 45.0000000  0  8G29G 2G13G15G 5G18G 7G30
  21458785.569   112766678.49649     -1664.386    21458785.439    87870138.00849
     -1296.930  
  23229087.754   122069672.42448     -2854.839    23229086.072    95119220.13446
     -2224.559  
  20899702.268   109828677.85549      1744.483    20899702.057    85580786.76847
      1359.335  
  21962974.555   115416216.28048      3317.851    21962975.910    89934717.51549
      2585.339  
  20837661.406   109502648.55149     -1896.882    20837661.325    85326737.62549
     -1478.093  
  22387272.849   117645915.74047      2958.616    22387273.081    91672146.62846
      2305.414  
  24606389.476   129307449.85555      -409.875    24606391.745   100759060.53055
      -319.386  
  23936027.497   125784665.78646      1108.555    23936030.302    98014041.26345
       863.804  
 20 10 01 04 28 50.0000000  0  7G29G 2G13G15G 5G18G30
  21460372.599   112775018.14749     -1669.120    21460372.361    87876636.43949
     -1300.616  
  23231806.465   122083959.41248     -2857.519    23231804.576    95130352.85946
     -2226.640  
  20898045.783   109819972.96849      1739.804    20898045.561    85574003.75947
      1355.687  
  21959820.193   115399640.05948      3314.878    21959821.413    89921800.97249
      2583.019  
  20839469.019   109512147.40149     -1900.219    20839469.002    85334139.32149
     -1480.691  
  22384460.304   117631135.90247      2955.788    22384460.470    91660629.86346
      2303.211  
  23934975.980   125779139.40347      1104.261    23934978.446    98009734.99746
       860.460  
 20 10 01 04 28 55.0000000  0  7G29G 2G13G15G 5G18G30
  21461961.361   112783367.92848     -1671.875    21461961.232    87883142.75649
     -1302.761  
  23234525.346   122098247.22648     -2858.741    23234523.618    95141486.19246
     -2227.597  
  20896391.395   109811278.01049      1737.082    20896391.023    85567228.45347
      1353.566  
  21956666.386   115383067.75748      3313.202    21956667.905    89908887.50949
      2581.715  
  20841277.201   109521649.59149     -1901.698    20841277.145    85341543.61749
     -1481.847  
  22381647.987   117616356.36347      2954.953    22381648.161    91649113.36446
      2302.562  
  23933925.964   125773621.03047      1101.922    23933928.327    98005434.96646
       858.636  
 20 10 01 04 29  0.0000000  0  7G29G 2G13G15G 5G18G30
  21463554.104   112791737.00748     -1675.504    21463554.013    87889664.11549
     -1305.590  
  23237246.111   122112545.00448     -2860.405    23237244.361    95152627.30546
     -2228.891  
  20894740.431   109802602.22749      1733.468    20894740.154    85560468.10647
      1350.749  
  21953515.266   115366508.57348      3310.805    21953516.829    89895984.25549
      2579.854  
  20843087.863   109531164.36749     -1903.910    20843087.722    85348957.71749
     -1483.569  
  22378837.389   117601586.35047      2953.214    22378837.522    91637604.26846
      2301.202  
  23932879.088   125768119.91146      1098.526    23932881.721    98001148.44344
       856.003  
 20 10 01 04 29  5.0000000  0  7G29G 2G13G15G 5G18G30
  21465149.728   112800122.56448     -1678.660    21465149.722    87896198.30949
     -1308.051  
  23239968.040   122126849.96448     -2861.707    23239966.507    95163774.03746
     -2229.905  
  20893092.515   109793942.77749      1730.401    20893092.203    85553720.49147
      1348.363  
  21950366.042   115349959.66348      3308.890    21950367.454    89883088.99849
      2578.352  
  20844900.235   109540688.92049     -1905.694    20844900.231    85356379.45449
     -1484.961  
  22376028.091   117586823.04847      2952.147    22376028.155    91626100.37946
      2300.370  
  23931835.001   125762632.91547      1096.015    23931837.532    97996872.82145
       854.031  
 20 10 01 04 29 10.0000000  0  7G29G 2G13G15G 5G18G30
  21466748.555   112808524.48748     -1682.125    21466748.609    87902745.26449
     -1310.750  
  23242691.679   122141162.03348     -2862.977    23242689.839    95174926.31446
     -2230.895  
  20891447.823   109785299.61249      1727.034    20891447.448    85546985.55747
      1345.738  
  21947218.763   115333420.97248      3306.832    21947220.302    89870201.71749
      2576.750  
  20846714.702   109550223.12949     -1907.973    20846714.450    85363808.72049
     -1486.733  
  22373219.945   117572066.38647      2950.706    22373219.954    91614601.70146
      2299.249  
  23930793.725   125757160.38047      1093.050    23930796.255    97992608.49946
       851.726  
 20 10 01 04 29 15.0000000  0  7G29G 2G13G15G 5G18G30
  21468350.421   112816942.69548     -1685.074    21468350.411    87909304.90549
     -1313.046  
  23245416.456   122155481.14648     -2864.328    23245414.628    95186084.06045
     -2231.945  
  20889806.171   109776672.60949      1723.992    20889805.873    85540263.23847
      1343.367  
  21944073.546   115316892.40548      3304.992    21944075.072    89857322.30649
      2575.316  
  20848530.681   109559766.94648     -1909.585    20848530.611    85371245.44049
     -1487.992  
  22370413.067   117557316.29947      2949.648    22370413.288    91603108.12246
      2298.426  
  23929755.062   125751702.07147      1090.460    23929757.629    97988355.27946
       849.707  
 20 10 01 04 29 20.0000000  0  7G29G 2G13G15G 5G18G30
  21469955.340   112825376.47449     -1688.582    21469955.380    87915876.67349
     -1315.780  
  23248142.410   122169806.53548     -2865.855    23248140.470    95197246.67746
     -2233.137  
  20888167.554   109768061.12049      1720.479    20888166.970    85533552.98447
      1340.633  
  21940930.060   115300373.30648      3302.714    21940931.558    89844450.29749
      2573.538  
  20850348.553   109569319.58448     -1911.711    20850348.499    85378689.07649
     -1489.647  
  22367607.365   117542572.05147      2948.042    22367607.552    91591619.10246
      2297.172  
  23928718.853   125746257.22947      1087.453    23928721.475    97984112.55746
       847.363  
 20 10 01 04 29 25.0000000  0  7G29G 2G13G15G 5G18G30
  21471563.301   112833826.14948     -1691.128    21471563.302    87922460.84649
     -1317.766  
  23250869.668   122184138.53348     -2866.675    23250867.880    95208414.49746
     -2233.776  
  20886531.795   109759465.46049      1717.847    20886531.494    85526855.07847
      1338.577  
  21937788.289   115283863.99948      3301.258    21937789.766    89831585.90549
      2572.406  
  20852168.135   109578881.42549     -1913.043    20852167.858    85386139.85849
     -1490.687  
  22364802.843   117527834.03148      2947.093    22364802.850    91580134.94446
      2296.434  
  23927685.389   125740826.30646      1085.315    23927687.954    97979880.68245
       845.698  
 20 10 01 04 29 30.0000000  0  7G29G 2G13G15G 5G18G30
  21473174.101   112842291.96248     -1694.976    21473174.364    87929057.56549
     -1320.766  
  23253598.298   122198477.42148     -2868.425    23253596.599    95219587.61346
     -2235.144  
  20884899.064   109750885.86849      1714.190    20884898.710    85520169.66547
      1335.730  
  21934648.665   115267364.72648      3298.969    21934650.175    89818729.33549
      2570.620  
  20853989.454   109588452.67749     -1915.191    20853989.168    85393597.97349
     -1492.359  
  22361999.417   117513102.43047      2945.668    22361999.622    91568655.78646
      2295.324  
  23926654.469   125735409.44347      1081.835    23926657.134    97975659.77246
       842.983  
 20 10 01 04 29 35.0000000  0  8G29G 2G13G15G 5G18G 7G30
  21474788.902   112850777.92448     -1700.315    21474789.097    87935669.99949
     -1324.925  
  23256329.021   122212827.21748     -2872.073    23256327.511    95230769.27146
     -2237.983  
  20883270.327   109742326.39449      1708.772    20883269.846    85513499.95647
      1331.508  
  21931511.672   115250879.59048      3294.723    21931513.028    89805883.77449
      2567.312  
  20855813.415   109598037.47149     -1919.308    20855813.172    85401066.65349
     -1495.566  
  22359198.092   117498381.36847      2942.105    22359198.342    91557184.82846
      2292.546  
  24610438.400   129328733.96855      -442.141    24610440.215   100775634.58553
      -344.526  
  23925627.020   125730010.75447      1076.749    23925629.978    97971453.01847
       839.022  
 20 10 01 04 29 40.0000000  0  7G29G 2G13G15G 5G18G30
  21476406.760   112859279.35548     -1698.945    21476407.003    87942294.49149
     -1323.855  
  23259060.896   122227183.19448     -2868.723    23259059.301    95241955.74346
     -2235.370  
  20881644.447   109733782.39649      1710.352    20881644.139    85506842.30247
      1332.737  
  21928376.409   115234403.89048      3297.309    21928377.845    89793045.56649
      2569.328  
  20857638.922   109607630.98049     -1916.519    20857638.897    85408542.09849
     -1493.395  
  22356397.889   117483666.10447      2945.492    22356398.249    91545718.38346
      2295.183  
  23924602.209   125724625.67746      1079.065    23924605.066    97967256.86345
       840.828  
 20 10 01 04 29 45.0000000  0  7G29G 2G13G15G 5G18G30
  21478025.014   112867783.52748     -1703.500    21478025.431    87948921.12449
     -1327.406  
  23261791.442   122241532.65148     -2871.734    23261790.153    95253137.15846
     -2237.718  
  20880019.143   109725241.14849      1705.702    20880018.678    85500186.80947
      1329.116  
  21925240.584   115217924.92448      3293.757    21925241.948    89780204.81149
      2566.604  
  20859463.822   109617220.55049     -1919.805    20859463.654    85416014.48549
     -1495.952  
  22353596.102   117468943.96247      2942.995    22353596.683    91534246.59545
      2293.241  
  23923577.634   125719241.06747      1074.121    23923580.641    97963061.07646
       836.973  
 20 10 01 04 29 50.0000000  0  8G29G 2G13G15G 5G18G 7G30
  21479648.047   112876312.68148     -1707.581    21479648.482    87955567.21149
     -1330.586  
  23264525.025   122255897.85548     -2874.015    23264523.618    95264330.80246
     -2239.496  
  20878398.400   109716724.93349      1701.395    20878398.073    85493550.79547
      1325.758  
  21922108.385   115201464.95048      3290.671    21922109.707    89767378.86949
      2564.155  
  20861292.161   109626828.41549     -1922.659    20861292.065    85423501.14849
     -1498.180  
  22350797.597   117454237.24847      2940.430    22350798.056    91522786.84045
      2291.246  
  24611706.229   129335389.58316      -448.655           0.000           0.0000 
         0.000  
  23922557.238   125713879.72247      1070.546    23922560.347    97958883.39646
       834.187  
 20 10 01 04 29 55.0000000  0  8G29G 2G13G15G 5G18G 7G30
  21481274.863   112884861.28248     -1711.945    21481275.184    87962228.44449
     -1333.987  
  23267260.693   122270273.26048     -2876.539    23267259.328    95275532.38946
     -2241.465  
  20876781.648   109708228.12349      1697.081    20876781.132    85486929.88247
      1322.398  
  21918978.846   115185018.42648      3287.453    21918980.189    89754563.39449
      2561.647  
  20863122.796   109636448.96649     -1925.777    20863122.680    85430997.68049
     -1500.609  
  22348000.822   117439540.31747      2938.086    22348001.399    91511334.68746
      2289.413  
  24612135.713   129337642.75446      -452.690    24612135.327   100782577.06855
      -352.749  
  23921540.287   125708535.76347      1066.542    23921543.498    97954719.28746
       831.069  
 20 10 01 04 30  0.0000000  0  8G29G 2G13G15G 5G18G 7G30
  21482904.542   112893425.39948     -1714.012    21482904.828    87968901.78149
     -1335.598  
  23269997.326   122284654.95948     -2876.659    23269996.072    95286738.90246
     -2241.554  
  20875167.556   109699746.88749      1695.164    20875167.391    85480321.13147
      1320.902  
  21915851.048   115168581.45448      3287.050    21915852.355    89741755.37349
      2561.335  
  20864955.322   109646078.33049     -1926.265    20864955.241    85438501.05549
     -1500.991  
  22345205.139   117424849.40247      2937.996    22345205.946    91499887.24046
      2289.343  
  24612567.403   129339910.01947      -454.660    24612567.238   100784343.73445
      -354.289  
  23920525.965   125703205.50047      1065.140    23920529.086    97950565.84646
       829.976  
 20 10 01 04 30  5.0000000  0  8G29G 2G13G15G 5G18G 7G30
  21484536.305   112902000.43548     -1716.531    21484536.642    87975583.62949
     -1337.559  
  23272734.557   122299038.29748     -2877.414    23272733.268    95297946.69946
     -2242.144  
  20873555.738   109691276.60249      1692.495    20873555.312    85473720.90947
      1318.823  
  21912724.219   115152149.48448      3285.280    21912725.500    89728951.23749
      2559.957  
  20866788.441   109655711.90249     -1927.804    20866788.304    85446007.73449
     -1502.187  
  22342409.687   117410159.79447      2937.358    22342410.400    91488440.79246
      2288.847  
  24613000.765   129342186.66747      -456.910    24613000.522   100786117.74046
      -356.034  
  23919513.373   125697884.13347      1063.151    23919516.569    97946419.31946
       828.426  
 20 10 01 04 30 10.0000000  0  8G29G 2G13G15G 5G18G 7G30
  21486171.289   112910592.45648     -1719.953    21486171.623    87982278.69749
     -1340.227  
  23275473.129   122313429.30948     -2879.078    23275471.934    95309160.45346
     -2243.440  
  20871947.175   109682823.33049      1689.082    20871946.686    85467133.94547
      1316.164  
  21909599.453   115135728.47648      3282.964    21909600.617    89716155.64649
      2558.151  
  20868623.629   109665355.69549     -1929.706    20868623.563    85453522.37649
     -1503.672  
  22339615.754   117395477.63947      2935.688    22339616.593    91477000.15246
      2287.547  
  24613436.735   129344478.79646      -459.819    24613436.766   100787903.80546
      -358.304  
  23918503.435   125692577.87347      1059.534    23918506.758    97942284.59146
       825.608  
 20 10 01 04 30 15.0000000  0  8G29G 2G13G15G 5G18G 7G30
  21487809.531   112919201.35348     -1723.395    21487809.777    87988986.91449
     -1342.905  
  23278213.014   122327827.93848     -2880.397    23278212.078    95320380.16647
     -2244.468  
  20870341.656   109674386.98649      1685.647    20870341.501    85460560.17047
      1313.487  
  21906476.777   115119318.42248      3281.051    21906477.900    89703368.61049
      2556.660  
  20870460.733   109675009.64549     -1931.746    20870460.520    85461044.93749
     -1505.261  
  22336823.118   117380802.77247      2934.690    22336824.090    91465565.19146
      2286.769  
  24613875.722   129346786.28346      -463.269    24613876.269   100789701.84146
      -360.992  
  23917496.584   125687286.58847      1056.569    23917499.867    97938161.51146
       823.297  
 20 10 01 04 30 20.0000000  0  8G29G 2G13G15G 5G18G 7G30
  21489450.797   112927826.17148     -1726.292    21489451.131    87995707.54649
     -1345.167  
  23280954.412   122342233.23948     -2881.477    23280953.406    95331605.06947
     -2245.308  
  20868739.363   109665966.69249      1682.711    20868738.961    85453998.91147
      1311.199  
  21903355.976   115102918.41048      3279.242    21903357.143    89690589.37949
      2555.249  
  20872299.554   109684672.80849     -1933.233    20872299.444    85468574.68249
     -1506.418  
  22334031.796   117366134.37247      2933.211    22334032.815    91454135.26146
      2285.617  
  24614317.498   129349108.23846      -465.551    24614318.560   100791511.16746
      -362.770  
  23916492.425   125682009.29247      1054.168    23916495.685    97934049.33647
       821.426  
 20 10 01 04 30 25.0000000  0  8G29G 2G13G15G 5G18G 7G30
  21491094.953   112936466.23648     -1729.379    21491095.416    88002440.05749
     -1347.569  
  23283696.737   122356644.53548     -2882.948    23283695.621    95342834.66946
     -2246.456  
  20867139.950   109657561.75249      1679.452    20867139.597    85447449.62747
      1308.659  
  21900236.853   115086527.80748      3277.188    21900238.069    89677817.48349
      2553.647  
  20874140.057   109694344.53149     -1935.144    20874140.065    85476111.09049
     -1507.905  
  22331241.469   117351471.69547      2931.969    22331242.509    91442709.80046
      2284.648  
  24614762.020   129351444.05746      -468.773    24614763.329   100793331.23545
      -365.285  
  23915490.753   125676745.43947      1051.538    23915493.952    97929947.62546
       819.378  
 20 10 01 04 30 30.0000000  0  8G29G 2G13G15G 5G18G 7G30
  21492741.933   112945121.83248     -1732.973    21492742.405    88009184.66949
     -1350.371  
  23286440.425   122371062.15348     -2884.464    23286439.406    95354069.16546
     -2247.636  
  20865543.576   109649172.50149      1676.137    20865543.178    85440912.52747
      1306.077  
  21897119.636   115070146.87748      3275.050    21897120.916    89665053.13649
      2551.983  
  20875982.300   109704025.08549     -1937.141    20875982.136    85483654.37749
     -1509.465  
  22328452.522   117336815.08648      2930.476    22328453.609    91431289.06746
      2283.484  
  24615208.952   129353793.85746      -471.641    24615210.433   100795162.27146
      -367.515  
  23914491.742   125671495.28547      1048.473    23914494.860    97925856.60446
       816.987  
 20 10 01 04 30 35.0000000  0  8G29G 2G13G15G 5G18G 7G30
  21494392.131   112953793.77148     -1735.965    21494392.812    88015942.03249
     -1352.703  
  23289185.253   122385486.88348     -2885.570    23289184.340    95365309.21346
     -2248.500  
  20863950.248   109640799.72149      1673.030    20863949.953    85434388.28547
      1303.656  
  21894004.500   115053776.47648      3273.344    21894005.480    89652296.97649
      2550.651  
  20877826.254   109713715.31749     -1938.858    20877826.156    85491205.20449
     -1510.800  
  22325664.724   117322165.38948      2929.348    22325665.737    91419873.72746
      2282.604  
  24615658.921   129356158.62145      -473.984    24615660.186   100797004.93546
      -369.340  
  23913495.398   125666259.62147      1045.901    23913498.472    97921776.87546
       814.984  
 20 10 01 04 30 40.0000000  0  8G29G 2G13G15G 5G18G 7G30
  21496045.207   112962480.74748     -1739.059    21496045.887    88022711.09449
     -1355.112  
  23291931.406   122399917.45348     -2886.988    23291930.201    95376553.80346
     -2249.605  
  20862359.949   109632442.14749      1669.804    20862359.402    85427875.90247
      1301.144  
  21890891.087   115037415.31748      3271.086    21890892.251    89639548.01349
      2548.894  
  20879671.703   109723413.90349     -1940.754    20879671.627    85498762.53849
     -1512.276  
  22322878.014   117307521.28547      2928.254    22322879.034    91408462.73946
      2281.753  
  24616111.302   129358536.98845      -477.507    24616113.118   100798858.17845
      -372.086  
  23912501.695   125661037.23847      1042.909    23912504.729    97917707.50546
       812.652  
 20 10 01 04 30 45.0000000  0  8G29G 2G13G15G 5G18G 7G30
  21497701.531   112971184.85248     -1742.374    21497702.137    88029493.50749
     -1357.699  
  23294678.871   122414355.91348     -2888.270    23294677.750    95387804.55746
     -2250.601  
  20860772.701   109624101.88449      1666.516    20860772.528    85421377.01147
      1298.586  
  21887779.791   115021065.53448      3268.874    21887780.731    89626807.92049
      2547.172  
  20881519.276   109733122.99648     -1942.647    20881519.327    85506328.06349
     -1513.753  
  22320092.605   117292884.95647      2926.773    22320093.820    91397057.81346
      2280.598  
  24616566.861   129360931.09645      -480.405    24616568.729   100800723.70146
      -374.351  
  23911510.861   125655830.21547      1040.069    23911513.919    97913650.08745
       810.441  
 20 10 01 04 30 50.0000000  0  8G29G 2G13G15G 5G18G 7G30
  21499360.901   112979904.14948     -1745.183    21499361.326    88036287.76349
     -1359.887  
  23297427.659   122428800.33248     -2889.265    23297426.239    95399059.94246
     -2251.379  
  20859188.689   109615777.00149      1663.538    20859188.341    85414890.09547
      1296.262  
  21884670.421   115004725.15748      3267.171    21884671.416    89614075.17049
      2545.844  
  20883368.548   109742840.70748     -1944.331    20883368.506    85513900.29749
     -1515.065  
  22317308.639   117278254.39747      2925.421    22317309.830    91385657.37246
      2279.546  
  24617024.840   129363338.94945      -483.160    24617026.611   100802599.96646
      -376.488  
  23910522.458   125650636.58947      1037.655    23910525.558    97909603.10246
       808.559  
 20 10 01 04 30 55.0000000  0  8G29G 2G13G15G 5G18G 7G30
  21501022.957   112988638.81548     -1748.499    21501023.429    88043093.98449
     -1362.472  
  23300177.400   122443250.88248     -2890.785    23300176.231    95410320.10746
     -2252.562  
  20857607.369   109607467.66949      1660.125    20857607.089    85408415.28747
      1293.601  
  21881562.781   114988394.33648      3265.284    21881563.571    89601349.84849
      2544.375  
  20885219.558   109752567.04449     -1946.276    20885219.429    85521479.26549
     -1516.581  
  22314525.608   117263629.78348      2924.112    22314526.794    91374261.58446
      2278.526  
  24617485.751   129365760.86146      -485.938    24617487.514   100804487.19346
      -378.656  
  23909536.755   125645456.56147      1034.566    23909539.687    97905566.71746
       806.152  
 20 10 01 04 31  0.0000000  0  8G29G 2G13G15G 5G18G 7G30
  21502688.067   112997388.68048     -1751.604    21502688.693    88049912.05549
     -1364.890  
  23302928.461   122457707.42948     -2891.870    23302926.998    95421584.94446
     -2253.410  
  20856029.067   109599173.82549      1657.195    20856028.739    85401952.55047
      1291.316  
  21878457.021   114972073.04848      3263.362    21878457.696    89588631.96549
      2542.879  
  20887071.898   109762301.94149     -1947.887    20887071.788    85529064.89949
     -1517.836  
  22311743.882   117249011.02747      2923.280    22311745.022    91362870.35146
      2277.879  
  24617949.395   129368196.54746      -488.543    24617951.097   100806385.14345
      -380.687  
  23908553.729   125640290.03447      1031.612    23908556.475    97901540.84846
       803.851  
 20 10 01 04 31  5.0000000  0  8G29G 2G13G15G 5G18G 7G30
  21504356.228   113006154.73848     -1754.632    21504356.648    88056742.74349
     -1367.250  
  23305680.671   122472170.95048     -2893.374    23305679.532    95432855.20446
     -2254.582  
  20854454.021   109590896.40249      1653.895    20854453.594    85395502.59647
      1288.745  
  21875353.162   114955762.22548      3261.331    21875354.028    89575922.24349
      2541.292  
  20888926.314   109772046.33649     -1949.851    20888926.077    85536657.93449
     -1519.366  
  22308963.311   117234399.12247      2921.875    22308964.469    91351484.45046
      2276.781  
  24618415.604   129370646.93145      -491.465    24618417.080   100808294.54646
      -382.960  
  23907573.174   125635137.93647      1029.030    23907576.212    97897526.24146
       801.839  
 20 10 01 04 31 10.0000000  0  8G29G 2G13G15G 5G18G 7G30
  21506027.608   113014937.02248     -1757.905    21506028.021    88063586.07849
     -1369.801  
  23308434.437   122486641.52548     -2894.875    23308433.096    95444130.96246
     -2255.750  
  20852882.021   109582635.45549      1650.543    20852881.596    85389065.49547
      1286.132  
  21872251.158   114939461.92348      3259.164    21872252.056    89563220.71849
      2539.604  
  20890782.457   109781800.27649     -1951.737    20890782.311    85544258.40149
     -1520.840  
  22306184.061   117219794.15847      2920.215    22306185.114    91340103.95646
      2275.487  
  24618885.043   129373112.13145      -494.531    24618886.253   100810215.48445
      -385.352  
  23906595.621   125630000.36147      1026.102    23906598.398    97893522.94246
       799.554  
 20 10 01 04 31 15.0000000  0  8G29G 2G13G15G 5G18G 7G30
  21507701.636   113023734.19748     -1760.941    21507702.074    88070441.01649
     -1372.163  
  23311189.157   122501117.80548     -2895.780    23311188.100    95455411.18146
     -2256.457  
  20851312.842   109574389.67549      1647.573    20851312.546    85382640.21847
      1283.820  
  21869151.075   114923170.87848      3257.344    21869152.019    89550526.39549
      2538.188  
  20892640.115   109791562.42949     -1953.159    20892640.015    85551865.26549
     -1521.945  
  22303405.756   117205194.75547      2919.391    22303406.945    91328727.78846
      2274.847  
  24619356.666   129375590.92945      -497.398    24619357.946   100812147.01744
      -387.585  
  23905620.566   125624876.00247      1023.601    23905623.236    97889529.94545
       797.609  
 20 10 01 04 31 20.0000000  0  8G29G 2G13G15G 5G18G 7G30
  21509378.708   113032547.17248     -1764.276    21509379.057    88077308.26249
     -1374.766  
  23313945.216   122515600.71148     -2897.141    23313944.040    95466696.54646
     -2257.515  
  20849746.907   109566160.00749      1644.391    20849746.458    85376227.47547
      1281.340  
  21866053.064   114906890.00348      3255.386    21866053.950    89537840.01049
      2536.543  
  20894499.469   109801333.74349     -1955.062    20894499.431    85559479.26149
     -1523.429  
  22300628.757   117190601.86947      2918.124    22300630.001    91317356.72946
      2273.858  
  24619831.382   129378084.17445      -499.636    24619832.376   100814089.79345
      -389.331  
  23904647.963   125619765.78547      1020.426    23904650.812    97885547.96946
       795.132  
 20 10 01 04 31 25.0000000  0  8G29G 2G13G15G 5G18G 7G30
  21511058.838   113041376.25648     -1767.604    21511059.206    88084188.06549
     -1377.359  
  23316702.636   122530090.58348     -2898.749    23316701.480    95477987.36447
     -2258.769  
  20848183.797   109557946.77749      1640.844    20848183.528    85369827.56847
      1278.578  
  21862956.770   114890619.64848      3252.871    21862957.589    89525161.80649
      2534.702  
  20896360.726   109811114.53049     -1957.297    20896360.556    85567100.66149
     -1525.168  
  22297853.096   117176015.86247      2916.262    22297854.501    91305991.02346
      2272.409  
  24620308.413   129380591.99145      -502.910    24620309.264   100816043.87944
      -391.895  
  23903678.358   125614670.04047      1017.515    23903681.258    97881577.27646
       792.870  
 20 10 01 04 31 30.0000000  0  8G29G 2G13G15G 5G18G 7G30
  21512741.795   113050220.94048     -1770.277    21512742.309    88091080.02849
     -1379.441  
  23319461.190   122544586.84948     -2899.961    23319460.150    95489283.15746
     -2259.715  
  20846623.906   109549749.46349      1637.926    20846623.768    85363440.04747
      1276.301  
  21859862.536   114874359.24848      3251.125    21859863.426    89512491.37849
      2533.340  
  20898223.695   109820904.24749     -1958.815    20898223.627    85574729.00349
     -1526.354  
  22295078.812   117161436.18047      2915.397    22295080.056    91294630.22646
      2271.734  
  24620788.391   129383114.16645      -506.121    24620789.069   100818009.22544
      -394.382  
  23902711.242   125609588.21447      1015.265    23902714.194    97877617.40146
       791.112  
 20 10 01 04 31 35.0000000  0  8G29G 2G13G15G 5G18G 7G30
  21514427.991   113059081.96248     -1774.218    21514428.342    88097984.70549
     -1382.511  
  23322221.257   122559090.22248     -2901.519    23322220.032    95500584.47347
     -2260.926  
  20845067.076   109541568.76649      1634.237    20845066.949    85357065.47747
      1273.429  
  21856770.216   114858109.59148      3248.605    21856771.212    89499829.31449
      2531.379  
  20900088.376   109830703.61649     -1961.184    20900088.169    85582364.86749
     -1528.198  
  22292305.636   117146863.60747      2913.469    22292306.859    91283274.98046
      2270.229  
  24621271.002   129385651.21146      -509.042    24621271.802   100819986.18846
      -396.660  
  23901747.016   125604521.11147      1011.598    23901750.089    97873669.02446
       788.253  
 20 10 01 04 31 40.0000000  0  8G29G 2G13G15G 5G18G 7G30
  21516117.253   113067958.84148     -1776.835    21516117.570    88104901.75049
     -1384.550  
  23324982.462   122573600.26748     -2902.679    23324981.147    95511890.99647
     -2261.832  
  20843513.485   109533404.28149      1631.305    20843513.284    85350703.54447
      1271.145  
  21853679.956   114841870.22648      3246.922    21853680.943    89487175.27049
      2530.065  
  20901954.968   109840512.19049     -1962.539    20901954.678    85590007.90549
     -1529.253  
  22289533.779   117132297.68147      2912.581    22289535.081    91271924.91946
      2269.542  
  24621756.383   129388202.90145      -511.707    24621757.245   100821974.49745
      -398.734  
  23900785.381   125599468.24947      1009.034    23900788.458    97869731.74045
       786.258  
 20 10 01 04 31 45.0000000  0  8G29G 2G13G15G 5G18G 7G30
  21517809.356   113076850.96848     -1780.156    21517809.736    88111830.67049
     -1387.137  
  23327744.793   122588116.35148     -2904.117    23327743.745    95523202.21846
     -2262.953  
  20841962.775   109525255.36749      1627.979    20841962.570    85344353.75247
      1268.554  
  21850591.434   114825640.52548      3244.819    21850592.411    89474528.74749
      2528.430  
  20903823.060   109850329.33049     -1964.480    20903822.871    85597657.62749
     -1530.766  
  22286763.086   117117737.77747      2911.069    22286764.562    91260579.54446
      2268.362  
  24622244.691   129390768.38645      -514.815    24622245.453   100823973.59645
      -401.159  
  23899826.430   125594429.01847      1006.292    23899829.691    97865805.06346
       784.121  
 20 10 01 04 31 50.0000000  0  8G29G 2G13G15G 5G18G 7G30
  21519504.527   113085758.80448     -1783.351    21519504.823    88118771.83049
     -1389.629  
  23330508.252   122602638.98948     -2905.265    23330507.303    95534518.55646
     -2263.848  
  20840415.115   109517122.58049      1624.641    20840415.020    85338016.51447
      1265.948  
  21847505.023   114809421.04448      3242.617    21847506.084    89461890.19549
      2526.711  
  20905692.898   109860155.58149     -1966.473    20905692.774    85605314.44249
     -1532.320  
  22283993.739   117103184.44847      2909.617    22283995.224    91249239.28546
      2267.230  
  24622735.649   129393348.32646      -517.598    24622736.368   100825983.90545
      -403.324  
  23898870.001   125589403.95147      1003.570    23898873.405    97861889.42046
       781.999  
 20 10 01 04 31 55.0000000  0  8G29G 2G13G15G 5G18G 7G30
  21521202.741   113094682.13648     -1785.972    21521203.091    88125725.07749
     -1391.671  
  23333273.037   122617167.97048     -2906.297    23333271.998    95545839.83247
     -2264.648  
  20838870.478   109509005.70749      1621.879    20838870.376    85331691.67547
      1263.797  
  21844420.302   114793211.56948      3241.004    21844421.472    89449259.44249
      2525.453  
  20907564.477   109869990.70049     -1967.776    20907564.365    85612978.16949
     -1533.336  
  22281225.537   117088637.44847      2908.886    22281226.837    91237903.95446
      2266.660  
  24623229.261   129395942.49246      -520.137    24623230.284   100828005.34645
      -405.305  
  23897916.362   125584392.79547      1001.047    23897919.772    97857984.63846
       780.035  
 20 10 01 04 32  0.0000000  0  8G29G 2G13G15G 5G18G 7G30
  21522903.802   113103621.05648     -1789.577    21522904.027    88132690.46949
     -1394.480  
  23336039.139   122631703.37048     -2907.977    23336038.193    95557166.09446
     -2265.957  
  20837328.912   109500904.81449      1618.288    20837328.921    85325379.29847
      1260.999  
  21841337.692   114777012.12748      3238.608    21841338.798    89436636.49949
      2523.590  
  20909437.755   109879834.68849     -1969.891    20909437.423    85620648.81049
     -1534.983  
  22278458.531   117074096.85747      2907.348    22278459.926    91226573.63646
      2265.461  
  24623725.584   129398550.87446      -523.234    24623726.408   100830037.82545
      -407.719  
  23896965.424   125579395.67647       997.730    23896968.806    97854090.77946
       777.448  
 20 10 01 04 32  5.0000000  0  8G29G 2G13G15G 5G18G 7G30
  21524607.747   113112575.72148     -1792.515    21524608.157    88139668.12749
     -1396.769  
  23338806.359   122646245.33348     -2908.879    23338805.339    95568497.50046
     -2266.660  
  20835790.551   109492820.07849      1615.402    20835790.371    85319079.50647
      1258.749  
  21838256.790   114760822.97448      3236.890    21838258.113    89424021.58149
      2522.250  
  20911312.755   109889687.78749     -1971.390    20911312.443    85628326.54649
     -1536.152  
  22275692.834   117059562.89847      2906.391    22275694.206    91215248.47446
      2264.714  
  24624224.694   129401173.65145      -525.602    24624225.616   100832081.56245
      -409.563  
  23896017.170   125574412.78747       995.101    23896020.725    97850208.01446
       775.402  
 20 10 01 04 32 10.0000000  0  8G29G 2G13G15G 5G18G 7G30
  21526314.924   113121546.15048     -1795.883    21526315.208    88146658.06349
     -1399.391  
  23341574.745   122660793.92948     -2910.695    23341573.895    95579834.05646
     -2268.077  
  20834255.065   109484751.57949      1611.754    20834254.994    85312792.36247
      1255.909  
  21835178.207   114744644.12848      3234.589    21835179.397    89411414.68849
      2520.457  
  20913189.624   109899550.04749     -1973.563    20913189.161    85636011.42549
     -1537.844  
  22272928.491   117045035.61748      2904.590    22272929.696    91203928.51646
      2263.312  
  24624726.469   129403810.90746      -529.245    24624727.474   100834136.58745
      -412.402  
  23895071.805   125569444.14047       992.410    23895075.145    97846336.33646
       773.305  
 20 10 01 04 32 15.0000000  0  8G29G 2G13G15G 5G18G 7G30
  21528024.941   113130532.41448     -1798.516    21528025.174    88153660.33849
     -1401.444  
  23344344.664   122675349.16748     -2911.406    23344343.486    95591175.78746
     -2268.633  
  20832722.829   109476699.37449      1609.074    20832722.579    85306517.91247
      1253.820  
  21832101.323   114728475.68148      3233.038    21832102.644    89398815.90049
      2519.246  
  20915068.009   109909421.46649     -1974.957    20915067.605    85643703.43449
     -1538.930  
  22270165.469   117030515.05748      2903.839    22270166.373    91192613.79846
      2262.730  
  24625231.138   129406462.70946      -531.383    24625232.051   100836202.87045
      -414.066  
  23894128.889   125564489.80247       989.816    23894132.161    97842475.81846
       771.280  
 20 10 01 04 32 20.0000000  0  8G29G 2G13G15G 5G18G 7G30
  21529737.780   113139533.07248     -1801.808    21529737.812    88160673.83549
     -1404.011  
  23347115.308   122689909.62548     -2912.749    23347114.256    95602521.59546
     -2269.679  
  20831193.437   109468662.02149      1605.691    20831193.325    85300255.05647
      1251.184  
  21829026.359   114712316.23248      3230.559    21829027.839    89386224.12049
      2517.316  
  20916947.902   109919300.61849     -1976.871    20916947.531    85651401.47749
     -1540.422  
  22267403.224   117015999.82948      2902.265    22267404.366    91181303.24446
      2261.503  
  24625738.294   129409127.64146      -534.723    24625739.391   100838279.46745
      -416.672  
  23893188.686   125559548.37747       986.710    23893191.847    97838625.35746
       768.863  
 20 10 01 04 32 25.0000000  0  8G29G 2G13G15G 5G18G 7G30
  21531453.665   113148550.29448     -1804.800    21531453.869    88167700.23749
     -1406.340  
  23349887.480   122704477.48748     -2914.168    23349886.539    95613873.16447
     -2270.785  
  20829667.099   109460641.74549      1602.488    20829666.995    85294005.49147
      1248.687  
  21825953.316   114696167.96848      3228.664    21825954.983    89373641.06849
      2515.840  
  20918829.685   109929189.73749     -1978.827    20918829.402    85659107.26949
     -1541.945  
  22264642.675   117001492.11147      2900.965    22264643.531    91169998.52646
      2260.487  
  24626248.279   129411807.81846      -537.684    24626249.517   100840367.90945
      -418.977  
  23892251.301   125554622.04147       983.909    23892254.214    97834786.65646
       766.679  
 20 10 01 04 32 30.0000000  0  8G29G 2G13G15G 5G18G 7G30
  21533172.359   113157582.93448     -1808.105    21533172.600    88174738.65349
     -1408.917  
  23352660.834   122719051.62548     -2915.308    23352659.791    95625229.63646
     -2271.672  
  20828143.989   109452637.40549      1599.320    20828143.858    85287768.34647
      1246.219  
  21822882.319   114680029.76748      3226.706    21822883.833    89361065.84849
      2514.313  
  20920713.188   109939087.64449     -1980.309    20920712.743    85666819.92149
     -1543.101  
  22261883.076   116986990.78747      2899.617    22261883.922    91158698.79646
      2259.437  
  24626761.204   129414502.16645      -540.308    24626762.280   100842467.40345
      -421.022  
  23891316.377   125549709.67047       981.308    23891319.359    97830958.83546
       764.652  
 20 10 01 04 32 35.0000000  0  8G29G 2G13G15G 5G18G 7G30
  21534894.112   113166630.96248     -1811.093    21534894.504    88181789.06349
     -1411.246  
  23355435.286   122733632.00048     -2916.746    23355434.268    95636590.96746
     -2272.792  
  20826623.731   109444648.99049      1596.074    20826623.662    85281543.61447
      1243.690  
  21819813.225   114663901.63548      3224.559    21819814.892    89348498.48349
      2512.640  
  20922598.403   109948994.38849     -1982.269    20922598.047    85674539.45849
     -1544.628  
  22259124.780   116972495.84447      2898.195    22259125.757    91147404.04046
      2258.332  
  24627276.527   129417210.64246      -543.261    24627277.555   100844577.93145
      -423.319  
  23890384.313   125544811.29747       978.348    23890387.193    97827141.92446
       762.344  
 20 10 01 04 32 40.0000000  0  8G29G 2G13G15G 5G18G 7G30
  21536619.093   113175695.08348     -1814.367    21536619.355    88188852.00749
     -1413.797  
  23358211.269   122748219.32747     -2918.340    23358210.126    95647957.70646
     -2274.034  
  20825106.914   109436677.18749      1592.668    20825106.670    85275331.81747
      1241.034  
  21816746.249   114647784.18848      3222.272    21816747.892    89335939.44749
      2510.858  
  20924485.325   109958910.54449     -1984.121    20924485.066    85682266.32849
     -1546.070  
  22256367.844   116958007.98447      2896.800    22256368.674    91136114.80546
      2257.246  
  24627794.895   129419934.02845      -545.737    24627795.940   100846700.00445
      -425.258  
  23889454.937   125539927.55047       975.098    23889457.958    97823336.42646
       759.812  
 20 10 01 04 32 45.0000000  0  8G29G 2G13G15G 5G18G 7G30
  21538346.761   113184774.06748     -1817.397    21538346.897    88195926.53349
     -1416.155  
  23360988.179   122762812.36947     -2919.254    23360986.957    95659328.89446
     -2274.746  
  20823592.758   109428720.80949      1589.621    20823592.829    85269132.04947
      1238.664  
  21813680.994   114631676.29448      3220.602    21813682.594    89323387.84249
      2509.585  
  20926373.748   109968834.96249     -1985.765    20926373.558    85689999.64049
     -1547.352  
  22253612.008   116943525.99847      2895.819    22253613.019    91124830.14246
      2256.480  
  24628315.546   129422670.94446      -548.722    24628316.560   100848832.67045
      -427.578  
  23888528.235   125535057.25947       972.531    23888531.209    97819541.38945
       757.812  
 20 10 01 04 32 50.0000000  0  8G29G 2G13G15G 5G18G 7G30
  21540077.313   113193868.77348     -1820.441    21540077.614    88203013.31249
     -1418.526  
  23363766.430   122777412.05247     -2920.473    23363765.313    95670705.26646
     -2275.695  
  20822081.835   109420780.70049      1586.496    20822081.692    85262944.94647
      1236.226  
  21810617.614   114615578.84348      3218.581    21810619.507    89310844.38849
      2507.984  
  20928264.105   109978768.54548     -1987.508    20928263.999    85697740.08749
     -1548.711  
  22250857.543   116929050.78348      2894.577    22250858.343    91113550.76646
      2255.511  
  24628839.264   129425422.31946      -551.043    24628839.975   100850976.59344
      -429.386  
  23887604.206   125530201.30147       969.851    23887607.169    97815757.53746
       755.727  
 20 10 01 04 32 55.0000000  0  8G29G 2G13G15G 5G18G 7G30
  21541811.121   113202979.21848     -1823.871    21541811.288    88210112.35549
     -1421.203  
  23366545.809   122792018.31747     -2922.117    23366544.599    95682086.76046
     -2276.976  
  20820573.964   109412856.87449      1583.073    20820573.945    85256770.53547
      1233.563  
  21807556.360   114599491.77748      3216.327    21807558.363    89298309.01549
      2506.227  
  20930156.167   109988711.27249     -1989.539    20930155.937    85705487.66349
     -1550.293  
  22248104.404   116914582.34348      2892.913    22248105.152    91102276.66146
      2254.214  
  24629365.617   129428188.29046      -554.659    24629366.214   100853131.95145
      -432.202  
  23886682.844   125525359.66547       966.933    23886685.737    97811984.83046
       753.452  
 20 10 01 04 33  0.0000000  0  8G29G 2G13G15G 5G18G 7G30
  21543547.777   113212105.34548     -1826.516    21543547.895    88217223.62749
     -1423.261  
  23369326.549   122806631.17447     -2922.952    23369325.392    95693473.39346
     -2277.628  
  20819069.322   109404949.36449      1580.069    20819069.128    85250608.84447
      1231.219  
  21804497.207   114583415.19948      3214.519    21804498.909    89285781.81249
      2504.844  
  20932049.959   109998663.11949     -1990.887    20932049.832    85713242.34649
     -1551.343  
  22245352.433   116900120.66947      2891.999    22245353.172    91091007.82346
      2253.504  
  24629894.717   129430968.76345      -557.297    24629895.452   100855298.53044
      -434.262  
  23885764.361   125520532.41147       964.145    23885767.318    97808223.33946
       751.277  
 20 10 01 04 33  5.0000000  0  8G29G 2G13G15G 5G18G 7G30
  21545287.272   113221246.76248     -1829.831    21545287.440    88224346.80449
     -1425.848  
  23372108.444   122821250.19147     -2924.335    23372107.167    95704864.82646
     -2278.706  
  20817567.531   109397057.71349      1576.816    20817567.482    85244459.51147
      1228.683  
  21801439.786   114567348.65548      3212.270    21801441.647    89273262.42949
      2503.063  
  20933945.279   110008623.62649     -1992.878    20933945.176    85721003.77649
     -1552.894  
  22242601.733   116885665.36247      2890.508    22242602.423    91079743.96646
      2252.339  
  24630426.629   129433763.23046      -560.355    24630427.373   100857476.00144
      -436.645  
  23884848.518   125515719.09247       961.159    23884851.298    97804472.70446
       748.953  
 20 10 01 04 33 10.0000000  0  8G29G 2G13G15G 5G18G 7G30
  21547029.796   113230403.88248     -1833.121    21547030.157    88231482.22049
     -1428.409  
  23374891.464   122835875.78147     -2925.733    23374890.405    95716261.37946
     -2279.797  
  20816068.989   109389182.38649      1573.473    20816068.730    85238322.90047
      1226.078  
  21798384.432   114551292.63148      3210.124    21798386.340    89260751.24049
      2501.394  
  20935842.521   110018593.20149     -1994.820    20935842.467    85728772.27049
     -1554.410  
  22239852.192   116871216.89547      2889.003    22239853.087    91068485.42546
      2251.168  
  24630961.219   129436572.17645      -563.242    24630961.768   100859664.79045
      -438.894  
  23883935.349   125510920.14047       958.538    23883938.140    97800733.25546
       746.910  
 20 10 01 04 33 15.0000000  0  8G29G 2G13G15G 5G18G 7G30
  21548775.350   113239576.42348     -1836.070    21548775.572    88238629.65149
     -1430.707  
  23377675.815   122850507.67447     -2927.175    23377674.585    95727662.84646
     -2280.917  
  20814573.487   109381323.09149      1570.250    20814573.193    85232198.77147
      1223.565  
  21795331.003   114535246.81548      3208.093    21795333.009    89248248.01849
      2499.871  
  20937741.243   110028571.58449     -1996.742    20937741.207    85736547.63649
     -1555.906  
  22237104.020   116856774.97047      2887.585    22237104.690    91057231.98046
      2250.062  
  24631498.435   129439395.32446      -566.304    24631499.022   100861864.63145
      -441.281  
  23883024.815   125506135.28347       955.491    23883027.475    97797004.80046
       744.535  
 20 10 01 04 33 20.0000000  0  7G29G 2G13G15G 5G18G30
  21550523.743   113248764.85748     -1839.026    21550524.163    88245789.46749
     -1433.011  
  23380461.512   122865146.29748     -2928.016    23380460.288    95739069.55446
     -2281.573  
  20813081.037   109373480.34049      1567.065    20813080.808    85226087.54647
      1221.086  
  21792279.652   114519211.73048      3206.047    21792281.612    89235753.14949
      2498.215  
  20939641.895   110038559.26349     -1998.241    20939641.892    85744330.24749
     -1557.073  
  22234357.369   116842340.06148      2886.543    22234358.012    91045984.01246
      2249.249  
  23882116.935   125501364.99846       952.879    23882119.782    97793287.69646
       742.499  
 20 10 01 04 33 25.0000000  0  8G29G 2G13G15G 5G18G 7G30
  21552274.801   113257966.10248     -1842.487    21552275.155    88252959.26649
     -1435.706  
  23383247.798   122879788.70648     -2929.934    23383246.720    95750479.21646
     -2283.066  
  20811591.246   109365651.09049      1563.340    20811590.909    85219986.84947
      1218.184  
  21789229.833   114503184.35448      3203.616    21789231.675    89223264.29149
      2496.319  
  20941543.704   110048553.11949     -2000.593    20941543.543    85752117.66149
     -1558.906  
  22231611.295   116827909.19048      2884.616    22231611.861    91034739.17146
      2247.750  
  24632579.929   129445082.55555      -572.151    24632582.372   100866306.29954
      -445.823  
  23881211.510   125496606.29647       949.651    23881214.179    97789579.62446
       739.984  
 20 10 01 04 33 30.0000000  0  8G29G 2G13G15G 5G18G 7G30
  21554029.656   113267188.02048     -1845.590    21554030.072    88260145.17249
     -1438.124  
  23386036.361   122894442.64247     -2931.055    23386035.049    95761897.86146
     -2283.941  
  20810105.437   109357843.17549      1560.249    20810105.094    85213902.74647
      1215.776  
  21786182.870   114487172.48748      3201.547    21786184.673    89210787.51549
      2494.706  
  20943448.166   110058561.04149     -2002.362    20943448.132    85759916.04249
     -1560.284  
  22228867.483   116813490.14348      2883.433    22228867.900    91023503.54946
      2246.827  
  24633126.012   129447951.42545      -575.098    24633128.318   100868541.79644
      -448.132  
  23880309.510   125491866.97847       946.632    23880312.329    97785886.66546
       737.632  
 20 10 01 04 33 35.0000000  0  8G29G 2G13G15G 5G18G 7G30
  21555787.184   113276424.01948     -1848.413    21555787.654    88267342.05149
     -1440.323  
  23388825.848   122909101.58647     -2931.933    23388824.566    95773320.40846
     -2284.625  
  20808622.501   109350050.04649      1557.449    20808622.254    85207830.17047
      1213.593  
  21783137.653   114471169.54648      3200.023    21783139.384    89198317.69249
      2493.523  
  20945353.961   110068576.43349     -2003.438    20945353.953    85767720.24549
     -1561.125  
  22226124.630   116799076.35148      2882.534    22226125.177    91012272.02346
      2246.129  
  24633674.956   129450833.20845      -577.425    24633676.052   100870787.32844
      -449.945  
  23879410.151   125487140.47047       944.145    23879412.895    97782203.66645
       735.694  
 20 10 01 04 33 40.0000000  0  8G29G 2G13G15G 5G18G 7G30
  21557546.977   113285672.29448     -1851.148    21557547.450    88274548.49749
     -1442.456  
  23391615.934   122923763.68147     -2932.805    23391614.615    95784745.40846
     -2285.304  
  20807141.849   109342269.94749      1554.464    20807141.604    85201767.75247
      1211.269  
  21780093.763   114455173.82648      3198.313    21780095.563    89185853.50349
      2492.187  
  20947260.866   110078597.54049     -2005.101    20947260.776    85775528.90049
     -1562.422  
  22223382.543   116784666.08748      2881.491    22223382.913    91001043.25546
      2245.316  
  24634225.975   129453726.14447      -579.858    24634226.561   100873041.57246
      -451.839  
  23878512.854   125482425.01646       941.722    23878515.690    97778529.29346
       733.808  
 20 10 01 04 33 45.0000000  0  8G29G 2G13G15G 5G18G 7G30
  21559309.804   113294936.79048     -1854.555    21559310.386    88281767.58149
     -1445.108  
  23394407.333   122938432.89647     -2934.461    23394405.875    95796175.96346
     -2286.598  
  20805664.605   109334506.75749      1550.906    20805664.381    85195718.51747
      1208.495  
  21777052.166   114439189.25248      3195.715    21777053.685    89173397.99249
      2490.163  
  20949169.707   110088628.25449     -2007.179    20949169.817    85783345.03849
     -1564.039  
  22220641.772   116770263.27148      2879.769    22220642.157    90989820.28746
      2243.972  
  24634779.466   129456634.10646      -583.402    24634780.109   100875307.51145
      -454.601  
  23877618.174   125477724.56647       938.612    23877621.130    97774866.62345
       731.383  
 20 10 01 04 33 50.0000000  0  8G29G 2G13G15G 5G18G 7G30
  21561076.058   113304218.02148     -1857.718    21561076.514    88288999.70649
     -1447.578  
  23397200.224   122953109.72947     -2935.890    23397198.927    95807612.45146
     -2287.710  
  20804190.780   109326761.06949      1547.566    20804190.335    85189682.92247
      1205.894  
  21774012.685   114423216.35948      3193.641    21774014.251    89160951.58049
      2488.547  
  20951080.427   110098669.06149     -2009.051    20951080.563    85791169.03849
     -1565.496  
  22217902.489   116755868.42948      2878.418    22217902.888    90978603.52946
      2242.917  
  24635335.932   129459557.63346      -585.844    24635336.215   100877585.57745
      -456.504  
  23876726.505   125473039.59746       935.672    23876729.516    97771215.99146
       729.090  
 20 10 01 04 33 55.0000000  0  8G29G 2G13G15G 5G18G 7G30
  21562844.823   113313513.56648     -1860.636    21562845.335    88296242.98249
     -1449.852  
  23399994.029   122967791.83747     -2937.093    23399992.837    95819053.04746
     -2288.647  
  20802719.618   109319030.49649      1544.401    20802719.470    85183659.10047
      1203.425  
  21770974.900   114407252.81948      3191.609    21770976.537    89148512.46249
      2486.965  
  20952992.490   110108717.61649     -2010.758    20952992.739    85798999.08049
     -1566.828  
  22215164.404   116741479.19848      2877.050    22215164.770    90967391.14646
      2241.855  
  24635895.047   129462494.36446      -588.788    24635895.021   100879873.94945
      -458.801  
  23875837.399   125468367.84047       932.851    23875840.512    97767575.66545
       726.895  
 20 10 01 04 34  0.0000000  0  8G29G 2G13G15G 5G18G 7G30
  21564616.605   113322824.78148     -1863.609    21564617.337    88303498.46849
     -1452.167  
  23402789.141   122982480.53047     -2938.484    23402787.800    95830498.76446
     -2289.729  
  20801251.698   109311316.40349      1541.202    20801251.549    85177648.11747
      1200.933  
  21767939.228   114391299.90848      3189.604    21767940.792    89136081.62349
      2485.401  
  20954906.464   110118775.33449     -2012.480    20954906.621    85806836.26049
     -1568.168  
  22212427.418   116727096.95748      2875.816    22212427.930    90956184.21046
      2240.894  
  24636456.820   129465445.72246      -591.535    24636456.892   100882173.68845
      -460.940  
  23874951.114   125463710.53946       929.906    23874954.313    97763946.61245
       724.597  
 20 10 01 04 34  5.0000000  0  8G29G 2G13G15G 5G18G 7G30
  21566391.649   113332152.73248     -1867.354    21566392.271    88310766.99849
     -1455.085  
  23405585.584   122997176.90647     -2940.164    23405584.525    95841950.48246
     -2291.038  
  20799787.005   109303619.85749      1537.363    20799786.786    85171650.81247
      1197.941  
  21764905.822   114375358.72348      3186.858    21764907.226    89123659.92749
      2483.266  
  20956822.343   110128843.19149     -2014.809    20956822.440    85814681.34449
     -1569.984  
  22209692.152   116712722.75348      2873.969    22209692.543    90944983.54146
      2239.453  
  24637021.191   129468412.63846      -595.214    24637021.700   100884485.57445
      -463.808  
  23874067.668   125459068.84147       926.390    23874070.964    97760329.69545
       721.858  
 20 10 01 04 34 10.0000000  0  8G29G 2G13G15G 5G18G 7G30
  21568169.940   113341497.27448     -1870.280    21568170.624    88318048.46049
     -1457.362  
  23408383.545   123011880.79047     -2941.297    23408382.623    95853408.03546
     -2291.922  
  20798325.734   109295940.69849      1534.437    20798325.689    85165667.05247
      1195.664  
  21761874.704   114359429.15348      3185.004    21761876.100    89111247.28549
      2481.815  
  20958740.103   110138921.05749     -2016.319    20958740.224    85822534.22749
     -1571.160  
  22206958.403   116698356.49348      2872.706    22206958.887    90933789.05247
      2238.468  
  24637588.495   129471394.99645      -597.827    24637589.084   100886809.51145
      -465.843  
  23873187.336   125454442.60347       923.945    23873190.622    97756724.84245
       719.952  
 20 10 01 04 34 15.0000000  0  8G29G 2G13G15G 5G18G 7G30
  21569950.886   113350856.11848     -1873.417    21569951.667    88325341.06549
     -1459.809  
  23411182.487   123026589.92247     -2942.597    23411181.492    95864869.68745
     -2292.937  
  20796867.311   109288276.66949      1531.027    20796867.265    85159695.08147
      1193.004  
  21758845.083   114343508.94548      3182.734    21758846.431    89098841.92449
      2480.051  
  20960659.185   110149006.68048     -2018.245    20960659.462    85830393.15449
     -1572.664  
  22204225.604   116683995.88348      2871.183    22204225.909    90922598.96446
      2237.281  
  24638158.301   129474390.53646      -600.726    24638159.257   100889143.71045
      -468.102  
  23872309.460   125449829.52446       920.941    23872312.851    97753130.23345
       717.612  
 20 10 01 04 34 20.0000000  0  8G29G 2G13G15G 5G18G 7G30
  21571734.721   113360230.51648     -1876.461    21571735.396    88332645.79249
     -1462.180  
  23413982.768   123041305.59347     -2943.551    23413981.828    95876336.43745
     -2293.680  
  20795412.119   109280629.05249      1527.957    20795411.789    85153735.90147
      1190.612  
  21755817.742   114327599.38348      3181.059    21755818.945    89086444.87349
      2478.742  
  20962580.179   110159101.32049     -2019.851    20962580.422    85838259.10149
     -1573.913  
  22201494.279   116669642.23648      2870.117    22201494.640    90911414.31046
      2236.452  
  24638731.091   129477400.53246      -603.406    24638732.212   100891489.14645
      -470.191  
  23871434.281   125445230.95746       918.339    23871437.598    97749546.93846
       715.585  
 20 10 01 04 34 25.0000000  0  8G29G 2G13G15G 5G18G 7G30
  21573521.397   113369619.40448     -1879.352    21573522.048    88339961.80649
     -1464.433  
  23416784.050   123056026.64847     -2944.714    23416783.204    95887807.38846
     -2294.586  
  20793959.600   109272996.82349      1524.680    20793959.488    85147788.71947
      1188.059  
  21752792.087   114311699.39748      3178.918    21752793.416    89074055.27549
      2477.073  
  20964502.517   110169203.87349     -2021.285    20964502.843    85846131.21949
     -1575.031  
  22198763.950   116655294.47648      2868.944    22198764.321    90900234.23546
      2235.538  
  24639306.314   129480423.88145      -605.941    24639307.579   100893845.05345
      -472.156  
  23870561.813   125440645.76547       915.840    23870565.231    97745974.05445
       713.636  
 20 10 01 04 34 30.0000000  0  8G29G 2G13G15G 5G18G 7G30
  21575310.904   113379023.54648     -1882.859    21575311.642    88347289.70649
     -1467.167  
  23419586.515   123070753.91848     -2946.292    23419585.832    95899283.18146
     -2295.815  
  20792510.319   109265380.67549      1521.512    20792510.355    85141854.07647
      1185.589  
  21749768.308   114295809.76848      3176.703    21749769.598    89061673.74649
      2475.391  
  20966426.802   110179315.14849     -2023.226    20966426.991    85854010.12749
     -1576.543  
  22196034.946   116640953.33848      2867.234    22196035.265    90889059.33246
      2234.206  
  24639884.564   129483461.63745      -609.409    24639885.951   100896212.11045
      -474.870  
  23869691.990   125436074.71747       912.477    23869695.261    97742412.20545
       711.016  
 20 10 01 04 34 35.0000000  0  7G29G 2G13G15G 5G18G30
  21577102.876   113388440.23448     -1885.390    21577103.667    88354627.37249
     -1469.140  
  23422389.763   123085484.68148     -2947.289    23422388.999    95910761.67847
     -2296.597  
  20791063.524   109257777.96849      1518.406    20791063.439    85135929.88447
      1183.172  
  21746746.089   114279927.80448      3174.726    21746747.477    89049298.19549
      2473.809  
  20968352.029   110189432.37749     -2024.902    20968352.085    85861893.68849
     -1577.847  
  22193306.699   116626616.21348      2866.112    22193306.911    90877887.55346
      2233.331  
  23868824.457   125431515.20747       909.917    23868827.501    97738859.34045
       709.023  
 20 10 01 04 34 40.0000000  0  8G29G 2G13G15G 5G18G 7G30
  21578899.043   113397879.68948     -1888.258    21578899.830    88361982.79849
     -1471.371  
  23425195.727   123100229.15447     -2948.042    23425194.832    95922250.87746
     -2297.180  
  20789621.302   109250198.94449      1515.343    20789621.368    85130024.15747
      1180.785  
  21743727.258   114264063.77448      3173.059    21743728.539    89036936.61849
      2472.456  
  20970280.297   110199565.81149     -2026.358    20970280.343    85869789.86349
     -1578.984  
  22190581.149   116612293.25548      2865.098    22190581.226    90866726.79846
      2232.539  
  24641049.766   129489584.34555      -613.823    24641049.379   100900977.71454
      -478.305  
  23867960.930   125426977.37747       907.363    23867963.945    97735323.34946
       707.030  
 20 10 01 04 34 45.0000000  0  7G29G 2G13G15G 5G18G30
  21580696.733   113407326.73648     -1890.824    21580697.726    88369344.13049
     -1473.370  
  23428001.334   123114972.18648     -2949.016    23428000.451    95933738.95147
     -2297.938  
  20788180.787   109242628.45849      1512.574    20788180.778    85124125.08947
      1178.625  
  21740709.007   114248202.50848      3171.452    21740710.361    89024577.18349
      2471.258  
  20972208.960   110209700.37649     -2027.788    20972208.840    85877686.92749
     -1580.097  
  22187855.393   116597969.40748      2864.172    22187855.567    90855565.36846
      2231.820  
  23867098.719   125422446.20946       905.034    23867101.646    97731792.59845
       705.218  
 20 10 01 04 34 50.0000000  0  8G29G 2G13G15G 5G18G 7G30
  21582497.665   113416790.29248     -1895.434    21582498.522    88376718.34149
     -1476.965  
  23430808.231   123129722.71647     -2951.914    23430807.438    95945232.84346
     -2300.198  
  20786743.495   109235075.37549      1508.015    20786743.351    85118239.56647
      1175.073  
  21737692.836   114232352.88848      3167.883    21737694.124    89012226.85649
      2468.477  
  20974139.321   110219844.83749     -2030.839    20974139.290    85885591.70249
     -1582.477  
  22185131.137   116583653.53148      2861.492    22185131.398    90844410.13346
      2229.729  
  24642222.748   129495758.87955      -621.016    24642223.939   100905788.18554
      -483.895  
  23866239.348   125417930.43047       901.089    23866242.206    97728273.80145
       702.145  
 20 10 01 04 34 55.0000000  0  8G29G 2G13G15G 5G18G 7G30
  21584302.968   113426277.65948     -1898.909    21584303.961    88384111.09149
     -1479.671  
  23433617.923   123144487.96847     -2953.469    23433617.337    95956738.22246
     -2301.406  
  20785310.972   109227547.07349      1504.219    20785310.778    85112373.35647
      1172.116  
  21734680.476   114216522.26648      3165.281    21734681.788    88999891.31049
      2466.449  
  20976073.074   110230006.58749     -2033.148    20976072.925    85893509.95549
     -1584.272  
  22182409.754   116569352.97348      2859.523    22182409.926    90833266.84846
      2228.195  
  24642815.113   129498874.31045      -624.530    24642816.423   100908215.78045
      -486.652  
  23865384.323   125413437.52646       897.254    23865387.290    97724772.84446
       699.156  
 20 10 01 04 35  0.0000000  0  7G29G 2G13G15G 5G18G30
  21586110.547   113435776.46048     -1899.605    21586111.344    88391512.74149
     -1480.214  
  23436428.236   123159255.60448     -2952.531    23436427.517    95968245.47046
     -2300.675  
  20783880.721   109220031.17649      1503.172    20783880.399    85106516.81847
      1171.300  
  21731669.279   114200698.32148      3165.539    21731670.424    88987560.96749
      2466.652  
  20978007.794   110240173.36148     -2032.562    20978007.802    85901432.11149
     -1583.816  
  22179689.132   116555055.34948      2860.508    22179689.204    90822125.85047
      2228.965  
  23864531.385   125408955.24346       896.612    23864534.684    97721280.15943
       698.655  
 20 10 01 04 35  5.0000000  0  7G29G 2G13G15G 5G18G30
  21587919.339   113445281.44648     -1902.890    21587920.200    88398919.20549
     -1482.773  
  23439237.967   123174020.30948     -2953.883    23439237.236    95979750.42646
     -2301.729  
  20782451.791   109212522.34749      1500.000    20782451.527    85100665.79347
      1168.827  
  21728658.276   114184875.73548      3163.233    21728659.539    88975231.67649
      2464.854  
  20979942.327   110250339.65249     -2034.371    20979942.206    85909353.89049
     -1585.226  
  22176967.911   116540755.36448      2859.266    22176968.209    90810983.01846
      2227.996  
  23863679.305   125404477.72047       893.703    23863682.793    97717791.18346
       696.391  
 20 10 01 04 35 10.0000000  0  8G29G 2G13G15G 5G18G 7G30
  21589732.869   113454811.29648     -1908.922    21589733.688    88406345.07449
     -1487.476  
  23442050.529   123188800.92448     -2958.019    23442049.845    95991267.77446
     -2304.952  
  20781027.814   109205039.39149      1493.633    20781027.514    85094834.91647
      1163.866  
  21725651.302   114169073.29648      3158.031    21725652.572    88962918.08749
      2460.801  
  20981880.473   110260524.24249     -2039.163    20981880.292    85917289.93549
     -1588.961  
  22174249.728   116526471.80847      2854.715    22174249.870    90799852.96946
      2224.448  
  24644604.969   129508274.56555      -633.718    24644604.821   100915555.22155
      -493.808  
  23862831.995   125400024.29747       887.629    23862835.128    97714320.98145
       691.655  
 20 10 01 04 35 15.0000000  0  8G29G 2G13G15G 5G18G 7G30
  21591550.014   113464360.42848     -1910.140    21591550.587    88413785.93949
     -1488.425  
  23444865.199   123203591.77248     -2957.398    23444864.550    96002793.11746
     -2304.468  
  20779607.638   109197576.75449      1492.039    20779607.405    85089019.87247
      1162.624  
  21722646.972   114153285.40248      3157.776    21722648.013    88950615.82949
      2460.602  
  20983820.905   110270721.62349     -2039.180    20983820.826    85925235.94349
     -1588.973  
  22171533.813   116512199.14248      2855.027    22171534.084    90788731.43647
      2224.695  
  24645209.383   129511447.50046      -635.004    24645210.722   100918027.65645
      -494.812  
  23861988.083   125395589.19447       887.179    23861991.374    97710865.07645
       691.305  
 20 10 01 04 35 20.0000000  0  8G29G 2G13G15G 5G18G 7G30
  21593368.688   113473917.31248     -1912.991    21593369.211    88421232.86849
     -1490.644  
  23447679.717   123218381.44348     -2958.555    23447678.806    96014317.52646
     -2305.371  
  20778189.189   109190122.94449      1489.007    20778188.988    85083211.72147
      1160.261  
  21719643.193   114137500.77948      3155.887    21719644.433    88938316.13649
      2459.128  
  20985761.718   110280920.22449     -2040.628    20985761.601    85933182.90249
     -1590.105  
  22168817.515   116497925.84048      2854.155    22168817.985    90777609.36946
      2224.015  
  24645814.888   129514627.23146      -637.063    24645815.561   100920505.33944
      -496.418  
  23861145.475   125391161.04147       884.414    23861148.569    97707414.58645
       689.156  
 20 10 01 04 35 25.0000000  0  8G29G 2G13G15G 5G18G 7G30
  21595190.011   113483488.98748     -1915.878    21595190.796    88428691.33249
     -1492.894  
  23450495.109   123233176.86448     -2959.812    23450494.233    96025846.41346
     -2306.352  
  20776773.778   109182684.96949      1485.789    20776773.480    85077415.89047
      1157.753  
  21716641.518   114121726.24748      3153.746    21716642.549    88926024.30049
      2457.461  
  20987704.045   110291127.06549     -2042.281    20987704.083    85941136.29249
     -1591.391  
  22166102.564   116483658.98547      2852.647    22166103.135    90766492.32846
      2222.840  
  24646422.536   129517820.69446      -640.188    24646423.511   100922993.76545
      -498.851  
  23860305.300   125386746.76846       881.312    23860308.473    97703974.87545
       686.734  
 20 10 01 04 35 30.0000000  0  8G29G 2G13G15G 5G18G 7G30
  21597014.548   113493076.77848     -1918.961    21597015.298    88436162.33049
     -1495.297  
  23453312.118   123247979.44148     -2961.113    23453310.931    96037380.88346
     -2307.363  
  20775361.823   109175264.18849      1482.512    20775361.400    85071633.47147
      1155.199  
  21713641.920   114105963.13248      3151.648    21713642.868    88913741.35849
      2455.827  
  20989648.078   110301343.56049     -2044.163    20989648.267    85949097.18249
     -1592.858  
  22163389.107   116469399.89147      2851.129    22163389.738    90755381.35746
      2221.656  
  24647033.366   129521029.31545      -643.488    24647033.909   100925493.95944
      -501.426  
  23859468.138   125382347.73447       878.718    23859471.552    97700547.07645
       684.711  
 20 10 01 04 35 35.0000000  0  8G29G 2G13G15G 5G18G 7G30
  21598841.726   113502678.66548     -1921.648    21598842.492    88443644.28849
     -1497.390  
  23456130.060   123262787.01748     -2961.823    23456128.914    96048919.27346
     -2307.917  
  20773952.514   109167858.56749      1479.675    20773952.072    85065862.85047
      1152.992  
  21710644.025   114090209.46148      3149.909    21710644.889    88901465.75949
      2454.472  
  20991593.660   110311567.60149     -2045.487    20991593.666    85957063.95149
     -1593.891  
  22160676.850   116455146.51147      2850.378    22160677.339    90744274.85147
      2221.070  
  24647646.982   129524251.07547      -645.526    24647647.708   100928004.42846
      -503.011  
  23858633.510   125377961.88946       876.108    23858636.794    97697129.53546
       682.679  
 20 10 01 04 35 40.0000000  0  8G29G 2G13G15G 5G18G 7G30
  21600671.926   113512296.02448     -1925.363    21600672.615    88451138.33649
     -1500.284  
  23458949.144   123277601.15148     -2963.788    23458947.839    96060462.73546
     -2309.453  
  20772546.413   109160469.51949      1475.816    20772546.151    85060105.15347
      1149.983  
  21707648.239   114074466.62448      3147.254    21707649.112    88889198.61649
      2452.339  
  20993540.993   110321800.59349     -2047.772    20993540.986    85965037.71749
     -1595.672  
  22157965.936   116440900.27948      2848.441    22157966.408    90733173.88546
      2219.563  
  24648262.788   129527487.25446      -648.921    24648263.535   100930526.13745
      -505.655  
  23857801.692   125373590.68647       872.448    23857804.963    97693723.42246
       679.827  
 20 10 01 04 35 45.0000000  0  8G29G 2G13G15G 5G18G 7G30
  21602505.169   113521930.56248     -1928.215    21602505.925    88458645.78149
     -1502.508  
  23461769.714   123292423.53348     -2964.980    23461768.555    96072012.62846
     -2310.379  
  20771143.756   109153098.78749      1472.815    20771143.398    85054361.73847
      1147.644  
  21704654.881   114058736.41848      3145.055    21704655.763    88876941.32049
      2450.703  
  20995490.370   110332044.35549     -2049.438    20995490.279    85973019.86849
     -1596.969  
  22155256.497   116426662.98648      2846.995    22155257.158    90722079.89346
      2218.434  
  24648881.690   129530739.66646      -651.589    24648882.243   100933060.48544
      -507.733  
  23856972.980   125369235.90146       869.679    23856976.302    97690330.06746
       677.667  
 20 10 01 04 35 50.0000000  0  8G29G 2G13G15G 5G18G 7G30
  21604341.460   113531580.86548     -1931.835    21604342.422    88466165.49249
     -1505.328  
  23464591.610   123307252.60448     -2966.484    23464590.522    96083567.73745
     -2311.551  
  20769744.322   109145744.92949      1468.914    20769744.052    85048631.46247
      1144.605  
  21701663.598   114043017.40548      3142.402    21701664.353    88864692.74749
      2448.620  
  20997441.477   110342297.36749     -2051.598    20997441.537    85981009.22749
     -1598.651  
  22152548.804   116412433.15348      2845.039    22152549.371    90710991.70946
      2216.909  
  24649503.016   129534006.84946      -655.672    24649504.175   100935606.38044
      -510.913  
  23856147.294   125364896.01947       866.371    23856150.219    97686948.36445
       675.094  
 20 10 01 04 35 55.0000000  0  8G29G 2G13G15G 5G18G 7G30
  21606181.019   113541247.06448     -1934.558    21606181.818    88473697.57349
     -1507.452  
  23467414.876   123322088.58948     -2967.792    23467413.935    96095128.23745
     -2312.570  
  20768348.317   109138408.05949      1465.844    20768347.906    85042914.41747
      1142.210  
  21698674.433   114027309.70548      3140.613    21698675.148    88852452.98549
      2447.226  
  20999394.312   110352559.71149     -2053.229    20999394.259    85989005.85949
     -1599.921  
  22149842.251   116398210.93647      2843.621    22149842.997    90699909.46746
      2215.804  
  24650127.261   129537288.87146      -657.479    24650128.498   100938163.81645
      -512.324  
  23855324.229   125360571.19046       863.769    23855327.117    97683578.33945
       673.063  
 20 10 01 04 36  0.0000000  0  8G29G 2G13G15G 5G18G 7G30
  21608023.046   113550927.20248     -1937.667    21608023.903    88481240.53749
     -1509.875  
  23470239.093   123336929.54548     -2968.769    23470238.037    96106692.61846
     -2313.332  
  20766954.969   109131086.31349      1462.601    20766954.686    85037209.16447
      1139.688  
  21695687.182   114011611.43648      3138.464    21695687.896    88840220.56049
      2445.554  
  21001348.642   110362829.53049     -2054.847    21001348.676    85997008.30749
     -1601.184  
  22147137.014   116383994.40948      2842.710    22147137.666    90688831.65146
      2215.097  
  24650754.226   129540584.00146      -660.570    24650755.419   100940731.42145
      -514.738  
  23854503.633   125356259.58247       860.765    23854506.492    97680218.64146
       670.722  
 20 10 01 04 36  5.0000000  0  8G29G 2G13G15G 5G18G 7G30
  21609867.944   113560622.73548     -1940.539    21609868.907    88488795.49249
     -1512.112  
  23473064.469   123351776.96348     -2970.133    23473063.616    96118262.01546
     -2314.390  
  20765564.878   109123781.17649      1459.473    20765564.413    85031516.85147
      1137.249  
  21692702.018   113995924.07848      3136.465    21692702.594    88827996.65449
      2443.996  
  21003304.676   110373108.27849     -2056.570    21003304.552    86005017.72849
     -1602.527  
  22144433.088   116369785.09147      2841.254    22144433.784    90677759.45747
      2213.961  
  24651383.734   129543893.52846      -663.226    24651385.177   100943310.33045
      -516.801  
  23853685.955   125351962.59247       857.977    23853688.820    97676870.34845
       668.550  
 20 10 01 04 36 10.0000000  0  8G29G 2G13G15G 5G18G 7G30
  21611715.687   113570332.91048     -1943.679    21611716.578    88496361.86449
     -1514.558  
  23475891.131   123366630.02048     -2971.582    23475889.963    96129835.80946
     -2315.523  
  20764177.637   109116491.86549      1455.983    20764177.288    85025836.87047
      1134.530  
  21689718.559   113980246.86448      3134.245    21689719.260    88815780.64949
      2442.265  
  21005262.202   110383395.14849     -2058.499    21005262.108    86013033.47149
     -1604.026  
  22141730.286   116355582.14247      2839.641    22141731.138    90666692.23046
      2212.702  
  24652015.928   129547216.70046      -666.042    24652017.169   100945899.79645
      -518.996  
  23852870.960   125347679.45446       855.121    23852873.634    97673532.82745
       666.323  
 20 10 01 04 36 15.0000000  0  8G29G 2G13G15G 5G18G 7G30
  21613566.506   113580058.18548     -1946.543    21613567.421    88503940.00749
     -1516.788  
  23478718.721   123381489.22848     -2972.430    23478717.739    96141414.42146
     -2316.183  
  20762793.619   109109218.83349      1452.996    20762793.345    85020169.57447
      1132.203  
  21686737.394   113964580.26348      3132.261    21686737.906    88803572.91049
      2440.690  
  21007221.258   110393690.62049     -2059.969    21007221.113    86021055.92349
     -1605.171  
  22139028.875   116341386.13548      2838.422    22139029.728    90655630.40646
      2211.753  
  24652651.078   129550554.09146      -668.862    24652652.211   100948500.37144
      -521.191  
  23852058.606   125343410.72147       852.136    23852061.385    97670206.55344
       663.999  
 20 10 01 04 36 20.0000000  0  8G29G 2G13G15G 5G18G 7G30
  21615419.985   113589798.37848     -1949.382    21615420.679    88511529.75849
     -1519.004  
  23481547.446   123396354.37548     -2973.680    23481546.463    96152997.63746
     -2317.156  
  20761412.649   109101961.94049      1449.750    20761412.296    85014514.84647
      1129.672  
  21683758.149   113948924.16648      3130.265    21683758.743    88791373.36249
      2439.163  
  21009182.017   110403994.53848     -2061.695    21009181.853    86029084.95049
     -1606.520  
  22136328.598   116327196.86447      2837.172    22136329.548    90644573.84247
      2210.781  
  24653288.763   129553905.39746      -671.148    24653289.653   100951111.77844
      -522.976  
  23851249.035   125339156.14846       849.327    23851251.829    97666891.30946
       661.812  
 20 10 01 04 36 25.0000000  0  8G29G 2G13G15G 5G18G 7G30
  21617276.290   113599553.60748     -1952.722    21617277.101    88519131.24349
     -1521.604  
  23484377.349   123411225.61648     -2974.945    23484376.414    96164585.59546
     -2318.140  
  20760034.905   109094721.31649      1446.394    20760034.422    85008872.80747
      1127.059  
  21680780.799   113933278.68148      3127.819    21680781.569    88779182.08249
      2437.257  
  21011144.498   110414307.04249     -2063.468    21011144.308    86037120.65949
     -1607.901  
  22133629.807   116313014.46447      2835.741    22133630.764    90633522.61346
      2209.667  
  24653929.093   129557270.95146      -674.491    24653930.252   100953734.26844
      -525.586  
  23850441.964   125334915.89946       846.706    23850444.994    97663587.20545
       659.769  
 20 10 01 04 36 30.0000000  0  8G29G 2G13G15G 5G18G 7G30
  21619135.861   113609325.12648     -1955.930    21619136.466    88526745.40949
     -1524.104  
  23487208.809   123426104.16248     -2976.250    23487207.803    96176179.25346
     -2319.160  
  20758660.401   109087498.21849      1442.891    20758659.958    85003244.42247
      1124.328  
  21677805.906   113917645.04248      3125.691    21677806.588    88767000.03049
      2435.601  
  21013108.707   110424629.37249     -2065.340    21013108.741    86045164.02749
     -1609.359  
  22130932.500   116298840.21047      2834.141    22130933.496    90622477.75446
      2208.418  
  24654572.494   129560651.73146      -677.473    24654573.403   100956368.64645
      -527.901  
  23849638.131   125330691.25746       843.468    23849641.104    97660295.28246
       657.246  
 20 10 01 04 36 35.0000000  0  8G29G 2G13G15G 5G18G 7G30
  21620998.100   113619111.29048     -1958.750    21620998.768    88534371.00549
     -1526.301  
  23490041.173   123440988.43148     -2977.539    23490040.185    96187777.38546
     -2320.164  
  20757288.942   109080291.05849      1439.784    20757288.412    84997628.44947
      1121.905  
  21674832.726   113902021.75348      3123.628    21674833.581    88754826.03549
      2433.992  
  21015074.454   110434959.85249     -2066.854    21015074.397    86053213.74549
     -1610.539  
  22128236.398   116284672.53747      2832.753    22128237.482    90611437.99546
      2207.335  
  24655218.525   129564046.36646      -680.395    24655219.308   100959013.80145
      -530.180  
  23848836.676   125326480.61846       840.684    23848839.895    97657014.24945
       655.074  
 20 10 01 04 36 40.0000000  0  8G29G 2G13G15G 5G18G 7G30
  21622863.011   113628911.99048     -1961.730    21622863.501    88542007.90149
     -1528.625  
  23492874.671   123455878.21648     -2978.484    23492873.555    96199379.81146
     -2320.898  
  20755920.330   109073099.67249      1436.737    20755919.808    84992024.77547
      1119.531  
  21671861.658   113886408.58948      3121.586    21671862.299    88742659.94349
      2432.402  
  21017041.912   110445298.34849     -2068.351    21017041.755    86061269.71649
     -1611.706  
  22125541.622   116270511.26448      2831.659    22125542.891    90600403.25046
      2206.483  
  24655867.106   129567454.52546      -683.109    24655867.946   100961669.52144
      -532.297  
  23848037.915   125322283.78646       837.995    23848041.287    97653744.02045
       652.984  
 20 10 01 04 36 45.0000000  0  8G29G 2G13G15G 5G18G 7G30
  21624730.966   113638727.84948     -1964.761    21624731.451    88549656.62549
     -1530.987  
  23495709.342   123470774.26348     -2979.890    23495708.387    96210987.10046
     -2321.996  
  20754554.959   109065924.75749      1433.175    20754554.376    84986433.93547
      1116.757  
  21668892.662   113870806.25548      3119.296    21668893.466    88730502.28749
      2430.604  
  21019010.883   110455645.61149     -2070.472    21019010.796    86069332.51649
     -1613.359  
  22122848.152   116256357.10847      2830.008    22122849.538    90589374.04546
      2205.198  
  24656518.290   129570876.99046      -686.070    24656519.224   100964336.36244
      -534.601  
  23847242.070   125318101.53346       835.022    23847245.436    97650485.11145
       650.663  
 20 10 01 04 36 50.0000000  0  8G29G 2G13G15G 5G18G 7G30
  21626601.947   113648559.64248     -1967.897    21626602.343    88557317.77249
     -1533.429  
  23498545.373   123485677.27248     -2981.168    23498544.168    96222599.83446
     -2322.991  
  20753193.011   109058767.04949      1429.934    20753192.386    84980856.50247
      1114.230  
  21665925.772   113855215.51448      3117.046    21665926.602    88718353.66349
      2428.871  
  21020981.749   110466002.30149     -2072.151    21020981.569    86077402.66149
     -1614.668  
  22120156.033   116242210.80247      2828.516    22120157.407    90578350.93946
      2204.035  
  24657172.580   129574314.46246      -688.987    24657173.310   100967014.92345
      -536.879  
  23846449.033   125313934.59146       831.934    23846452.599    97647238.13945
       648.257  
 20 10 01 04 36 55.0000000  0  8G29G 2G13G15G 5G18G 7G30
  21628475.585   113658405.64148     -1970.852    21628475.941    88564989.96749
     -1535.730  
  23501382.318   123500585.54747     -2982.309    23501381.066    96234216.67545
     -2323.878  
  20751833.739   109051624.90049      1426.691    20751833.350    84975291.19447
      1111.703  
  21662960.797   113839634.65548      3115.074    21662961.649    88706212.73849
      2427.328  
  21022953.954   110476366.71349     -2073.777    21022953.813    86085478.82649
     -1615.934  
  22117465.269   116228070.65347      2827.483    22117466.713    90567332.65246
      2203.230  
  24657829.228   129577765.26346      -691.784    24657830.013   100969703.88745
      -539.051  
  23845658.767   125309781.18747       828.773    23845662.195    97644001.72246
       645.793  
 20 10 01 04 37  0.0000000  0  8G29G 2G13G15G 5G18G 7G30
  21630352.269   113668267.43648     -1973.925    21630352.728    88572674.46949
     -1538.129  
  23504220.503   123515500.68747     -2983.542    23504219.148    96245838.86845
     -2324.844  
  20750477.888   109044499.94649      1423.378    20750477.517    84969739.28647
      1109.124  
  21659998.118   113824065.33048      3112.726    21659998.875    88694080.80049
      2425.496  
  21024928.050   110486740.50149     -2075.604    21024928.002    86093562.29849
     -1617.358  
  22114776.004   116213938.31047      2825.847    22114777.488    90556320.44646
      2201.957  
  24658488.826   129581231.00645      -694.569    24658489.874   100972404.47244
      -541.226  
  23844871.215   125305642.98146       826.628    23844874.826    97640777.13945
       644.125  
 20 10 01 04 37  5.0000000  0  8G29G 2G13G15G 5G18G 7G30
  21632231.828   113678144.11348     -1976.945    21632232.202    88580370.57249
     -1540.479  
  23507059.803   123530421.77747     -2984.883    23507058.466    96257465.68145
     -2325.887  
  20749125.272   109037391.21349      1419.887    20749124.845    84964200.00947
      1106.402  
  21657037.364   113808506.61548      3110.448    21657038.297    88681957.13349
      2423.722  
  21026903.698   110497122.69849     -2077.440    21026903.675    86101652.31949
     -1618.789  
  22112087.907   116199812.85847      2824.183    22112089.497    90545313.60246
      2200.660  
  24659150.810   129584710.82046      -697.601    24659152.198   100975116.01644
      -543.590  
  23844086.657   125301519.10046       823.398    23844089.870    97637563.72245
       641.605  
 20 10 01 04 37 10.0000000  0  8G29G 2G13G15G 5G18G 7G30
  21634114.210   113688036.41348     -1979.542    21634114.595    88588078.84449
     -1542.504  
  23509900.385   123545349.60647     -2985.891    23509899.051    96269097.74545
     -2326.671  
  20747775.720   109030299.45949      1416.819    20747775.156    84958673.97747
      1104.011  
  21654078.870   113792959.31648      3108.406    21654079.646    88669842.35649
      2422.133  
  21028881.201   110507514.10749     -2079.120    21028881.040    86109749.51649
     -1620.098  
  22109401.507   116185695.04647      2822.930    22109402.940    90534312.72746
      2199.683  
  24659815.953   129588205.35446      -700.245    24659817.129   100977839.04745
      -545.647  
  23843304.748   125297410.35646       820.395    23843308.046    97634362.12445
       639.265  
 20 10 01 04 37 15.0000000  0  8G29G 2G13G15G 5G18G 7G30
  21635999.479   113697943.53348     -1983.020    21635999.946    88595798.69549
     -1545.214  
  23512742.119   123560283.33247     -2987.355    23512740.846    96280734.42145
     -2327.812  
  20746429.175   109023223.88249      1413.425    20746428.827    84953160.54647
      1101.367  
  21651122.273   113777422.57348      3106.261    21651122.978    88657735.79849
      2420.426  
  21030860.054   110517913.86449     -2080.887    21030860.108    86117853.22149
     -1621.473  
  22106716.234   116171584.12247      2821.398    22106717.857    90523317.19546
      2198.488  
  24660483.526   129591713.88446      -703.301    24660484.633   100980572.95845
      -548.030  
  23842525.500   125293315.85046       817.160    23842528.730    97631171.58246
       636.745  
 20 10 01 04 37 20.0000000  0  8G29G 2G13G15G 5G18G 7G30
  21637887.581   113707865.45548     -1986.066    21637888.214    88603530.05749
     -1547.585  
  23515584.798   123575222.92747     -2988.313    23515583.570    96292375.64845
     -2328.558  
  20745085.879   109016164.50049      1410.171    20745085.439    84947659.72247
      1098.832  
  21648167.772   113761896.44048      3104.030    21648168.525    88645637.52249
      2418.652  
  21032840.613   110528321.99049     -2082.469    21032840.632    86125963.44649
     -1622.706  
  22104032.118   116157479.99647      2820.054    22104033.707    90512326.95646
      2197.440  
  24661153.982   129595236.30746      -705.922    24661154.974   100983317.70345
      -550.070  
  23841749.137   125289235.53346       814.566    23841752.380    97627992.12045
       634.722  
 20 10 01 04 37 25.0000000  0  8G29G 2G13G15G 5G18G 7G30
  21639778.557   113717802.41248     -1988.777    21639779.192    88611273.13849
     -1549.698  
  23518428.831   123590168.67147     -2989.749    23518427.496    96304021.67745
     -2329.680  
  20743745.655   109009121.57449      1406.979    20743745.231    84942171.73047
      1096.344  
  21645215.365   113746381.18948      3102.074    21645215.986    88633547.71649
      2417.199  
  21034822.876   110538738.75549     -2084.090    21034822.867    86134080.39849
     -1623.968  
  22101349.517   116143382.98947      2818.612    22101351.244    90501342.28346
      2196.319  
  24661826.869   129598772.97746      -708.804    24661827.980   100986073.58144
      -552.320  
  23840975.384   125285169.78246       811.296    23840978.663    97624824.03645
       632.179  
 20 10 01 04 37 30.0000000  0  8G29G 2G13G15G 5G18G 7G30
  21641672.402   113727754.13248     -1991.983    21641672.844    88619027.73349
     -1552.198  
  23521274.106   123605120.22247     -2991.034    23521272.749    96315672.23246
     -2330.679  
  20742408.457   109002094.80149      1403.655    20742408.161    84936696.31147
      1093.753  
  21642264.849   113730876.49648      3099.729    21642265.682    88621466.15049
      2415.370  
  21036806.683   110549163.85749     -2085.991    21036806.583    86142203.85149
     -1625.452  
  22098668.237   116129292.80247      2817.203    22098669.784    90490362.93546
      2195.219  
  24662502.617   129602323.52646      -711.555    24662503.645   100988840.22445
      -554.461  
  23840204.452   125281118.22246       808.547    23840207.460    97621666.96246
       630.035  
 20 10 01 04 37 35.0000000  0  8G29G 2G13G15G 5G18G 7G30
  21643569.112   113737721.25748     -1994.921    21643569.654    88626794.32249
     -1554.488  
  23524120.562   123620078.26647     -2992.027    23524119.044    96327327.83545
     -2331.453  
  20741074.461   108995084.91849      1400.491    20741074.249    84931234.06847
      1091.289  
  21639316.612   113715383.12648      3097.647    21639317.349    88609393.40649
      2413.749  
  21038792.190   110559597.95749     -2087.620    21038792.263    86150334.32049
     -1626.723  
  22095988.472   116115210.16547      2815.891    22095989.976    90479389.44446
      2194.199  
  24663181.038   129605888.65646      -714.188    24663181.921   100991618.24243
      -556.511  
  23839436.139   125277081.58846       806.046    23839439.387    97618521.55045
       628.085  
 20 10 01 04 37 40.0000000  0  8G29G 2G13G15G 5G18G 7G30
  21645468.446   113747702.79248     -1998.296    21645469.155    88634572.11649
     -1557.116  
  23526967.928   123635041.80547     -2993.277    23526966.616    96338987.72645
     -2332.425  
  20739743.518   108988090.88849      1396.902    20739743.309    84925784.18747
      1088.492  
  21636370.293   113699900.01948      3095.281    21636370.974    88597328.65149
      2411.901  
  21040779.412   110570040.03649     -2089.565    21040779.417    86158471.00549
     -1628.237  
  22093309.883   116101134.05647      2814.477    22093311.392    90468421.05646
      2193.093  
  24663862.061   129609467.45646      -717.745    24663862.683   100994406.91443
      -559.284  
  23838670.583   125273058.90746       803.190    23838673.719    97615386.95745
       625.855  
 20 10 01 04 37 45.0000000  0  8G29G 2G13G15G 5G18G 7G30
  21647370.992   113757700.64448     -2000.980    21647371.599    88642362.65149
     -1559.207  
  23529816.795   123650012.82947     -2994.781    23529815.659    96350653.45545
     -2333.597  
  20738415.997   108981114.65649      1393.726    20738415.768    84920348.16147
      1086.015  
  21633426.269   113684429.13348      3093.164    21633427.032    88585273.42049
      2410.269  
  21042768.384   110580492.02949     -2091.202    21042768.287    86166615.40949
     -1629.511  
  22090632.775   116087066.44547      2812.733    22090634.298    90457459.27346
      2191.737  
  24664546.013   129613061.67746      -719.952    24664546.640   100997207.57145
      -561.008  
  23837908.267   125269052.09846       800.180    23837911.240    97612264.79445
       623.511  
 20 10 01 04 37 50.0000000  0  8G29G 2G13G15G 5G18G 7G30
  21649276.210   113767712.72848     -2003.938    21649276.974    88650164.28249
     -1561.511  
  23532666.819   123664989.15047     -2995.866    23532665.610    96362323.31046
     -2334.445  
  20737091.517   108974154.15749      1390.391    20737091.163    84914924.40347
      1083.417  
  21630484.168   113668968.40948      3090.863    21630485.039    88573226.10549
      2408.461  
  21044758.667   110590951.81649     -2092.969    21044758.603    86174765.89049
     -1630.887  
  22087957.033   116073005.19947      2811.167    22087958.428    90446502.47146
      2190.516  
  24665232.617   129616669.36746      -722.960    24665233.096   101000018.77544
      -563.348  
  23837148.455   125265059.10346       796.905    23837151.480    97609153.36146
       620.961  
 20 10 01 04 37 55.0000000  0  8G29G 2G13G15G 5G18G 7G30
  21651184.276   113777739.58848     -2006.813    21651185.012    88657977.40949
     -1563.753  
  23535517.816   123679971.36147     -2997.406    23535516.585    96373997.76446
     -2335.644  
  20735769.895   108967209.95649      1387.094    20735769.708    84909513.32947
      1080.848  
  21627544.143   113653518.35348      3088.804    21627545.001    88561187.10949
      2406.848  
  21046750.690   110601419.93749     -2094.652    21046750.620    86182922.86749
     -1632.199  
  22085282.409   116058950.92547      2809.979    22085284.011    90435551.08845
      2189.593  
  24665921.829   129620291.01646      -725.780    24665922.094   101002840.85744
      -565.546  
  23836391.209   125261080.40346       794.270    23836394.543    97606053.07946
       618.906  
 20 10 01 04 38  0.0000000  0  8G29G 2G13G15G 5G18G 7G30
  21653095.207   113787781.69448     -2009.945    21653095.968    88665802.42349
     -1566.195  
  23538369.926   123694959.92647     -2997.917    23538368.996    96385677.16246
     -2336.042  
  20734451.723   108960282.47449      1383.938    20734451.445    84904115.29347
      1078.390  
  21624606.226   113638079.49248      3086.753    21624606.934    88549156.84149
      2405.258  
  21048744.394   110611896.92449     -2096.054    21048744.363    86191086.75349
     -1633.292  
  22082609.529   116044904.09447      2809.082    22082610.773    90424605.50145
      2188.890  
  24666613.713   129623927.10846      -728.496    24666614.125   101005674.17044
      -567.664  
  23835636.868   125257116.56346       791.211    23835640.269    97602964.36046
       616.523  
 20 10 01 04 38  5.0000000  0  8G29G 2G13G15G 5G18G 7G30
  21655008.975   113797838.70548     -2013.144    21655009.857    88673639.04249
     -1568.687  
  23541223.324   123709954.57047     -2999.706    23541222.339    96397361.27946
     -2337.438  
  20733136.606   108953371.45949      1380.375    20733136.348    84898730.09747
      1075.613  
  21621670.395   113622651.56748      3084.250    21621671.302    88537135.07749
      2403.308  
  21050739.814   110622382.42449     -2098.133    21050739.809    86199257.27149
     -1634.909  
  22079937.774   116030864.46047      2807.210    22079939.061    90413665.53345
      2187.433  
  24667308.218   129627577.35046      -731.390    24667308.624   101008518.49744
      -569.918  
  23834885.424   125253167.26246       788.378    23834888.653    97599886.99346
       614.315  
 20 10 01 04 38 10.0000000  0  8G29G 2G13G15G 5G18G 7G30
  21656925.815   113807911.20448     -2016.136    21656926.421    88681487.74049
     -1571.020  
  23544077.911   123724955.77947     -3000.972    23544076.935    96409050.53145
     -2338.422  
  20731824.723   108946477.49549      1377.031    20731824.414    84893358.16847
      1073.007  
  21618736.831   113607235.14448      3082.066    21618737.627    88525122.29149
      2401.604  
  21052736.758   110632876.99749     -2099.909    21052736.743    86207434.85149
     -1636.296  
  22077267.537   116016832.58347      2805.741    22077268.761    90402731.60146
      2186.289  
  24668005.567   129631242.38046      -734.726    24668005.978   101011374.39044
      -572.516  
  23834136.806   125249233.06246       785.492    23834140.209    97596821.39746
       612.069  
 20 10 01 04 38 15.0000000  0  8G29G 2G13G15G 5G18G 7G30
  21658845.284   113817998.48948     -2018.831    21658845.931    88689347.96749
     -1573.117  
  23546933.646   123739962.95447     -3002.202    23546932.738    96420744.44045
     -2339.382  
  20730515.892   108939599.82449      1373.925    20730515.412    84887998.95847
      1070.590  
  21615805.189   113591829.44948      3080.394    21615805.883    88513117.85349
      2400.304  
  21054735.422   110643379.89149     -2101.343    21054735.378    86215618.92649
     -1637.413  
  22074598.664   116002807.68247      2804.418    22074600.013    90391803.12046
      2185.258  
  24668705.688   129634921.32347      -737.199    24668706.045   101014241.10845
      -574.445  
  23833390.844   125245313.28646       783.078    23833394.412    97593767.01446
       610.188  
 20 10 01 04 38 20.0000000  0  8G29G 2G13G15G 5G18G 7G30
  21660767.469   113828099.88748     -2021.464    21660768.368    88697219.18149
     -1575.172  
  23549790.393   123754975.42047     -3003.331    23549789.403    96432442.44145
     -2340.261  
  20729210.095   108932737.90749      1370.828    20729209.891    84882652.00647
      1068.176  
  21612875.452   113576433.98548      3078.152    21612876.324    88501121.39249
      2398.558  
  21056735.571   110653890.55949     -2102.851    21056735.696    86223809.05049
     -1638.589  
  22071931.115   115988789.24447      2803.081    22071932.248    90380879.66246
      2184.215  
  24669408.357   129638613.71847      -739.820    24669408.667   101017118.32045
      -576.483  
  23832647.592   125241407.28146       779.570    23832651.048    97590723.40846
       607.457  
 20 10 01 04 38 25.0000000  0  8G29G 2G13G15G 5G18G 7G30
  21662692.717   113838216.88548     -2024.886    21662693.499    88705102.55249
     -1577.835  
  23552648.229   123769994.54347     -3004.409    23552647.222    96444145.64145
     -2341.101  
  20727907.748   108925893.12549      1367.156    20727907.304    84877318.41347
      1065.312  
  21609948.186   113561050.09748      3075.684    21609948.723    88489133.95149
      2396.633  
  21058737.441   110664410.36349     -2104.832    21058737.479    86232006.30049
     -1640.132  
  22069264.923   115974778.65647      2801.370    22069266.223    90369962.32946
      2182.882  
  24670113.909   129642320.91847      -742.710    24670114.510   101020007.03645
      -578.738  
  23831907.240   125237516.55046       776.737    23831910.633    97587691.65546
       605.246  
 20 10 01 04 38 30.0000000  0  8G29G 2G13G15G 5G18G 7G30
  21664620.783   113848348.31548     -2027.883    21664621.560    88712997.17049
     -1580.171  
  23555507.365   123785019.27847     -3005.578    23555506.352    96455853.23745
     -2342.011  
  20726608.251   108919064.43749      1364.023    20726607.865    84871997.36247
      1062.870  
  21607022.585   113545676.77448      3073.453    21607023.309    88477154.74449
      2394.895  
  21060740.847   110674938.23849     -2106.433    21060740.706    86240209.83749
     -1641.378  
  22066600.047   115960774.85347      2800.128    22066601.394    90359050.26746
      2181.914  
  24670822.079   129646041.78147      -745.491    24670822.630   101022906.38845
      -580.905  
  23831169.526   125233639.96046       773.508    23831172.960    97584670.94646
       602.729  
 20 10 01 04 38 35.0000000  0  8G29G 2G13G15G 5G18G 7G30
  21666551.701   113858495.04548     -2030.925    21666552.302    88720903.70749
     -1582.542  
  23558367.592   123800050.49647     -3006.539    23558366.577    96467565.85146
     -2342.762  
  20725311.980   108912252.70949      1360.663    20725311.605    84866689.51947
      1060.254  
  21604099.297   113530314.91548      3071.418    21604100.086    88465184.47749
      2393.308  
  21062745.974   110685475.06649     -2108.198    21062745.882    86248420.35149
     -1642.753  
  22063936.714   115946778.75747      2798.461    22063938.075    90348144.23546
      2180.617  
  24671533.085   129649777.30046      -748.488    24671533.691   101025817.22244
      -583.237  
  23830434.888   125229778.35046       770.746    23830438.181    97581661.89746
       600.578  
 20 10 01 04 38 40.0000000  0  8G29G 2G13G15G 5G18G 7G30
  21668485.110   113868655.96048     -2033.621    21668485.992    88728821.31149
     -1584.645  
  23561228.990   123815087.09047     -3008.054    23561228.010    96479282.66045
     -2343.940  
  20724018.750   108905456.86549      1357.566    20724018.528    84861394.05647
      1057.840  
  21601178.095   113514963.39548      3069.292    21601178.822    88453222.26549
      2391.733  
  21064752.431   110696019.72549     -2109.808    21064752.286    86256636.96249
     -1644.012  
  22061274.722   115932789.20847      2796.983    22061275.930    90337243.28946
      2179.464  
  24672246.630   129653526.25647      -751.301    24672247.147   101028738.48744
      -585.433  
  23829702.659   125225930.70845       768.375    23829706.014    97578663.73346
       598.729  
 20 10 01 04 38 45.0000000  0  8G29G 2G13G15G 5G18G 7G30
  21670421.809   113878832.25848     -2036.737    21670422.348    88736750.89649
     -1587.069  
  23564091.607   123830130.14747     -3009.223    23564090.546    96491004.51545
     -2344.852  
  20722728.977   108898678.02849      1354.140    20722728.424    84856111.85747
      1055.171  
  21598258.974   113499623.34548      3066.995    21598259.474    88441268.99049
      2389.863  
  21066760.793   110706573.36349     -2111.655    21066760.684    86264860.57649
     -1645.449  
  22058614.057   115918807.38347      2795.855    22058615.277    90326348.35945
      2178.586  
  24672962.750   129657289.80447      -754.327    24672963.553   101031671.11145
      -587.792  
  23828973.485   125222098.09646       765.503    23828976.717    97575677.29346
       596.496  
 20 10 01 04 38 50.0000000  0  8G29G 2G13G15G 5G18G 7G30
  21672361.171   113889023.17148     -2039.531    21672361.668    88744691.86849
     -1589.250  
  23566955.145   123845178.98647     -3010.343    23566954.130    96502730.88245
     -2345.727  
  20721442.033   108891915.49849      1350.952    20721441.701    84850842.34847
      1052.687  
  21595341.940   113484294.09948      3064.812    21595342.622    88429324.12649
      2388.163  
  21068770.655   110717135.28849     -2113.055    21068770.557    86273090.64149
     -1646.538  
  22055954.682   115904832.64547      2794.504    22055955.913    90315458.96146
      2177.531  
  24673681.778   129661067.29147      -756.707    24673682.394   101034614.61445
      -589.645  
  23828246.791   125218279.94945       762.219    23828250.182    97572702.09745
       593.933  
 20 10 01 04 38 55.0000000  0  8G29G 2G13G15G 5G18G 7G30
  21674303.348   113899229.25948     -2042.780    21674303.904    88752644.65549
     -1591.781  
  23569820.241   123860234.29047     -3011.891    23569819.201    96514462.27345
     -2346.930  
  20720158.342   108885169.87849      1347.425    20720158.188    84845586.01647
      1049.937  
  21592426.998   113468976.29248      3062.418    21592427.719    88417388.17749
      2386.296  
  21070782.244   110727706.07249     -2115.019    21070782.125    86281327.61349
     -1648.070  
  22053296.889   115890865.59847      2792.479    22053298.186    90304575.54346
      2175.956  
  24674403.451   129664859.33347      -759.980    24674404.072   101037569.45344
      -592.195  
  23827523.058   125214476.76546       759.030    23827526.397    97569738.57046
       591.449  
 20 10 01 04 39  0.0000000  0  8G29G 2G13G15G 5G18G 7G30
  21676248.395   113909450.39248     -2045.473    21676249.069    88760609.15749
     -1593.879  
  23572686.260   123875295.79147     -3012.745    23572685.158    96526198.51346
     -2347.597  
  20718877.877   108878440.98949      1344.210    20718877.617    84840342.72947
      1047.433  
  21589514.168   113453669.70148      3060.625    21589514.761    88405460.97849
      2384.898  
  21072795.380   110738285.51849     -2116.379    21072795.420    86289571.34249
     -1649.129  
  22050640.431   115876905.97347      2791.147    22050641.631    90293697.92646
      2174.918  
  24675127.771   129668665.66147      -762.426    24675128.412   101040535.40845
      -594.101  
  23826802.196   125210688.39245       755.995    23826805.559    97566786.57646
       589.086  
 20 10 01 04 39  5.0000000  0  8G29G 2G13G15G 5G18G 7G30
  21678198.002   113919695.64448     -2050.706    21678198.641    88768592.48449
     -1597.956  
  23575555.255   123890372.58947     -3016.046    23575554.081    96537946.64946
     -2350.171  
  20717602.356   108871737.92549      1338.812    20717602.143    84835119.56347
      1043.227  
  21586605.307   113438383.47448      3055.968    21586605.922    88393549.64449
      2381.269  
  21074811.958   110748882.71049     -2120.491    21074811.868    86297828.89249
     -1652.335  
  22047987.195   115862962.97147      2787.761    22047988.533    90282833.24646
      2172.276  
  24675856.634   129672495.42546      -767.633    24675857.043   101043519.65645
      -598.159  
  23826085.641   125206923.96745       751.000    23826089.293    97563853.30445
       585.195  
 20 10 01 04 39 10.0000000  0  9G29G 2G13G15G 5G18G 7G30G20
  21680149.103   113929948.15648     -2050.898    21680149.682    88776581.45249
     -1598.105  
  23578423.878   123905447.80547     -3014.594    23578422.852    96549693.56745
     -2349.038  
  20716328.526   108865043.80849      1338.145    20716328.372    84829903.37248
      1042.707  
  21583697.041   113423100.74548      3056.444    21583697.829    88381641.02049
      2381.641  
  21076828.705   110759480.75649     -2119.378    21076828.837    86306087.10749
     -1651.469  
  22045333.969   115849019.67247      2788.854    22045335.193    90271968.35546
      2173.133  
  24676586.589   129676331.79847      -767.569    24676587.197   101046509.01444
      -598.109  
  23825370.571   125203166.56045       751.132    23825374.238    97560925.46146
       585.296  
  24649549.255   129534252.49356      3343.854    24649549.497   100935778.02954
      2605.597  
 20 10 01 04 39 15.0000000  0  9G29G 2G13G15G 5G18G 7G30G20
  21682101.725   113940209.56948     -2054.159    21682102.401    88784577.32449
     -1600.647  
  23581292.743   123920523.07147     -3016.116    23581291.585    96561440.52046
     -2350.222  
  20715056.802   108858360.35249      1334.699    20715056.546    84824695.48647
      1040.022  
  21580789.933   113407823.13348      3054.112    21580790.468    88369736.39449
      2379.777  
  21078846.035   110770081.39249     -2121.386    21078846.025    86314347.33949
     -1653.030  
  22042680.931   115835077.77247      2787.270    22042682.052    90261104.53246
      2171.894  
  24677318.320   129680176.35447      -770.898    24677318.579   101049504.77844
      -600.703  
  23824657.123   125199417.79946       747.780    23824660.988    97558004.35145
       582.684  
  24646367.108   129517534.10645      3343.160    24646367.102   100922750.77841
      2605.073  
 20 10 01 04 39 20.0000000  0  9G29G 2G13G15G 5G18G 7G30G20
  21684057.611   113950487.50548     -2057.394    21684058.294    88792586.12949
     -1603.167  
  23584162.934   123935606.02547     -3017.434    23584161.874    96573193.46445
     -2351.250  
  20713788.498   108851695.18349      1331.101    20713788.135    84819501.83947
      1037.218  
  21577885.086   113392558.36948      3051.516    21577885.587    88357841.79949
      2377.805  
  21080865.279   110780692.21949     -2123.219    21080865.168    86322615.52049
     -1654.460  
  22040029.613   115821144.87647      2785.577    22040030.593    90250247.74946
      2170.582  
  24678052.873   129684036.76847      -773.964    24678053.083   101052512.88445
      -603.093  
  23823946.871   125195685.52746       744.926    23823950.712    97555096.04946
       580.452  
  24643186.465   129500818.74246      3342.522    24643186.069   100909725.79044
      2604.559  
 20 10 01 04 39 25.0000000  0  8G29G 2G13G15G 5G18G 7G20
  21686016.509   113960781.36648     -2060.176    21686017.102    88800607.30949
     -1605.335  
  23587034.525   123950696.15047     -3018.499    23587033.326    96584951.98945
     -2352.082  
  20712523.421   108845047.75449      1327.819    20712523.381    84814322.03747
      1034.659  
  21574982.519   113377305.86948      3049.359    21574983.139    88345956.72649
      2376.120  
  21082886.211   110791312.62949     -2124.979    21082886.270    86330891.15449
     -1655.832  
  22037379.986   115807220.52447      2783.917    22037380.806    90239397.59646
      2169.285  
  24678790.487   129687912.48546      -776.523    24678790.604   101055532.94345
      -605.086  
  24640005.998   129484105.77845      3342.352    24640006.010   100896702.70043
      2604.426  
 20 10 01 04 39 30.0000000  0  8G29G 2G13G15G 5G18G 7G20
  21687978.048   113971089.19448     -2063.082    21687978.594    88808639.38349
     -1607.597  
  23589907.004   123965791.41147     -3019.659    23589906.082    96596714.53646
     -2352.983  
  20711261.579   108838416.06949      1324.749    20711261.321    84809154.48747
      1032.269  
  21572082.036   113362063.60748      3047.395    21572082.646    88334079.63149
      2374.590  
  21084908.655   110801940.61449     -2126.476    21084908.592    86339172.69649
     -1656.995  
  22034731.475   115793302.72147      2782.503    22034732.303    90228552.54346
      2168.183  
  24679530.615   129691801.44847      -779.159    24679530.849   101058563.31045
      -607.136  
  24636825.483   129467393.24745      3342.929    24636827.050   100883679.98542
      2604.882  
 20 10 01 04 39 35.0000000  0  9G29G 2G13G15G 5G18G 7G30G20
  21689942.453   113981412.58748     -2066.348    21689943.012    88816683.56649
     -1610.145  
  23592780.873   123980893.41447     -3021.296    23592779.982    96608482.30146
     -2354.261  
  20710002.758   108831801.70649      1321.089    20710002.672    84804000.43748
      1029.417  
  21569183.835   113346833.30048      3044.687    21569184.327    88322211.87349
      2372.480  
  21086932.833   110812577.80649     -2128.535    21086932.836    86347461.41749
     -1658.602  
  22032084.488   115779392.93347      2780.886    22032085.268    90217713.75346
      2166.921  
  24680273.573   129695705.28047      -782.327    24680273.802   101061605.23344
      -609.608  
  23821833.880   125184581.03055       735.855    23821836.085    97546439.62955
       573.386  
  24633645.713   129450682.81745      3341.828    24633646.878   100870658.86743
      2604.019  
 20 10 01 04 39 40.0000000  0  9G29G 2G13G15G 5G18G 7G30G20
  21691909.499   113991749.42348     -2067.413    21691910.065    88824738.22549
     -1610.977  
  23595655.673   123996000.12347     -3020.273    23595654.660    96620253.78746
     -2353.465  
  20708747.015   108825202.63749      1319.742    20708746.961    84798858.29047
      1028.367  
  21566287.358   113331612.80748      3044.647    21566287.982    88310351.76349
      2372.449  
  21088958.537   110823222.13749     -2128.266    21088958.324    86355755.70449
     -1658.391  
  22029438.897   115765489.25448      2781.882    22029439.476    90206879.73746
      2167.698  
  24681018.974   129699622.01447      -783.418    24681019.116   101064657.20345
      -610.457  
  23821133.589   125180904.25555       735.391    23821137.274    97543572.99054
       573.027  
  24630465.715   129433972.31745      3343.535    24630467.170   100857637.68243
      2605.347  
 20 10 01 04 39 45.0000000  0  9G29G 2G13G15G 5G18G 7G30G20
  21693878.850   114002098.77548     -2071.938    21693879.333    88832802.64049
     -1614.500  
  23598531.064   124011110.53147     -3023.273    23598530.358    96632028.09846
     -2355.800  
  20707493.891   108818617.92549      1314.680    20707493.936    84793727.36348
      1024.422  
  21563392.767   113316401.21748      3040.495    21563393.342    88298498.60449
      2369.218  
  21090985.198   110833872.65749     -2131.551    21090985.021    86364054.81149
     -1660.952  
  22026794.009   115751590.77447      2778.469    22026794.671    90196049.76546
      2165.039  
  24681766.475   129703550.62947      -787.679    24681766.662   101067718.46345
      -613.780  
  23820437.481   125177242.77945       730.238    23820440.996    97540719.90845
       569.012  
  24627285.292   129417260.79645      3341.190    24627286.903   100844615.80243
      2603.534  
 20 10 01 04 39 50.0000000  0  9G29G 2G13G15G 5G18G 7G30G20
  21695852.190   114012468.62448     -2075.464    21695852.757    88840883.07649
     -1617.246  
  23601408.749   124026232.70847     -3025.039    23601407.944    96643811.58246
     -2357.179  
  20706245.160   108812055.61149      1310.758    20706245.064    84788613.87847
      1021.367  
  21560501.217   113301206.55548      3037.695    21560501.858    88286658.58549
      2367.031  
  21093014.695   110844537.39249     -2133.948    21093014.379    86372364.97749
     -1662.819  
  22024151.742   115737705.44347      2776.281    22024152.280    90185229.99446
      2163.328  
  24682517.998   129707499.12547      -791.090    24682518.048   101070795.26345
      -616.434  
  23819744.503   125173601.77745       726.878    23819747.905    97537882.72646
       566.395  
  24624106.467   129400556.39545      3340.297    24624107.357   100831599.40642
      2602.827  
 20 10 01 04 39 55.0000000  0  9G29G 2G13G15G 5G18G 7G30G20
  21697828.420   114022853.72248     -2078.496    21697828.890    88848975.35349
     -1619.608  
  23604287.772   124041361.23247     -3026.276    23604287.033    96655600.03445
     -2358.145  
  20704999.677   108805510.33849      1307.488    20704999.608    84783513.66348
      1018.819  
  21557611.943   113286023.50348      3035.644    21557612.600    88274827.65149
      2365.433  
  21095045.700   110855210.92749     -2135.382    21095045.685    86380682.02249
     -1663.937  
  22021510.855   115723827.92947      2775.073    22021511.648    90174416.35946
      2162.391  
  24683272.160   129711462.18347      -793.695    24683272.196   101073883.34245
      -618.469  
  23819054.637   125169975.94845       723.734    23819056.940    97535057.40046
       563.945  
  24620927.978   129383853.69845      3340.828    24620928.684   100818584.30441
      2603.237  
 20 10 01 04 40  0.0000000  0  8G29G 2G13G15G 5G18G 7G30
  21699807.087   114033251.52848     -2081.020    21699807.498    88857077.55049
     -1621.578  
  23607167.364   124056493.77847     -3027.194    23607166.613    96667391.62045
     -2358.854  
  20703756.868   108798979.70349      1304.527    20703756.825    84778424.86347
      1016.511  
  21554724.416   113270849.66448      3033.867    21554725.054    88263003.88249
      2364.050  
  21097078.017   110865890.88749     -2136.878    21097078.000    86389004.07349
     -1665.105  
  22018871.114   115709955.83847      2773.995    22018871.751    90163606.95146
      2161.551  
  24684028.560   129715437.34046      -796.511    24684028.460   101076980.86944
      -620.659  
  23818367.225   125166362.79145       722.015    23818369.985    97532241.96745
       562.609  
 20 10 01 04 40  5.0000000  0  9G29G 2G13G15G 5G18G 7G30G20
  21701789.553   114043669.70848     -2084.858    21701789.998    88865195.61649
     -1624.570  
  23610049.229   124071637.86347     -3029.000    23610048.564    96679192.19746
     -2360.262  
  20702518.439   108792471.31149      1300.211    20702518.457    84773353.38947
      1013.148  
  21551840.121   113255692.65448      3030.558    21551840.911    88251193.23549
      2361.472  
  21099112.972   110876584.86949     -2139.211    21099113.019    86397337.04349
     -1666.921  
  22016233.863   115696096.83647      2771.457    22016234.506    90152807.72146
      2159.573  
  24684788.776   129719432.27147      -800.156    24684788.711   101080093.81144
      -623.496  
  23817683.583   125162770.07345       717.223    23817686.196    97529442.40346
       558.867  
  24614571.959   129350448.97215      3339.569           0.000           0.0000 
         0.000  
 20 10 01 04 40 10.0000000  0  9G29G 2G13G15G 5G18G 7G30G20
  21703773.941   114054097.07948     -2086.093    21703774.218    88873320.82349
     -1625.531  
  23612931.330   124086782.40647     -3028.573    23612930.572    96690993.13346
     -2359.929  
  20701282.101   108785974.06049      1298.636    20701282.055    84768290.59447
      1011.922  
  21548956.983   113240541.34848      3029.762    21548957.737    88239387.02649
      2360.852  
  21101148.513   110887281.77149     -2139.547    21101148.510    86405672.28649
     -1667.183  
  22013596.925   115682239.72647      2771.477    22013597.532    90142009.97046
      2159.590  
  24685550.520   129723435.73347      -801.305    24685550.650   101083213.38745
      -624.394  
  23817001.467   125159186.46545       715.934    23817004.180    97526650.00345
       557.866  
  24611393.369   129333748.36845      3341.176    24611391.887   100779551.11854
      2603.511  
 20 10 01 04 40 15.0000000  0  9G29G 2G13G15G 5G18G 7G30G20
  21705760.244   114064535.82848     -2089.249    21705760.624    88881454.88749
     -1627.988  
  23615813.782   124101929.54347     -3030.495    23615813.097    96702796.09045
     -2361.429  
  20700048.213   108779490.06149      1294.921    20700048.338    84763238.13348
      1009.026  
  21546075.180   113225397.87248      3027.441    21546075.772    88227586.92349
      2359.022  
  21103185.029   110897983.73649     -2141.547    21103184.985    86414011.47049
     -1668.742  
  22010960.792   115668386.72047      2769.722    22010961.539    90131215.42446
      2158.222  
  24686314.340   129727449.97647      -804.397    24686314.615   101086341.35445
      -626.808  
  23816321.920   125155614.26545       712.769    23816324.452    97523866.47645
       555.401  
  24608215.131   129317045.70645      3340.272    24608217.096   100766536.09941
      2602.804  
 20 10 01 04 40 20.0000000  0  9G29G 2G13G15G 5G18G 7G30G20
  21707750.172   114074992.90848     -2093.397    21707750.700    88889603.25649
     -1631.223  
  23618698.158   124117086.22747     -3032.379    23618697.285    96714606.48246
     -2362.894  
  20698818.147   108773026.30449      1290.605    20698818.289    84758201.44547
      1005.663  
  21543196.428   113210269.21148      3024.191    21543196.988    88215798.37949
      2356.508  
  21105223.843   110908697.67749     -2144.156    21105223.904    86422360.00349
     -1670.772  
  22008326.699   115654544.72147      2767.172    22008327.491    90120429.46946
      2156.234  
  24687081.479   129731481.91246      -808.429    24687081.966   101089483.12245
      -629.948  
  23815645.728   125152060.28945       708.758    23815648.081    97521097.13046
       552.273  
  24605037.597   129300347.93545      3338.671    24605040.421   100753524.86344
      2601.559  
 20 10 01 04 40 25.0000000  0  9G29G 2G13G15G 5G18G 7G30G20
  21709743.097   114085465.80148     -2095.780    21709743.439    88897763.97449
     -1633.078  
  23621583.849   124132250.01148     -3033.145    23621582.915    96726422.43846
     -2363.491  
  20697591.494   108766580.38649      1287.886    20697591.633    84753178.65248
      1003.542  
  21540319.753   113195152.99448      3022.566    21540320.355    88204019.48549
      2355.241  
  21107264.534   110919421.17749     -2145.176    21107264.297    86430715.97649
     -1671.569  
  22005694.383   115640711.36647      2766.304    22005695.177    90109650.21146
      2155.558  
  24687851.726   129735529.15246      -810.660    24687852.039   101092636.81444
      -631.688  
  23814972.468   125148522.22344       706.949    23814974.888    97518340.23546
       550.866  
  24601860.828   129283652.68044      3339.082    24601863.460   100740515.55544
      2601.874  
 20 10 01 04 40 30.0000000  0  9G29G 2G13G15G 5G18G 7G30G20
  21711738.683   114095952.11248     -2098.832    21711739.122    88905935.11849
     -1635.457  
  23624470.309   124147418.46447     -3034.382    23624469.320    96738241.96846
     -2364.461  
  20696367.718   108760149.89849      1284.249    20696367.876    84748167.88147
      1000.711  
  21537445.185   113180046.78948      3019.707    21537445.701    88192248.44349
      2353.020  
  21109306.358   110930151.81349     -2147.281    21109306.375    86439077.50749
     -1673.211  
  22003063.223   115626884.31147      2764.355    22003063.830    90098875.90846
      2154.038  
  24688624.279   129739589.28947      -813.847    24688624.786   101095800.58445
      -634.171  
  23814301.618   125144997.75644       703.453    23814304.090    97515593.86745
       548.136  
  24598683.632   129266957.49545      3338.960    24598687.457   100727506.41643
      2601.797  
 20 10 01 04 40 35.0000000  0  9G29G 2G13G15G 5G18G 7G30G20
  21713737.126   114106454.90948     -2102.496    21713737.735    88914119.07049
     -1638.315  
  23627358.266   124162594.68547     -3035.918    23627357.382    96750067.60145
     -2365.652  
  20695147.554   108753737.92549      1280.386    20695147.794    84743171.53747
       997.699  
  21534573.092   113164953.65148      3017.386    21534573.557    88180487.55749
      2351.207  
  21111350.308   110940892.65649     -2149.315    21111350.145    86447446.99549
     -1674.797  
  22000433.747   115613066.54247      2762.434    22000434.385    90088108.83346
      2152.542  
  24689399.841   129743665.36147      -816.969    24689400.472   101098976.70245
      -636.605  
  23813633.918   125141489.84345       699.789    23813636.832    97512860.43246
       545.284  
  24595507.332   129250265.52345      3338.253    24595510.428   100714499.60643
      2601.233  
 20 10 01 04 40 40.0000000  0  8G29G 2G13G15G 5G18G 7G30
  21715738.597   114116972.30348     -2105.227    21715739.023    88922314.44849
     -1640.441  
  23630247.325   124177776.79348     -3037.569    23630246.402    96761897.81146
     -2366.940  
  20693930.646   108747342.71749      1277.141    20693930.880    84738188.26047
       995.172  
  21531703.077   113149871.77748      3015.125    21531703.649    88168735.45349
      2349.445  
  21113395.779   110951641.80549     -2150.870    21113395.641    86455822.96149
     -1676.007  
  21997805.749   115599256.22347      2760.976    21997806.415    90077347.54946
      2151.406  
  24690178.104   129747755.44147      -819.820    24690178.733   101102163.80345
      -638.824  
  23812969.212   125137996.66645       696.929    23812971.870    97510138.49544
       543.063  
 20 10 01 04 40 45.0000000  0  8G29G 2G13G15G 5G18G 7G30
  21717742.932   114127505.62248     -2107.819    21717743.479    88930522.26649
     -1642.457  
  23633137.923   124192966.11147     -3038.145    23633136.919    96773733.61946
     -2367.386  
  20692717.160   108740965.46249      1274.082    20692717.117    84733218.97747
       992.789  
  21528835.551   113134802.44748      3013.027    21528836.088    88156993.11349
      2347.808  
  21115443.154   110962400.64549     -2152.319    21115443.161    86464206.46449
     -1677.136  
  21995179.339   115585454.72347      2759.823    21995180.227    90066593.12346
      2150.507  
  24690959.243   129751860.91847      -821.977    24690960.096   101105362.91445
      -640.499  
  23812307.504   125134519.55145       693.848    23812310.212    97507429.05445
       540.656  
 20 10 01 04 40 50.0000000  0  8G29G 2G13G15G 5G18G 7G30
  21719749.730   114138051.35548     -2110.733    21719750.131    88938739.70349
     -1644.729  
  23636029.113   124208159.13647     -3039.070    23636028.154    96785572.33946
     -2368.108  
  20691506.335   108734602.59649      1271.035    20691506.288    84728260.89847
       990.414  
  21525969.708   113119742.15348      3011.108    21525969.988    88145257.81949
      2346.316  
  21117491.660   110973165.62049     -2153.655    21117491.660    86472594.75449
     -1678.176  
  21992554.055   115571658.50847      2758.414    21992554.721    90055842.83446
      2149.409  
  24691742.879   129755978.26947      -824.637    24691743.768   101108571.23444
      -642.578  
  23811648.033   125131054.85545       691.164    23811650.856    97504729.31845
       538.569  
 20 10 01 04 40 55.0000000  0  8G29G 2G13G15G 5G18G 7G30
  21721759.038   114148610.80748     -2113.304    21721759.465    88946967.84049
     -1646.733  
  23638921.249   124223357.10047     -3040.085    23638920.076    96797414.89846
     -2368.901  
  20690298.562   108728255.45649      1268.023    20690298.643    84723315.07647
       988.066  
  21523105.763   113104692.27348      3009.101    21523106.135    88133530.66049
      2344.749  
  21119541.695   110983938.03249     -2155.175    21119541.626    86480988.83649
     -1679.358  
  21989929.912   115557868.89047      2757.288    21989930.683    90045097.67846
      2148.625  
  24692528.778   129760108.81847      -827.215    24692529.687   101111789.81345
      -644.589  
  23810991.736   125127604.11545       688.987    23810994.436    97502040.38944
       536.866  
 20 10 01 04 41  0.0000000  0  9G29G 2G13G15G 5G18G 7G30G20
  21723770.997   114159183.57148     -2115.409    21723771.486    88955206.35549
     -1648.375  
  23641814.149   124238559.70447     -3040.237    23641813.263    96809261.08146
     -2369.019  
  20689093.644   108721923.78849      1265.316    20689093.660    84718381.30747
       985.956  
  21520243.723   113089652.46348      3007.457    21520244.225    88121811.33949
      2343.469  
  21121592.875   110994717.52449     -2156.164    21121593.031    86489388.43449
     -1680.133  
  21987307.109   115544085.59247      2756.210    21987307.930    90034357.44446
      2147.695  
  24693317.396   129764252.18947      -829.401    24693318.175   101115018.38745
      -646.293  
  23810337.746   125124166.87646       686.816    23810340.437    97499362.02645
       535.180  
  24579629.254   129166823.84555      3338.323    24579631.942   100649475.88953
      2601.284  
 20 10 01 04 41  5.0000000  0  9G29G 2G13G15G 5G18G 7G30G20
  21725785.256   114169768.03948     -2118.753    21725785.699    88963454.00049
     -1650.979  
  23644707.816   124253765.31247     -3042.202    23644706.663    96821109.60046
     -2370.551  
  20687891.369   108715605.81849      1261.440    20687891.375    84713458.21647
       982.938  
  21517383.403   113074621.06648      3004.757    21517383.770    88110098.56449
      2341.366  
  21123645.193   111005502.37349     -2158.397    21123645.365    86497792.21249
     -1681.871  
  21984685.062   115530306.86247      2754.504    21984685.893    90023620.79747
      2146.362  
  24694107.892   129768406.68047      -832.679    24694108.719   101118255.65545
      -648.843  
  23809686.225   125120741.48346       683.004    23809688.444    97496692.88345
       532.207  
  24576453.648   129150133.76945      3337.280    24576456.302   100636470.64544
      2600.476  
 20 10 01 04 41 10.0000000  0  9G29G 2G13G15G 5G18G 7G30G20
  21727802.716   114180370.92547     -2122.430    21727803.091    88971715.97849
     -1653.843  
  23647603.223   124268980.62047     -3043.944    23647602.065    96832965.69445
     -2371.910  
  20686693.102   108709308.38549      1257.457    20686693.051    84708551.12448
       979.831  
  21514525.745   113059604.94448      3001.727    21514526.250    88098397.68749
      2339.003  
  21125699.778   111016299.41549     -2160.698    21125699.885    86506205.50149
     -1683.664  
  21982065.286   115516539.56347      2752.445    21982066.270    90012893.00446
      2144.758  
  24694901.999   129772579.08447      -836.250    24694902.684   101121506.87445
      -651.625  
  23809037.999   125117334.71945       679.499    23809040.329    97494038.27445
       529.477  
  24573278.626   129133448.91344      3336.995    24573281.490   100623469.54043
      2600.265  
 20 10 01 04 41 15.0000000  0  9G29G 2G13G15G 5G18G 7G30G20
  21729823.613   114190990.62648     -2125.003    21729824.163    88979991.05749
     -1655.851  
  23650500.276   124284204.11548     -3044.840    23650499.143    96844828.15146
     -2372.605  
  20685498.261   108703029.92449      1254.120    20685498.123    84703658.81247
       977.234  
  21511670.936   113044602.35048      2999.586    21511671.439    88086707.36749
      2337.336  
  21127756.471   111027107.06449     -2162.301    21127756.593    86514627.03349
     -1684.914  
  21979447.429   115502782.13447      2750.703    21979448.154    90002172.94546
      2143.401  
  24695698.957   129776767.84747      -839.297    24695699.786   101124770.84145
      -654.000  
  23808393.025   125113944.98246       676.133    23808395.132    97491396.92246
       526.854  
  24570103.957   129116767.66845      3336.421    24570106.600   100610471.08344
      2599.800  
 20 10 01 04 41 20.0000000  0  9G29G 2G13G15G 5G18G 7G30G20
  21731846.985   114201623.95548     -2128.254    21731847.426    88988276.75849
     -1658.382  
  23653398.112   124299432.44048     -3046.250    23653396.926    96856694.36946
     -2373.703  
  20684306.661   108696767.17849      1250.858    20684306.379    84698778.75748
       974.691  
  21508818.061   113029610.14348      2997.104    21508818.626    88075025.14049
      2335.401  
  21129814.502   111037922.09149     -2163.827    21129814.535    86523054.33649
     -1686.101  
  21976830.663   115489031.24647      2749.258    21976831.489    89991457.98247
      2142.277  
  24696498.551   129780969.73947      -841.902    24696499.543   101128045.02246
      -656.034  
  23807750.804   125110569.06046       673.917    23807752.904    97488766.35845
       525.128  
  24566929.780   129100086.88045      3335.973    24566932.675   100597473.20444
      2599.469  
 20 10 01 04 41 25.0000000  0  9G29G 2G13G15G 5G18G 7G30G20
  21733873.369   114212272.10848     -2131.054    21733873.847    88996574.02149
     -1660.566  
  23656297.069   124314666.93447     -3047.468    23656295.940    96868565.37646
     -2374.652  
  20683118.122   108690521.39349      1247.413    20683117.817    84693911.91748
       972.008  
  21505967.297   113014629.52648      2994.895    21505967.758    88063351.93849
      2333.679  
  21131874.070   111048745.66249     -2165.581    21131874.200    86531488.28949
     -1687.469  
  21974215.438   115475288.26947      2747.690    21974216.491    89980749.16047
      2141.055  
  24697300.800   129785185.96247      -844.499    24697301.755   101131330.41645
      -658.054  
  23807111.246   125107208.25346       670.479    23807113.376    97486147.53645
       522.448  
  24563755.465   129083407.77345      3335.815    24563757.796   100584476.38744
      2599.327  
 20 10 01 04 41 30.0000000  0  9G29G 2G13G15G 5G18G 7G30G20
  21735902.433   114222935.03948     -2134.141    21735902.726    89004882.78549
     -1662.968  
  23659197.329   124329907.46347     -3048.577    23659196.151    96880441.09946
     -2375.520  
  20681932.814   108684292.56049      1244.035    20681932.661    84689058.27748
       969.375  
  21503118.808   112999660.52248      2992.479    21503119.346    88051687.78949
      2331.801  
  21133935.337   111059577.84749     -2167.359    21133935.313    86539928.95449
     -1688.855  
  21971601.731   115461553.05347      2746.163    21971602.710    89970046.41446
      2139.863  
  24698105.869   129789416.47547      -847.566    24698106.664   101134626.88446
      -660.449  
  23806474.533   125103862.46046       667.565    23806476.649    97483540.43045
       520.180  
  24560581.816   129066730.16644      3336.059    24560582.229   100571480.87744
      2599.523  
 20 10 01 04 41 35.0000000  0  9G29G 2G13G15G 5G18G 7G30G20
  21737934.141   114233612.29948     -2136.684    21737934.527    89013202.73349
     -1664.953  
  23662098.537   124345153.73148     -3049.527    23662097.337    96892321.31346
     -2376.258  
  20680750.736   108678080.29249      1240.711    20680750.445    84684217.55247
       966.785  
  21500272.414   112984702.77848      2990.269    21500273.128    88040032.40949
      2330.077  
  21135998.307   111070418.20649     -2168.996    21135998.142    86548375.98549
     -1690.128  
  21968989.392   115447825.27747      2744.891    21968990.367    89959349.43247
      2138.871  
  24698913.412   129793660.89247      -850.120    24698914.645   101137934.24345
      -662.434  
  23805840.623   125100531.33345       664.555    23805842.746    97480944.73645
       517.831  
  24557408.090   129050053.84044      3334.910    24557408.730   100558486.39643
      2598.632  
 20 10 01 04 41 40.0000000  0  9G29G 2G13G15G 5G18G 7G30G20
  21739968.683   114244304.82748     -2139.516    21739969.260    89021534.56549
     -1667.160  
  23665001.061   124360406.59647     -3051.043    23664999.776    96904206.66146
     -2377.438  
  20679571.885   108671885.48049      1237.352    20679571.626    84679390.42247
       964.168  
  21497428.520   112969757.16648      2987.948    21497429.088    88028386.47849
      2328.270  
  21138062.798   111081267.61749     -2170.711    21138062.943    86556830.06349
     -1691.465  
  21966378.599   115434105.87447      2743.308    21966379.502    89948659.00046
      2137.641  
  24699724.100   129797920.11647      -852.848    24699725.195   101141253.09145
      -664.563  
  23805209.715   125097215.73345       661.909    23805211.997    97478361.14045
       515.769  
  24554234.996   129033379.59144      3334.999    24554235.811   100545493.47942
      2598.702  
 20 10 01 04 41 45.0000000  0  9G29G 2G13G15G 5G18G 7G30G20
  21742006.061   114255011.07347     -2142.851    21742006.693    89029877.10449
     -1669.757  
  23667904.569   124375664.47547     -3052.159    23667903.247    96916095.89046
     -2378.309  
  20678396.052   108665706.62349      1233.926    20678395.753    84674575.73147
       961.495  
  21494586.507   112954822.16248      2985.844    21494586.993    88016748.82449
      2326.628  
  21140128.823   111092124.64949     -2172.320    21140128.993    86565290.10049
     -1692.719  
  21963769.330   115420393.32348      2741.551    21963770.105    89937973.89346
      2136.270  
  24700537.029   129802192.68247      -856.073    24700538.132   101144582.40145
      -667.074  
  23804581.462   125093914.17845       658.910    23804583.721    97475788.51946
       513.437  
  24551061.955   129016706.01944      3334.469    24551063.453   100532501.07844
      2598.280  
 20 10 01 04 41 50.0000000  0  9G29G 2G13G15G 5G18G 7G30G20
  21744045.962   114265731.73248     -2145.312    21744046.572    89038230.87949
     -1671.672  
  23670809.263   124390928.12147     -3052.886    23670807.927    96927989.63045
     -2378.874  
  20677223.462   108659544.40249      1230.917    20677223.306    84669774.00547
       959.152  
  21491746.568   112939898.49748      2983.937    21491747.338    88005120.00449
      2325.144  
  21142196.381   111102989.83449     -2173.644    21142196.513    86573756.46849
     -1693.753  
  21961161.358   115406688.30447      2740.566    21961162.153    89927294.67247
      2135.503  
  24701352.840   129806479.17047      -858.472    24701353.910   101147922.53145
      -668.940  
  23803955.928   125090627.41345       655.637    23803958.364    97473227.38146
       510.879  
  24547889.182   129000033.70644      3334.854    24547890.811   100519509.67141
      2598.585  
 20 10 01 04 41 55.0000000  0  8G29G 2G13G15G 5G18G 7G20
  21746088.545   114276465.98248     -2148.487    21746089.356    89046595.24149
     -1674.147  
  23673714.642   124406196.71247     -3054.488    23673713.483    96939887.24046
     -2380.125  
  20676053.903   108653398.01549      1227.504    20676053.527    84664984.61247
       956.491  
  21488908.695   112924985.34148      2981.238    21488909.356    87993499.34849
      2323.039  
  21144265.464   111113862.34449     -2175.425    21144265.484    86582228.55849
     -1695.140  
  21958554.716   115392990.06047      2738.694    21958555.456    89916620.71346
      2134.047  
  24702170.986   129810778.83747      -861.570    24702172.063   101151272.92245
      -671.354  
  24544716.705   128983361.97444      3334.065    24544718.428   100506518.72943
      2597.968  
 20 10 01 04 42  0.0000000  0  8G29G 2G13G15G 5G18G 7G20
  21748133.960   114287214.74248     -2150.999    21748134.630    89054970.88749
     -1676.105  
  23676621.358   124421471.16847     -3055.749    23676620.119    96951789.39746
     -2381.105  
  20674887.414   108647268.39049      1224.237    20674887.172    84660208.27147
       953.948  
  21486072.927   112910083.62648      2979.108    21486073.610    87981887.63349
      2321.378  
  21146336.051   111124743.10249     -2176.835    21146336.185    86590707.07749
     -1696.237  
  21955949.444   115379299.48247      2737.242    21955950.218    89905952.73246
      2132.913  
  24702991.959   129815092.61247      -864.203    24702993.188   101154634.29144
      -673.410  
  24541544.389   128966691.52844      3333.558    24541546.150   100493528.81643
      2597.585  
 20 10 01 04 42  5.0000000  0  8G29G 2G13G15G 5G18G 7G30
  21750182.254   114297978.97548     -2153.874    21750183.038    89063358.58949
     -1678.347  
  23679529.233   124436752.40547     -3056.410    23679527.931    96963696.84146
     -2381.621  
  20673724.332   108641156.44449      1221.026    20673724.002    84655445.72447
       951.444  
  21483239.636   112895194.39348      2977.082    21483240.286    87970285.64449
      2319.800  
  21148408.332   111135633.10648     -2178.581    21148408.367    86599192.78249
     -1697.597  
  21953345.851   115365617.50647      2735.957    21953346.672    89895291.45846
      2131.909  
  24703815.756   129819421.32147      -866.745    24703816.992   101158007.28446
      -675.395  
  23802096.786   125080853.24556       647.644    23802098.555    97465611.93255
       504.652  
 20 10 01 04 42 10.0000000  0  9G29G 2G13G15G 5G18G 7G30G20
  21752232.908   114308754.17148     -2156.147    21752233.421    89071754.81449
     -1680.121  
  23682437.541   124452035.98048     -3057.054    23682436.433    96975606.14045
     -2382.125  
  20672563.703   108635057.79649      1218.323    20672563.506    84650693.52848
       949.339  
  21480407.892   112880313.13248      2975.479    21480408.447    87958689.86349
      2318.554  
  21150481.367   111146527.79449     -2179.487    21150481.753    86607682.14049
     -1698.304  
  21950743.060   115351939.75048      2735.046    21950743.901    89884633.45246
      2131.202  
  24704641.458   129823760.63247      -869.198    24704642.626   101161388.55645
      -677.300  
  23801482.797   125077622.39646       645.062    23801483.499    97463094.41045
       502.645  
  24535200.807   128933353.43855      3334.801    24535201.027   100467558.06754
      2598.543  
 20 10 01 04 42 15.0000000  0  9G29G 2G13G15G 5G18G 7G30G20
  21754286.149   114319544.86848     -2160.105    21754286.980    89080163.17049
     -1683.202  
  23685347.375   124467326.41648     -3059.168    23685345.922    96987520.72846
     -2383.773  
  20671406.490   108628976.94449      1213.964    20671406.459    84645955.20847
       945.944  
  21477578.415   112865444.34948      2972.026    21477579.026    87947103.79449
      2315.831  
  21152556.335   111157431.82149     -2182.324    21152556.581    86616178.77749
     -1700.516  
  21948141.948   115338270.68747      2732.520    21948142.868    89873982.25247
      2129.233  
  24705470.194   129828115.04347      -873.097    24705471.201   101164781.62145
      -680.339  
  23800870.704   125074407.48245       640.761    23800872.009    97460589.24345
       499.288  
  24532027.901   128916685.79745      3332.875    24532030.339   100454570.28344
      2597.043  
 20 10 01 04 42 20.0000000  0  9G29G 2G13G15G 5G18G 7G30G20
  21756343.242   114330354.68348     -2163.237    21756343.958    89088586.40049
     -1685.645  
  23688259.066   124482627.33047     -3060.781    23688257.607    96999443.52746
     -2385.027  
  20670253.481   108622917.56149      1210.175    20670253.317    84641233.59947
       942.992  
  21474751.986   112850591.70848      2969.285    21474752.795    87935530.32049
      2313.726  
  21154633.789   111168348.82249     -2184.402    21154634.103    86624685.53749
     -1702.136  
  21945543.298   115324614.06247      2730.398    21945543.984    89863340.72547
      2127.577  
  24706302.328   129832488.18547      -876.101    24706303.510   101168189.25546
      -682.679  
  23800262.223   125071212.11145       637.640    23800263.759    97458099.37246
       496.859  
  24528857.691   128900024.23445      3332.292    24528859.972   100441587.28844
      2596.590  
 20 10 01 04 42 25.0000000  0  9G29G 2G13G15G 5G18G 7G30G20
  21758402.791   114341177.09648     -2165.636    21758403.411    89097019.45449
     -1687.512  
  23691171.515   124497932.16647     -3061.590    23691170.100    97011369.35846
     -2385.656  
  20669103.336   108616873.07449      1207.667    20669103.091    84636523.61647
       941.034  
  21471927.432   112835748.76548      2967.781    21471928.273    87923964.40549
      2312.554  
  21156712.580   111179272.19549     -2185.202    21156712.837    86633197.26449
     -1702.757  
  21942945.609   115310963.24348      2729.866    21942946.323    89852703.73447
      2127.167  
  24707136.761   129836873.47547      -877.750    24707137.951   101171606.36945
      -683.965  
  23799655.538   125068029.67845       635.569    23799658.300    97455619.55544
       495.245  
  24525687.505   128883362.26345      3332.683    24525690.020   100428603.95744
      2596.895  
 20 10 01 04 42 30.0000000  0  9G29G 2G13G15G 5G18G 7G30G20
  21760464.798   114352013.07948     -2168.734    21760465.536    89105463.07349
     -1689.926  
  23694084.715   124513241.97847     -3062.383    23694083.495    97023299.06546
     -2386.276  
  20667956.060   108610844.50449      1203.918    20667956.045    84631826.02847
       938.113  
  21469104.985   112820916.45848      2965.097    21469105.701    87912406.75549
      2310.461  
  21158792.514   111190202.94549     -2186.995    21158792.797    86641714.72749
     -1704.156  
  21940349.242   115297319.33347      2727.792    21940350.087    89842072.11347
      2125.551  
  24707973.684   129841271.94147      -881.086    24707974.821   101175033.74245
      -686.562  
  23799052.073   125064861.32445       631.983    23799055.534    97453150.73745
       492.457  
  24522517.045   128866700.78945      3332.191    24522520.173   100415620.96243
      2596.508  
 20 10 01 04 42 35.0000000  0  9G29G 2G13G15G 5G18G 7G30G20
  21762529.509   114362863.26648     -2171.688    21762530.110    89113917.75549
     -1692.226  
  23696999.226   124528557.30948     -3063.668    23696997.888    97035233.07946
     -2387.276  
  20666811.997   108604832.41049      1200.644    20666811.937    84627141.28648
       935.563  
  21466284.640   112806095.44448      2962.870    21466285.334    87900857.91949
      2308.727  
  21160874.148   111201141.69349     -2188.637    21160874.483    86650238.41249
     -1705.434  
  21937754.217   115283682.82347      2726.585    21937755.101    89831446.26647
      2124.609  
  24708813.421   129845684.16447      -883.977    24708814.393   101178471.80945
      -688.816  
  23798451.474   125061707.52846       628.977    23798455.823    97450693.26945
       490.116  
  24519346.944   128850040.54545      3331.593    24519348.752   100402638.96041
      2596.043  
 20 10 01 04 42 40.0000000  0  9G29G 2G13G15G 5G18G 7G30G20
  21764596.898   114373727.84448     -2174.093    21764597.616    89122383.65949
     -1694.102  
  23699914.704   124543878.46747     -3064.815    23699913.212    97047171.65646
     -2388.171  
  20665671.163   108598837.12949      1197.512    20665670.989    84622469.63948
       933.120  
  21463466.386   112791285.95148      2960.776    21463467.410    87889318.05449
      2307.097  
  21162957.312   111212088.70149     -2190.234    21162957.615    86658768.55449
     -1706.679  
  21935160.921   115270054.12047      2725.015    21935161.645    89820826.50046
      2123.387  
  24709655.672   129850110.41147      -886.504    24709656.596   101181920.83045
      -690.785  
  23797854.342   125058568.73645       625.961    23797858.230    97448247.44444
       487.758  
  24516176.894   128833381.72845      3331.895    24516177.719   100389658.08244
      2596.280  
 20 10 01 04 42 45.0000000  0  9G29G 2G13G15G 5G18G 7G30G20
  21766667.137   114384606.37048     -2177.063    21766667.783    89130860.39749
     -1696.414  
  23702831.103   124559204.93447     -3065.905    23702829.749    97059114.35746
     -2389.020  
  20664533.360   108592858.21549      1193.957    20664533.218    84617810.74748
       930.352  
  21460650.410   112776487.52248      2958.188    21460651.180    87877786.81149
      2305.078  
  21165042.009   111223043.51349     -2191.914    21165042.183    86667304.76049
     -1707.988  
  21932568.723   115256432.68348      2723.547    21932569.589    89810212.39947
      2122.241  
  24710500.578   129854550.29447      -889.636    24710501.581   101185380.46645
      -693.226  
  23797259.783   125055444.27645       622.870    23797263.373    97445812.79545
       485.352  
  24513007.225   128816724.00445      3331.679    24513007.849   100376677.99043
      2596.101  
 20 10 01 04 42 50.0000000  0  9G29G 2G13G15G 5G18G 7G30G20
  21768740.019   114395499.62448     -2180.336    21768740.665    89139348.65849
     -1698.965  
  23705748.817   124574537.56247     -3067.117    23705747.294    97071061.84146
     -2389.969  
  20663398.815   108586896.45549      1190.805    20663398.891    84613165.21548
       927.898  
  21457836.558   112761700.97548      2956.066    21457837.380    87866264.83449
      2303.425  
  21167128.231   111234006.83849     -2193.379    21167128.451    86675847.61649
     -1709.129  
  21929978.245   115242819.40948      2722.198    21929978.977    89799604.65146
      2121.190  
  24711348.107   129859004.49846      -892.280    24711349.364   101188851.27945
      -695.289  
  23796668.384   125052335.10945       620.292    23796671.860    97443390.08346
       483.344  
  24509837.676   128800068.00246      3331.288    24509839.450   100363699.36443
      2595.813  
 20 10 01 04 42 55.0000000  0  9G29G 2G13G15G 5G18G 7G30G20
  21770815.788   114406407.17648     -2183.168    21770816.460    89147848.03249
     -1701.171  
  23708667.535   124589875.84047     -3068.238    23708666.064    97083013.75045
     -2390.839  
  20662267.505   108580951.37949      1187.276    20662267.483    84608532.69348
       925.147  
  21455024.959   112746925.92048      2953.823    21455025.769    87854751.82049
      2301.680  
  21169216.175   111244978.27949     -2195.233    21169216.155    86684396.78949
     -1710.573  
  21927389.084   115229213.74347      2720.402    21927389.870    89789002.84847
      2119.788  
  24712198.368   129863472.70947      -894.879    24712199.512   101192332.98946
      -697.312  
  23796079.470   125049240.72346       617.484    23796082.805    97440978.84544
       481.152  
  24506668.370   128783413.31146      3330.797    24506669.518   100350721.67944
      2595.422  
 20 10 01 04 43  0.0000000  0  9G29G 2G13G15G 5G18G 7G30G20
  21772894.180   114417329.29448     -2185.925    21772894.719    89156358.78449
     -1703.320  
  23711587.538   124605220.05847     -3069.781    23711586.099    97094970.27246
     -2392.039  
  20661139.451   108575023.29349      1183.870    20661139.489    84603913.40447
       922.491  
  21452215.624   112732162.57648      2951.324    21452216.353    87843247.91949
      2299.730  
  21171305.653   111255958.09049     -2196.820    21171305.560    86692952.49249
     -1711.812  
  21924801.630   115215616.01747      2718.711    21924802.483    89778407.21347
      2118.473  
  24713051.474   129867955.06447      -898.063    24713052.613   101195825.76445
      -699.793  
  23795493.726   125046161.46245       614.137    23795497.019    97438579.40045
       478.543  
  24503499.461   128766760.24246      3330.769    24503500.972   100337745.26444
      2595.401  
 20 10 01 04 43  5.0000000  0  9G29G 2G13G15G 5G18G 7G30G20
  21774975.235   114428265.62348     -2188.922    21774975.917    89164880.59749
     -1705.655  
  23714508.329   124620569.85747     -3070.570    23714507.122    97106931.15746
     -2392.656  
  20660014.431   108569111.83349      1180.480    20660014.670    84599307.07948
       919.851  
  21449408.389   112717410.70848      2949.203    21449409.110    87831752.94549
      2298.078  
  21173396.446   111266945.94049     -2198.292    21173396.477    86701514.44749
     -1712.956  
  21922215.328   115202025.90947      2717.207    21922216.280    89767817.52147
      2117.300  
  24713906.986   129872451.24646      -901.007    24713908.398   101199329.27946
      -702.081  
  23794910.701   125043096.98645       611.089    23794914.297    97436191.56444
       476.183  
  24500330.673   128750108.42845      3330.379    24500331.787   100324769.82544
      2595.097  
 20 10 01 04 43 10.0000000  0  9G29G 2G13G15G 5G18G 7G30G20
  21777058.552   114439213.15248     -2191.172    21777059.336    89173411.12949
     -1707.410  
  23717429.822   124635922.21847     -3071.313    23717428.599    97118894.02246
     -2393.233  
  20658892.254   108563214.00449      1177.930    20658892.274    84594711.37147
       917.862  
  21446602.883   112702667.26648      2947.484    21446603.573    87820264.55149
      2296.738  
  21175488.370   111277938.82349     -2199.460    21175488.360    86710080.32849
     -1713.867  
  21919630.192   115188440.39947      2716.214    21919631.045    89757231.41346
      2116.527  
  24714764.982   129876962.29856      -902.374    24714763.977   101202839.23555
      -703.151  
  23794330.641   125040047.00055       608.991    23794334.904    97433819.57855
       474.534  
  24497161.572   128733454.93946      3330.602    24497162.511   100311793.07541
      2595.269  
 20 10 01 04 43 15.0000000  0  9G29G 2G13G15G 5G18G 7G30G20
  21779145.522   114450180.19348     -2194.863    21779146.157    89181956.87549
     -1710.284  
  23720353.197   124651285.68847     -3073.354    23720352.099    97130865.54746
     -2394.823  
  20657774.079   108557338.36049      1173.180    20657774.038    84590132.94347
       914.163  
  21443800.434   112687940.73548      2944.055    21443801.226    87808789.34849
      2294.065  
  21177582.961   111288945.22549     -2202.445    21177582.697    86718656.75449
     -1716.195  
  21917047.552   115174868.06647      2713.277    21917048.279    89746655.57547
      2114.238  
  24715626.107   129881488.69747      -906.961    24715626.246   101206366.33045
      -706.723  
  23793753.544   125037014.46045       604.737    23793756.220    97431456.58945
       471.226  
  24493993.996   128716808.18346      3328.823    24493994.530   100298821.56741
      2593.883  
 20 10 01 04 43 20.0000000  0  9G29G 2G13G15G 5G18G 7G30G20
  21781235.147   114461161.71648     -2197.405    21781235.888    89190513.91249
     -1712.270  
  23723277.766   124666654.90347     -3074.109    23723276.807    97142841.54846
     -2395.413  
  20656659.126   108551479.49649      1170.355    20656659.179    84585567.59647
       911.960  
  21441000.265   112673225.84448      2942.066    21441001.060    87797323.19849
      2292.515  
  21179678.855   111299959.81349     -2203.749    21179678.763    86727239.54649
     -1717.210  
  21914466.184   115161303.53947      2712.180    21914467.000    89736085.82547
      2113.383  
  24716489.909   129886029.03946      -909.015    24716491.882   101209904.21545
      -708.332  
  23793178.679   125033996.80346       602.284    23793181.849    97429105.16845
       469.309  
  24490826.443   128700162.92546      3329.164    24490827.030   100285851.27543
      2594.156  
 20 10 01 04 43 25.0000000  0  9G29G 2G13G15G 5G18G 7G30G20
  21783327.048   114472154.54048     -2199.479    21783327.801    89199079.72749
     -1713.883  
  23726202.934   124682026.95347     -3074.832    23726201.961    97154819.75446
     -2395.977  
  20655546.872   108545634.55949      1167.757    20655547.004    84581013.10948
       909.938  
  21438201.787   112658519.64848      2940.555    21438202.350    87785863.82649
      2291.340  
  21181775.888   111310979.64049     -2204.417    21181775.827    86735826.42249
     -1717.730  
  21911885.745   115147743.93147      2711.305    21911886.677    89725519.89847
      2112.702  
  24717356.460   129890580.51247      -911.230    24717357.858   101213450.83545
      -710.054  
  23792607.402   125030991.16245       599.859    23792609.578    97426763.06345
       467.413  
  24487658.964   128683516.33546      3329.604    24487659.554   100272879.89842
      2594.495  
 20 10 01 04 43 30.0000000  0  9G29G 2G13G15G 5G18G 7G30G20
  21785421.472   114483160.12648     -2202.933    21785422.144    89207655.49449
     -1716.573  
  23729129.045   124697403.17747     -3076.175    23729128.177    97166801.21345
     -2397.023  
  20654437.467   108539804.91349      1163.941    20654437.528    84576470.52347
       906.965  
  21435405.204   112643823.50548      2937.715    21435405.867    87774412.28849
      2289.125  
  21183874.282   111322006.11849     -2206.331    21183874.149    86744418.48349
     -1719.223  
  21909306.661   115134190.59747      2709.539    21909307.603    89714958.86447
      2111.323  
  24718225.100   129895144.43547      -914.688    24718226.285   101217007.15145
      -712.745  
  23792037.957   125027998.92745       596.640    23792039.940    97424431.45946
       464.909  
  24484491.194   128666869.65546      3328.914    24484491.860   100259908.47243
      2593.957  
 20 10 01 04 43 35.0000000  0  9G29G 2G13G15G 5G18G 7G30G20
  21787518.955   114494182.94548     -2205.855    21787519.650    89216244.70949
     -1718.852  
  23732056.699   124712788.03747     -3077.550    23732055.819    97178789.41546
     -2398.093  
  20653332.081   108533995.06649      1160.198    20653331.966    84571943.36848
       904.047  
  21432611.261   112629141.98848      2935.141    21432612.105    87762972.14149
      2287.120  
  21185974.560   111333043.71849     -2208.327    21185974.625    86753019.20349
     -1720.777  
  21906729.663   115120648.06947      2707.641    21906730.682    89704406.24247
      2109.847  
  24719096.808   129899725.29147      -917.628    24719097.729   101220576.66345
      -715.039  
  23791471.766   125025024.51246       593.215    23791474.408    97422113.76146
       462.245  
  24481324.368   128650227.37346      3328.628    24481325.043   100246940.51143
      2593.742  
 20 10 01 04 43 40.0000000  0  9G29G 2G13G15G 5G18G 7G30G20
  21789619.286   114505219.94348     -2208.854    21789619.852    89224844.97049
     -1721.188  
  23734985.297   124728178.51747     -3078.484    23734984.420    97190781.98445
     -2398.819  
  20652229.524   108528201.90349      1157.062    20652229.579    84567429.21547
       901.604  
  21429819.606   112614471.92648      2932.891    21429820.307    87751540.91649
      2285.366  
  21188076.557   111344089.35049     -2209.792    21188076.599    86761626.18649
     -1721.917  
  21904154.026   115107113.25247      2706.116    21904154.996    89693859.64147
      2108.660  
  24719971.071   129904319.94747      -920.249    24719971.831   101224156.90046
      -717.082  
  23790908.594   125022064.99045       590.637    23790911.033    97419807.64745
       460.234  
  24478157.687   128633586.44546      3328.253    24478158.409   100233973.54941
      2593.444  
 20 10 01 04 43 45.0000000  0  9G29G 2G13G15G 5G18G 7G30G20
  21791722.274   114516270.53248     -2211.590    21791722.739    89233455.81649
     -1723.319  
  23737915.032   124743574.03847     -3079.684    23737914.254    97202778.47745
     -2399.757  
  20651130.215   108522424.96649      1153.695    20651130.113    84562927.71347
       898.979  
  21427030.071   112599812.82448      2930.737    21427030.917    87740118.26949
      2283.633  
  21190179.888   111355142.58449     -2211.523    21190179.997    86770239.09349
     -1723.270  
  21901579.697   115093585.65947      2704.979    21901580.795    89683318.65647
      2107.773  
  24720848.031   129908927.99746      -923.452    24720849.080   101227747.58945
      -719.578  
  23790347.956   125019119.72345       587.605    23790350.765    97417512.63245
       457.870  
  24474991.223   128616946.37946      3327.652    24474991.885   100221007.22542
      2592.965  
 20 10 01 04 43 50.0000000  0  9G29G 2G13G15G 5G18G 7G30G20
  21793827.957   114527335.75248     -2214.796    21793828.588    89242078.03949
     -1725.823  
  23740845.676   124758975.70647     -3081.202    23740845.035    97214779.78545
     -2400.940  
  20650034.322   108516665.25949      1150.063    20650034.070    84558439.63047
       896.148  
  21424242.814   112585165.84248      2928.116    21424243.770    87728705.05649
      2281.647  
  21192284.928   111366204.30149     -2213.253    21192284.825    86778858.60649
     -1724.616  
  21899007.106   115080066.34847      2702.823    21899008.325    89672784.13647
      2106.093  
  24721727.692   129913550.43146      -926.258    24721728.745   101231349.45344
      -721.766  
  23789790.088   125016189.82945       584.418    23789793.262    97415229.59345
       455.387  
  24471825.139   128600308.20947      3327.292    24471826.217   100208042.43644
      2592.691  
 20 10 01 04 43 55.0000000  0  9G29G 2G13G15G 5G18G 7G30G20
  21795936.644   114538416.47848     -2217.862    21795937.120    89250712.37349
     -1728.206  
  23743777.865   124774384.24347     -3082.050    23743777.238    97226786.41746
     -2401.604  
  20648941.662   108510923.60649      1146.624    20648941.425    84553965.61847
       893.472  
  21421458.054   112570531.79848      2925.792    21421458.810    87717301.89149
      2279.835  
  21194391.692   111377275.35749     -2214.718    21194391.594    86787485.41049
     -1725.758  
  21896436.226   115066556.12647      2701.358    21896437.240    89662256.69347
      2104.952  
  24722610.413   129918188.06547      -928.968    24722611.363   101234963.18745
      -723.874  
  23789235.799   125013276.11146       581.441    23789239.027    97412959.15845
       453.065  
  24468659.441   128583672.72846      3327.016    24468660.528   100195079.75144
      2592.476  
 20 10 01 04 44  0.0000000  0  9G29G 2G13G15G 5G18G 7G30G20
  21798047.618   114549509.93948     -2220.530    21798048.106    89259356.60449
     -1730.292  
  23746710.584   124789796.97647     -3082.762    23746710.204    97238796.33145
     -2402.156  
  20647852.054   108505197.29849      1143.581    20647851.722    84549503.56247
       891.102  
  21418675.175   112555907.95448      2923.589    21418676.073    87705906.70149
      2278.116  
  21196499.788   111388353.10249     -2216.199    21196499.596    86796117.42149
     -1726.909  
  21893866.457   115053052.30847      2700.148    21893867.658    89651734.24547
      2104.007  
  24723495.386   129922838.19247      -931.270    24723495.986   101238586.69645
      -725.668  
  23788683.776   125010375.89845       578.948    23788686.937    97410699.25445
       451.125  
  24465493.955   128567037.27046      3327.059    24465494.866   100182117.05243
      2592.512  
 20 10 01 04 44  5.0000000  0  9G29G 2G13G15G 5G18G 7G30G20
  21800161.380   114560617.17748     -2223.102    21800161.774    89268011.62649
     -1732.289  
  23749644.698   124805215.00547     -3084.081    23749644.195    97250810.37646
     -2403.183  
  20646765.487   108499487.47449      1140.015    20646765.209    84545054.34647
       888.319  
  21415894.606   112541295.40548      2921.133    21415895.516    87694520.28949
      2276.203  
  21198609.214   111399438.52549     -2217.862    21198609.044    86804755.41249
     -1728.206  
  21891298.235   115039556.02247      2698.309    21891299.317    89641217.66347
      2102.573  
  24724382.691   129927501.88546      -934.230    24724383.295   101242220.73444
      -727.977  
  23788134.598   125007490.20145       575.707    23788137.729    97408450.68146
       448.605  
  24462328.415   128550402.90246      3326.593    24462329.467   100169155.20943
      2592.147  
 20 10 01 04 44 10.0000000  0  9G29G 2G13G15G 5G18G 7G30G20
  21802277.856   114571739.21248     -2225.765    21802278.388    89276678.12249
     -1734.366  
  23752579.749   124820639.27147     -3085.413    23752579.426    97262829.28346
     -2404.223  
  20645682.331   108493795.01649      1136.995    20645681.870    84540618.66248
       885.969  
  21413116.335   112526695.08248      2919.063    21413117.164    87683143.43149
      2274.590  
  21200720.330   111410532.60749     -2219.327    21200720.208    86813400.15049
     -1729.352  
  21888731.525   115026068.14947      2696.968    21888732.677    89630707.63547
      2101.530  
  24725273.068   129932180.06746      -936.499    24725273.563   101245866.07645
      -729.741  
  23787588.427   125004620.02245       572.883    23787591.826    97406214.17545
       446.398  
  24459163.487   128533770.62446      3326.535    24459164.267   100156194.99243
      2592.098  
 20 10 01 04 44 15.0000000  0  9G29G 2G13G15G 5G18G 7G30G20
  21804396.981   114582875.00648     -2228.520    21804397.450    89285355.32649
     -1736.516  
  23755515.719   124836068.77247     -3086.695    23755515.524    97274852.26946
     -2405.218  
  20644602.228   108488119.00449      1133.488    20644601.709    84536195.80047
       883.233  
  21410340.163   112512106.01548      2916.573    21410340.989    87671775.33649
      2272.652  
  21202832.948   111421634.36549     -2220.965    21202832.597    86822050.87649
     -1730.624  
  21886166.164   115012587.80647      2695.604    21886167.483    89620203.47347
      2100.469  
  24726165.776   129936871.81146      -939.855    24726166.214   101249521.98845
      -732.359  
  23787044.930   125001764.42445       569.832    23787048.555    97403989.03945
       444.023  
  24455998.743   128517139.40747      3326.022    24455999.588   100143235.60044
      2591.702  
 20 10 01 04 44 20.0000000  0  9G29G 2G13G15G 5G18G 7G30G20
  21806518.768   114594025.66548     -2231.312    21806519.435    89294044.15449
     -1738.688  
  23758453.081   124851504.61747     -3087.604    23758452.899    97286880.20146
     -2405.930  
  20643525.362   108482460.56549      1130.063    20643524.971    84531786.61347
       880.565  
  21407566.272   112497529.36948      2914.108    21407567.048    87660416.91649
      2270.730  
  21204947.048   111432744.94249     -2222.823    21204946.926    86830708.45149
     -1732.073  
  21883602.753   114999116.08247      2693.727    21883603.966    89609706.01647
      2099.004  
  24727061.392   129941578.18146      -942.421    24727061.972   101253189.31145
      -734.355  
  23786504.503   124998924.46146       566.796    23786508.159    97401776.08445
       441.655  
  24452834.407   128500510.42947      3325.363    24452835.386   100130278.00442
      2591.191  
 20 10 01 04 44 25.0000000  0  9G29G 2G13G15G 5G18G 7G30G20
  21808643.231   114605189.57448     -2234.039    21808643.827    89302743.31249
     -1740.813  
  23761391.393   124866945.24347     -3088.276    23761391.016    97298911.83046
     -2406.452  
  20642451.742   108476818.06149      1126.831    20642451.156    84527389.86447
       878.046  
  21404794.473   112482963.55748      2911.972    21404795.266    87649066.93249
      2269.066  
  21207062.688   111443862.67149     -2224.483    21207062.482    86839371.60849
     -1733.366  
  21881040.458   114985651.35247      2692.132    21881041.695    89599214.04047
      2097.762  
  24727959.397   129946297.60146      -945.397    24727959.883   101256866.79645
      -736.675  
  23785966.709   124996098.61546       563.519    23785970.467    97399574.13845
       439.101  
  24449670.049   128483881.98947      3325.582    24449671.012   100117320.79542
      2591.358  
 20 10 01 04 44 30.0000000  0  9G29G 2G13G15G 5G18G 7G30G20
  21810770.357   114616367.91548     -2237.008    21810770.925    89311453.67149
     -1743.128  
  23764330.643   124882391.79047     -3089.992    23764330.569    97310948.09045
     -2407.788  
  20641381.159   108471192.70349      1123.194    20641380.771    84523006.47447
       875.215  
  21402024.939   112468409.77848      2909.479    21402025.907    87637726.33949
      2267.125  
  21209179.862   111454988.74449     -2226.141    21209179.743    86848041.28549
     -1734.660  
  21878479.711   114972194.84747      2690.336    21878480.922    89588728.44547
      2096.363  
  24728860.314   129951031.20446      -947.973    24728860.907   101260555.30745
      -738.683  
  23785431.904   124993287.97945       560.449    23785435.613    97397384.00144
       436.710  
  24446506.227   128467255.36846      3325.074    24446506.902   100104364.98244
      2590.964  
 20 10 01 04 44 35.0000000  0  9G29G 2G13G15G 5G18G 7G30G20
  21812900.131   114627559.80048     -2239.612    21812900.685    89320174.62049
     -1745.155  
  23767271.059   124897843.34247     -3090.659    23767270.874    97322988.24346
     -2408.308  
  20640313.806   108465583.63449      1120.222    20640313.326    84518635.77947
       872.898  
  21399257.677   112453867.18848      2907.285    21399258.484    87626394.42249
      2265.413  
  21211298.599   111466122.34949     -2227.496    21211298.260    86856716.81849
     -1735.715  
  21875920.438   114958745.71547      2689.113    21875921.585    89578248.60847
      2095.409  
  24729763.608   129955778.17146      -950.737    24729764.266   101264254.25544
      -740.839  
  23784899.994   124990491.80446       557.862    23784903.294    97395205.15045
       434.695  
  24443342.418   128450629.65846      3325.184    24443343.084   100091409.86143
      2591.050  
 20 10 01 04 44 40.0000000  0  9G29G 2G13G15G 5G18G 7G30G20
  21815032.774   114638766.38348     -2243.063    21815033.393    89328907.04649
     -1747.839  
  23770212.595   124913301.09447     -3092.594    23770212.432    97335033.27346
     -2409.815  
  20639249.688   108459991.93649      1116.305    20639249.267    84514278.60247
       869.844  
  21396492.496   112439336.96848      2904.445    21396493.525    87615072.19149
      2263.198  
  21213418.844   111477264.52849     -2229.401    21213418.705    86865399.03149
     -1737.198  
  21873362.913   114945305.05247      2687.089    21873363.912    89567775.36647
      2093.832  
  24730669.499   129960539.56447      -953.901    24730670.119   101267964.41445
      -743.305  
  23784370.932   124987711.06446       554.141    23784374.224    97393038.35444
       431.792  
  24440179.154   128434006.00147      3324.558    24440179.658   100078456.41244
      2590.565  
 20 10 01 04 44 45.0000000  0  9G29G 2G13G15G 5G18G 7G30G20
  21817168.296   114649988.90948     -2245.848    21817168.751    89337651.85549
     -1750.016  
  23773155.451   124928766.19047     -3093.823    23773155.214    97347083.97445
     -2410.772  
  20638189.187   108454418.81249      1112.902    20638188.652    84509935.90447
       867.195  
  21393730.154   112424820.17148      2902.188    21393730.996    87603760.40849
      2261.441  
  21215540.967   111488416.51848     -2231.164    21215540.642    86874088.88549
     -1738.573  
  21870807.120   114931874.08147      2685.522    21870808.011    89557309.68847
      2092.613  
  24731578.453   129965316.65446      -956.628    24731578.983   101271686.84245
      -745.430  
  23783844.959   124984947.05946       551.434    23783848.177    97390884.59145
       429.683  
  24437016.230   128417385.63046      3324.101    24437016.834   100065505.48943
      2590.211  
 20 10 01 04 44 50.0000000  0  9G29G 2G13G15G 5G18G 7G30G20
  21819306.439   114661224.42648     -2248.495    21819306.800    89346406.77749
     -1752.081  
  23776099.070   124944235.82447     -3094.496    23776099.160    97359138.19145
     -2411.305  
  20637131.718   108448861.39849      1109.754    20637131.205    84505605.46047
       864.737  
  21390969.714   112410314.02348      2900.062    21390970.423    87592456.91749
      2259.784  
  21217664.451   111499575.43849     -2232.727    21217664.306    86882784.15349
     -1739.789  
  21868252.479   114918449.94747      2683.992    21868253.595    89546849.31647
      2091.418  
  24732489.905   129970106.52346      -959.535    24732490.566   101275419.21645
      -747.690  
  23783321.485   124982196.93446       548.203    23783324.840    97388741.64245
       427.167  
  24433853.562   128400765.69646      3323.729    24433854.087   100052554.88343
      2589.918  
 20 10 01 04 44 55.0000000  0  9G29G 2G13G15G 5G18G 7G30G20
  21821447.037   114672473.62348     -2251.199    21821447.546    89355172.39849
     -1754.184  
  23779043.833   124959710.62447     -3095.179    23779043.913    97371196.49345
     -2411.832  
  20636077.300   108443320.52049      1106.668    20636076.711    84501287.89047
       862.336  
  21388211.388   112395819.23448      2897.973    21388212.293    87581162.27549
      2258.156  
  21219789.276   111510741.99849     -2234.097    21219789.187    86891485.37349
     -1740.859  
  21865699.523   114905033.41347      2682.887    21865700.401    89536394.87947
      2090.559  
  24733403.850   129974909.86545      -961.836    24733404.472   101279162.07145
      -749.483  
  23782801.133   124979461.37345       545.961    23782804.268    97386610.01844
       425.421  
  24430691.099   128384146.84147      3323.871    24430691.932   100039605.13743
      2590.026  
 20 10 01 04 45  0.0000000  0  9G29G 2G13G15G 5G18G 7G30G20
  21823590.475   114683737.24948     -2254.003    21823590.919    89363949.24549
     -1756.371  
  23781989.762   124975191.49447     -3096.805    23781989.818    97383259.48445
     -2413.098  
  20635026.101   108437796.92949      1102.934    20635025.630    84496983.79647
       859.426  
  21385455.350   112381336.59548      2895.305    21385456.380    87569877.08449
      2256.078  
  21221915.996   111521917.11449     -2236.175    21221915.796    86900193.26049
     -1742.477  
  21863148.048   114891625.29147      2680.827    21863149.121    89525947.00347
      2088.952  
  24734320.708   129979727.61346      -965.054    24734321.384   101282916.17245
      -751.991  
  23782283.536   124976741.25346       542.512    23782286.602    97384490.48144
       422.738  
  24427528.964   128367529.96047      3323.191    24427529.699   100026656.97544
      2589.503  
 20 10 01 04 45  5.0000000  0  9G29G 2G13G15G 5G18G 7G30G20
  21825736.377   114695014.57248     -2257.003    21825736.735    89372736.75649
     -1758.707  
  23784936.656   124990677.49647     -3097.797    23784936.628    97395326.49045
     -2413.871  
  20633978.169   108432289.88549      1099.523    20633977.736    84492692.59448
       856.770  
  21382701.591   112366865.43048      2892.897    21382702.437    87558600.86649
      2254.203  
  21224043.880   111533099.90849     -2237.598    21224043.833    86908907.12249
     -1743.585  
  21860597.913   114878224.80447      2679.077    21860599.071    89515505.06747
      2087.589  
  24735240.012   129984558.89746      -967.969    24735240.488   101286680.78244
      -754.266  
  23781768.655   124974035.72245       539.555    23781771.663    97382382.27045
       420.430  
  24424367.200   128350914.21547      3323.077    24424367.829   100013709.61443
      2589.405  
 20 10 01 04 45 10.0000000  0  9G29G 2G13G15G 5G18G 7G30G20
  21827885.130   114706306.56048     -2259.956    21827885.481    89381535.69749
     -1761.007  
  23787884.708   125006169.76646     -3099.016    23787884.592    97407398.37845
     -2414.819  
  20632933.643   108426800.33249      1096.265    20632933.254    84488415.02347
       854.229  
  21379950.117   112352406.64948      2890.515    21379951.206    87547334.28549
      2252.348  
  21226173.671   111544291.31449     -2239.098    21226173.340    86917627.69349
     -1744.754  
  21858049.484   114864832.93647      2677.262    21858050.486    89505069.84947
      2086.175  
  24736162.241   129989404.65146      -970.809    24736162.500   101290456.70345
      -756.477  
  23781256.798   124971345.90145       536.698    23781259.786    97380286.28045
       418.198  
  24421205.709   128334300.59547      3322.616    24421206.213   100000763.95144
      2589.051  
 20 10 01 04 45 15.0000000  0  9G29G 2G13G15G 5G18G 7G30G20
  21830036.354   114717611.97948     -2262.551    21830036.926    89390345.09949
     -1763.030  
  23790833.739   125021666.99847     -3100.176    23790833.538    97419474.12945
     -2415.723  
  20631892.159   108421327.05149      1092.913    20631891.709    84484150.13347
       851.617  
  21377200.941   112337959.04148      2888.410    21377201.923    87536076.42849
      2250.706  
  21228304.774   111555490.17949     -2240.456    21228304.529    86926354.08449
     -1745.813  
  21855502.557   114851448.43547      2676.172    21855503.576    89494640.36547
      2085.324  
  24737086.881   129994263.66546      -973.109    24737087.053   101294242.93845
      -758.270  
  23780747.770   124968670.37846       533.612    23780750.507    97378201.49345
       415.805  
  24418044.343   128317687.87746      3322.605    24418044.782    99987818.98244
      2589.038  
 20 10 01 04 45 20.0000000  0  9G29G 2G13G15G 5G18G 7G30G20
  21832190.614   114728932.31548     -2265.695    21832191.061    89399166.17349
     -1765.480  
  23793784.158   125037170.65047     -3101.402    23793783.455    97431554.92145
     -2416.679  
  20630853.917   108415871.57949      1089.347    20630853.603    84479899.10647
       848.840  
  21374454.076   112323524.16748      2885.687    21374455.099    87524828.45749
      2248.585  
  21230437.385   111566697.84949     -2242.401    21230437.239    86935087.33549
     -1747.327  
  21852957.150   114838072.85247      2674.094    21852958.192    89484217.85047
      2083.707  
  24738014.397   129999137.39145      -976.093    24738014.665   101298040.66645
      -760.597  
  23780241.564   124966010.77645       530.441    23780244.433    97376129.07944
       413.327  
  24414883.526   128301077.57547      3321.897    24414883.910    99974875.89643
      2588.487  
 20 10 01 04 45 25.0000000  0  9G29G 2G13G15G 5G18G 7G30G20
  21834347.176   114740265.87648     -2268.512    21834347.684    89407997.46349
     -1767.684  
  23796735.474   125052679.11147     -3102.648    23796734.864    97443639.41846
     -2417.652  
  20629818.925   108410432.22649      1085.882    20629818.407    84475660.64947
       846.141  
  21371709.273   112309100.28648      2883.332    21371710.457    87513589.10549
      2246.753  
  21232571.492   111577912.68448     -2243.948    21232571.366    86943826.13149
     -1748.539  
  21850413.338   114824704.50148      2672.672    21850414.228    89473800.93047
      2082.597  
  24738944.256   130004024.29946      -978.707    24738944.635   101301848.64445
      -762.632  
  23779738.299   124963365.44546       527.448    23779740.798    97374067.71445
       410.988  
  24411722.880   128284468.02346      3321.598    24411723.229    99961933.40544
      2588.254  
 20 10 01 04 45 30.0000000  0  9G29G 2G13G15G 5G18G 7G30G20
  21836506.602   114751613.79948     -2271.137    21836507.262    89416840.01249
     -1769.718  
  23799687.673   125068193.54947     -3103.781    23799687.249    97455728.53445
     -2418.539  
  20628787.161   108405010.14249      1082.604    20628786.630    84471435.66347
       843.585  
  21368966.737   112294688.72448      2881.039    21368968.002    87502359.30649
      2244.960  
  21234707.131   111589135.92049     -2245.500    21234706.941    86952571.51749
     -1749.741  
  21847871.023   114811344.60547      2671.254    21847871.982    89463390.64047
      2081.492  
  24739876.859   130008925.44246      -981.522    24739877.349   101305667.70344
      -764.827  
  23779237.866   124960735.46345       524.479    23779240.279    97372018.39245
       408.684  
  24408562.389   128267860.40446      3321.280    24408562.885    99948992.41844
      2588.008  
 20 10 01 04 45 35.0000000  0  9G29G 2G13G15G 5G18G 7G30G20
  21838668.708   114762975.39648     -2273.761    21838669.279    89425693.20349
     -1771.765  
  23802641.112   125083713.19447     -3104.477    23802640.514    97467821.75546
     -2419.078  
  20627758.447   108399604.58649      1079.348    20627758.024    84467223.53847
       841.047  
  21366226.492   112280288.61048      2878.707    21366227.735    87491138.43149
      2243.145  
  21236844.311   111600366.78049     -2247.102    21236843.975    86961322.84549
     -1750.991  
  21845330.198   114797992.38747      2669.718    21845331.172    89452986.32247
      2080.297  
  24740812.077   130013840.11145      -984.417    24740812.771   101309497.34744
      -767.077  
  23778740.279   124958120.15746       521.742    23778742.565    97369980.52445
       406.550  
  24405402.163   128251253.99147      3320.995    24405402.926    99936052.35344
      2587.784  
 20 10 01 04 45 40.0000000  0  9G29G 2G13G15G 5G18G 7G30G20
  21840833.481   114774351.23348     -2276.465    21840833.970    89434557.46949
     -1773.871  
  23805595.438   125099238.59547     -3105.441    23805595.101    97479919.48146
     -2419.827  
  20626733.171   108394216.16349      1076.023    20626732.571    84463024.76248
       838.456  
  21363488.545   112265900.62848      2876.507    21363489.911    87479927.03349
      2241.426  
  21238982.976   111611605.85348     -2248.507    21238982.697    86970080.55349
     -1752.086  
  21842790.919   114784648.51047      2668.020    21842791.868    89442588.48447
      2078.973  
  24741749.800   130018768.93946      -987.354    24741750.662   101313337.94645
      -769.375  
  23778245.491   124955520.18546       518.362    23778247.755    97367954.54744
       403.917  
  24402242.509   128234649.36546      3320.894    24402243.087    99923113.71344
      2587.706  
 20 10 01 04 45 45.0000000  0  9G29G 2G13G15G 5G18G 7G30G20
  21843000.895   114785741.28848     -2279.366    21843001.361    89443432.82549
     -1776.133  
  23808550.971   125114769.80747     -3106.827    23808550.682    97492021.75046
     -2420.905  
  20625710.924   108388844.90749      1072.406    20625710.529    84458839.35747
       835.636  
  21360752.919   112251524.75748      2873.898    21360754.249    87468725.08149
      2239.398  
  21241123.376   111622853.14049     -2250.374    21241122.866    86978844.65749
     -1753.542  
  21840253.134   114771312.92648      2666.386    21840254.259    89432197.12147
      2077.698  
  24742690.345   130023711.79146      -990.020    24742691.235   101317189.56245
      -771.444  
  23777753.569   124952935.43146       515.410    23777756.008    97365940.45845
       401.612  
  24399082.999   128218046.55946      3320.499    24399083.711    99910176.50444
      2587.406  
 20 10 01 04 45 50.0000000  0  9G29G 2G13G15G 5G18G 7G30G20
  21845170.790   114797144.63048     -2282.039    21845171.427    89452318.54049
     -1778.215  
  23811507.390   125130305.89447     -3107.605    23811507.161    97504127.78846
     -2421.515  
  20624691.887   108383489.89449      1069.266    20624691.395    84454666.61447
       833.190  
  21358019.556   112237160.08548      2871.734    21358020.543    87457531.82449
      2237.710  
  21243264.935   111634107.73348     -2251.632    21243264.534    86987614.46149
     -1754.522  
  21837716.914   114757984.78247      2664.883    21837717.839    89421811.56147
      2076.527  
  24743633.387   130028667.91246      -992.531    24743634.333   101321051.48445
      -773.402  
  23777264.548   124950365.10646       512.464    23777266.968    97363937.60845
       399.319  
  24395923.701   128201444.64946      3319.871    24395924.373    99897239.95145
      2586.909  
 20 10 01 04 45 55.0000000  0  9G29G 2G13G15G 5G18G 7G30G20
  21847343.588   114808562.29148     -2284.983    21847344.179    89461215.40749
     -1780.512  
  23814464.961   125145847.84647     -3109.027    23814464.851    97516238.34546
     -2422.629  
  20623676.276   108378152.16449      1065.738    20623675.697    84450507.34347
       830.441  
  21355288.288   112222807.67548      2869.253    21355289.501    87446348.13049
      2235.776  
  21245408.202   111645370.70848     -2253.511    21245407.718    86996390.81949
     -1755.987  
  21835182.378   114744665.08047      2662.991    21835183.192    89411432.57347
      2075.054  
  24744579.300   130033638.24946      -995.761    24744580.170   101324924.43545
      -775.925  
  23776778.385   124947810.14546       509.227    23776780.944    97361946.76544
       396.800  
  24392764.740   128184844.66645      3319.976    24392765.407    99884304.91745
      2586.991  
 20 10 01 04 46  0.0000000  0  9G29G 2G13G15G 5G18G 7G30G20
  21849519.036   114819994.94148     -2287.891    21849519.567    89470123.97549
     -1782.773  
  23817423.907   125161396.34047     -3109.999    23817423.764    97528354.07046
     -2423.379  
  20622663.892   108372832.39649      1062.237    20622663.424    84446362.06748
       827.714  
  21352559.681   112208468.19048      2866.773    21352560.668    87435174.51549
      2233.848  
  21247553.202   111656642.69548     -2255.285    21247552.880    87005174.17949
     -1757.367  
  21832649.361   114731354.51747      2661.241    21832650.241    89401060.71747
      2073.691  
  24745527.919   130038623.46746      -998.515    24745528.792   101328809.04145
      -778.066  
  23776295.265   124945271.27146       506.409    23776298.080    97359968.39245
       394.597  
  24389606.251   128168247.32245      3319.183    24389607.000    99871371.92444
      2586.375  
 20 10 01 04 46  5.0000000  0  9G29G 2G13G15G 5G18G 7G30G20
  21851697.162   114831440.69848     -2290.401    21851697.645    89479042.74649
     -1784.729  
  23820383.495   125176949.67447     -3111.094    23820383.445    97540473.52946
     -2424.233  
  20621654.561   108367528.79549      1059.051    20621654.093    84442229.39947
       825.229  
  21349832.982   112194139.85248      2864.590    21349834.028    87424009.56849
      2232.144  
  21249699.513   111667921.82548     -2256.520    21249699.249    87013963.10649
     -1758.332  
  21830117.870   114718051.28647      2660.007    21830118.767    89390694.56947
      2072.729  
  24746479.021   130043621.73046     -1000.601    24746479.599   101332703.78146
      -779.695  
  23775814.787   124942746.72046       502.992    23775817.732    97358001.22745
       391.938  
  24386447.824   128151650.73445      3319.070    24386448.848    99858439.53845
      2586.284  
 20 10 01 04 46 10.0000000  0  9G29G 2G13G15G 5G18G 7G30G20
  21853877.937   114842900.46848     -2293.722    21853878.409    89487972.42549
     -1787.319  
  23823344.325   125192508.56647     -3112.573    23823344.259    97552597.31646
     -2425.391  
  20620648.661   108362242.16049      1055.293    20620647.950    84438109.94447
       822.304  
  21347108.742   112179823.49848      2861.737    21347109.593    87412853.96449
      2229.922  
  21251847.351   111679208.94648     -2258.558    21251847.086    87022758.26549
     -1759.918  
  21827587.910   114704756.25248      2657.902    21827588.717    89380334.81047
      2071.089  
  24747432.704   130048633.98846     -1004.222    24747433.412   101336609.45445
      -782.511  
  23775337.333   124940237.17945       500.215    23775340.126    97356045.72944
       389.772  
  24383289.686   128135055.79845      3318.449    24383290.841    99845508.46744
      2585.805  
 20 10 01 04 46 15.0000000  0  9G29G 2G13G15G 5G18G 7G30G20
  21856061.369   114854374.88248     -2296.305    21856061.815    89496913.57348
     -1789.327  
  23826306.353   125208073.69147     -3113.563    23826305.990    97564725.98745
     -2426.155  
  20619645.970   108356973.23449      1052.133    20619645.479    84434004.27447
       819.839  
  21344386.794   112165519.81348      2859.472    21344387.855    87401708.24549
      2228.155  
  21253996.880   111690504.82948     -2259.926    21253996.640    87031560.23549
     -1760.984  
  21825059.680   114691470.09548      2656.479    21825060.386    89369981.96947
      2069.980  
  24748389.316   130053660.80246     -1007.043    24748389.958   101340526.47545
      -784.706  
  23774862.685   124937743.57445       496.883    23774865.643    97354102.67544
       387.184  
  24380132.161   128118463.23745      3317.934    24380133.297    99832579.19545
      2585.397  
 20 10 01 04 46 20.0000000  0  9G29G 2G13G15G 5G18G 7G30G20
  21858247.459   114865862.33648     -2298.972    21858247.672    89505864.79549
     -1791.413  
  23829269.335   125223643.42147     -3114.270    23829268.959    97576858.22346
     -2426.707  
  20618646.342   108351720.37349      1048.769    20618645.958    84429911.15147
       817.219  
  21341667.088   112151227.22648      2857.164    21341668.066    87390571.16449
      2226.359  
  21256147.766   111701807.77948     -2261.578    21256147.428    87040367.72949
     -1762.273  
  21822532.780   114678191.24348      2654.905    21822533.543    89359634.81247
      2068.754  
  24749348.329   130058700.48246     -1009.476    24749348.943   101344453.48245
      -786.608  
  23774390.916   124935264.10146       494.313    23774393.845    97352170.61945
       385.175  
  24376974.576   128101871.35945      3318.148    24376976.031    99819650.49945
      2585.566  
 20 10 01 04 46 25.0000000  0  9G29G 2G13G15G 5G18G 7G30G20
  21860436.235   114877364.27648     -2301.718    21860436.498    89514827.32549
     -1793.554  
  23832233.369   125239219.24547     -3115.788    23832233.066    97588995.24546
     -2427.891  
  20617650.151   108346485.01149      1045.296    20617649.623    84425831.64148
       814.516  
  21338949.655   112136947.20848      2854.762    21338950.483    87379443.89749
      2224.487  
  21258300.365   111713119.20348     -2263.203    21258299.921    87049181.82849
     -1763.539  
  21820007.594   114664921.08048      2653.129    21820008.384    89349294.42647
      2067.371  
  24750310.030   130063754.72046     -1012.808    24750310.581   101348391.82444
      -789.207  
  23773922.029   124932800.27046       491.219    23773924.998    97350250.73944
       382.765  
  24373817.501   128085281.63145      3317.559    24373819.008    99806723.45444
      2585.109  
 20 10 01 04 46 30.0000000  0  9G29G 2G13G15G 5G18G 7G30G20
  21862627.678   114888880.07148     -2304.527    21862627.788    89523800.66649
     -1795.737  
  23835198.430   125254800.55847     -3116.797    23835198.095    97601136.51346
     -2428.675  
  20616656.996   108341266.63149      1041.957    20616656.689    84421765.36848
       811.909  
  21336234.498   112122679.14648      2852.538    21336235.367    87368325.91749
      2222.754  
  21260454.322   111724438.60449     -2264.687    21260454.108    87058002.14549
     -1764.694  
  21817483.920   114651659.08448      2651.383    21817484.727    89338960.41147
      2066.008  
  24751274.363   130068822.76446     -1014.801    24751274.980   101352340.97044
      -790.757  
  23773455.993   124930351.48346       488.496    23773459.035    97348342.60445
       380.645  
  24370660.759   128068693.46045      3317.171    24370662.129    99793797.59643
      2584.805  
 20 10 01 04 46 35.0000000  0  9G29G 2G13G15G 5G18G 7G30G20
  21864821.580   114900409.50948     -2307.141    21864821.760    89532784.64749
     -1797.773  
  23838164.590   125270387.17647     -3117.723    23838164.088    97613281.91646
     -2429.398  
  20615667.079   108336064.95849      1038.671    20615666.921    84417712.12047
       809.351  
  21333521.455   112108422.82348      2850.159    21333522.687    87357217.10449
      2220.902  
  21262609.783   111735765.72149     -2266.194    21262609.540    87066828.46549
     -1765.870  
  21814961.775   114638405.03048      2649.875    21814962.481    89328632.58047
      2064.836  
  24752241.435   130073904.38546     -1018.055    24752241.929   101356300.65246
      -793.297  
  23772992.819   124927917.61346       485.597    23772996.110    97346446.09745
       378.382  
  24367504.234   128052106.74745      3317.437    24367505.581    99780872.93344
      2585.016  
 20 10 01 04 46 40.0000000  0  9G29G 2G13G15G 5G18G 7G30G20
  21867018.138   114911952.21948     -2309.890    21867018.182    89541778.97449
     -1799.917  
  23841131.567   125285978.71547     -3118.866    23841131.270    97625431.15446
     -2430.288  
  20614680.401   108330879.68249      1035.366    20614680.091    84413671.65448
       806.777  
  21330810.714   112094177.90448      2847.909    21330811.953    87346117.16349
      2219.148  
  21264766.765   111747100.17649     -2267.750    21264766.423    87075660.50949
     -1767.082  
  21812440.973   114625158.56448      2648.491    21812441.742    89318310.66747
      2063.757  
  24753210.858   130078999.23846     -1020.159    24753211.458   101360270.67844
      -794.934  
  23772532.552   124925498.23646       482.570    23772535.517    97344560.85845
       376.027  
  24364347.891   128035520.99145      3317.132    24364349.730    99767949.00344
      2584.780  
 20 10 01 04 46 45.0000000  0  9G29G 2G13G15G 5G18G 7G30G20
  21869217.391   114923509.40548     -2313.129    21869217.563    89550784.56949
     -1802.440  
  23844099.863   125301576.27847     -3120.293    23844099.402    97637585.06546
     -2431.402  
  20613696.961   108325711.98049      1031.608    20613696.703    84409644.87448
       803.847  
  21328102.491   112079945.66448      2844.930    21328103.671    87335027.10649
      2216.840  
  21266925.263   111758443.15848     -2269.644    21266925.028    87084499.19749
     -1768.559  
  21809921.890   114611920.94048      2646.414    21809922.716    89307995.64647
      2062.137  
  24754182.989   130084108.57146     -1023.867    24754183.646   101364251.97045
      -797.819  
  23772075.137   124923094.53646       479.039    23772078.117    97342687.84944
       373.273  
  24361192.139   128018937.49645      3316.250    24361193.715    99755026.80643
      2584.086  
 20 10 01 04 46 50.0000000  0  9G29G 2G13G15G 5G18G 7G30G20
  21871419.278   114935080.70848     -2315.551    21871419.615    89559801.16949
     -1804.327  
  23847069.125   125317179.57447     -3121.191    23847068.515    97649743.49446
     -2432.101  
  20612716.938   108320561.51749      1028.328    20612716.718    84405631.53248
       801.293  
  21325396.513   112065725.65048      2842.914    21325397.570    87323946.57749
      2215.253  
  21269085.278   111769794.26849     -2270.999    21269085.101    87093344.21349
     -1769.612  
  21807404.491   114598691.79547      2644.809    21807405.414    89297687.21447
      2060.886  
  24755157.818   130089231.92546     -1026.121    24755158.792   101368244.18845
      -799.578  
  23771620.764   124920706.19746       476.456    23771623.539    97340826.80345
       371.261  
  24358036.587   128002355.86545      3316.495    24358038.638    99742106.04142
      2584.280  
 20 10 01 04 46 55.0000000  0  9G29G 2G13G15G 5G18G 7G30G20
  21873623.646   114946664.93048     -2318.354    21873623.839    89568827.81649
     -1806.515  
  23850039.270   125332787.41847     -3122.441    23850038.571    97661905.50146
     -2433.069  
  20611739.972   108315427.15449      1024.987    20611739.657    84401630.72247
       798.687  
  21322692.601   112051516.74548      2840.546    21322693.675    87312874.73449
      2213.409  
  21271246.642   111781152.40749     -2272.585    21271246.399    87102194.70949
     -1770.847  
  21804888.438   114585469.94448      2643.363    21804889.349    89287384.47447
      2059.719  
  24756135.261   130094368.23546     -1028.440    24756136.215   101372246.54045
      -801.386  
  23771168.998   124918332.06045       473.370    23771171.690    97338976.84045
       368.854  
  24354881.249   127985774.98244      3315.620    24354883.291    99729185.92445
      2583.602  
 20 10 01 04 47  0.0000000  0  8G29G 2G13G15G 5G18G 7G30
  21875831.052   114958264.30048     -2321.453    21875831.258    89577866.26349
     -1808.929  
  23853010.763   125348402.09247     -3123.581    23853009.863    97674072.72545
     -2433.968  
  20610766.421   108310311.10949      1021.164    20610766.265    84397644.18947
       795.711  
  21319991.366   112037321.22648      2837.563    21319992.451    87301813.27049
      2211.086  
  21273409.716   111792519.78248     -2274.469    21273409.659    87111052.39749
     -1772.316  
  21802374.285   114572257.73048      2641.358    21802375.232    89277089.24447
      2058.198  
  24757115.439   130099519.73346     -1031.563    24757116.476   101376260.70144
      -803.813  
  23770720.335   124915974.41146       469.715    23770722.873    97337139.66445
       366.003  
 20 10 01 04 47  5.0000000  0  8G29G 2G13G15G 5G18G 7G30
  21878040.557   114969875.17448     -2323.632    21878040.612    89586913.73049
     -1810.625  
  23855982.602   125364019.89947     -3124.227    23855981.770    97686242.43946
     -2434.465  
  20609795.518   108305209.63749      1018.602    20609795.557    84393669.01947
       793.711  
  21317291.876   112023135.37048      2835.933    21317292.943    87290759.35949
      2209.815  
  21275573.913   111803892.68249     -2275.499    21275573.872    87119914.39449
     -1773.121  
  21799861.278   114559051.31848      2640.409    21799862.101    89266798.54747
      2057.507  
  24758097.954   130104682.69346     -1033.824    24758098.853   101380283.80745
      -805.578  
  23770274.100   124913629.49345       467.250    23770276.750    97335312.49244
       364.086  
 20 10 01 04 47 10.0000000  0  9G29G 2G13G15G 5G18G 7G30G20
  21880253.119   114981502.67348     -2326.664    21880253.411    89595974.11849
     -1812.987  
  23858956.383   125379646.00547     -3125.887    23858955.213    97698418.62846
     -2435.757  
  20608828.624   108300128.04349      1014.477    20608828.517    84389709.34148
       790.496  
  21314595.270   112008964.45248      2832.633    21314596.360    87279717.08249
      2207.241  
  21277740.189   111815276.32448     -2277.766    21277740.031    87128784.76349
     -1774.887  
  21797350.363   114545856.06048      2638.098    21797351.130    89256516.54147
      2055.655  
  24759083.675   130109862.28846     -1037.258    24759084.503   101384319.84944
      -808.257  
  23769831.301   124911302.53945       463.976    23769833.893    97333499.28245
       361.535  
  24345417.964   127936038.24054      3314.929    24345420.398    99690445.74155
      2583.055  
 20 10 01 04 47 15.0000000  0  9G29G 2G13G15G 5G18G 7G30G20
  21882468.555   114993144.58248     -2329.590    21882468.677    89605045.69849
     -1815.273  
  23861931.099   125395278.15047     -3126.699    23861929.982    97710599.49646
     -2436.395  
  20607864.980   108295064.02849      1011.555    20607864.877    84385763.36648
       788.222  
  21311901.123   111994806.21048      2830.984    21311901.961    87268684.68949
      2205.956  
  21279907.963   111826668.49048     -2278.948    21279907.866    87137661.77949
     -1775.808  
  21794840.979   114532669.62648      2636.703    21794841.849    89246241.39047
      2054.569  
  24760072.026   130115056.32846     -1040.285    24760073.025   101388367.15045
      -810.612  
  23769391.525   124908991.34346       460.914    23769394.013    97331698.36245
       359.152  
  24342263.940   127919466.35745      3314.093    24342264.844    99677532.61844
      2582.405  
 20 10 01 04 47 20.0000000  0  9G29G 2G13G15G 5G18G 7G30G20
  21884686.081   115004797.01448     -2331.897    21884686.167    89614125.51249
     -1817.070  
  23864906.162   125410912.42847     -3127.336    23864905.297    97722782.03946
     -2436.886  
  20606903.803   108290013.72749      1008.362    20606903.904    84381828.06048
       785.733  
  21309208.488   111980656.72648      2828.477    21309209.511    87257659.12049
      2204.003  
  21282076.707   111838065.25249     -2280.198    21282076.680    87146542.36849
     -1776.781  
  21792332.698   114519488.21048      2635.460    21792333.539    89235970.15647
      2053.601  
  24761062.287   130120260.90346     -1042.398    24761063.372   101392422.67246
      -812.262  
  23768953.848   124906691.99246       457.866    23768956.432    97329906.63344
       356.776  
  24339110.000   127902892.85244      3314.500    24339112.825    99664618.18742
      2582.722  
 20 10 01 04 47 25.0000000  0  9G29G 2G13G15G 5G18G 7G30G20
  21886906.241   115016464.72148     -2335.229    21886906.563    89623217.22249
     -1819.664  
  23867882.574   125426553.73647     -3129.304    23867881.773    97734970.05546
     -2438.425  
  20605946.247   108284981.98649      1004.468    20605946.357    84377907.22148
       782.698  
  21306518.529   111966520.92548      2825.690    21306519.513    87246644.21549
      2201.835  
  21284247.186   111849471.44749     -2282.410    21284247.200    87155430.31549
     -1778.504  
  21789826.148   114506316.66548      2633.136    21789826.932    89225706.61347
      2051.792  
  24762055.586   130125480.81446     -1045.523    24762056.859   101396490.11745
      -814.694  
  23768519.649   124904409.32345       454.750    23768522.054    97328127.92944
       354.347  
  24335956.558   127886322.46744      3313.874    24335959.759    99651706.22245
      2582.237  
 20 10 01 04 47 30.0000000  0  9G29G 2G13G15G 5G18G 7G30G20
  21889129.301   115028146.57248     -2337.750    21889129.388    89632319.97649
     -1821.625  
  23870860.183   125442200.86547     -3129.530    23870859.171    97747162.62845
     -2438.598  
  20604992.127   108279967.67849      1001.276    20604991.991    84373999.97147
       780.215  
  21303831.052   111952397.63948      2823.559    21303832.000    87235639.04649
      2200.172  
  21286419.168   111860885.91548     -2283.555    21286419.200    87164324.70049
     -1779.395  
  21787321.309   114493153.74648      2631.999    21787322.069    89215449.80547
      2050.906  
  24763051.634   130130714.89747     -1048.011    24763052.638   101400568.66746
      -816.632  
  23768088.271   124902142.19845       452.063    23768090.866    97326361.31644
       352.250  
  24332803.979   127869754.21145      3313.762    24332806.516    99638795.93945
      2582.151  
 20 10 01 04 47 35.0000000  0  9G29G 2G13G15G 5G18G 7G30G20
  21891354.593   115039840.40348     -2340.055    21891354.935    89641432.06349
     -1823.422  
  23873838.476   125457851.64947     -3130.867    23873837.594    97759358.02045
     -2439.640  
  20604040.877   108274968.54449       998.070    20604040.799    84370104.53148
       777.714  
  21301145.467   111938284.63648      2821.604    21301146.186    87224641.90249
      2198.651  
  21288592.487   111872306.43749     -2284.758    21288592.407    87173223.80649
     -1780.332  
  21784817.827   114479997.38748      2630.491    21784818.645    89205198.11247
      2049.730  
  24764050.090   130135961.09946     -1050.386    24764050.982   101404656.62545
      -818.487  
  23767659.373   124899888.41545       449.179    23767661.955    97324605.15344
       350.007  
  24329651.137   127853185.78645      3313.827    24329653.919    99625885.48944
      2582.199  
 20 10 01 04 47 40.0000000  0  9G29G 2G13G15G 5G18G 7G30G20
  21893582.573   115051548.48548     -2343.214    21893582.957    89650555.22149
     -1825.886  
  23876817.845   125473508.43346     -3131.843    23876816.961    97771558.09245
     -2440.402  
  20603092.824   108269986.99149       994.405    20603092.789    84366222.80547
       774.859  
  21298462.375   111924184.33148      2818.761    21298463.072    87213654.65549
      2196.434  
  21290767.336   111883735.40848     -2286.672    21290767.345    87182129.50049
     -1781.824  
  21782315.851   114466849.91648      2628.465    21782316.719    89194953.32847
      2048.151  
  24765051.017   130141221.63146     -1053.508    24765052.024   101408755.72245
      -820.917  
  23767233.487   124897650.34245       446.085    23767236.175    97322861.18944
       347.593  
  24326499.013   127836619.57645      3313.031    24326501.099    99612976.77743
      2581.578  
 20 10 01 04 47 45.0000000  0  9G29G 2G13G15G 5G18G 7G30G20
  21895813.394   115063271.31348     -2345.851    21895813.658    89659689.88349
     -1827.940  
  23879798.310   125489171.63147     -3133.531    23879797.603    97783763.20046
     -2441.714  
  20602148.400   108265023.41449       990.960    20602148.414    84362355.09148
       772.175  
  21295781.723   111910097.16048      2816.109    21295782.376    87202677.65149
      2194.367  
  21292943.910   111895173.22849     -2288.527    21292943.994    87191042.07949
     -1783.270  
  21779815.764   114453711.74548      2626.546    21779816.530    89184715.78447
      2046.656  
  24766054.865   130146496.95247     -1056.542    24766056.049   101412866.35345
      -823.284  
  23766810.691   124895428.43946       442.554    23766813.315    97321129.83245
       344.843  
  24323347.252   127820056.05745      3312.313    24323349.175    99600070.11344
      2581.020  
 20 10 01 04 47 50.0000000  0  9G29G 2G13G15G 5G18G 7G30G20
  21898046.660   115075007.48348     -2348.500    21898047.038    89668834.95349
     -1830.003  
  23882779.740   125504839.84147     -3133.891    23882779.271    97795972.19446
     -2441.996  
  20601207.010   108260076.50249       987.819    20601206.987    84358500.35648
       769.726  
  21293103.120   111896021.72348      2814.112    21293103.880    87191709.78449
      2192.812  
  21295121.835   111906618.54949     -2289.664    21295121.873    87199960.50449
     -1784.155  
  21777317.202   114440581.55748      2625.340    21777318.030    89174484.46947
      2045.715  
  24767061.428   130151785.69247     -1059.129    24767062.461   101416987.40945
      -825.300  
  23766390.784   124893221.31345       440.172    23766393.234    97319409.98644
       342.987  
  24320195.308   127803493.85345      3312.184    24320197.283    99587164.52045
      2580.921  
 20 10 01 04 47 55.0000000  0  9G29G 2G13G15G 5G18G 7G30G20
  21900282.389   115086756.78948     -2350.983    21900283.092    89677990.25049
     -1831.937  
  23885762.278   125520512.96747     -3135.070    23885761.818    97808185.00546
     -2442.914  
  20600268.845   108255146.03549       984.558    20600268.704    84354658.43248
       767.183  
  21290426.775   111881957.87648      2811.866    21290427.583    87180750.95249
      2191.062  
  21297301.302   111918071.13249     -2291.089    21297301.236    87208884.60049
     -1785.269  
  21774820.161   114427459.14548      2623.941    21774820.949    89164259.21547
      2044.624  
  24768070.429   130157087.59346     -1061.465    24768071.299   101421118.77645
      -827.116  
  23765973.403   124891028.77446       437.051    23765976.026    97317701.52544
       340.554  
  24317043.796   127786932.76545      3312.359    24317045.616    99574259.78145
      2581.055  
 20 10 01 04 48  0.0000000  0  9G29G 2G13G15G 5G18G 7G30G20
  21902520.809   115098519.95048     -2354.094    21902521.573    89687156.33049
     -1834.362  
  23888745.925   125536191.60747     -3136.214    23888745.302    97820402.12646
     -2443.809  
  20599333.719   108250232.75849       980.905    20599333.602    84350829.90647
       764.339  
  21287752.893   111867906.34148      2809.151    21287753.709    87169801.69749
      2188.945  
  21299482.067   111929531.69349     -2292.961    21299482.063    87217814.90849
     -1786.727  
  21772324.631   114414345.26248      2621.824    21772325.332    89154040.61247
      2042.976  
  24769082.034   130162403.42646     -1064.472    24769082.750   101425260.99845
      -829.461  
  23765559.111   124888851.55945       434.093    23765561.905    97316005.02044
       338.253  
  24313892.947   127770373.50545      3311.753    24313895.252    99561356.47444
      2580.586  
 20 10 01 04 48  5.0000000  0  9G29G 2G13G15G 5G18G 7G30G20
  21904761.892   115110296.92148     -2356.890    21904762.729    89696333.17849
     -1836.543  
  23891730.450   125551875.76247     -3137.465    23891729.855    97832623.52646
     -2444.780  
  20598402.032   108245336.64849       977.409    20598401.934    84347014.75848
       761.613  
  21285081.321   111853867.10648      2806.457    21285082.306    87158862.02949
      2186.848  
  21301664.538   111941000.21848     -2294.566    21301664.610    87226751.41549
     -1787.977  
  21769830.623   114401239.85048      2620.374    21769831.442    89143828.61147
      2041.847  
  24770096.297   130167733.16447     -1067.512    24770097.232   101429414.03945
      -831.831  
  23765147.512   124886689.65345       430.897    23765150.365    97314320.39544
       335.762  
  24310742.167   127753816.10745      3311.023    24310744.404    99548454.62346
      2580.015  
 20 10 01 04 48 10.0000000  0  9G29G 2G13G15G 5G18G 7G30G20
  21907005.813   115122088.24648     -2359.324    21907006.569    89705521.23249
     -1838.437  
  23894716.379   125567566.01947     -3138.413    23894715.545    97844849.67846
     -2445.523  
  20597473.769   108240458.31249       974.086    20597473.663    84343213.45647
       759.023  
  21282412.024   111839840.72948      2804.141    21282413.088    87147932.40249
      2185.042  
  21303848.515   111952477.28448     -2296.043    21303848.608    87235694.58749
     -1789.129  
  21767338.553   114388143.55748      2618.719    21767339.252    89133623.70047
      2040.559  
  24771113.167   130173077.38147     -1070.151    24771114.025   101433578.35545
      -833.886  
  23764739.045   124884543.61445       427.992    23764742.084    97312648.17745
       333.496  
  24307591.982   127737261.05545      3311.176    24307594.110    99535554.60244
      2580.133  
 20 10 01 04 48 15.0000000  0  9G29G 2G13G15G 5G18G 7G30G20
  21909252.034   115133892.40448     -2362.280    21909252.807    89714719.26549
     -1840.742  
  23897702.876   125583260.79247     -3139.496    23897702.086    97857079.37946
     -2446.362  
  20596548.563   108235596.16649       970.714    20596548.336    84339424.77247
       756.398  
  21279745.026   111825825.72048      2801.891    21279746.073    87137011.60749
      2183.288  
  21306033.831   111963961.35148     -2297.551    21306034.088    87244643.20049
     -1790.301  
  21764847.821   114375054.79648      2617.030    21764848.537    89123424.66747
      2039.242  
  24772132.537   130178434.52047     -1072.734    24772133.394   101437752.75045
      -835.897  
  23764333.281   124882411.93745       424.827    23764336.330    97310987.11945
       331.030  
  24304441.843   127720706.92745      3310.832    24304444.193    99522655.34145
      2579.874  
 20 10 01 04 48 20.0000000  0  9G29G 2G13G15G 5G18G 7G30G20
  21911500.917   115145710.23948     -2364.941    21911501.480    89723927.95549
     -1842.815  
  23900690.486   125598960.97747     -3140.457    23900689.706    97869313.27346
     -2447.112  
  20595626.573   108230751.11049       967.437    20595626.438    84335649.41048
       753.844  
  21277080.329   111811822.95148      2799.313    21277081.480    87126100.36149
      2181.276  
  21308220.662   111975453.28849     -2299.242    21308220.775    87253597.94149
     -1791.620  
  21762358.752   114361974.49548      2615.227    21762359.537    89113232.22247
      2037.835  
  24773154.598   130183805.45646     -1075.410    24773155.282   101441937.89745
      -837.984  
  23763930.404   124880295.49145       421.687    23763933.611    97309337.92845
       328.585  
  24301292.186   127704154.49245      3310.229    24301294.261    99509757.30445
      2579.398  
 20 10 01 04 48 25.0000000  0  9G29G 2G13G15G 5G18G 7G30G20
  21913752.288   115157541.61948     -2367.476    21913753.121    89733147.20349
     -1844.788  
  23903679.251   125614666.48347     -3141.602    23903678.381    97881551.30746
     -2448.007  
  20594707.822   108225923.03749       963.862    20594707.732    84331887.27348
       751.059  
  21274418.107   111797832.31748      2796.953    21274419.090    87115198.56649
      2179.440  
  21310408.845   111986952.92349     -2300.612    21310409.181    87262558.69149
     -1792.688  
  21759871.234   114348902.50148      2613.488    21759872.007    89103046.26647
      2036.479  
  24774179.314   130189190.09346     -1078.858    24774179.989   101446133.71445
      -840.672  
  23763530.554   124878194.10545       419.233    23763533.894    97307700.49844
       326.672  
  24298142.738   127687603.71945      3310.105    24298144.792    99496860.62845
      2579.305  
 20 10 01 04 48 30.0000000  0  9G29G 2G13G15G 5G18G 7G30G20
  21916006.542   115169387.48948     -2371.073    21916007.184    89742377.74649
     -1847.593  
  23906669.124   125630378.17947     -3143.116    23906668.311    97893794.19346
     -2449.184  
  20593792.311   108221112.84049       959.991    20593792.450    84328139.06747
       748.043  
  21271758.186   111783854.74548      2794.030    21271759.124    87104306.95249
      2177.164  
  21312598.935   111998461.20849     -2302.808    21312599.296    87271526.19049
     -1794.397  
  21757385.396   114335839.77248      2611.429    21757386.201    89092867.52447
      2034.878  
  24775206.632   130194589.28046     -1081.633    24775207.349   101450340.89345
      -842.831  
  23763133.504   124876108.81645       415.383    23763137.124    97306075.63244
       323.675  
  24294993.447   127671055.49045      3309.586    24294995.568    99483965.92745
      2578.897  
 20 10 01 04 48 35.0000000  0  9G29G 2G13G15G 5G18G 7G30G20
  21918263.454   115181247.07748     -2373.145    21918263.971    89751618.97649
     -1849.207  
  23909659.968   125646095.42547     -3143.796    23909659.145    97906041.41046
     -2449.714  
  20592880.234   108216319.84249       956.984    20592880.314    84324404.27147
       745.698  
  21269100.754   111769889.56548      2791.930    21269101.640    87093424.99649
      2175.527  
  21314790.378   112009977.41049     -2303.933    21314790.650    87280499.85649
     -1795.276  
  21754901.297   114322785.64848      2610.035    21754902.104    89082695.46947
      2033.788  
  24776236.677   130200002.39147     -1083.976    24776237.560   101454558.90545
      -844.660  
  23762739.567   124874038.84645       412.645    23762743.179    97304462.68046
       321.543  
  24291844.929   127654509.16745      3309.206    24291847.135    99471072.68445
      2578.601  
 20 10 01 04 48 40.0000000  0  9G29G 2G13G15G 5G18G 7G30G20
  21920522.613   115193119.29148     -2375.769    21920523.408    89760870.05649
     -1851.254  
  23912651.695   125661817.08847     -3144.809    23912650.923    97918292.05345
     -2450.504  
  20591971.199   108211542.89149       953.746    20591971.114    84320681.97047
       743.176  
  21266445.422   111755935.57748      2789.640    21266446.353    87082551.76049
      2173.741  
  21316983.154   112021500.39949     -2305.417    21316983.438    87289478.80049
     -1796.433  
  21752418.493   114309738.92448      2608.347    21752419.480    89072529.19347
      2032.476  
  24777269.233   130205428.29147     -1087.007    24777270.178   101458786.86545
      -847.023  
  23762348.462   124871983.08145       409.433    23762352.027    97302860.76345
       319.035  
  24288696.409   127637963.58545      3309.297    24288698.960    99458180.05744
      2578.668  
 20 10 01 04 48 45.0000000  0  9G29G 2G13G15G 5G18G 7G30G20
  21922784.442   115205005.68948     -2378.406    21922785.291    89770132.18149
     -1853.309  
  23915644.466   125677544.61047     -3145.863    23915643.639    97930547.25645
     -2451.324  
  20591065.591   108206783.54949       950.289    20591065.579    84316973.39248
       740.479  
  21263792.551   111741994.39748      2787.211    21263793.515    87071688.51849
      2171.848  
  21319177.427   112033031.75949     -2306.917    21319177.947    87298464.28949
     -1797.602  
  21749937.651   114296701.23148      2607.124    21749938.301    89062369.96547
      2031.523  
  24778304.449   130210868.44946     -1089.569    24778305.481   101463025.94545
      -849.019  
  23761960.340   124869943.10946       406.538    23761964.033    97301271.20745
       316.780  
  24285548.461   127621420.22445      3308.890    24285551.039    99445289.12845
      2578.352  
 20 10 01 04 48 50.0000000  0  9G29G 2G13G15G 5G18G 7G30G20
  21925048.913   115216905.03048     -2381.105    21925049.609    89779404.37149
     -1855.409  
  23918638.111   125693276.88347     -3146.867    23918637.397    97942806.16546
     -2452.108  
  20590163.040   108202040.64349       946.930    20590162.988    84313277.62248
       737.863  
  21261141.778   111728064.86448      2784.839    21261142.901    87060834.32349
      2169.999  
  21321373.235   112044570.33849     -2308.491    21321373.655    87307455.37949
     -1798.828  
  21747458.118   114283671.38548      2605.222    21747458.865    89052216.83747
      2030.039  
  24779342.080   130216321.76947     -1091.952    24779343.432   101467275.27745
      -850.874  
  23761574.874   124867917.65745       403.604    23761578.371    97299692.92544
       314.496  
  24282400.665   127604878.03645      3307.741    24282403.194    99432399.13546
      2577.457  
 20 10 01 04 48 55.0000000  0  9G29G 2G13G15G 5G18G 7G30G20
  21927315.651   115228817.91148     -2384.124    21927316.611    89788687.14949
     -1857.762  
  23921632.956   125709014.40247     -3147.808    23921632.160    97955069.15346
     -2452.840  
  20589263.725   108197314.74149       943.484    20589263.831    84309595.09948
       735.180  
  21258493.475   111714147.56448      2782.327    21258494.498    87049989.68149
      2168.043  
  21323570.371   112056116.61549     -2310.007    21323570.817    87316452.48449
     -1800.007  
  21744980.139   114270649.95648      2603.487    21744981.137    89042070.26947
      2028.672  
  24780382.353   130221788.72047     -1094.862    24780383.786   101471535.25645
      -853.144  
  23761192.402   124865907.44345       400.234    23761195.815    97298126.54844
       311.867  
  24279253.119   127588337.47845      3307.819    24279255.525    99419510.39545
      2577.520  
 20 10 01 04 49  0.0000000  0  9G29G 2G13G15G 5G18G 7G30G20
  21929585.273   115240744.26547     -2386.633    21929586.057    89797980.40049
     -1859.719  
  23924628.680   125724757.22347     -3149.362    23924627.883    97967336.26546
     -2454.055  
  20588367.650   108192605.86749       939.965    20588367.618    84305925.85048
       732.437  
  21255847.430   111700242.50448      2779.621    21255848.522    87039154.57249
      2165.934  
  21325769.040   112067670.63849     -2311.664    21325769.399    87325455.62449
     -1801.301  
  21742503.859   114257636.95248      2601.487    21742504.847    89031930.27447
      2027.129  
  24781425.340   130227269.37246     -1097.331    24781426.686   101475805.88544
      -855.065  
  23760812.795   124863912.34445       397.577    23760815.992    97296571.92544
       309.797  
  24276105.928   127571798.66145      3307.461    24276108.249    99406623.01345
      2577.238  
 20 10 01 04 49  5.0000000  0  9G29G 2G13G15G 5G18G 7G30G20
  21931857.560   115252685.15348     -2389.465    21931858.208    89807284.97949
     -1861.926  
  23927625.567   125740506.28647     -3150.594    23927624.831    97979608.26545
     -2455.012  
  20587475.197   108187915.02449       936.367    20587475.049    84302270.64848
       729.633  
  21253203.892   111686350.71148      2777.184    21253204.986    87028329.79649
      2164.035  
  21327969.398   112079233.37849     -2313.355    21327969.691    87334465.54449
     -1802.617  
  21740029.462   114244633.37748      2599.711    21740030.272    89021797.61747
      2025.745  
  24782470.973   130232764.71246     -1100.390    24782472.337   101480087.96144
      -857.449  
  23760436.266   124861933.45045       394.128    23760439.172    97295029.90944
       307.108  
  24272959.323   127555262.51545      3307.257    24272961.311    99393737.73345
      2577.086  
 20 10 01 04 49 10.0000000  0  9G29G 2G13G15G 5G18G 7G30G20
  21934132.141   115264638.43548     -2392.063    21934133.018    89816599.22649
     -1863.948  
  23930623.292   125756259.49547     -3151.245    23930622.398    97991883.45746
     -2455.522  
  20586585.586   108183240.02449       933.272    20586585.418    84298627.79048
       727.222  
  21250562.423   111672469.94848      2774.840    21250563.637    87017513.62949
      2162.211  
  21330170.915   112090802.64849     -2314.656    21330171.175    87343480.56849
     -1803.632  
  21737556.406   114231637.13148      2598.438    21737557.154    89011670.67447
      2024.753  
  24783519.160   130238272.53247     -1102.929    24783520.505   101484379.78544
      -859.429  
  23760062.407   124859968.52646       391.566    23760065.509    97293498.78843
       305.113  
  24269812.748   127538726.87145      3306.684    24269814.551    99380852.81045
      2576.633  
 20 10 01 04 49 15.0000000  0  9G29G 2G13G15G 5G18G 7G30G20
  21936409.444   115276605.58848     -2394.605    21936410.341    89825924.23349
     -1865.934  
  23933622.118   125772018.40047     -3152.043    23933621.393    98004163.12046
     -2456.141  
  20585699.202   108178582.51349       929.934    20585699.201    84294998.56548
       724.620  
  21247923.462   111658601.92448      2772.401    21247924.672    87006707.38549
      2160.308  
  21332374.132   112102380.16249     -2316.101    21332374.402    87352502.00449
     -1804.758  
  21735084.883   114218649.75548      2596.652    21735085.752    89001550.63247
      2023.362  
  24784570.028   130243794.44546     -1105.922    24784571.405   101488682.57744
      -861.762  
  23759691.655   124858019.30846       388.398    23759694.427    97291979.89544
       302.640  
  24266666.670   127522193.33946      3306.984    24266668.380    99367969.54745
      2576.867  
 20 10 01 04 49 20.0000000  0  9G29G 2G13G15G 5G18G 7G30G20
  21938689.427   115288586.41848     -2397.417    21938690.085    89835259.96449
     -1868.121  
  23936621.979   125787782.81147     -3153.418    23936621.283    98016447.07746
     -2457.210  
  20584816.223   108173942.30449       926.378    20584816.182    84291382.81448
       721.851  
  21245286.956   111644746.39848      2769.956    21245287.887    86995910.87849
      2158.406  
  21334578.683   112113965.59349     -2317.698    21334578.882    87361529.61049
     -1806.003  
  21732615.246   114205671.10048      2594.949    21732616.074    88991437.40047
      2022.034  
  24785623.531   130249330.32647     -1108.410    24785624.958   101492996.26244
      -863.695  
  23759323.700   124856085.43945       385.730    23759326.288    97290472.95944
       300.562  
  24263520.853   127505661.76845      3306.441    24263522.302    99355087.82044
      2576.445  
 20 10 01 04 49 25.0000000  0  9G29G 2G13G15G 5G18G 7G30G20
  21940971.686   115300579.73648     -2400.199    21940972.511    89844605.40049
     -1870.288  
  23939622.732   125803551.53147     -3154.190    23939621.956    98028734.39246
     -2457.816  
  20583936.315   108169318.16849       923.254    20583936.315    84287779.59148
       719.414  
  21242652.555   111630902.24648      2767.710    21242653.538    86985123.22349
      2156.656  
  21336784.532   112125557.72248     -2319.171    21336784.839    87370562.44449
     -1807.147  
  21730146.746   114192699.95248      2593.410    21730147.848    88981330.02147
      2020.836  
  24786679.354   130254878.93347     -1111.438    24786680.638   101497319.81344
      -866.063  
  23758958.419   124854165.81345       382.418    23758961.060    97288977.16044
       297.984  
  24260375.276   127489130.99245      3306.226    24260376.570    99342206.73045
      2576.280  
 20 10 01 04 49 30.0000000  0  9G29G 2G13G15G 5G18G 7G30G20
  21943256.797   115312587.04548     -2403.238    21943257.392    89853961.76049
     -1872.655  
  23942624.628   125819326.13347     -3155.460    23942623.763    98041026.26145
     -2458.809  
  20583059.621   108164711.67349       919.297    20583059.873    84284190.11548
       716.331  
  21240020.448   111617070.93148      2764.836    21240021.450    86974345.57649
      2154.414  
  21338992.122   112137158.05648     -2321.102    21338992.240    87379601.66349
     -1808.652  
  21727680.145   114179737.90348      2591.281    21727681.079    88971229.73447
      2019.176  
  24787737.980   130260441.67747     -1113.874    24787739.389   101501654.40945
      -867.957  
  23758596.000   124852261.97645       379.280    23758598.646    97287493.66744
       295.539  
  24257230.116   127472602.50445      3305.586    24257231.445    99329327.37444
      2575.776  
 20 10 01 04 49 35.0000000  0  9G29G 2G13G15G 5G18G 7G30G20
  21945544.374   115324608.96648     -2405.445    21945545.216    89863329.45749
     -1874.378  
  23945627.611   125835107.13147     -3156.738    23945626.819    98053323.14847
     -2459.801  
  20582186.574   108160123.40249       916.046    20582186.579    84280614.84048
       713.801  
  21237391.194   111603253.10948      2762.520    21237392.006    86963578.44249
      2152.609  
  21341201.216   112148767.30048     -2322.394    21341201.366    87388647.82249
     -1809.660  
  21725215.473   114166785.62248      2589.589    21725216.508    88961137.03948
      2017.858  
  24788799.403   130266019.33647     -1116.730    24788800.763   101506000.65345
      -870.183  
  23758236.934   124850374.60346       376.456    23758239.356    97286023.00043
       293.340  
  24254085.414   127456076.95346      3304.831    24254086.649    99316450.30743
      2575.191  
 20 10 01 04 49 40.0000000  0  9G29G 2G13G15G 5G18G 7G30G20
  21947834.619   115336643.41248     -2408.476    21947835.233    89872706.94449
     -1876.738  
  23948631.392   125850892.45347     -3157.633    23948630.662    98065623.41245
     -2460.496  
  20581316.559   108155551.25649       912.805    20581316.712    84277052.13248
       711.273  
  21234763.853   111589446.65348      2760.038    21234764.751    86952820.17549
      2150.675  
  21343411.661   112160383.29849     -2323.867    21343411.956    87397699.25549
     -1810.809  
  21722752.134   114153840.84448      2588.140    21722753.160    88951050.20047
      2016.729  
  24789863.176   130271609.78246     -1119.386    24789864.591   101510356.85144
      -872.253  
  23757880.561   124848501.47745       372.843    23757882.966    97284563.39244
       290.523  
  24250941.060   127439552.20045      3304.659    24250941.951    99303573.91844
      2575.063  
 20 10 01 04 49 45.0000000  0  9G29G 2G13G15G 5G18G 7G30G20
  21950127.321   115348691.11048     -2411.128    21950127.915    89882094.74749
     -1878.805  
  23951636.111   125866682.88846     -3158.800    23951635.476    98077927.62546
     -2461.405  
  20580449.591   108150995.99549       909.117    20580449.761    84273502.57848
       708.398  
  21232138.983   111575652.33748      2757.437    21232139.703    86942071.35949
      2148.648  
  21345623.457   112172006.80149     -2325.702    21345623.795    87406756.52349
     -1812.238  
  21720290.514   114140904.47448      2586.171    21720291.277    88940969.91747
      2015.195  
  24790929.644   130277213.60747     -1122.304    24790931.085   101514723.46644
      -874.527  
  23757527.040   124846643.33546       369.738    23757529.338    97283115.50144
       288.105  
  24247796.726   127423028.98845      3303.913    24247797.813    99290698.69744
      2574.479  
 20 10 01 04 49 50.0000000  0  9G29G 2G13G15G 5G18G 7G30G20
  21952422.692   115360753.33748     -2413.870    21952423.257    89891493.88349
     -1880.940  
  23954642.072   125882479.69247     -3159.859    23954641.489    98090236.83746
     -2462.229  
  20579586.226   108146458.92349       905.815    20579586.484    84269967.19948
       705.828  
  21229516.576   111561871.52748      2754.957    21229517.339    86931333.05749
      2146.715  
  21347837.132   112183639.08949     -2327.207    21347837.338    87415820.64349
     -1813.409  
  21717830.586   114127977.78048      2584.332    21717831.579    88930897.17847
      2013.762  
  24791998.931   130282832.28047     -1124.937    24792000.226   101519101.63844
      -876.578  
  23757176.537   124844801.58445       367.066    23757178.920    97281680.37644
       286.023  
  24244653.103   127406508.66945      3303.887    24244654.043    99277825.76745
      2574.461  
 20 10 01 04 49 55.0000000  0  9G29G 2G13G15G 5G18G 7G30G20
  21954720.477   115372828.49548     -2416.155    21954721.271    89900903.11649
     -1882.722  
  23957649.054   125898281.21047     -3160.516    23957648.398    98102549.69245
     -2462.742  
  20578726.102   108141938.43849       902.387    20578726.135    84266444.74648
       703.156  
  21226896.431   111548102.57248      2752.593    21226897.209    86920604.00249
      2144.874  
  21350051.985   112195278.59449     -2328.648    21350052.346    87424890.38749
     -1814.535  
  21715372.407   114115059.12048      2583.058    21715373.105    88920830.70047
      2012.770  
  24793070.610   130288464.12047     -1127.409    24793071.985   101523490.06244
      -878.504  
  23756828.874   124842974.57445       364.102    23756831.146    97280256.73945
       283.715  
  24241509.606   127389989.63545      3303.784    24241510.579    99264953.77743
      2574.374  
 20 10 01 04 50  0.0000000  0  9G29G 2G13G15G 5G18G 7G30G20
  21957020.947   115384917.55048     -2419.378    21957021.714    89910323.13949
     -1885.234  
  23960657.016   125914088.50047     -3162.128    23960656.574    98114867.04545
     -2463.999  
  20577869.204   108137435.50549       898.750    20577869.209    84262935.96348
       700.320  
  21224278.764   111534346.48048      2749.852    21224279.293    86909884.98049
      2142.737  
  21352268.560   112206926.30349     -2330.422    21352268.814    87433966.51649
     -1815.918  
  21712915.719   114102149.57448      2580.926    21712916.569    88910771.31747
      2011.109  
  24794144.924   130294110.05347     -1130.726    24794146.201   101527889.51444
      -881.090  
  23756484.270   124841163.29445       361.136    23756486.400    97278845.37544
       281.402  
  24238366.467   127373472.83045      3303.156    24238367.624    99252083.52645
      2573.886  
 20 10 01 04 50  5.0000000  0  9G29G 2G13G15G 5G18G 7G30G20
  21959323.910   115397019.79248     -2421.664    21959324.576    89919753.44549
     -1887.016  
  23963665.939   125929900.84447     -3162.729    23963665.517    98127188.31845
     -2464.472  
  20577015.554   108132949.54449       895.655    20577015.681    84259440.40748
       697.909  
  21221663.333   111520602.64148      2747.823    21221664.019    86899175.49349
      2141.160  
  21354486.467   112218581.51449     -2331.558    21354486.764    87443048.49649
     -1816.800  
  21710460.748   114089248.48748      2579.418    21710461.511    88900718.51547
      2009.934  
  24795221.765   130299769.51246     -1132.987    24795223.085   101532299.45644
      -882.851  
  23756142.506   124839367.15445       357.968    23756144.368    97277445.78043
       278.933  
  24235223.699   127356957.65845      3302.875    24235224.808    99239214.59344
      2573.667  
 20 10 01 04 50 10.0000000  0  9G29G 2G13G15G 5G18G 7G30G20
  21961629.529   115409135.49548     -2424.382    21961630.123    89929194.24349
     -1889.132  
  23966676.014   125945718.51647     -3163.949    23966675.346    98139513.78546
     -2465.418  
  20576165.151   108128480.73649       892.093    20576165.333    84255958.22048
       695.137  
  21219050.409   111506871.29148      2745.077    21219050.947    86888475.74449
      2139.020  
  21356705.892   112230244.55049     -2333.238    21356706.183    87452136.58149
     -1818.109  
  21708007.503   114076356.09748      2577.551    21708008.161    88890672.48947
      2008.476  
  24796301.277   130305442.70146     -1136.113    24796302.848   101536720.12445
      -885.285  
  23755803.561   124837586.32645       354.655    23755805.735    97276058.10345
       276.352  
  24232081.280   127340444.28945      3302.948    24232082.648    99226347.06844
      2573.727  
 20 10 01 04 50 15.0000000  0  9G29G 2G13G15G 5G18G 7G30G20
  21963937.624   115421264.77448     -2427.112    21963938.118    89938645.62649
     -1891.261  
  23969686.999   125961541.56847     -3165.301    23969686.493    98151843.42846
     -2466.473  
  20575318.166   108124029.20849       888.550    20575318.151    84252489.49548
       692.375  
  21216439.761   111493152.52148      2742.570    21216440.300    86877785.80249
      2137.065  
  21358926.841   112241915.40349     -2334.937    21358927.071    87461230.74749
     -1819.434  
  21705555.767   114063472.48548      2575.815    21705556.525    88880633.32147
      2007.125  
  24797383.446   130311129.72747     -1138.895    24797384.999   101541151.57244
      -887.452  
  23755467.469   124835820.96445       351.500    23755469.740    97274682.50746
       273.894  
  24228939.055   127323932.94545      3302.238    24228940.728    99213481.08644
      2573.168  
 20 10 01 04 50 20.0000000  0  9G29G 2G13G15G 5G18G 7G30G20
  21966248.415   115433407.03348     -2429.664    21966248.806    89948107.13249
     -1893.246  
  23972698.785   125977369.52046     -3165.858    23972698.466    98164176.89246
     -2466.906  
  20574474.216   108119594.47049       885.202    20574474.134    84249033.85648
       689.766  
  21213831.402   111479445.81948      2740.046    21213832.109    86867105.25649
      2135.098  
  21361149.106   112253593.51448     -2336.406    21361149.381    87470330.57849
     -1820.577  
  21703105.760   114050597.14348      2574.055    21703106.361    88870600.59347
      2005.754  
  24798468.110   130316829.98747     -1141.370    24798469.798   101545593.32844
      -889.382  
  23755134.359   124834070.52144       348.476    23755136.536    97273318.53344
       271.535  
  24225797.620   127307423.03045      3301.401    24225798.959    99200616.22644
      2572.519  
 20 10 01 04 50 25.0000000  0  9G29G 2G13G15G 5G18G 7G30G20
  21968561.446   115445562.50048     -2432.483    21968561.684    89957578.92249
     -1895.445  
  23975711.593   125993202.55747     -3167.316    23975711.499    98176514.31945
     -2468.043  
  20573633.497   108115176.68249       881.737    20573633.543    84245591.43348
       687.066  
  21211225.526   111465751.40848      2737.554    21211226.135    86856434.29149
      2133.155  
  21363372.907   112265279.13449     -2338.136    21363373.125    87479436.25249
     -1821.930  
  21700657.268   114037730.26148      2572.409    21700657.875    88860574.45147
      2004.473  
  24799555.442   130322543.79747     -1144.046    24799557.026   101550045.62644
      -891.469  
  23754804.153   124832335.12045       345.081    23754806.401    97271966.18643
       268.878  
  24222656.084   127290914.76846      3301.229    24222657.539    99187752.63644
      2572.382  
 20 10 01 04 50 30.0000000  0  9G29G 2G13G15G 5G18G 7G30G20
  21970877.122   115457731.89548     -2435.367    21970877.490    89967061.57149
     -1897.691  
  23978725.645   126009041.34846     -3167.808    23978725.430    98188856.20546
     -2468.425  
  20572796.203   108110776.54549       878.371    20572796.126    84242162.75448
       684.441  
  21208621.925   111452069.98548      2734.949    21208622.594    86845773.44649
      2131.125  
  21365598.050   112276972.93349     -2339.499    21365598.342    87488548.29949
     -1822.987  
  21698210.478   114024872.60548      2570.573    21698211.108    88850555.50647
      2003.042  
  24800645.476   130328271.74647     -1147.359    24800646.985   101554508.98244
      -894.051  
  23754476.831   124830615.66145       341.366    23754479.527    97270626.40844
       265.999  
  24219515.117   127274408.84746      3301.172    24219516.579    99174890.89744
      2572.339  
 20 10 01 04 50 35.0000000  0  9G29G 2G13G15G 5G18G 7G30G20
  21973195.454   115469914.34348     -2437.687    21973195.727    89976554.39649
     -1899.499  
  23981740.610   126024885.09947     -3169.211    23981740.042    98201201.97845
     -2469.520  
  20571962.132   108106393.32049       875.227    20571962.124    84238747.25248
       681.991  
  21206020.832   111438400.77348      2732.726    21206021.483    86835122.11449
      2129.395  
  21367824.896   112288674.21449     -2340.847    21367825.029    87497666.18049
     -1824.039  
  21695765.406   114012023.38248      2569.218    21695766.052    88840543.13047
      2001.983  
  24801738.151   130334013.16447     -1149.679    24801739.443   101558982.75944
      -895.862  
  23754152.599   124828911.18645       339.569    23754155.340    97269298.29345
       264.601  
  24216374.543   127257904.55046      3300.874    24216376.075    99162030.43544
      2572.104  
 20 10 01 04 50 40.0000000  0  9G29G 2G13G15G 5G18G 7G30G20
  21975516.085   115482109.65248     -2440.448    21975516.404    89986057.24149
     -1901.651  
  23984756.384   126040733.53547     -3170.245    23984755.908    98213551.35245
     -2470.327  
  20571131.103   108102026.72949       871.523    20571131.092    84235344.72048
       679.105  
  21203422.013   111424743.54848      2730.098    21203422.597    86824480.11049
      2127.343  
  21370052.859   112300382.74149     -2342.531    21370052.934    87506789.70449
     -1825.352  
  21693321.839   113999182.35448      2567.141    21693322.479    88830537.13647
      2000.367  
  24802833.122   130339767.68547     -1152.051    24802834.522   101563466.79944
      -897.707  
  23753830.967   124827221.52845       336.429    23753833.713    97267981.69044
       262.147  
  24213234.093   127241401.56145      3300.218    24213235.406    99149170.95045
      2571.598  
 20 10 01 04 50 45.0000000  0  9G29G 2G13G15G 5G18G 7G30G20
  21977839.338   115494318.33748     -2443.050    21977839.557    89995570.44849
     -1903.688  
  23987773.276   126056587.25247     -3171.272    23987772.566    98225904.93446
     -2471.124  
  20570303.499   108097677.27049       868.104    20570303.462    84231955.52748
       676.440  
  21200825.479   111411098.79048      2727.719    21200825.910    86813847.85849
      2125.491  
  21372282.359   112312098.96348     -2344.124    21372282.596    87515919.23249
     -1826.593  
  21690879.963   113986350.04948      2565.422    21690880.381    88820537.93447
      1999.026  
  24803930.713   130345535.84247     -1155.167    24803932.162   101567961.51645
      -900.129  
  23753512.467   124825547.23445       333.327    23753515.208    97266676.99643
       259.729  
  24210094.087   127224900.40446      3300.172    24210095.157    99136312.90645
      2571.558  
 20 10 01 04 50 50.0000000  0  9G29G 2G13G15G 5G18G 7G30G20
  21980165.053   115506540.61548     -2445.800    21980165.422    90005094.31949
     -1905.819  
  23990791.104   126072446.48447     -3172.569    23990790.555    98238262.78346
     -2472.136  
  20569479.144   108093345.31449       864.641    20569479.019    84228579.97448
       673.742  
  21198231.397   111397466.86448      2725.085    21198231.916    86803225.57449
      2123.441  
  21374513.549   112323823.17048     -2345.464    21374513.475    87525054.96649
     -1827.636  
  21688439.656   113973526.77548      2563.914    21688440.210    88810545.78147
      1997.851  
  24805031.211   130351318.03247     -1158.159    24805032.533   101572467.10044
      -902.464  
  23753196.832   124823888.49845       330.370    23753199.569    97265384.44344
       257.425  
  24206954.453   127208401.48645      3299.343    24206955.467    99123456.62044
      2570.913  
 20 10 01 04 50 55.0000000  0  9G29G 2G13G15G 5G18G 7G30G20
  21982493.259   115518775.60948     -2448.266    21982493.765    90014628.08949
     -1907.742  
  23993809.932   126088310.31346     -3173.125    23993809.514    98250624.19745
     -2472.566  
  20568657.817   108089029.89849       861.199    20568657.991    84225217.31448
       671.062  
  21195639.608   111383846.85748      2722.636    21195640.130    86792612.58249
      2121.531  
  21376745.896   112335554.38449     -2347.026    21376746.102    87534196.16849
     -1828.854  
  21686001.034   113960711.63748      2562.085    21686001.510    88800559.95947
      1996.426  
  24806133.943   130357113.24047     -1160.617    24806135.104   101576982.85044
      -904.379  
  23752884.070   124822244.52145       327.265    23752886.584    97264103.48045
       255.012  
  24203814.900   127191903.77245      3299.323    24203816.045    99110601.27444
      2570.898  
 20 10 01 04 51  0.0000000  0  9G29G 2G13G15G 5G18G 7G30G20
  21984824.125   115531024.64348     -2451.215    21984824.562    90024172.78149
     -1910.039  
  23996829.832   126104180.14947     -3174.215    23996829.489    98262990.27046
     -2473.422  
  20567840.123   108084732.39049       857.663    20567840.135    84221868.61248
       668.305  
  21193050.459   111370240.12948      2720.019    21193050.797    86782009.94649
      2119.491  
  21378979.774   112347293.96149     -2348.629    21378979.938    87543343.88549
     -1830.105  
  21683564.134   113947905.98248      2560.198    21683564.758    88790581.52747
      1994.956  
  24807239.400   130362922.86047     -1163.527    24807240.531   101581509.82844
      -906.648  
  23752574.320   124820616.55145       323.983    23752576.575    97262834.92042
       252.452  
  24200675.917   127175408.68245      3298.836    24200676.994    99097747.97644
      2570.522  
 20 10 01 04 51  5.0000000  0  9G29G 2G13G15G 5G18G 7G30G20
  21987157.442   115543286.74048     -2453.687    21987158.028    90033727.65149
     -1911.969  
  23999850.527   126120054.91947     -3175.523    23999850.397    98275360.19646
     -2474.441  
  20567025.456   108080451.81749       854.461    20567025.682    84218533.09448
       665.809  
  21190463.384   111356645.71048      2717.675    21190463.896    86771416.89449
      2117.667  
  21381215.161   112359040.90649     -2350.082    21381215.461    87552497.35349
     -1831.234  
  21681128.945   113935108.82348      2558.784    21681129.489    88780609.72447
      1993.854  
  24808347.475   130368745.86647     -1165.729    24808348.645   101586047.21343
      -908.362  
  23752267.410   124819003.72944       321.464    23752269.993    97261578.23645
       250.496  
  24197537.353   127158915.19845      3298.531    24197538.264    99084895.90344
      2570.280  
 20 10 01 04 51 10.0000000  0  9G29G 2G13G15G 5G18G 7G30G20
  21989493.279   115555561.71048     -2456.319    21989493.932    90043292.56849
     -1914.020  
  24002872.441   126135934.52447     -3176.602    24002871.891    98287733.89845
     -2475.277  
  20566214.228   108076188.09549       851.074    20566214.171    84215210.72048
       663.171  
  21187878.782   111343063.53248      2715.137    21187879.437    86760833.37349
      2115.687  
  21383452.067   112370795.17949     -2351.835    21383452.170    87561656.52149
     -1832.601  
  21678695.456   113922320.09648      2556.793    21678695.912    88770644.47847
      1992.304  
  24809458.258   130374582.19547     -1168.508    24809459.129   101590594.98744
      -910.526  
  23751963.277   124817405.84545       317.938    23751965.588    97260333.09144
       247.741  
  24194398.962   127142423.25046      3298.113    24194400.198    99072045.01844
      2569.956  
 20 10 01 04 51 15.0000000  0  9G29G 2G13G15G 5G18G 7G30G20
  21991831.598   115567849.91048     -2459.082    21991832.266    90052867.78149
     -1916.171  
  24005895.250   126151819.24246     -3177.437    24005894.652    98300111.56845
     -2475.933  
  20565406.042   108071941.42849       847.566    20565406.082    84211901.63648
       660.438  
  21185296.449   111329493.81348      2712.688    21185297.182    86750259.56649
      2113.776  
  21385690.099   112382556.96049     -2353.187    21385690.362    87570821.54249
     -1833.655  
  21676263.502   113909540.02948      2555.202    21676263.803    88760685.99347
      1991.062  
  24810571.556   130380432.02147     -1171.426    24810572.356   101595153.28045
      -912.800  
  23751662.070   124815823.24345       314.910    23751664.416    97259099.93645
       245.390  
  24191261.009   127125933.06845      3297.570    24191261.981    99059195.54344
      2569.531  
 20 10 01 04 51 20.0000000  0  9G29G 2G13G15G 5G18G 7G30G20
  21994172.573   115580151.63148     -2461.827    21994173.300    90062453.52049
     -1918.312  
  24008918.937   126167709.45046     -3178.612    24008918.435    98312493.54745
     -2476.844  
  20564601.293   108067712.25549       843.897    20564601.426    84208606.17148
       657.578  
  21182716.596   111315936.96948      2709.917    21182717.351    86739695.80449
      2111.621  
  21387929.853   112394326.63348     -2354.781    21387929.965    87579992.71949
     -1834.898  
  21673833.257   113896769.06748      2553.206    21673833.682    88750734.58247
      1989.507  
  24811687.230   130386295.77347     -1173.977    24811688.166   101599722.42844
      -914.789  
  23751363.841   124814256.25444       312.223    23751366.413    97257878.91345
       243.292  
  24188123.428   127109445.09746      3297.558    24188124.395    99046347.77544
      2569.522  
 20 10 01 04 51 25.0000000  0  9G29G 2G13G15G 5G18G 7G30G20
  21996516.064   115592466.88448     -2464.194    21996516.815    90072049.82249
     -1920.155  
  24011943.776   126183605.12047     -3179.733    24011943.230    98324879.79445
     -2477.719  
  20563799.742   108063500.51549       840.734    20563799.934    84205324.29048
       655.112  
  21180139.251   111302392.96448      2707.680    21180140.188    86729142.03749
      2109.878  
  21390171.152   112406104.20749     -2356.223    21390171.268    87589170.04349
     -1836.020  
  21671404.716   113884007.15348      2551.620    21671405.249    88740790.24247
      1988.272  
  24812805.806   130392173.39847     -1176.402    24812806.554   101604302.41644
      -916.680  
  23751068.468   124812704.96844       308.780    23751071.126    97256670.04745
       240.597  
  24184986.201   127092959.26445      3297.195    24184987.224    99033501.68043
      2569.241  
 20 10 01 04 51 30.0000000  0  8G29G 2G13G15G 5G18G 7G20
  21998862.122   115604795.59248     -2467.492    21998862.992    90081656.55649
     -1922.727  
  24014969.643   126199506.09247     -3181.227    24014969.338    98337270.13746
     -2478.886  
  20563001.649   108059306.13249       836.870    20563001.595    84202055.94547
       652.104  
  21177564.381   111288861.71149      2704.831    21177565.170    86718598.20349
      2107.655  
  21392413.767   112417889.60349     -2358.113    21392413.820    87598353.48149
     -1837.491  
  21668977.900   113871254.24548      2549.398    21668978.259    88730852.90748
      1986.543  
  24813926.774   130398064.84147     -1179.647    24813927.719   101608893.21144
      -919.207  
  24181849.360   127076475.45945      3296.520    24181850.538    99020657.16144
      2568.714  
 20 10 01 04 51 35.0000000  0  9G29G 2G13G15G 5G18G 7G30G20
  22001210.879   115617138.70848     -2469.659    22001211.846    90091274.56449
     -1924.414  
  24017996.571   126215413.48746     -3181.910    24017996.460    98349665.51146
     -2479.413  
  20562206.983   108055130.10449       833.542    20562206.908    84198801.89448
       649.512  
  21174992.188   111275344.24548      2702.530    21174992.875    86708065.12049
      2105.867  
  21394658.115   112429683.79549     -2359.382    21394658.068    87607543.73649
     -1838.483  
  21666552.983   113858511.34548      2547.819    21666553.489    88720923.37747
      1985.312  
  24815050.842   130403971.04847     -1182.366    24815051.531   101613495.40744
      -921.328  
  23750486.016   124809646.90955       302.272    23750488.751    97254281.47455
       235.527  
  24178713.098   127059994.82045      3296.358    24178714.318    99007815.11644
      2568.590  
 20 10 01 04 51 40.0000000  0  9G29G 2G13G15G 5G18G 7G30G20
  22003561.787   115629492.75248     -2472.147    22003562.914    90100901.10649
     -1926.351  
  24021024.049   126231323.71446     -3182.297    24021024.304    98362063.08846
     -2479.715  
  20561414.990   108050968.96449       830.772    20561415.154    84195559.45247
       647.351  
  21172421.890   111261837.08148      2700.516    21172422.552    86697540.07549
      2104.292  
  21396903.599   112441483.30148     -2360.366    21396903.578    87616738.16349
     -1839.250  
  21664129.214   113845774.94448      2546.734    21664129.665    88710998.91147
      1984.465  
  24816176.833   130409888.60847     -1184.874    24816177.586   101618106.47944
      -923.281  
  23750199.914   124808140.68644       299.616    23750204.176    97253107.81043
       233.465  
  24175576.768   127043513.70445      3296.507    24175577.975    98994972.72245
      2568.702  
 20 10 01 04 51 45.0000000  0  9G29G 2G13G15G 5G18G 7G30G20
  22005915.139   115641859.44948     -2474.703    22005916.178    90110537.48349
     -1928.343  
  24024052.621   126247238.62447     -3183.457    24024052.873    98374464.29146
     -2480.621  
  20560626.417   108046824.54649       827.222    20560626.574    84192330.03548
       644.586  
  21169853.898   111248342.07048      2697.609    21169854.434    86687024.46949
      2102.031  
  21399150.205   112453289.95249     -2362.003    21399150.302    87625938.15549
     -1840.527  
  21661707.123   113833046.89948      2544.734    21661707.547    88701080.96347
      1982.906  
  24817305.505   130415819.31747     -1187.566    24817306.146   101622727.80544
      -925.379  
  23749916.445   124806649.32744       296.910    23749918.929    97251945.68044
       231.351  
  24172440.833   127027034.03545      3295.715    24172441.954    98982131.42744
      2568.086  
 20 10 01 04 51 50.0000000  0  8G29G 2G13G15G 5G18G 7G20
  22008271.374   115654241.04848     -2478.171    22008272.363    90120185.48149
     -1931.046  
  24027082.518   126263160.43047     -3185.058    24027082.609    98386870.86545
     -2481.870  
  20559841.448   108042699.03649       822.847    20559841.416    84189115.35148
       641.176  
  21167288.574   111234861.38848      2694.375    21167289.250    86676520.03049
      2099.512  
  21401398.708   112465105.94249     -2364.359    21401398.748    87635145.41249
     -1842.358  
  21659287.155   113820329.44448      2542.019    21659287.665    88691171.26347
      1980.792  
  24818437.019   130421765.31047     -1190.866    24818437.769   101627361.05144
      -927.953  
  24169305.211   127010557.98045      3294.784    24169306.531    98969292.95744
      2567.362  
 20 10 01 04 51 55.0000000  0  8G29G 2G13G15G 5G18G 7G20
  22010630.094   115666636.85948     -2480.195    22010631.242    90129844.57049
     -1932.621  
  24030113.589   126279088.38147     -3186.230    24030113.743    98399282.25745
     -2482.781  
  20559059.722   108038591.69749       820.023    20559059.677    84185914.82347
       638.976  
  21164725.896   111221394.35848      2692.340    21164726.515    86666026.24849
      2097.925  
  21403648.938   112476930.54749     -2365.437    21403648.894    87644359.38649
     -1843.202  
  21656868.889   113807621.83548      2540.879    21656869.480    88681269.23147
      1979.901  
  24819571.166   130427725.98147     -1193.374    24819571.845   101632005.68243
      -929.909  
  24166170.330   126994084.84645      3294.253    24166171.835    98956456.77543
      2566.957  
 20 10 01 04 52  0.0000000  0  8G29G 2G13G15G 5G18G 7G20
  22012991.097   115679043.32848     -2482.602    22012992.064    90139511.93149
     -1934.496  
  24033145.253   126295019.00947     -3186.867    24033145.093    98411695.69346
     -2483.280  
  20558281.021   108034499.06349       816.737    20558280.878    84182725.77348
       636.418  
  21162165.089   111207937.47848      2690.105    21162165.766    86655540.37749
      2096.184  
  21405900.099   112488760.22748     -2366.730    21405900.035    87653577.30749
     -1844.207  
  21654451.984   113794920.63648      2539.383    21654452.529    88671372.18847
      1978.737  
  24820707.630   130433697.63747     -1195.961    24820708.141   101636658.90744
      -931.921  
  24163035.521   126977611.16045      3294.558    24163037.189    98943620.11244
      2567.183  
 20 10 01 04 52  5.0000000  0  8G29G 2G13G15G 5G18G 7G20
  22015354.362   115691462.96148     -2485.433    22015355.557    90149189.57149
     -1936.702  
  24036177.672   126310954.75647     -3187.987    24036177.591    98424113.17046
     -2484.147  
  20557505.388   108030423.64749       813.141    20557505.504    84179550.12147
       633.612  
  21159606.776   111194493.29448      2687.434    21159607.435    86645064.40649
      2094.102  
  21408152.572   112500597.49148     -2368.336    21408152.629    87662801.14949
     -1845.461  
  21652036.775   113782228.31348      2537.487    21652037.293    88661482.07447
      1977.261  
  24821846.578   130439682.94547     -1198.315    24821847.140   101641322.79245
      -933.757  
  24159900.894   126961139.36746      3293.984    24159902.584    98930784.96144
      2566.738  
 20 10 01 04 52 10.0000000  0  9G29G 2G13G15G 5G18G 7G30G20
  22017720.298   115703895.60448     -2487.930    22017721.474    90158877.32549
     -1938.647  
  24039211.232   126326895.50547     -3189.062    24039210.887    98436534.54145
     -2484.987  
  20556733.177   108026365.24549       809.812    20556733.040    84176387.72747
       631.019  
  21157050.705   111181061.64648      2684.894    21157051.541    86634598.19949
      2092.120  
  21410406.580   112512442.19148     -2369.839    21410406.433    87672030.78449
     -1846.632  
  21649623.091   113769544.72748      2535.602    21649623.533    88651598.75747
      1975.789  
  24822988.195   130445681.68447     -1200.773    24822988.867   101645997.12844
      -935.671  
  23748541.378   124799427.30254       281.145    23748546.572    97246325.95155
       219.069  
  24156766.642   126944669.35345      3293.714    24156768.697    98917951.18543
      2566.527  
 20 10 01 04 52 15.0000000  0  8G29G 2G13G15G 5G18G 7G20
  22020088.693   115716341.60348     -2490.477    22020089.822    90168575.49949
     -1940.633  
  24042245.726   126342841.63047     -3190.437    24042245.381    98448960.10246
     -2486.059  
  20555964.216   108022324.35949       806.473    20555964.001    84173238.98548
       628.417  
  21154497.114   111167642.93448      2682.363    21154498.069    86624142.06549
      2090.148  
  21412661.911   112524294.72448     -2371.305    21412661.962    87681266.51949
     -1847.773  
  21647211.296   113756870.28048      2533.965    21647211.721    88641722.57247
      1974.515  
  24824132.497   130451694.25147     -1203.727    24824133.135   101650682.24643
      -937.972  
  24153632.834   126928201.57945      3293.641    24153635.000    98905119.15544
      2566.468  
 20 10 01 04 52 20.0000000  0  9G29G 2G13G15G 5G18G 7G30G20
  22022459.586   115728800.79548     -2492.839    22022460.620    90178283.95749
     -1942.477  
  24045281.197   126358792.94847     -3190.297    24045280.634    98461389.67345
     -2485.948  
  20555198.468   108018300.70249       803.175    20555198.393    84170103.66948
       625.848  
  21151946.034   111154236.91948      2680.266    21151946.827    86613695.81149
      2088.515  
  21414918.788   112536154.87948     -2372.667    21414918.973    87690508.19449
     -1848.835  
  21644801.019   113744204.81648      2532.265    21644801.625    88631853.38047
      1973.191  
  24825279.217   130457720.39547     -1206.430    24825279.795   101655377.94244
      -940.077  
  23748013.158   124796651.29555       275.004    23748015.197    97244152.18255
       214.288  
  24150499.455   126911735.81546      3293.133    24150501.567    98892288.71044
      2566.074  
