     2.11           OBSERVATION DATA    G                   RINEX VERSION / TYPE
LEICA GEO OFFICE 8.4                    30-9-20 20:19       PGM / RUN BY / DATE
                                                            OBSERVER / AGENCY
olog                                                        MARKER NAME
olog                                                        MARKER NUMBER
457569              LEICA GX1220        2.14                REC # / TYPE / VERS
                    LEIAX1202                               ANT # / TYPE
 -1192108.1416  3800432.2233  4966184.4567                  APPROX POSITION XYZ
        0.1660        0.0000        0.0000                  ANTENNA: DELTA H/E/N
L1PhaOff:   0.0648  L2PhaOff:   0.0622                      COMMENT
     1     1                                                WAVELENGTH FACT L1/2
     6    C1    L1    D1    P2    L2    D2                  # / TYPES OF OBSERV
  2020     9    30     5    36   20.0000000     GPS         TIME OF FIRST OBS
  2020     9    30     8    46   20.0000000     GPS         TIME OF LAST OBS
    18                                                      LEAP SECONDS
    15                                                      # OF SATELLITES
          C1    L1    D1    P2    L2    D2                  COMMENT
   G 1     0     0     0     0     0     0                  PRN / # OF OBS
   G 2     0     0     0     0     0     0                  PRN / # OF OBS
   G 3     0     0     0     0     0     0                  PRN / # OF OBS
   G 4     0     0     0     0     0     0                  PRN / # OF OBS
   G 5   681   681   681   681   681   681                  PRN / # OF OBS
   G 6     0     0     0     0     0     0                  PRN / # OF OBS
   G 7     0     0     0     0     0     0                  PRN / # OF OBS
   G 8   661   661   661   661   661   661                  PRN / # OF OBS
   G 9     0     0     0     0     0     0                  PRN / # OF OBS
   G10  1909  1909  1909  1909  1909  1909                  PRN / # OF OBS
   G11   194   194   194   193   193   193                  PRN / # OF OBS
   G12    69    69    69    69    69    69                  PRN / # OF OBS
   G13  1614  1614  1614  1614  1614  1614                  PRN / # OF OBS
   G14     0     0     0     0     0     0                  PRN / # OF OBS
   G15  2281  2281  2281  2281  2281  2281                  PRN / # OF OBS
   G16     0     0     0     0     0     0                  PRN / # OF OBS
   G17     0     0     0     0     0     0                  PRN / # OF OBS
   G18  2276  2276  2276  2276  2276  2276                  PRN / # OF OBS
   G19     0     0     0     0     0     0                  PRN / # OF OBS
   G20  2268  2268  2268  2268  2268  2268                  PRN / # OF OBS
   G21  1081  1081  1081  1081  1081  1081                  PRN / # OF OBS
   G22     0     0     0     0     0     0                  PRN / # OF OBS
   G23     0     0     0     0     0     0                  PRN / # OF OBS
   G24  2012  2012  2012  2012  2012  2012                  PRN / # OF OBS
   G25     0     0     0     0     0     0                  PRN / # OF OBS
   G26     0     0     0     0     0     0                  PRN / # OF OBS
   G27  1591  1591  1591  1590  1590  1590                  PRN / # OF OBS
   G28     0     0     0     0     0     0                  PRN / # OF OBS
   G29   368   368   368   368   368   368                  PRN / # OF OBS
   G30   473   473   473   473   473   473                  PRN / # OF OBS
   G31     0     0     0     0     0     0                  PRN / # OF OBS
   G32   790   790   790   790   790   790                  PRN / # OF OBS
                                                            END OF HEADER
 20 09 30 05 36 20.0000000  0  7G29G13G18G30G20G 5G15
  23363441.636   122775699.33846     -3443.746    23363441.594    95669381.22345
     -2683.445  
  20593458.732   108219365.27749      -846.223    20593458.234    84326780.50947
      -659.397  
  20690385.487   108728716.53048      1438.745    20690385.644    84723681.42447
      1121.098  
  24005385.282   126149152.96946     -1178.680    24005387.600    98298056.58846
      -918.453  
  22653478.782   119044832.54855      2986.152    22653479.477    92762218.72453
      2326.867  
  22697164.482   119274397.45348     -2982.223    22697163.498    92941085.36145
     -2323.812  
  20228491.268   106301454.83749      1267.890    20228491.100    82832310.26348
       987.964  
 20 09 30 05 36 25.0000000  0  7G29G13G18G30G20G 5G15
  23366718.693   122792920.26446     -3444.629    23366718.701    95682800.14945
     -2684.129  
  20594265.392   108223604.08549      -849.391    20594264.854    84330083.48447
      -661.866  
  20689017.876   108721529.24849      1436.055    20689017.792    84718080.95548
      1119.000  
  24006508.204   126155053.80746     -1181.629    24006510.491    98302654.66745
      -920.754  
  22650637.729   119029903.61945      2985.164    22650639.182    92750585.81744
      2326.109  
  22700002.261   119289310.98848     -2983.300    22700001.312    92952706.29746
     -2324.652  
  20227286.349   106295122.69849      1264.770    20227286.198    82827376.13748
       985.531  
 20 09 30 05 36 30.0000000  0  6G29G13G18G30G 5G15
  23369997.867   122810152.09947     -3446.839    23369997.968    95696227.50944
     -2685.859  
  20595075.840   108227863.42549      -853.492    20595075.334    84333402.44947
      -665.062  
  20687653.466   108714359.69348      1432.254    20687653.605    84712494.30547
      1116.038  
  24007634.662   126160973.85546     -1185.703    24007637.039    98307267.69345
      -923.925  
  22702841.910   119304233.63048     -2985.440    22702840.911    92964334.32546
     -2326.320  
  20226085.270   106288810.70149      1260.702    20226084.905    82822457.70248
       982.363  
 20 09 30 05 36 35.0000000  0  6G13G18G30G20G 5G15
  20595888.973   108232136.46649      -855.316    20595888.512    84336732.09247
      -666.484  
  20686291.362   108707201.03848      1431.272    20686291.369    84706916.11448
      1115.273  
  24008763.611   126166906.21045     -1187.035    24008766.059    98311890.27946
      -924.968  
  22644959.345   119000062.42056      2983.688    22644960.523    92727328.28154
      2324.949  
  22705681.936   119319158.41448     -2984.426    22705681.026    92975964.03046
     -2325.530  
  20224886.820   106282512.02749      1258.937    20224886.333    82817549.65448
       980.987  
 20 09 30 05 36 40.0000000  0  6G29G13G18G30G 5G15
  23376557.583   122844639.54356     -3450.563    23376557.640    95723096.92654
     -2688.753  
  20596704.195   108236420.95549      -860.359    20596703.617    84340070.65447
      -670.413  
  20684930.748   108700051.05948      1426.698    20684930.585    84701344.71547
      1111.711  
  24009894.305   126172848.60746     -1192.070    24009896.851    98316520.74645
      -928.890  
  22708521.966   119334083.24348     -2987.488    22708520.863    92987593.74846
     -2327.917  
  20223690.277   106276224.52649      1253.979    20223689.966    82812650.29448
       977.124  
 20 09 30 05 36 45.0000000  0  6G29G13G18G30G 5G15
  23379840.827   122861892.35846     -3450.547    23379839.836    95736540.65644
     -2688.741  
  20597524.345   108240730.40149      -862.965    20597523.618    84343428.66847
      -672.440  
  20683574.313   108692923.25648      1424.836    20683574.210    84695790.58647
      1110.257  
  24011029.589   126178814.65747     -1194.171    24011032.232    98321169.63046
      -930.523  
  22711364.516   119349021.60148     -2987.687    22711363.641    92999234.04146
     -2328.070  
  20222498.488   106269961.66149      1251.620    20222498.236    82807770.14048
       975.284  
 20 09 30 05 36 50.0000000  0  6G29G13G18G30G 5G15
  23383124.464   122879147.73647     -3451.382    23383124.628    95749986.42546
     -2689.386  
  20598346.773   108245052.01249      -865.565    20598346.038    84346796.15547
      -674.469  
  20682219.618   108685804.88049      1422.715    20682219.553    84690243.80348
      1108.605  
  24012166.997   126184791.46846     -1196.382    24012169.545    98325826.86145
      -932.250  
  22714207.284   119363960.66848     -2987.879    22714206.144    93010874.86746
     -2328.218  
  20221308.972   106263710.65349      1248.918    20221308.695    82802899.23248
       973.179  
 20 09 30 05 36 55.0000000  0  7G29G13G18G30G20G 5G15
  23386409.028   122896408.17347     -3452.433    23386408.855    95763436.12845
     -2690.211  
  20599171.843   108249388.40649      -868.503    20599171.141    84350175.15947
      -676.757  
  20680867.366   108678698.52949      1420.284    20680867.326    84684706.37848
      1106.710  
  24013306.845   126190781.72046     -1199.242    24013309.575    98330494.56146
      -934.479  
  22633611.579   118940429.41056      2980.370    22633612.889    92680856.77454
      2322.363  
  22717050.775   119378903.06248     -2988.675    22717049.640    93022518.28946
     -2328.840  
  20220122.316   106257474.10549      1246.199    20220121.832    82798039.60048
       971.063  
 20 09 30 05 37  0.0000000  0  7G29G13G18G30G20G 5G15
  23389694.616   122913672.05447     -3453.582    23389693.626    95776888.52945
     -2691.101  
  20599999.587   108253738.10649      -871.676    20599998.681    84353564.54547
      -679.229  
  20679517.029   108671602.73948      1417.656    20679517.048    84679177.21647
      1104.663  
  24014448.982   126196783.84745     -1201.921    24014451.853    98335171.53046
      -936.566  
  22630776.197   118925528.40844      2979.359    22630776.546    92669245.64144
      2321.577  
  22719894.486   119393847.23948     -2989.327    22719893.411    93034163.11846
     -2329.351  
  20218937.927   106251250.53949      1242.813    20218937.621    82793190.05148
       968.422  
 20 09 30 05 37  5.0000000  0  7G29G13G18G30G20G 5G15
  23392981.381   122930945.21647     -3455.398    23392980.947    95790348.09245
     -2692.523  
  20600830.764   108258106.69049      -875.374    20600829.888    84356968.63647
      -682.112  
  20678169.893   108664523.15148      1414.550    20678169.717    84673660.65148
      1102.245  
  24015594.505   126202803.51746     -1205.535    24015597.494    98339862.17946
      -939.382  
  22627942.600   118910634.53946      2978.382    22627943.193    92657640.00545
      2320.816  
  22722739.519   119408798.83648     -2990.805    22722738.404    93045813.70045
     -2330.499  
  20217757.163   106245045.54749      1239.405    20217756.877    82788355.00648
       965.770  
 20 09 30 05 37 10.0000000  0  7G29G13G18G30G20G 5G15
  23396269.405   122948224.55347     -3456.608    23396269.247    95803812.50445
     -2693.464  
  20601665.183   108262491.24849      -878.632    20601664.302    84360385.17247
      -684.652  
  20676825.047   108657456.78148      1411.882    20676825.076    84668154.38248
      1100.163  
  24016742.775   126208837.74746     -1208.409    24016745.881    98344564.16345
      -941.621  
  22625109.359   118895744.75845      2977.507    22625108.826    92646037.58745
      2320.133  
  22725585.521   119423754.92448     -2991.852    22725584.339    93057467.76945
     -2331.316  
  20216579.461   106238856.24749      1236.160    20216579.032    82783532.17848
       963.237  
 20 09 30 05 37 15.0000000  0  7G29G13G18G30G20G 5G15
  23399559.194   122965512.57747     -3458.507    23399559.114    95817283.71144
     -2694.945  
  20602503.057   108266894.24149      -882.508    20602502.164    84363816.07747
      -687.671  
  20675483.417   108650406.18848      1408.559    20675483.395    84662660.42348
      1097.574  
  24017894.560   126214889.01146     -1211.789    24017897.382    98349279.42846
      -944.254  
  22622277.192   118880861.55646      2975.945    22622276.702    92634440.29545
      2318.913  
  22728432.921   119438717.95748     -2993.112    22728431.866    93069127.28946
     -2332.300  
  20215405.177   106232685.06249      1232.397    20215404.619    82778723.46748
       960.308  
 20 09 30 05 37 20.0000000  0  7G29G13G18G30G20G 5G15
  23402851.440   122982813.60347     -3460.784    23402851.350    95830765.02345
     -2696.719  
  20603345.324   108271320.01349      -886.839    20603344.199    84367264.72747
      -691.047  
  20674145.419   108643375.67848      1404.711    20674145.652    84657182.09148
      1094.578  
  24019050.136   126220961.69946     -1215.973    24019053.121    98354011.39345
      -947.515  
  22619446.564   118865989.28446      2973.762    22619446.678    92622851.54045
      2317.214  
  22731282.614   119453692.28848     -2995.328    22731281.351    93080795.58046
     -2334.023  
  20214235.057   106226536.38449      1228.191    20214234.587    82773932.28548
       957.026  
 20 09 30 05 37 25.0000000  0  7G29G13G18G30G20G 5G15
  23406144.194   123000117.85947     -3460.272    23406144.306    95844248.84545
     -2696.319  
  20604189.877   108275758.79149      -888.090    20604188.949    84370723.52347
      -692.019  
  20672809.535   108636355.52948      1403.964    20672809.625    84651711.84648
      1093.995  
  24020208.177   126227046.02646     -1217.265    24020211.054    98358752.43546
      -948.523  
  22616616.509   118851118.55946      2975.227    22616616.760    92611263.93543
      2318.351  
  22734132.516   119468668.15548     -2994.086    22734131.303    93092465.09347
     -2333.058  
  20213067.404   106220400.48249      1226.930    20213067.010    82769151.06448
       956.046  
 20 09 30 05 37 30.0000000  0  6G29G13G18G30G 5G15
  23409435.750   123017414.60547     -3459.839    23409435.772    95857726.81645
     -2695.976  
  20605034.989   108280199.88449      -889.745    20605034.227    84374184.10847
      -693.313  
  20671473.669   108629335.03548      1402.917    20671473.860    84646241.33148
      1093.179  
  24021366.119   126233131.30246     -1218.804    24021369.268    98363494.22146
      -949.723  
  22736980.497   119483634.86448     -2993.563    22736979.242    93104127.46046
     -2332.647  
  20211900.126   106214266.61449      1225.226    20211899.666    82764371.42748
       954.718  
 20 09 30 05 37 35.0000000  0  6G29G13G18G30G 5G15
  23412728.913   123034719.69947     -3462.543    23412729.396    95871211.18844
     -2698.109  
  20605883.741   108284659.07649      -894.163    20605882.688    84377658.78947
      -696.753  
  20670140.652   108622330.01548      1398.733    20670140.772    84640782.86948
      1089.917  
  24022527.337   126239233.26546     -1222.676    24022530.327    98368249.00046
      -952.738  
  22739829.989   119498608.17448     -2995.886    22739828.436    93115794.99446
     -2334.460  
  20210736.260   106208150.61249      1220.871    20210735.732    82759605.71748
       951.323  
 20 09 30 05 37 40.0000000  0  7G29G13G18G30G20G 5G15
  23416024.141   123052035.45847     -3464.819    23416024.541    95884704.13044
     -2699.854  
  20606736.100   108289138.78449      -898.784    20606735.325    84381149.47847
      -700.355  
  20668810.898   108615342.86049      1394.690    20668811.319    84635338.32548
      1086.769  
  24023692.165   126245354.41446     -1226.820    24023695.322    98373018.70846
      -955.969  
  22608124.208   118806496.46555      2970.836    22608126.856    92576486.04254
      2314.934  
  22742681.023   119513590.52248     -2997.983    22742679.605    93127469.52346
     -2336.093  
  20209576.211   106202054.92149      1216.258    20209575.716    82754855.83448
       947.730  
 20 09 30 05 37 45.0000000  0  6G29G13G18G30G 5G15
  23419322.224   123069366.81447     -3466.155    23419322.742    95898209.05644
     -2700.902  
  20607593.395   108293643.86849      -901.925    20607592.559    84384659.92347
      -702.801  
  20667485.699   108608378.52149      1392.316    20667486.029    84629911.57748
      1084.918  
  24024861.541   126251499.52446     -1229.542    24024864.978    98377807.09946
      -958.090  
  22745534.723   119528586.81548     -2998.906    22745533.199    93139154.95246
     -2336.812  
  20208421.081   106195984.38849      1213.331    20208420.612    82750125.56248
       945.448  
 20 09 30 05 37 50.0000000  0  6G29G13G18G30G 5G15
  23422620.642   123086699.02147     -3467.593    23422620.888    95911714.63444
     -2702.026  
  20608452.762   108298159.62349      -905.218    20608451.965    84388178.70347
      -705.367  
  20666162.025   108601422.25248      1389.597    20666162.446    84624491.10248
      1082.800  
  24026032.635   126257653.97946     -1232.503    24026035.989    98382602.78746
      -960.394  
  22748388.390   119543582.31048     -2999.977    22748386.814    93150839.74646
     -2337.648  
  20207267.841   106189924.31949      1210.063    20207267.435    82745403.43348
       942.902  
 20 09 30 05 37 55.0000000  0  6G29G13G18G30G 5G15
  23425919.813   123104036.31547     -3467.844    23425920.231    95925224.20444
     -2702.219  
  20609314.987   108302690.27049      -907.555    20609314.305    84391709.06447
      -707.187  
  20664840.645   108594478.35248      1387.637    20664841.042    84619080.26848
      1081.272  
  24027206.376   126263821.99846     -1235.078    24027210.038    98387409.01046
      -962.405  
  22751242.639   119558581.24148     -3000.101    22751241.144    93162527.22246
     -2337.746  
  20206117.457   106183879.04449      1207.624    20206116.950    82740692.82648
       941.004  
 20 09 30 05 38  0.0000000  0  6G29G13G18G30G 5G15
  23429219.305   123121375.50947     -3468.077    23429219.728    95938735.28044
     -2702.401  
  20610179.317   108307232.60449      -909.930    20610178.600    84395248.55148
      -709.039  
  20663520.964   108587543.56948      1385.945    20663521.336    84613676.54248
      1079.953  
  24028382.298   126270000.35447     -1236.586    24028385.705    98392223.32446
      -963.577  
  22754096.876   119573580.45448     -3000.109    22754095.285    93174214.92046
     -2337.749  
  20204969.160   106177845.26449      1205.390    20204968.919    82735991.17548
       939.261  
 20 09 30 05 38  5.0000000  0  6G29G13G18G30G 5G15
  23432520.389   123138723.82647     -3470.878    23432520.868    95952253.42845
     -2704.590  
  20611047.245   108311793.91049      -914.429    20611046.556    84398802.80947
      -712.547  
  20662204.535   108580625.25148      1381.745    20662204.787    84608285.65047
      1076.684  
  24029561.403   126276196.27746     -1241.214    24029564.730    98397051.32946
      -967.183  
  22756952.594   119588587.16448     -3002.507    22756951.094    93185908.47947
     -2339.621  
  20203824.483   106171830.28849      1200.773    20203824.301    82731304.18648
       935.663  
 20 09 30 05 38 10.0000000  0  6G29G13G18G30G 5G15
  23435822.555   123156077.85746     -3471.331    23435822.973    95965775.99645
     -2704.949  
  20611918.207   108316370.78249      -916.809    20611917.673    84402369.20047
      -714.397  
  20660890.373   108573719.90848      1379.754    20660890.662    84602904.87348
      1075.129  
  24030743.172   126282406.42246     -1243.190    24030746.486    98401890.42445
      -968.719  
  22759809.044   119603598.09848     -3002.711    22759807.691    93197605.29947
     -2339.776  
  20202682.685   106165830.69649      1198.397    20202682.616    82726629.17748
       933.813  
 20 09 30 05 38 15.0000000  0  6G13G18G30G20G 5G15
  20612792.944   108320967.18249      -921.297    20612792.140    84405950.80947
      -717.897  
  20659579.636   108566831.59848      1375.809    20659579.989    84597537.35549
      1072.054  
  24031928.343   126288634.72946     -1247.604    24031931.707    98406743.64346
      -972.164  
  22588350.480   118702580.32256      2965.313    22588351.265    92495532.27055
      2310.628  
  22762666.986   119618617.05848     -3004.457    22762665.727    93209308.38346
     -2341.136  
  20201544.687   106159850.44349      1194.144    20201544.600    82721969.25548
       930.500  
 20 09 30 05 38 20.0000000  0  6G13G18G30G20G 5G15
  20613669.953   108325576.58349      -924.062    20613669.328    84409542.55847
      -720.050  
  20658270.798   108559953.79548      1373.645    20658271.248    84592178.02748
      1070.370  
  24033115.788   126294874.66646     -1249.906    24033119.030    98411605.90546
      -974.120  
  22585528.216   118687751.06847      2964.792    22585527.904    92483976.98745
      2310.226  
  22765525.167   119633637.58848     -3005.019    22765524.048    93221012.66746
     -2341.582  
  20200409.182   106153883.07549      1191.390    20200409.037    82717319.34748
       928.352  
 20 09 30 05 38 25.0000000  0  6G13G18G30G20G 5G15
  20614550.408   108330203.90749      -926.223    20614549.921    84413148.25347
      -721.734  
  20656964.984   108553091.41448      1371.977    20656965.191    84586830.72547
      1069.069  
  24034306.451   126301131.17846     -1251.675    24034309.741    98416481.13846
      -975.335  
  22582708.286   118672928.11245      2964.726    22582708.176    92472426.60645
      2310.175  
  22768384.689   119648664.57247     -3005.038    22768383.788    93232722.01347
     -2341.594  
  20199276.895   106147933.45949      1189.276    20199276.886    82712683.28348
       926.707  
 20 09 30 05 38 30.0000000  0  6G13G18G30G20G 5G15
  20615433.514   108334844.22549      -930.043    20615432.989    84416764.08147
      -724.710  
  20655661.103   108546239.53748      1368.598    20655661.329    84581491.59448
      1066.438  
  24035499.246   126307399.32346     -1255.375    24035502.483    98421365.37245
      -978.223  
  22579887.722   118658106.32647      2963.559    22579886.910    92460877.18544
      2309.262  
  22771244.601   119663693.07148     -3006.679    22771243.596    93244432.51147
     -2342.871  
  20198147.091   106141996.67349      1185.323    20198147.159    82708057.23948
       923.624  
 20 09 30 05 38 35.0000000  0  7G29G13G18G30G20G 5G15
  23452351.676   123242936.00555     -3480.105    23452354.559    96033469.38955
     -2711.773  
  20616322.346   108339515.22249      -935.784    20616321.698    84420403.82247
      -729.187  
  20654362.544   108539415.87649      1363.526    20654362.823    84576174.46248
      1062.484  
  24036697.569   126313696.77346     -1261.128    24036700.807    98426272.46645
      -982.698  
  22577070.922   118643303.65747      2959.938    22577069.692    92449342.61645
      2306.440  
  22774107.932   119678740.76047     -3010.058    22774107.053    93256157.98247
     -2345.504  
  20197023.209   106136090.44949      1179.777    20197023.050    82703454.98248
       919.305  
 20 09 30 05 38 40.0000000  0  7G29G13G18G30G20G 5G15
  23455663.097   123260335.16945     -3478.956    23455666.577    96047027.17344
     -2710.878  
  20617213.099   108344196.53549      -936.797    20617212.592    84424051.60148
      -729.976  
  20653065.703   108532600.08349      1363.011    20653065.799    84570863.46148
      1062.081  
  24037897.839   126320003.17346     -1261.515    24037900.835    98431186.53846
      -983.004  
  22574253.896   118628499.68147      2961.382    22574252.388    92437807.04044
      2307.566  
  22776971.283   119693787.30347     -3008.616    22776970.506    93267882.56247
     -2344.379  
  20195901.218   106130194.40649      1178.738    20195901.147    82698860.66548
       918.495  
 20 09 30 05 38 45.0000000  0  7G29G13G18G30G20G 5G15
  23458973.408   123277731.53345     -3480.496    23458977.217    96060582.75445
     -2712.078  
  20618105.195   108348884.90849      -939.699    20618104.722    84427704.88247
      -732.238  
  20651769.429   108525788.93348      1360.484    20651769.734    84565556.07348
      1060.113  
  24039099.056   126326315.29746     -1264.621    24039102.029    98436105.06845
      -985.421  
  22571436.190   118613691.12947      2960.637    22571434.637    92426267.94445
      2306.987  
  22779833.641   119708829.43847     -3009.379    22779832.960    93279603.70947
     -2344.972  
  20194780.574   106124305.31949      1175.765    20194780.445    82694271.76448
       916.179  
 20 09 30 05 38 50.0000000  0  6G13G18G30G20G 5G15
  20618999.167   108353582.29449      -938.874    20618998.789    84431365.18547
      -731.593  
  20650474.686   108518984.38848      1361.738    20650474.629    84560253.83248
      1061.089  
  24040301.834   126332635.06447     -1263.585    24040304.466    98441029.56745
      -984.616  
  22568617.817   118598880.01147      2963.874    22568616.508    92414726.80144
      2309.511  
  22782695.623   119723869.13347     -3006.347    22782694.906    93291322.96047
     -2342.612  
  20193661.630   106118425.16649      1176.550    20193661.444    82689689.83048
       916.788  
 20 09 30 05 38 55.0000000  0  7G29G13G18G30G20G 5G15
  23465596.825   123312536.88655     -3486.257    23465598.620    96087710.94653
     -2716.559  
  20619896.776   108358299.10449      -949.503    20619896.263    84435040.63048
      -739.874  
  20649182.990   108512196.85348      1351.585    20649182.980    84554964.84148
      1053.179  
  24041507.822   126338972.85446     -1273.597    24041510.615    98445968.10545
      -992.417  
  22565800.734   118584076.70547      2955.753    22565799.694    92403191.76245
      2303.183  
  22785558.950   119738916.73748     -3014.562    22785558.597    93303048.35847
     -2349.011  
  20192546.324   106112564.32249      1166.101    20192546.125    82685122.94248
       908.648  
 20 09 30 05 39  0.0000000  0  7G29G13G18G30G20G 5G15
  23468913.375   123329964.94545     -3484.938    23468914.310    96101291.20644
     -2715.543  
  20620800.451   108363048.95048      -950.191    20620800.061    84438741.81247
      -740.409  
  20647897.179   108505439.96548      1351.613    20647897.195    84549699.73548
      1053.203  
  24042720.060   126345342.33146     -1273.815    24042722.596    98450931.34145
      -992.586  
  22562987.940   118569294.87247      2957.562    22562987.337    92391673.44345
      2304.590  
  22788426.491   119753985.98148     -3012.605    22788426.161    93314790.61747
     -2347.488  
  20191437.289   106106736.42649      1165.531    20191437.136    82680581.72348
       908.203  
 20 09 30 05 39  5.0000000  0  7G29G13G18G30G20G 5G15
  23472229.057   123347387.47245     -3484.687    23472229.652    96114867.19543
     -2715.344  
  20621705.265   108367803.15548      -952.026    20621704.841    84442446.39147
      -741.843  
  20646611.947   108498685.12048      1349.801    20646611.897    84544436.21848
      1051.789  
  24043932.609   126351714.88346     -1275.566    24043935.092    98455896.96545
      -993.948  
  22560173.646   118554505.90547      2957.632    22560173.370    92380149.59445
      2304.645  
  22791292.904   119769048.21148     -3012.680    22791292.483    93326527.41547
     -2347.546  
  20190329.032   106100912.87349      1163.430    20190328.875    82676043.89348
       906.566  
 20 09 30 05 39 10.0000000  0  7G29G13G18G30G20G 5G15
  23475545.706   123364815.57946     -3485.991    23475546.278    96128447.53844
     -2716.359  
  20622612.740   108372572.87449      -955.703    20622612.520    84446163.06247
      -744.707  
  20645329.005   108491943.43048      1346.871    20645328.805    84539182.95148
      1049.508  
  24045148.062   126358101.60146     -1278.871    24045150.544    98460873.63046
      -996.526  
  22557360.212   118539720.90047      2956.687    22557359.901    92368628.81744
      2303.909  
  22794159.885   119784114.51848     -3013.729    22794159.587    93338267.38147
     -2348.363  
  20189223.824   106095104.77649      1159.895    20189223.806    82671518.10148
       903.813  
 20 09 30 05 39 15.0000000  0  7G29G13G18G30G20G 5G15
  23478863.596   123382249.74146     -3487.230    23478864.516    96142032.54545
     -2717.328  
  20623523.474   108377358.59548      -958.769    20623523.132    84449892.20947
      -747.098  
  20644048.702   108485215.42848      1344.155    20644048.665    84533940.36548
      1047.391  
  24046366.216   126364503.01046     -1281.632    24046368.509    98465861.71545
      -998.680  
  22554547.794   118524940.44645      2955.477    22554547.440    92357111.60344
      2302.969  
  22797027.861   119799185.39248     -3014.703    22797027.334    93350010.88747
     -2349.124  
  20188121.672   106089312.61849      1156.875    20188121.456    82667004.72248
       901.457  
 20 09 30 05 39 20.0000000  0  7G29G13G18G30G20G 5G15
  23482182.680   123399690.23846     -3488.715    23482183.353    96155622.53344
     -2718.479  
  20624437.268   108382160.54849      -962.098    20624436.668    84453633.98447
      -749.691  
  20642771.078   108478501.30749      1341.417    20642770.992    84528708.57048
      1045.258  
  24047587.147   126370919.26547     -1284.824    24047589.486    98470861.41245
     -1001.164  
  22551736.064   118510164.57947      2954.586    22551735.850    92345597.92545
      2302.273  
  22799896.773   119814261.03548     -3015.507    22799896.348    93361758.14847
     -2349.749  
  20187022.535   106083536.61649      1153.543    20187022.247    82662503.95948
       898.863  
 20 09 30 05 39 25.0000000  0  7G29G13G18G30G20G 5G15
  23485502.704   123417136.83146     -3489.520    23485503.216    96169217.28445
     -2719.109  
  20625354.148   108386978.60149      -965.020    20625353.651    84457388.31447
      -751.965  
  20641496.123   108471801.00049      1338.832    20641495.980    84523487.54848
      1043.242  
  24048810.949   126377350.29346     -1287.800    24048813.170    98475872.60045
     -1003.483  
  22548925.293   118495393.38047      2954.039    22548924.899    92334087.89145
      2301.843  
  22802766.430   119829341.37248     -3016.305    22802766.102    93373509.06047
     -2350.370  
  20185926.472   106077776.73149      1150.487    20185926.230    82658015.73448
       896.480  
 20 09 30 05 39 30.0000000  0  7G29G13G18G30G20G 5G15
  23488823.761   123434589.73146     -3491.559    23488824.299    96182816.91044
     -2720.699  
  20626274.092   108391812.90549      -968.726    20626273.550    84461155.30347
      -754.854  
  20640223.628   108465114.64949      1335.773    20640223.678    84518277.40448
      1040.859  
  24050037.602   126383796.21146     -1290.749    24050039.720    98480895.39745
     -1005.781  
  22546115.260   118480626.93347      2952.352    22546115.177    92322581.58445
      2300.531  
  22805637.052   119844426.52948     -3017.738    22805636.611    93385263.71947
     -2351.487  
  20184833.648   106072033.06049      1146.949    20184833.375    82653540.14548
       893.722  
 20 09 30 05 39 35.0000000  0  7G29G13G18G30G20G 5G15
  23492146.230   123452049.92346     -3492.672    23492147.461    96196422.26544
     -2721.566  
  20627197.481   108396664.53449      -971.777    20627196.623    84464935.78847
      -757.230  
  20638954.166   108458443.33248      1332.909    20638954.069    84513078.97148
      1038.628  
  24051267.214   126390258.11946     -1293.507    24051269.283    98485930.65846
     -1007.930  
  22543306.495   118465866.27047      2951.839    22543306.302    92311079.77245
      2300.133  
  22808508.808   119859517.55548     -3018.491    22808508.354    93397022.96647
     -2352.074  
  20183743.856   106066306.69749      1143.726    20183743.708    82649078.04648
       891.210  
 20 09 30 05 39 40.0000000  0  7G29G13G18G30G20G 5G15
  23495469.867   123469515.68945     -3493.796    23495471.199    96210031.94544
     -2722.441  
  20628123.714   108401531.70349      -975.156    20628122.875    84468728.38747
      -759.863  
  20637687.188   108451785.32148      1330.069    20637687.136    84507890.90848
      1036.414  
  24052499.492   126396734.28246     -1296.934    24052501.481    98490976.99145
     -1010.602  
  22540498.301   118451109.71047      2950.663    22540498.381    92299581.14945
      2299.215  
  22811381.285   119874612.74148     -3019.722    22811381.075    93408785.43547
     -2353.034  
  20182657.122   106060595.90349      1140.397    20182656.965    82644628.08048
       888.617  
 20 09 30 05 39 45.0000000  0  7G29G13G18G30G20G 5G15
  23498794.711   123486988.45446     -3495.058    23498796.730    96223647.06744
     -2723.430  
  20629053.176   108406415.84449      -978.331    20629052.311    84472534.21047
      -762.339  
  20636423.069   108445142.01649      1327.327    20636423.133    84502714.30648
      1034.276  
  24053734.830   126403226.02546     -1300.059    24053736.891    98496035.50746
     -1013.034  
  22537691.174   118436358.65447      2949.722    22537691.101    92288086.83644
      2298.479  
  22814254.892   119889713.45747     -3020.406    22814254.805    93420552.22247
     -2353.565  
  20181573.789   106054902.07549      1137.147    20181573.405    82640191.33248
       886.085  
 20 09 30 05 39 50.0000000  0  7G29G13G18G30G20G 5G15
  23502120.424   123504466.85346     -3496.390    23502122.923    96237266.58044
     -2724.468  
  20629985.667   108411315.67549      -981.636    20629984.671    84476352.25647
      -764.913  
  20635161.446   108438512.17649      1324.491    20635161.577    84497548.19748
      1032.070  
  24054972.826   126409732.11446     -1302.926    24054974.955    98501105.17146
     -1015.270  
  22534884.837   118421611.82047      2948.847    22534884.841    92276595.79545
      2297.801  
  22817129.207   119904818.45947     -3021.570    22817129.271    93432322.33647
     -2354.472  
  20180493.110   106049223.97349      1133.909    20180492.777    82635766.84048
       883.563  
 20 09 30 05 39 55.0000000  0  7G29G13G18G30G20G 5G15
  23505447.472   123521950.95146     -3497.195    23505449.983    96250890.55544
     -2725.089  
  20630921.192   108416231.21049      -984.672    20630919.965    84480182.53547
      -767.280  
  20633902.275   108431895.81048      1321.922    20633902.448    84492392.58548
      1030.065  
  24056213.545   126416252.60746     -1305.589    24056215.748    98506186.07245
     -1017.347  
  22532079.419   118406869.24847      2948.031    22532079.551    92265108.10345
      2297.163  
  22820004.274   119919927.75947     -3022.086    22820004.468    93444095.82047
     -2354.875  
  20179415.679   106043561.59649      1130.898    20179415.331    82631354.59848
       881.214  
 20 09 30 05 40  0.0000000  0  6G13G18G30G20G 5G15
  20631858.949   108421159.40249      -985.120    20631857.724    84484022.68747
      -767.628  
  20632645.186   108425289.89048      1322.109    20632645.510    84487245.13648
      1030.210  
  24057456.487   126422784.37147     -1305.800    24057458.425    98511275.78345
     -1017.512  
  22529274.017   118392127.91745      2949.863    22529274.074    92253621.39144
      2298.597  
  22822879.733   119935038.30347     -3020.230    22822880.096    93455870.28547
     -2353.430  
  20178340.523   106037911.86249      1130.702    20178340.321    82626952.20648
       881.062  
 20 09 30 05 40  5.0000000  0  7G29G13G18G30G20G 5G15
  23512104.462   123556938.64155     -3501.265    23512103.110    96278148.65454
     -2728.261  
  20632799.561   108426102.85149      -992.647    20632798.399    84487874.71947
      -773.495  
  20631390.724   108418697.02048      1314.938    20631390.751    84482107.82448
      1024.625  
  24058702.103   126429330.06847     -1312.664    24058704.139    98516376.30544
     -1022.859  
  22526469.556   118377390.46947      2944.538    22526469.590    92242137.62645
      2294.438  
  22825755.737   119950152.65447     -3025.371    22825756.222    93467647.69447
     -2357.433  
  20177268.401   106032277.41849      1122.961    20177268.002    82622561.73948
       875.031  
 20 09 30 05 40 10.0000000  0  7G29G13G18G30G20G 5G15
  23515436.514   123574444.69246     -3500.847    23515437.809    96291789.75444
     -2727.937  
  20633744.883   108431070.36549      -994.273    20633743.692    84491745.50547
      -774.762  
  20630140.282   108412126.05948      1313.694    20630140.369    84476987.59448
      1023.655  
  24059951.921   126435898.55947     -1314.476    24059953.963    98521494.59644
     -1024.270  
  22523667.412   118362665.66647      2945.207    22523667.552    92230663.74945
      2294.965  
  22828634.182   119965279.76447     -3025.011    22828635.076    93479435.05747
     -2357.155  
  20176200.848   106026667.14149      1121.270    20176200.547    82618190.09648
       873.714  
 20 09 30 05 40 15.0000000  0  7G29G13G18G30G20G 5G15
  23518767.887   123591949.11346     -3501.651    23518768.705    96305429.55945
     -2728.563  
  20634691.715   108436046.28549      -996.781    20634690.457    84495622.84847
      -776.715  
  20628890.960   108405561.39248      1311.508    20628891.186    84471872.27248
      1021.948  
  24061203.286   126442474.12047     -1316.734    24061205.246    98526618.39145
     -1026.030  
  22520864.721   118347937.92347      2944.940    22520865.054    92219187.61045
      2294.758  
  22831511.985   119980403.93947     -3025.112    22831513.207    93491220.11747
     -2357.233  
  20175134.834   106021065.35449      1118.816    20175134.579    82613825.07248
       871.800  
 20 09 30 05 40 20.0000000  0  7G29G13G18G30G20G 5G15
  23522100.293   123609459.86746     -3502.819    23522100.623    96319074.30144
     -2729.473  
  20635641.620   108441038.56749     -1000.269    20635640.432    84499512.93447
      -779.433  
  20627644.326   108399010.93948      1308.565    20627644.700    84466768.02748
      1019.660  
  24062457.347   126449064.72647     -1319.699    24062459.225    98531753.91345
     -1028.339  
  22518063.128   118333215.20247      2943.933    22518063.545    92207715.37145
      2293.972  
  22834391.035   119995533.04447     -3026.710    22834392.286    93503009.02948
     -2358.480  
  20174072.037   106015480.00849      1115.348    20174071.541    82609472.85648
       869.097  
 20 09 30 05 40 25.0000000  0  7G29G13G18G30G20G 5G15
  23525433.884   123626976.81746     -3503.968    23525433.745    96332723.84545
     -2730.367  
  20636594.731   108446047.10449     -1003.012    20636593.594    84503415.69147
      -781.569  
  20626400.529   108392474.58948      1306.128    20626400.616    84461674.77548
      1017.758  
  24063714.496   126455670.24647     -1322.472    24063716.359    98536901.07345
     -1030.500  
  22515262.287   118318497.34047      2943.414    22515262.631    92196246.90745
      2293.566  
  22837270.723   120010666.90747     -3026.875    22837272.105    93514801.65447
     -2358.604  
  20173012.114   106009910.97949      1112.551    20173011.897    82605133.35748
       866.917  
 20 09 30 05 40 30.0000000  0  7G29G13G18G30G20G 5G15
  23528768.709   123644500.03746     -3505.297    23528768.002    96346378.29045
     -2731.402  
  20637550.678   108451071.98448     -1006.754    20637549.958    84507331.18447
      -784.487  
  20625159.404   108385952.46448      1302.828    20625159.476    84456592.60647
      1015.188  
  24064974.272   126462290.75547     -1325.840    24064976.009    98542059.91145
     -1033.125  
  22512462.412   118303784.46147      2941.949    22512462.996    92184782.33845
      2292.426  
  22840151.526   120025805.69147     -3028.621    22840153.134    93526598.11347
     -2359.969  
  20171955.607   106004358.37349      1108.636    20171955.189    82600806.65548
       863.870  
 20 09 30 05 40 35.0000000  0  7G29G13G18G30G20G 5G15
  23532104.046   123662029.81945     -3506.652    23532103.899    96360037.85445
     -2732.465  
  20638510.049   108456113.51448     -1010.269    20638509.283    84511259.64847
      -787.226  
  20623920.939   108379444.87848      1299.913    20623921.017    84451521.76248
      1012.918  
  24066237.059   126468926.56146     -1329.023    24066238.804    98547230.65545
     -1035.604  
  22509663.531   118289076.86647      2940.750    22509664.143    92173321.88045
      2291.491  
  22843033.285   120040949.71447     -3029.602    22843034.877    93538398.64847
     -2360.729  
  20170902.165   105998822.46749      1105.254    20170901.672    82596492.96348
       861.234  
 20 09 30 05 40 40.0000000  0  7G29G13G18G30G20G 5G15
  23535440.959   123679566.69645     -3507.886    23535440.902    96373702.94945
     -2733.422  
  20639472.650   108461172.17148     -1013.249    20639472.038    84515201.46847
      -789.547  
  20622685.511   108372952.34748      1297.285    20622685.485    84446462.65347
      1010.866  
  24067502.943   126475578.19746     -1331.647    24067504.586    98552413.76245
     -1037.652  
  22506865.997   118274375.09947      2940.051    22506866.500    92161865.96645
      2290.944  
  22845916.228   120056099.49447     -3030.101    22845917.836    93550203.66747
     -2361.120  
  20169851.955   105993303.82649      1102.284    20169851.563    82592192.72448
       858.921  
 20 09 30 05 40 45.0000000  0  7G29G13G18G30G20G 5G15
  23538778.823   123697109.22545     -3509.198    23538779.429    96387372.47045
     -2734.440  
  20640438.140   108466246.54449     -1016.695    20640437.714    84519155.53247
      -792.233  
  20621452.541   108366473.48648      1294.222    20621452.667    84441414.19048
      1008.480  
  24068771.437   126482244.24346     -1334.836    24068773.318    98557608.09845
     -1040.136  
  22504069.041   118259677.74647      2938.746    22504069.851    92150413.50045
      2289.930  
  22848799.956   120071253.58847     -3031.296    22848801.713    93562012.03547
     -2362.050  
  20168804.968   105987801.02649      1098.741    20168804.393    82587904.83248
       856.159  
 20 09 30 05 40 50.0000000  0  7G29G13G18G30G20G 5G15
  23542117.585   123714657.63145     -3510.554    23542118.202    96401046.59644
     -2735.495  
  20641406.705   108471336.88749     -1019.738    20641406.590    84523122.04147
      -794.604  
  20620222.236   108360008.53448      1291.503    20620222.320    84436376.56148
      1006.362  
  24070042.573   126488924.95246     -1337.855    24070044.529    98562813.84045
     -1042.488  
  22501273.255   118244985.04247      2937.944    22501273.909    92138964.64745
      2289.305  
  22851684.653   120086412.27348     -3032.237    22851686.109    93573823.99847
     -2362.785  
  20167760.846   105982314.31849      1095.632    20167760.399    82583629.47448
       853.737  
 20 09 30 05 40 55.0000000  0  7G29G13G18G30G20G 5G15
  23545457.804   123732212.79045     -3511.781    23545458.300    96414725.92444
     -2736.456  
  20642378.700   108476444.03949     -1022.871    20642378.395    84527101.63947
      -797.047  
  20618994.787   108353558.33948      1288.809    20618994.944    84431350.44248
      1004.261  
  24071316.976   126495621.11146     -1340.690    24071318.931    98568031.61445
     -1044.699  
  22498478.218   118230297.89947      2937.320    22498479.154    92127520.12445
      2288.815  
  22854570.279   120101576.31048     -3033.121    22854571.929    93585640.13747
     -2363.472  
  20166719.945   105976844.53649      1092.573    20166719.580    82579367.30648
       851.352  
 20 09 30 05 41  0.0000000  0  7G29G13G18G30G20G 5G15
  23548799.208   123749771.98845     -3512.444    23548799.675    96428408.42444
     -2736.972  
  20643353.205   108481565.34449     -1025.789    20643353.117    84531092.27447
      -799.319  
  20617769.638   108347120.26448      1286.210    20617769.750    84426333.75748
      1002.237  
  24072593.730   126502330.12046     -1343.237    24072595.719    98573259.41145
     -1046.684  
  22495683.963   118215613.61647      2936.870    22495684.691    92116077.82945
      2288.468  
  22857456.514   120116743.10847     -3033.741    22857457.928    93597458.41247
     -2363.956  
  20165681.914   105971389.05249      1089.523    20165681.451    82575116.27848
       848.977  
 20 09 30 05 41  5.0000000  0  7G29G13G18G30G20G 5G15
  23552141.569   123767335.96446     -3513.422    23552141.784    96442094.61244
     -2737.738  
  20644330.580   108486701.51749     -1028.788    20644330.497    84535094.48547
      -801.656  
  20616546.992   108340695.06048      1283.793    20616547.280    84421327.10648
      1000.355  
  24073872.922   126509052.66446     -1345.901    24073874.960    98578497.75045
     -1048.758  
  22492890.262   118200932.96247      2935.960    22492891.084    92104638.35045
      2287.758  
  22860343.266   120131913.37348     -3034.391    22860344.684    93609279.38646
     -2364.464  
  20164646.537   105965948.57349      1086.652    20164646.024    82570876.94348
       846.737  
 20 09 30 05 41 10.0000000  0  7G29G13G18G30G20G 5G15
  23555484.917   123784904.81245     -3514.477    23555485.072    96455784.63045
     -2738.554  
  20645310.832   108491852.77549     -1031.824    20645310.825    84539108.45247
      -804.023  
  20615326.656   108334282.93248      1281.038    20615327.011    84416330.65248
       998.210  
  24075154.783   126515788.98246     -1348.679    24075156.896    98583746.84545
     -1050.921  
  22490097.496   118186256.12747      2934.819    22490097.980    92093201.87045
      2286.871  
  22863230.790   120147087.35248     -3035.219    22863232.188    93621103.26347
     -2365.108  
  20163614.188   105960523.35849      1083.382    20163613.755    82566649.50448
       844.190  
 20 09 30 05 41 15.0000000  0  7G29G13G18G30G20G 5G15
  23558829.466   123802479.91145     -3515.769    23558829.563    96469479.51044
     -2739.562  
  20646294.327   108497020.45349     -1035.159    20646294.294    84543135.21547
      -806.620  
  20614109.347   108327885.24148      1278.108    20614109.671    84411345.43948
       995.925  
  24076439.644   126522540.41146     -1351.637    24076441.682    98589007.70646
     -1053.226  
  22487305.471   118171584.46947      2933.925    22487306.189    92081769.42044
      2286.171  
  22866119.287   120162266.38248     -3036.319    22866120.672    93632931.05746
     -2365.969  
  20162584.882   105955114.75749      1080.011    20162584.663    82562435.01348
       841.563  
 20 09 30 05 41 20.0000000  0  7G29G13G18G30G20G 5G15
  23562175.193   123820060.35545     -3516.687    23562175.310    96483178.53745
     -2740.277  
  20647280.688   108502203.62449     -1038.108    20647280.664    84547174.04847
      -808.918  
  20612894.531   108321501.09048      1275.503    20612894.784    84406370.77648
       993.894  
  24077726.938   126529305.99946     -1354.531    24077729.176    98594279.59145
     -1055.480  
  22484514.451   118156917.12347      2933.211    22484515.094    92070340.32245
      2285.617  
  22869008.533   120177449.50548     -3037.145    22869009.889    93644762.04446
     -2366.609  
  20161558.620   105949721.83649      1077.082    20161558.263    82558232.73448
       839.281  
 20 09 30 05 41 25.0000000  0  7G29G13G18G30G20G 5G15
  23565521.756   123837646.97845     -3517.827    23565522.099    96496882.42244
     -2741.167  
  20648270.275   108507403.09549     -1041.515    20648269.959    84551225.57947
      -811.574  
  20611682.373   108315131.28248      1272.586    20611682.832    84401407.28448
       991.621  
  24079017.295   126536086.58946     -1357.757    24079019.610    98599563.17145
     -1057.995  
  22481724.152   118142254.87347      2931.917    22481725.000    92058915.19645
      2284.608  
  22871898.724   120192637.52748     -3038.195    22871899.847    93656596.84546
     -2367.434  
  20160535.592   105944345.41449      1073.718    20160535.279    82554043.31748
       836.659  
 20 09 30 05 41 30.0000000  0  7G29G13G18G30G20G 5G15
  23568869.631   123855239.80545     -3518.945    23568870.012    96510591.06645
     -2742.039  
  20649262.706   108512618.95049     -1044.719    20649262.410    84555289.87647
      -814.070  
  20610472.896   108308775.87648      1269.609    20610473.552    84396455.01848
       989.305  
  24080310.440   126542882.20846     -1360.406    24080312.792    98604858.47245
     -1060.059  
  22478934.981   118127597.77747      2930.922    22478935.878    92047494.08445
      2283.831  
  22874789.856   120207830.46847     -3038.925    22874791.027    93668435.49447
     -2367.995  
  20159515.598   105938985.55949      1070.272    20159515.227    82549866.81048
       833.976  
 20 09 30 05 41 35.0000000  0  7G29G13G18G30G20G 5G15
  23572218.660   123872838.47545     -3520.354    23572219.145    96524304.33145
     -2743.136  
  20650258.338   108517850.65749     -1047.944    20650258.040    84559366.52947
      -816.582  
  20609266.279   108302434.43549      1266.995    20609266.747    84391513.63148
       987.265  
  24081606.285   126549692.38946     -1363.320    24081608.845    98610165.09346
     -1062.332  
  22476146.710   118112945.34547      2930.086    22476147.459    92036076.59945
      2283.180  
  22877681.760   120223027.90247     -3039.733    22877682.933    93680277.64747
     -2368.628  
  20158498.659   105933641.78849      1067.168    20158498.357    82545702.83548
       831.554  
 20 09 30 05 41 40.0000000  0  7G29G13G18G30G20G 5G15
  23575568.562   123890442.54746     -3521.160    23575568.894    96538021.80445
     -2743.766  
  20651257.021   108523098.02149     -1051.151    20651256.581    84563455.39047
      -819.082  
  20608062.144   108296106.72649      1264.152    20608062.608    84386582.94648
       985.051  
  24082904.773   126556516.92646     -1366.566    24082907.374    98615482.91545
     -1064.858  
  22473359.218   118098297.41347      2928.987    22473360.096    92024662.62745
      2282.323  
  22880574.612   120238229.62747     -3040.437    22880575.853    93692123.13947
     -2369.175  
  20157484.757   105928313.88849      1063.918    20157484.660    82541551.23048
       829.023  
 20 09 30 05 41 45.0000000  0  7G29G13G18G30G20G 5G15
  23578919.669   123908052.51646     -3522.522    23578920.060    96551743.83244
     -2744.828  
  20652258.550   108528361.43549     -1054.012    20652258.031    84567556.75347
      -821.313  
  20606860.858   108289793.17549      1261.526    20606861.410    84381663.30348
       983.004  
  24084206.355   126563356.18946     -1368.819    24084208.935    98620812.21345
     -1066.617  
  22470572.724   118083654.32247      2928.391    22470573.650    92013252.40645
      2281.858  
  22883468.403   120253436.03847     -3041.379    22883469.485    93703972.29847
     -2369.910  
  20156474.087   105923002.25149      1060.894    20156473.882    82537412.29248
       826.668  
 20 09 30 05 41 50.0000000  0  7G29G13G18G30G20G 5G15
  23582271.694   123925667.80945     -3523.944    23582272.534    96565470.02645
     -2745.938  
  20653263.116   108533640.40649     -1057.460    20653262.669    84571670.23547
      -824.000  
  20605662.042   108283493.29049      1258.586    20605662.644    84376754.30748
       980.714  
  24085510.424   126570209.67946     -1372.125    24085513.017    98626152.58845
     -1069.190  
  22467787.024   118069015.65047      2927.265    22467787.954    92001845.66545
      2280.983  
  22886362.756   120268646.59247     -3042.507    22886363.875    93715824.68447
     -2370.788  
  20155466.262   105917706.37449      1057.616    20155466.027    82533285.63948
       824.113  
 20 09 30 05 41 55.0000000  0  7G29G13G18G30G20G 5G15
  23585624.858   123943288.42846     -3524.676    23585625.858    96579200.36045
     -2746.508  
  20654270.549   108538934.90749     -1060.324    20654270.004    84575795.82247
      -826.230  
  20604465.861   108277207.09849      1255.804    20604466.291    84371855.97548
       978.547  
  24086817.405   126577077.44446     -1375.129    24086820.131    98631504.09345
     -1071.530  
  22465002.241   118054381.39047      2926.210    22465003.232    91990442.35145
      2280.159  
  22889258.096   120283861.33247     -3043.335    22889259.266    93727680.32547
     -2371.433  
  20154461.488   105912426.34349      1054.383    20154461.341    82529171.33548
       821.594  
 20 09 30 05 42  0.0000000  0  7G29G13G18G30G20G 5G15
  23588978.946   123960914.28045     -3525.684    23588980.075    96592934.78644
     -2747.289  
  20655281.039   108544244.87949     -1063.656    20655280.503    84579933.46147
      -828.828  
  20603272.150   108270934.50948      1253.168    20603272.841    84366968.24448
       976.491  
  24088127.024   126583959.32046     -1378.042    24088129.697    98636866.58045
     -1073.804  
  22462218.239   118039751.42347      2926.038    22462219.241    91979042.37545
      2280.027  
  22892154.140   120299080.14747     -3044.043    22892155.386    93739539.14147
     -2371.984  
  20153459.772   105907162.01249      1051.292    20153459.594    82525069.25848
       819.188  
 20 09 30 05 42  5.0000000  0  7G29G13G18G30G20G 5G15
  23592334.203   123978546.30246     -3527.569    23592335.695    96606674.02145
     -2748.757  
  20656294.763   108549571.19349     -1067.207    20656293.937    84584083.83447
      -831.594  
  20602081.276   108264676.45948      1249.897    20602081.812    84362091.83948
       973.945  
  24089439.439   126590856.26446     -1380.930    24089442.114    98642240.83345
     -1076.051  
  22459435.181   118025126.76047      2924.183    22459436.276    91967646.53544
      2278.581  
  22895050.981   120314303.99348     -3045.539    22895052.241    93751401.87346
     -2373.151  
  20152461.117   105901914.32349      1047.722    20152461.009    82520980.15348
       816.402  
 20 09 30 05 42 10.0000000  0  7G29G13G18G30G20G 5G15
  23595690.378   123996183.56246     -3527.488    23595692.005    96620417.36146
     -2748.694  
  20657311.337   108554913.01249     -1069.703    20657310.566    84588246.28847
      -833.538  
  20600893.043   108258432.09648      1247.641    20600893.671    84357226.09748
       972.183  
  24090754.519   126597767.40046     -1383.391    24090757.564    98647626.13045
     -1077.968  
  22456653.102   118010506.49647      2923.616    22456654.272    91956254.13245
      2278.141  
  22897948.980   120329532.07748     -3045.937    22897950.009    93763267.90347
     -2373.461  
  20151465.503   105896682.39949      1044.977    20151465.353    82516903.33048
       814.265  
 20 09 30 05 42 15.0000000  0  7G29G13G18G30G20G 5G15
  23599047.591   124013825.99046     -3528.878    23599049.303    96634164.68646
     -2749.776  
  20658330.773   108560270.21449     -1073.039    20658329.877    84592420.72847
      -836.137  
  20599707.301   108252201.32248      1244.726    20599707.718    84352370.94648
       969.913  
  24092072.269   126604692.66046     -1386.578    24092075.328    98653022.43544
     -1080.453  
  22453871.763   117995890.52247      2922.647    22453872.903    91944865.07545
      2277.386  
  22900847.568   120344764.13648     -3046.824    22900848.780    93775137.04146
     -2374.151  
  20150472.951   105891466.13049      1041.602    20150472.640    82512838.70848
       811.632  
 20 09 30 05 42 20.0000000  0  7G29G13G18G30G20G 5G15
  23602405.970   124031473.79846     -3530.027    23602407.741    96647916.21145
     -2750.675  
  20659353.245   108565643.02849     -1076.164    20659352.366    84596607.33947
      -838.574  
  20598524.220   108245984.37848      1241.968    20598524.703    84347526.57248
       967.766  
  24093392.900   126611632.21646     -1389.266    24093395.670    98658429.86045
     -1082.547  
  22451091.383   117981279.11947      2921.905    22451092.287    91933479.57845
      2276.808  
  22903746.913   120360000.45448     -3047.769    22903748.048    93787009.49747
     -2374.887  
  20149483.268   105886265.74649      1038.425    20149483.108    82508786.46248
       809.160  
 20 09 30 05 42 25.0000000  0  7G29G13G18G30G20G 5G15
  23605765.490   124049127.00946     -3531.128    23605766.907    96661671.96545
     -2751.530  
  20660378.564   108571031.46249     -1079.238    20660377.804    84600806.11847
      -840.968  
  20597343.841   108239781.25548      1239.301    20597344.130    84342692.97748
       965.687  
  24094716.191   126618586.06347     -1392.253    24094719.015    98663848.45345
     -1084.875  
  22448311.822   117966672.23948      2921.113    22448312.671    91922097.60644
      2276.187  
  22906647.219   120375241.03948     -3048.335    22906648.242    93798885.27747
     -2375.328  
  20148496.796   105881081.27249      1035.421    20148496.498    82504746.61348
       806.820  
 20 09 30 05 42 30.0000000  0  7G29G13G18G30G20G 5G15
  23609125.778   124066785.93946     -3532.277    23609127.523    96675432.15545
     -2752.425  
  20661406.923   108576435.86649     -1082.434    20661406.175    84605017.34247
      -843.456  
  20596166.104   108233592.36148      1236.418    20596166.507    84337870.46648
       963.438  
  24096042.177   126625554.60647     -1395.190    24096045.066    98669278.47444
     -1087.164  
  22445533.173   117952070.34148      2919.960    22445533.992    91910719.50744
      2275.292  
  22909548.276   120390486.22948     -3049.527    22909549.206    93810764.64547
     -2376.258  
  20147513.383   105875913.08649      1032.031    20147513.071    82500719.45648
       804.176  
 20 09 30 05 42 35.0000000  0  7G29G13G18G30G20G 5G15
  23612487.426   124084450.07947     -3533.136    23612488.791    96689196.39445
     -2753.098  
  20662438.300   108581855.66249     -1085.285    20662437.473    84609240.55547
      -845.680  
  20594991.047   108227417.14448      1233.773    20594991.349    84333058.60848
       961.379  
  24097371.022   126632537.26647     -1397.887    24097373.790    98674719.49944
     -1089.266  
  22442755.305   117937472.82947      2918.933    22442755.970    91899344.84644
      2274.492  
  22912450.107   120405735.48348     -3050.273    22912451.147    93822647.17147
     -2376.839  
  20146532.817   105870760.64849      1029.101    20146532.564    82496704.57048
       801.895  
 20 09 30 05 42 40.0000000  0  7G29G13G18G30G20G 5G15
  23615849.629   124102118.67347     -3534.195    23615850.991    96702964.13545
     -2753.921  
  20663472.539   108587290.25049     -1088.645    20663471.710    84613475.30147
      -848.297  
  20593818.253   108221254.94948      1230.824    20593818.625    84328256.90448
       959.081  
  24098702.361   126639533.40447     -1400.765    24098705.277    98680171.02945
     -1091.507  
  22439978.380   117922879.01847      2918.015    22439978.907    91887973.04744
      2273.772  
  22915352.760   120420988.12148     -3051.188    22915353.542    93834532.33947
     -2377.551  
  20145555.285   105865623.30949      1025.753    20145554.969    82492701.45148
       799.285  
 20 09 30 05 42 45.0000000  0  7G29G13G18G30G20G 5G15
  23619213.130   124119793.45447     -3535.218    23619214.288    96716736.68045
     -2754.719  
  20664509.819   108592741.26049     -1091.940    20664508.873    84617722.84147
      -850.866  
  20592648.514   108215107.48748      1228.050    20592648.840    84323466.67447
       956.918  
  24100036.554   126646544.66647     -1403.641    24100039.304    98685634.33644
     -1093.749  
  22437202.241   117908290.62347      2917.352    22437202.480    91876605.48145
      2273.257  
  22918256.169   120436245.85748     -3051.882    22918256.923    93846421.47647
     -2378.093  
  20144580.811   105860502.78449      1022.418    20144580.558    82488711.43148
       796.687  
 20 09 30 05 42 50.0000000  0  7G29G13G18G30G20G 5G15
  23622577.584   124137473.50147     -3536.605    23622578.686    96730513.32945
     -2755.800  
  20665549.932   108598207.81049     -1094.898    20665549.215    84621982.49347
      -853.172  
  20591481.259   108208973.86548      1225.417    20591481.734    84318687.22748
       954.867  
  24101373.611   126653570.16947     -1406.527    24101376.146    98691108.76045
     -1095.999  
  22434427.047   117893706.75547      2916.444    22434427.159    91865241.44344
      2272.555  
  22921160.545   120451507.76948     -3052.706    22921161.020    93858313.86247
     -2378.734  
  20143609.546   105855398.13249      1019.328    20143609.060    82484733.78048
       794.277  
 20 09 30 05 42 55.0000000  0  7G29G13G18G30G20G 5G15
  23625943.168   124155159.07747     -3537.500    23625944.191    96744294.29045
     -2756.495  
  20666593.286   108603690.17249     -1098.078    20666592.459    84626254.46647
      -855.647  
  20590316.869   108202854.33348      1222.507    20590317.044    84313918.76648
       952.601  
  24102713.327   126660610.17046     -1409.148    24102715.825    98696594.46245
     -1098.038  
  22431652.821   117879127.72547      2915.367    22431652.862    91853881.16145
      2271.711  
  22924065.888   120466774.10748     -3053.699    22924066.113    93870209.70147
     -2379.507  
  20142641.146   105850309.65449      1016.101    20142640.763    82480768.73448
       791.766  
 20 09 30 05 43  0.0000000  0  7G29G13G18G30G20G 5G15
  23629309.711   124172850.03347     -3538.484    23629310.596    96758079.43445
     -2757.270  
  20667639.468   108609188.17549     -1100.968    20667638.641    84630538.62347
      -857.901  
  20589154.957   108196748.78548      1219.792    20589155.273    84309161.19748
       950.484  
  24104055.765   126667664.54647     -1412.414    24104058.291    98702091.38445
     -1100.585  
  22428879.550   117864553.33547      2914.254    22428879.228    91842524.49945
      2270.843  
  22926971.793   120482044.76948     -3054.476    22926971.961    93882108.91347
     -2380.113  
  20141675.986   105845237.16949      1013.108    20141675.624    82476816.15048
       789.434  
 20 09 30 05 43  5.0000000  0  7G29G13G18G30G20G 5G15
  23632677.045   124190545.71247     -3539.823    23632678.002    96771868.27545
     -2758.308  
  20668688.502   108614701.13449     -1104.589    20668687.769    84634834.44047
      -860.723  
  20587995.699   108190656.56249      1216.742    20587995.977    84304414.01148
       948.109  
  24105400.795   126674732.59746     -1415.504    24105403.141    98707598.94645
     -1102.992  
  22426106.859   117849982.93647      2913.429    22426106.314    91831170.94244
      2270.203  
  22929878.642   120497319.11448     -3055.691    22929878.554    93894010.99047
     -2381.063  
  20140713.691   105840180.02549      1009.660    20140713.175    82472875.52148
       786.745  
 20 09 30 05 43 10.0000000  0  7G29G13G18G30G20G 5G15
  23636045.915   124208248.15047     -3540.859    23636046.659    96785662.36145
     -2759.113  
  20669740.780   108620231.17549     -1107.437    20669740.062    84639143.56247
      -862.941  
  20586839.314   108184579.78249      1214.140    20586839.392    84299678.86548
       946.081  
  24106748.904   126681816.42746     -1417.858    24106751.225    98713118.81045
     -1104.827  
  22423335.482   117835418.68747      2912.500    22423334.990    91819822.18045
      2269.477  
  22932786.443   120512599.21248     -3056.266    22932786.396    93905917.55447
     -2381.507  
  20139754.620   105835140.35649      1006.547    20139754.175    82468948.51248
       784.320  
 20 09 30 05 43 15.0000000  0  7G29G13G18G30G20G 5G15
  23639415.347   124225954.79547     -3542.179    23639416.200    96799459.72644
     -2760.148  
  20670795.744   108625775.73549     -1110.472    20670795.302    84643464.00047
      -865.304  
  20585685.386   108178515.90949      1211.363    20585685.522    84294953.77048
       943.917  
  24108099.409   126688913.50546     -1420.660    24108101.694    98718648.97445
     -1107.015  
  22420564.864   117820858.02547      2911.710    22420564.148    91808476.23145
      2268.863  
  22935694.821   120527882.53048     -3057.184    22935694.675    93917826.62547
     -2382.223  
  20138798.384   105830115.61449      1003.386    20138798.097    82465033.12648
       781.854  
 20 09 30 05 43 20.0000000  0  7G29G13G18G30G20G 5G15
  23642785.893   124243666.91347     -3542.898    23642786.799    96813261.35844
     -2760.702  
  20671853.963   108631336.08749     -1113.512    20671853.242    84647796.74247
      -867.676  
  20584534.295   108172466.23348      1208.688    20584534.377    84290239.74248
       941.832  
  24109452.767   126696025.13946     -1423.762    24109455.145    98724190.50545
     -1109.429  
  22417795.006   117806302.25847      2910.827    22417794.299    91797134.07045
      2268.175  
  22938604.131   120543170.34148     -3057.929    22938603.968    93929739.19747
     -2382.804  
  20137845.410   105825107.07649      1000.159    20137844.936    82461130.37248
       779.343  
 20 09 30 05 43 25.0000000  0  7G29G13G18G30G20G 5G15
  23646157.614   124261384.33347     -3543.789    23646158.471    96827067.13845
     -2761.397  
  20672915.040   108636912.05349     -1116.714    20672914.366    84652141.64847
      -870.171  
  20583385.661   108166430.55548      1205.781    20583385.924    84285536.61448
       939.565  
  24110808.810   126703151.03346     -1426.487    24110811.165    98729743.15045
     -1111.551  
  22415026.133   117791751.20047      2909.761    22415025.158    91785795.58744
      2267.343  
  22941514.153   120558462.39048     -3058.894    22941513.947    93941655.07047
     -2383.559  
  20136895.284   105820114.57049       996.961    20136894.985    82457240.10948
       776.847  
 20 09 30 05 43 30.0000000  0  7G29G13G18G30G20G 5G15
  23649530.282   124279107.04147     -3544.973    23649530.969    96840877.01345
     -2762.323  
  20673979.015   108642503.68949     -1119.898    20673978.442    84656498.77047
      -872.651  
  20582239.687   108160408.92248      1202.973    20582240.145    84280844.43548
       937.378  
  24112167.535   126710291.24746     -1429.144    24112169.706    98735306.93045
     -1113.624  
  22412258.008   117777204.89047      2908.742    22412257.044    91774460.80844
      2266.550  
  22944424.876   120573758.71647     -3059.878    22944424.647    93953574.27646
     -2384.323  
  20135948.372   105815138.10549       993.590    20135947.943    82453362.34648
       774.222  
 20 09 30 05 43 35.0000000  0  7G29G13G18G30G20G 5G15
  23652903.918   124296835.49347     -3546.253    23652904.400    96854691.39945
     -2763.315  
  20675046.243   108648111.41749     -1123.070    20675045.717    84660868.42547
      -875.121  
  20581096.551   108154401.79548      1200.124    20581097.050    84276163.55748
       935.159  
  24113529.126   126717446.29646     -1432.406    24113531.397    98740882.29445
     -1116.164  
  22409490.995   117762663.76147      2907.590    22409490.134    91763130.05745
      2265.652  
  22947336.511   120589059.71347     -3060.483    22947336.362    93965497.13946
     -2384.796  
  20135004.521   105810178.10349       990.343    20135004.094    82449497.41448
       771.691  
 20 09 30 05 43 40.0000000  0  7G29G13G18G30G20G 5G15
  23656278.638   124314569.35947     -3547.272    23656278.896    96868509.99245
     -2764.113  
  20676116.352   108653734.94049     -1126.375    20676115.906    84665250.38747
      -877.698  
  20579956.070   108148408.93348      1197.090    20579956.637    84271493.78648
       932.793  
  24114893.304   126724615.85146     -1435.586    24114895.490    98746468.96645
     -1118.641  
  22406724.906   117748127.58647      2906.996    22406724.044    91751803.16345
      2265.188  
  22950249.060   120604365.22947     -3061.647    22950248.813    93977423.51246
     -2385.703  
  20134063.692   105805234.36149       987.065    20134063.416    82445645.15048
       769.141  
 20 09 30 05 43 45.0000000  0  7G29G13G18G30G20G 5G15
  23659654.266   124332308.75146     -3548.151    23659654.544    96882332.89444
     -2764.797  
  20677189.698   108659374.34549     -1129.370    20677188.995    84669644.72747
      -880.030  
  20578818.460   108142430.40748      1194.257    20578819.128    84266835.19248
       930.586  
  24116260.515   126731800.00146     -1438.578    24116262.775    98752067.01645
     -1120.972  
  22403959.779   117733596.46447      2905.859    22403958.918    91740480.21444
      2264.304  
  22953162.374   120619675.32947     -3062.522    22953162.190    93989353.46047
     -2386.387  
  20133125.909   105800306.96649       983.937    20133125.672    82441805.62148
       766.703  
 20 09 30 05 43 50.0000000  0  7G29G13G18G30G20G 5G15
  23663030.991   124350053.49746     -3549.605    23663031.244    96896159.94543
     -2765.934  
  20678265.893   108665029.41649     -1132.641    20678265.286    84674051.27247
      -882.582  
  20577683.505   108136466.02648      1191.438    20577684.045    84262187.62348
       928.391  
  24117630.201   126738998.52946     -1440.949    24117632.539    98757676.25245
     -1122.820  
  22401195.570   117719070.16647      2904.601    22401194.779    91729161.02945
      2263.323  
  22956076.422   120634989.78547     -3063.359    22956076.320    94001286.80347
     -2387.034  
  20132191.353   105795395.71249       980.516    20132191.100    82437978.67248
       764.035  
 20 09 30 05 43 55.0000000  0  7G29G13G18G30G20G 5G15
  23666408.651   124367803.87446     -3550.609    23666409.032    96909991.42245
     -2766.710  
  20679345.122   108670700.48949     -1135.902    20679344.500    84678470.28747
      -885.120  
  20576551.254   108130516.15948      1188.483    20576551.877    84257551.36547
       926.090  
  24119002.762   126746211.79446     -1443.933    24119004.963    98763296.97745
     -1125.145  
  22398432.265   117704549.05846      2903.938    22398431.374    91717845.87843
      2262.805  
  22958991.375   120650308.99647     -3064.559    22958991.396    94013223.86647
     -2387.972  
  20131259.837   105790500.93749       977.223    20131259.709    82434164.56248
       761.469  
 20 09 30 05 44  0.0000000  0  6G29G13G18G30G 5G15
  23669787.403   124385559.61745     -3551.890    23669787.902    96923827.05045
     -2767.710  
  20680427.358   108676387.39949     -1139.050    20680426.625    84682901.65447
      -887.573  
  20575421.667   108124580.64348      1185.476    20575422.378    84252926.28648
       923.745  
  24120378.278   126753439.64947     -1447.340    24120380.517    98768929.07645
     -1127.801  
  22961907.322   120665632.68647     -3065.362    22961907.492    94025164.38547
     -2388.598  
  20130331.592   105785622.44949       973.761    20130331.492    82430363.13648
       758.772  
 20 09 30 05 44  5.0000000  0  7G29G13G18G30G20G 5G15
  23673167.355   124403321.57446     -3552.418    23673167.629    96937667.49944
     -2768.124  
  20681512.607   108682090.76349     -1141.823    20681511.900    84687345.83147
      -889.737  
  20574295.128   108118660.13748      1183.034    20574295.569    84248312.91048
       921.843  
  24121756.635   126760682.68446     -1449.757    24121758.486    98774572.97244
     -1129.684  
  22392907.952   117675524.46755      2902.269    22392909.656    91695223.83453
      2261.516  
  22964824.187   120680961.53847     -3065.832    22964824.317    94037108.95547
     -2388.964  
  20129406.371   105780760.91149       971.034    20129406.176    82426574.93748
       756.648  
 20 09 30 05 44 10.0000000  0  7G29G13G18G30G20G 5G15
  23676547.847   124421086.17946     -3553.440    23676548.203    96951510.07244
     -2768.913  
  20682600.523   108687807.11049     -1144.656    20682599.874    84691800.12147
      -891.940  
  20573170.647   108112751.14048      1180.487    20573171.246    84243708.49848
       919.858  
  24123137.236   126767937.34946     -1452.269    24123138.915    98780225.97545
     -1131.640  
  22390147.200   117661016.21247      2901.301    22390147.845    91683918.64945
      2260.750  
  22967741.497   120696292.07447     -3066.441    22967741.628    94049054.82147
     -2389.437  
  20128483.823   105775912.85449       968.124    20128483.800    82422797.24048
       754.379  
 20 09 30 05 44 15.0000000  0  7G29G13G18G30G20G 5G15
  23679929.274   124438856.19546     -3554.839    23679929.594    96965356.83145
     -2770.007  
  20683691.267   108693539.38749     -1148.289    20683690.531    84696266.83747
      -894.773  
  20572048.863   108106856.65648      1177.203    20572049.594    84239115.39248
       917.296  
  24124520.430   126775206.77446     -1455.703    24124522.420    98785890.44645
     -1134.316  
  22387387.367   117646513.13347      2899.847    22387387.498    91672617.55345
      2259.616  
  22970659.559   120711627.24947     -3068.039    22970659.807    94061004.30947
     -2390.683  
  20127564.506   105771081.25249       964.382    20127564.346    82419032.35548
       751.465  
 20 09 30 05 44 20.0000000  0  7G29G13G18G30G20G 5G15
  23683311.783   124456632.65146     -3555.659    23683312.557    96979208.62545
     -2770.648  
  20684785.251   108699288.55949     -1151.223    20684784.594    84700746.71647
      -897.059  
  20570930.163   108100977.56348      1174.484    20570930.869    84234534.27848
       915.180  
  24125906.664   126782491.73146     -1458.487    24125908.762    98791567.03644
     -1136.488  
  22384628.747   117632016.11247      2898.980    22384628.839    91661321.18145
      2258.940  
  22973578.604   120726967.93447     -3068.492    22973578.989    94072958.09246
     -2391.035  
  20126648.224   105766266.96749       961.383    20126648.058    82415280.96648
       749.124  
 20 09 30 05 44 25.0000000  0  7G29G13G18G30G20G 5G15
  23686695.452   124474414.17145     -3556.590    23686696.325    96993064.34045
     -2771.370  
  20685882.276   108705053.18749     -1154.602    20685881.590    84705238.63747
      -899.691  
  20569814.094   108095112.52048      1171.690    20569814.803    84229964.11148
       913.003  
  24127295.605   126789790.88446     -1460.875    24127297.653    98797254.68845
     -1138.348  
  22381870.732   117617523.86547      2897.883    22381870.940    91650028.51245
      2258.085  
  22976498.625   120742312.84547     -3069.315    22976498.914    94084915.16446
     -2391.680  
  20125735.190   105761468.69449       958.358    20125735.161    82411542.05748
       746.769  
 20 09 30 05 44 30.0000000  0  7G29G13G18G30G20G 5G15
  23690079.696   124492199.99246     -3557.473    23690080.740    97006923.42144
     -2772.059  
  20686981.952   108710832.48749     -1157.483    20686981.247    84709741.98847
      -901.937  
  20568700.528   108089260.78748      1168.945    20568701.158    84225404.32648
       910.863  
  24128687.231   126797103.45746     -1463.835    24128689.177    98802952.77545
     -1140.655  
  22379113.751   117603035.57947      2896.761    22379113.753    91638738.94745
      2257.215  
  22979419.415   120757661.13848     -3070.023    22979419.336    94096874.86746
     -2392.229  
  20124825.012   105756685.64549       954.905    20124824.955    82407815.00948
       744.077  
 20 09 30 05 44 35.0000000  0  7G29G13G18G30G20G 5G15
  23693465.051   124509990.78046     -3558.550    23693466.079    97020786.38145
     -2772.897  
  20688084.662   108716627.20549     -1160.354    20688084.067    84714257.35047
      -904.175  
  20567589.818   108083423.09148      1166.218    20567590.160    84220855.47448
       908.738  
  24130081.543   126804430.21046     -1466.808    24130083.434    98808661.93345
     -1142.973  
  22376357.567   117588551.95147      2896.230    22376357.726    91627453.00945
      2256.800  
  22982340.833   120773013.57148     -3070.909    22982340.752    94108837.79546
     -2392.922  
  20123917.897   105751918.53549       951.913    20123917.658    82404100.37448
       741.745  
 20 09 30 05 44 40.0000000  0  7G29G13G18G30G20G 5G15
  23696851.438   124527786.92346     -3559.699    23696852.511    97034653.50645
     -2773.792  
  20689190.207   108722437.69648     -1163.562    20689189.774    84718785.00647
      -906.675  
  20566481.565   108077599.77749      1163.352    20566481.838    84216317.83148
       906.504  
  24131478.579   126811771.40246     -1469.359    24131480.568    98814382.33646
     -1144.956  
  22373602.217   117574073.39747      2895.723    22373602.628    91616171.03045
      2256.402  
  22985263.186   120788370.45248     -3071.698    22985263.142    94120804.18346
     -2393.535  
  20123013.828   105747167.74249       948.617    20123013.537    82400398.46148
       739.179  
 20 09 30 05 44 45.0000000  0  7G29G13G18G30G20G 5G15
  23700238.853   124545587.41246     -3560.551    23700239.689    97048523.99545
     -2774.456  
  20690298.768   108728263.00748     -1166.741    20690298.149    84723324.21147
      -909.152  
  20565375.984   108071789.90749      1160.542    20565376.203    84211790.66248
       904.316  
  24132878.240   126819126.14246     -1472.473    24132880.174    98820113.30245
     -1147.383  
  22370847.725   117559598.91347      2894.397    22370848.164    91604892.21245
      2255.371  
  22988186.068   120803730.83348     -3072.265    22988186.055    94132773.30246
     -2393.977  
  20122112.802   105742432.31949       945.461    20122112.356    82396708.52748
       736.719  
 20 09 30 05 44 50.0000000  0  7G29G13G18G30G20G 5G15
  23703627.169   124563393.50846     -3561.930    23703628.062    97062398.88045
     -2775.530  
  20691410.159   108734104.34148     -1170.027    20691409.443    84727875.89747
      -911.711  
  20564273.247   108065994.73749      1157.319    20564273.275    84207274.94848
       901.805  
  24134280.517   126826495.65746     -1475.472    24134282.579    98825855.79245
     -1149.723  
  22368094.298   117545129.74647      2893.648    22368094.524    91593617.54745
      2254.788  
  22991110.132   120819096.01948     -3073.504    22991109.965    94144746.16446
     -2394.940  
  20121214.827   105737713.49249       941.953    20121214.347    82393031.51748
       733.983  
 20 09 30 05 44 55.0000000  0  7G29G13G18G30G20G 5G15
  23707016.471   124581204.78646     -3562.602    23707017.512    97076277.76744
     -2776.058  
  20692524.562   108739961.29148     -1172.792    20692523.923    84732439.75847
      -913.867  
  20563173.157   108060213.85049      1154.816    20563173.300    84202770.35948
       899.854  
  24135685.613   126833879.51846     -1478.058    24135687.694    98831609.43945
     -1151.738  
  22365341.899   117530665.57147      2892.289    22365341.928    91582346.75444
      2253.729  
  22994034.755   120834465.51848     -3074.144    22994034.634    94156722.38146
     -2395.441  
  20120319.911   105733010.86749       938.961    20120319.522    82389367.13748
       731.656  
 20 09 30 05 45  0.0000000  0  7G29G13G18G30G20G 5G15
  23710406.749   124599020.69346     -3563.374    23710407.966    97090160.29544
     -2776.659  
  20693641.838   108745833.36548     -1175.980    20693641.304    84737015.40347
      -916.351  
  20562075.751   108054446.75248      1152.031    20562075.790    84198276.51948
       897.683  
  24137093.365   126841277.21246     -1480.961    24137095.337    98837373.87845
     -1153.999  
  22362590.262   117516205.81047      2891.750    22362590.278    91571079.42445
      2253.308  
  22996960.160   120849838.87448     -3075.031    22996960.027    94168701.62546
     -2396.132  
  20119428.031   105728323.90949       935.815    20119427.379    82385714.96448
       729.203  
 20 09 30 05 45  5.0000000  0  7G29G13G18G30G20G 5G15
  23713797.958   124616841.51946     -3564.352    23713799.207    97104046.64144
     -2777.421  
  20694761.997   108751720.80749     -1178.987    20694761.639    84741603.01947
      -918.695  
  20560981.010   108048693.75649      1149.234    20560980.963    84193793.66948
       895.503  
  24138503.800   126848689.03546     -1483.577    24138505.978    98843149.30945
     -1156.039  
  22359839.553   117501750.79947      2890.633    22359839.564    91559815.77145
      2252.437  
  22999886.509   120865216.25648     -3075.379    22999886.250    94180683.98746
     -2396.402  
  20118539.188   105723652.94849       932.589    20118538.677    82382075.25248
       726.691  
 20 09 30 05 45 10.0000000  0  7G29G13G18G30G20G 5G15
  23717190.077   124634667.47546     -3565.827    23717191.397    97117936.99845
     -2778.569  
  20695885.272   108757623.81349     -1182.229    20695884.700    84746202.76347
      -921.223  
  20559889.114   108042955.05449      1146.164    20559888.803    84189321.95648
       893.113  
  24139916.942   126856115.17446     -1486.902    24139919.057    98848935.91345
     -1158.628  
  22357089.812   117487300.74947      2889.320    22357090.004    91548556.00245
      2251.413  
  23002813.590   120880598.01447     -3077.039    23002813.459    94192669.76546
     -2397.695  
  20117653.557   105718998.17449       929.241    20117652.911    82378448.15548
       724.082  
 20 09 30 05 45 15.0000000  0  7G29G13G18G30G20G 5G15
  23720583.296   124652499.18246     -3566.930    23720584.732    97131831.82845
     -2779.430  
  20697011.830   108763543.03949     -1185.293    20697011.212    84750815.14147
      -923.608  
  20558799.894   108037231.29049      1143.492    20558799.592    84184861.88048
       891.031  
  24141332.911   126863556.27046     -1489.766    24141335.299    98854734.15746
     -1160.858  
  22354341.219   117472856.23547      2888.602    22354341.177    91537300.54845
      2250.854  
  23005741.472   120895984.63547     -3077.612    23005741.658    94204659.34146
     -2398.144  
  20116770.977   105714360.21849       926.101    20116770.345    82374834.16448
       721.632  
 20 09 30 05 45 20.0000000  0  7G29G13G18G30G20G 5G15
  23723977.235   124670335.67146     -3567.487    23723978.975    97145730.40545
     -2779.863  
  20698141.117   108769477.60749     -1188.531    20698140.467    84755439.47347
      -926.133  
  20557713.335   108031521.60149      1140.437    20557713.037    84180412.77648
       888.648  
  24142751.515   126871011.39746     -1492.473    24142753.923    98860543.33945
     -1162.969  
  22351593.292   117458416.43647      2887.750    22351593.436    91526048.75645
      2250.190  
  23008670.276   120911375.32447     -3078.828    23008670.589    94216652.07846
     -2399.090  
  20115891.432   105709738.20549       922.629    20115890.714    82371232.59748
       718.930  
 20 09 30 05 45 25.0000000  0  7G29G13G18G30G20G 5G15
  23727372.370   124688177.06946     -3568.534    23727374.058    97159632.76545
     -2780.679  
  20699273.463   108775427.56749     -1191.684    20699272.682    84760075.79747
      -928.586  
  20556629.611   108025826.06248      1137.651    20556629.174    84175974.69648
       886.479  
  24144172.807   126878480.64646     -1495.086    24144175.243    98866363.53346
     -1165.004  
  22348846.411   117443981.47747      2886.495    22348846.617    91514800.74445
      2249.215  
  23011599.843   120926770.11447     -3079.246    23011600.288    94228648.01546
     -2399.414  
  20115014.922   105705132.21149       919.397    20115014.262    82367643.51848
       716.410  
 20 09 30 05 45 30.0000000  0  7G29G13G18G30G20G 5G15
  23730768.202   124706023.97546     -3569.898    23730770.074    97173539.44345
     -2781.741  
  20700408.880   108781393.50349     -1194.706    20700408.106    84764724.57547
      -930.945  
  20555548.548   108020145.29248      1134.766    20555548.236    84171548.12248
       884.229  
  24145596.948   126885964.61946     -1497.503    24145599.591    98872195.21945
     -1166.891  
  22346100.420   117429551.91747      2885.526    22346100.804    91503556.94245
      2248.460  
  23014530.150   120942169.63847     -3080.284    23014530.693    94240647.65846
     -2400.227  
  20114141.449   105700542.85949       916.476    20114140.999    82364067.40048
       714.133  
 20 09 30 05 45 35.0000000  0  7G29G13G18G30G20G 5G15
  23734165.194   124723875.60046     -3571.145    23734166.920    97187449.80545
     -2782.719  
  20701547.151   108787374.68749     -1197.628    20701546.448    84769385.23747
      -933.219  
  20554470.166   108014478.57048      1132.145    20554469.764    84167132.49348
       882.187  
  24147023.743   126893462.60746     -1500.984    24147026.338    98878037.79246
     -1169.602  
  22343355.605   117415127.03447      2884.741    22343355.854    91492316.76646
      2247.847  
  23017461.418   120957573.17847     -3081.301    23017462.099    94252650.40446
     -2401.016  
  20113271.209   105695969.37449       913.230    20113270.664    82360503.64848
       711.605  
 20 09 30 05 45 40.0000000  0  7G29G13G18G30G20G 5G15
  23737562.967   124741731.36046     -3571.894    23737564.635    97201363.34945
     -2783.297  
  20702688.233   108793370.49349     -1200.780    20702687.502    84774057.29047
      -935.676  
  20553394.425   108008825.29948      1128.983    20553394.006    84162727.35048
       879.726  
  24148453.012   126900973.96246     -1503.758    24148455.702    98883890.79745
     -1171.762  
  22340611.377   117400706.20547      2883.636    22340611.688    91481079.77245
      2246.988  
  23020393.276   120972980.10247     -3081.894    23020393.979    94264655.80346
     -2401.480  
  20112403.822   105691411.22349       909.753    20112403.262    82356951.84548
       708.894  
 20 09 30 05 45 45.0000000  0  7G29G13G18G30G20G 5G15
  23740961.741   124759592.00645     -3572.663    23740962.884    97215280.73444
     -2783.901  
  20703832.155   108799381.71749     -1203.645    20703831.492    84778741.36147
      -937.905  
  20552321.361   108003186.24348      1126.551    20552320.944    84158333.27848
       877.827  
  24149885.146   126908499.47146     -1506.144    24149887.961    98889754.81546
     -1173.621  
  22337868.148   117386290.25347      2882.956    22337868.616    91469846.57245
      2246.456  
  23023325.909   120988391.28648     -3082.374    23023326.857    94276664.51046
     -2401.854  
  20111539.479   105686869.13449       906.797    20111539.031    82353412.55948
       706.590  
 20 09 30 05 45 50.0000000  0  7G29G13G18G30G20G 5G15
  23744361.249   124777457.69845     -3573.843    23744362.582    97229202.02344
     -2784.816  
  20704979.075   108805408.54249     -1206.934    20704978.390    84783437.59447
      -940.473  
  20551250.940   107997561.64348      1123.449    20551250.597    84153950.47748
       875.410  
  24151319.876   126916039.34446     -1509.289    24151323.024    98895630.03245
     -1176.074  
  22335125.878   117371879.40147      2881.663    22335126.416    91458617.34645
      2245.449  
  23026259.315   121003806.84647     -3083.706    23026260.455    94288676.63546
     -2402.890  
  20110678.187   105682343.32749       903.492    20110677.740    82349885.96548
       704.016  
 20 09 30 05 45 55.0000000  0  7G29G13G18G30G20G 5G15
  23747761.954   124795328.61945     -3574.574    23747763.115    97243127.41844
     -2785.387  
  20706128.997   108811451.07849     -1209.983    20706128.448    84788146.07647
      -942.847  
  20550183.391   107991951.63748      1120.684    20550183.192    84149579.04048
       873.258  
  24152757.283   126923593.68846     -1512.077    24152760.515    98901516.53845
     -1178.245  
  22332384.591   117357473.78047      2880.679    22332385.188    91447392.19345
      2244.684  
  23029193.629   121019226.80447     -3084.343    23029194.957    94300692.18046
     -2403.386  
  20109819.929   105677833.96049       900.273    20109819.842    82346372.17548
       701.507  
 20 09 30 05 46  0.0000000  0  7G29G13G18G30G20G 5G15
  23751163.397   124813203.31945     -3575.651    23751164.353    97257055.73245
     -2786.227  
  20707281.367   108817507.94749     -1212.875    20707280.926    84792865.71547
      -945.101  
  20549118.284   107986354.83948      1117.789    20549117.982    84145217.90148
       870.999  
  24154197.401   126931161.15046     -1515.210    24154200.726    98907413.24245
     -1180.687  
  22329644.019   117343071.97747      2879.632    22329644.684    91436170.00645
      2243.866  
  23032128.557   121034649.86047     -3084.883    23032129.911    94312710.14046
     -2403.808  
  20108964.726   105673339.62249       897.272    20108964.630    82342870.09748
       699.172  
 20 09 30 05 46  5.0000000  0  7G29G13G18G30G20G 5G15
  23754566.909   124831089.49245     -3578.094    23754567.968    97270992.99745
     -2788.128  
  20708438.105   108823586.83449     -1217.526    20708437.769    84797602.51447
      -948.727  
  20548057.184   107980778.93948      1113.371    20548057.151    84140873.04048
       867.558  
  24155641.362   126938749.34246     -1519.198    24155644.886    98913326.11845
     -1183.792  
  22326905.772   117328681.70347      2877.352    22326906.113    91424956.82745
      2242.090  
  23035065.554   121050083.66547     -3087.315    23035066.835    94324736.47846
     -2405.702  
  20108113.727   105668867.99949       892.417    20108113.548    82339385.71448
       695.387  
 20 09 30 05 46 10.0000000  0  8G29G27G13G18G30G20G 5G15
  23757970.380   124848975.91345     -3577.262    23757971.782    97284930.45244
     -2787.480  
  24671066.160   129647331.55956      2307.987    24671070.088   101023912.09655
      1798.429  
  20709596.956   108829676.48249     -1218.636    20709596.560    84802347.69547
      -949.589  
  20546997.948   107975212.70848      1112.711    20546997.772    84136535.71648
       867.043  
  24157087.202   126946347.03046     -1519.788    24157090.702    98919246.39845
     -1184.254  
  22324167.480   117314291.72647      2878.285    22324167.753    91413743.85845
      2242.816  
  23038002.529   121065517.00947     -3086.258    23038003.663    94336762.45546
     -2404.879  
  20107265.037   105664407.85149       891.277    20107264.910    82335910.27648
       694.499  
 20 09 30 05 46 15.0000000  0  8G29G27G13G18G30G20G 5G15
  23761374.065   124866862.96445     -3577.855    23761375.762    97298868.43044
     -2787.940  
  24668871.682   129635798.91047      2305.265    24668875.856   101014925.61344
      1796.309  
  20710757.913   108835777.31949     -1221.780    20710757.510    84807101.59147
      -952.039  
  20545940.645   107969656.60548      1109.766    20545940.596    84132206.28748
       864.750  
  24158534.669   126953954.74445     -1523.241    24158538.484    98925174.48146
     -1186.944  
  22321429.371   117299902.49047      2877.477    22321429.582    91402531.47645
      2242.187  
  23040939.288   121080950.31147     -3087.183    23040940.460    94348788.39846
     -2405.602  
  20106418.619   105659959.61549       888.039    20106418.469    82332444.11848
       691.977  
 20 09 30 05 46 20.0000000  0  8G29G27G13G18G30G20G 5G15
  23764778.849   124884755.69445     -3578.961    23764780.530    97312810.82745
     -2788.804  
  24666680.277   129624280.15347      2302.488    24666684.152   101005949.95245
      1794.144  
  20711921.922   108841894.44549     -1224.980    20711921.635    84811868.17847
      -954.535  
  20544886.175   107964115.70148      1106.695    20544886.121    84127888.70148
       862.354  
  24159985.195   126961577.43545     -1525.819    24159989.227    98931114.21746
     -1188.952  
  22318692.425   117285519.08747      2876.073    22318692.413    91391323.63045
      2241.093  
  23043877.014   121096388.66547     -3087.875    23043878.294    94360818.27446
     -2406.141  
  20105575.456   105655528.38949       884.582    20105575.181    82328991.21448
       689.280  
 20 09 30 05 46 25.0000000  0  8G29G27G13G18G30G20G 5G15
  23768184.813   124902654.65445     -3580.612    23768186.900    97326758.05845
     -2790.089  
  24664491.083   129612775.76647      2299.441    24664495.482   100996985.49345
      1791.770  
  20713089.185   108848028.33249     -1228.538    20713088.708    84816647.83147
      -957.305  
  20543834.740   107958590.49948      1103.480    20543834.802    84123583.34848
       859.851  
  24161438.610   126969215.64746     -1529.113    24161442.846    98937066.07446
     -1191.519  
  22315956.598   117271142.03447      2874.863    22315956.493    91380120.74445
      2240.148  
  23046815.903   121111832.57247     -3089.808    23046817.036    94372852.49246
     -2407.644  
  20104735.539   105651114.65649       881.022    20104735.085    82325551.94248
       686.508  
 20 09 30 05 46 30.0000000  0  8G29G27G13G18G30G20G 5G15
  23771591.797   124920558.62945     -3581.172    23771594.050    97340709.23645
     -2790.527  
  24662304.216   129601284.67346      2296.843    24662309.113   100988031.39745
      1789.746  
  20714259.290   108854177.83749     -1231.437    20714258.951    84821439.65647
      -959.566  
  20542785.982   107953079.89848      1100.684    20542786.206    84119289.36848
       857.671  
  24162894.809   126976868.21546     -1531.956    24162899.127    98943029.11445
     -1193.733  
  22313221.729   117256770.19947      2873.879    22313221.532    91368921.91144
      2239.382  
  23049755.525   121127280.82547     -3089.890    23049756.669    94384890.07946
     -2407.711  
  20103898.852   105646717.33749       877.784    20103898.401    82322125.45748
       683.983  
 20 09 30 05 46 35.0000000  0  8G29G27G13G18G30G20G 5G15
  23774999.570   124938466.60045     -3582.120    23775001.938    97354663.46845
     -2791.266  
  24660119.462   129589805.80747      2294.562    24660124.858   100979086.83245
      1787.968  
  20715432.239   108860341.91249     -1234.254    20715431.890    84826242.83347
      -961.757  
  20541739.898   107947582.84248      1097.945    20541740.036    84115005.94448
       855.539  
  24164353.594   126984534.14846     -1534.612    24164357.836    98949002.56445
     -1195.804  
  22310487.611   117242402.56047      2873.117    22310487.554    91357726.35545
      2238.789  
  23052695.883   121142732.45047     -3091.112    23052696.898    94396930.29546
     -2408.663  
  20103065.008   105642335.30249       874.723    20103064.398    82318710.88448
       681.598  
 20 09 30 05 46 40.0000000  0  8G29G27G13G18G30G20G 5G15
  23778408.650   124956381.96645     -3585.035    23778411.186    97368623.51845
     -2793.535  
  24657937.926   129578342.60146      2289.745    24657944.048   100970154.46745
      1784.214  
  20716608.603   108866523.93349     -1239.359    20716608.245    84831059.99747
      -965.738  
  20540697.046   107942102.74248      1093.104    20540697.307    84110735.74048
       851.766  
  24165815.371   126992216.80946     -1539.429    24165819.899    98954989.06345
     -1199.558  
  22307755.004   117228042.49047      2870.089    22307754.751    91346536.67245
      2236.430  
  23055637.435   121158190.91147     -3093.437    23055638.315    94408975.84246
     -2410.473  
  20102234.777   105637972.00149       869.585    20102234.067    82315310.91248
       677.598  
 20 09 30 05 46 45.0000000  0  8G29G27G13G18G30G20G 5G15
  23781819.464   124974305.75745     -3583.698    23781822.065    97382590.09445
     -2792.495  
  24655759.776   129566896.09546      2288.887    24655765.969   100961235.09845
      1783.543  
  20717788.573   108872724.93649     -1240.840    20717788.249    84835891.94947
      -966.891  
  20539657.655   107936640.67848      1091.788    20539657.987    84106479.58648
       850.742  
  24167280.831   126999917.22646     -1540.522    24167285.154    98960989.38346
     -1200.410  
  22305024.153   117213691.05447      2870.551    22305023.690    91335353.74545
      2236.788  
  23058580.705   121173657.14747     -3092.703    23058581.453    94421027.43846
     -2409.902  
  20101408.144   105633628.51349       867.913    20101407.650    82311926.37048
       676.293  
 20 09 30 05 46 50.0000000  0  8G29G27G13G18G30G20G 5G15
  23785230.093   124992228.86345     -3584.897    23785232.834    97396556.12445
     -2793.433  
  24653582.909   129555457.24146      2286.632    24653589.178   100952321.72145
      1781.788  
  20718970.476   108878935.85149     -1243.539    20718970.193    84840731.62547
      -968.996  
  20538619.995   107931187.54748      1089.241    20538620.374    84102230.38848
       848.758  
  24168747.809   127007626.34046     -1543.336    24168752.244    98966996.49445
     -1202.602  
  22302293.075   117199339.20547      2869.894    22302292.647    91324170.48545
      2236.276  
  23061523.613   121189122.04747     -3093.336    23061524.371    94433078.00946
     -2410.394  
  20100583.604   105629295.71649       865.172    20100583.191    82308550.16248
       674.156  
 20 09 30 05 46 55.0000000  0  8G29G27G13G18G30G20G 5G15
  23788641.587   125010155.47445     -3585.762    23788644.044    97410524.89344
     -2794.102  
  24651408.444   129544030.22247      2284.229    24651414.414   100943417.52244
      1779.917  
  20720155.064   108885160.90249     -1246.495    20720154.827    84845582.31447
      -971.300  
  20537584.842   107925747.56548      1086.543    20537585.180    84097991.44448
       846.652  
  24170217.269   127015348.31046     -1545.823    24170221.703    98973013.59146
     -1204.542  
  22299562.769   117184991.09747      2869.043    22299562.362    91312990.14645
      2235.612  
  23064466.890   121204589.82047     -3093.730    23064467.544    94445130.81246
     -2410.702  
  20099761.923   105624977.84549       862.097    20099761.429    82305185.59148
       671.761  
 20 09 30 05 47  0.0000000  0  8G29G27G13G18G30G20G 5G15
  23792053.843   125028086.56846     -3587.019    23792056.342    97424497.18445
     -2795.082  
  24649236.580   129532616.09547      2281.276    24649241.894   100934523.41244
      1777.617  
  20721342.720   108891401.07649     -1249.823    20721342.162    84850444.78347
      -973.890  
  20536552.347   107920321.73548      1083.527    20536552.665    84093763.52948
       844.304  
  24171689.404   127023084.15346     -1548.890    24171693.887    98979041.53145
     -1206.930  
  22296833.247   117170647.76947      2867.867    22296832.872    91301813.52745
      2234.699  
  23067411.139   121220061.51847     -3094.921    23067411.772    94457186.68146
     -2411.628  
  20098943.261   105620675.90449       858.624    20098942.858    82301833.43048
       669.054  
 20 09 30 05 47  5.0000000  0  8G29G27G13G18G30G20G 5G15
  23795467.081   125046022.59746     -3587.766    23795469.549    97438473.29145
     -2795.664  
  24647067.211   129521215.29946      2279.031    24647071.959   100925639.64344
      1775.867  
  20722533.032   108897656.80049     -1252.699    20722532.641    84855319.37747
      -976.133  
  20535522.733   107914910.54749      1080.879    20535523.088    84089547.02048
       842.238  
  24173164.168   127030834.30846     -1551.301    24173168.736    98985080.60445
     -1208.808  
  22294104.878   117156309.65347      2867.320    22294104.318    91290640.96045
      2234.272  
  23070356.162   121235537.59447     -3095.444    23070356.716    94469245.95646
     -2412.038  
  20098127.867   105616390.32249       855.522    20098127.469    82298494.01548
       666.637  
 20 09 30 05 47 10.0000000  0  8G29G27G13G18G30G20G 5G15
  23798881.138   125063962.93146     -3588.374    23798883.367    97452452.77146
     -2796.144  
  24644900.350   129509827.27046      2276.348    24644904.468   100916765.84944
      1773.772  
  20723726.388   108903927.52449     -1255.589    20723725.819    84860205.64847
      -978.386  
  20534495.785   107909513.39849      1078.116    20534495.954    84085341.45248
       840.090  
  24174641.604   127038598.19246     -1553.827    24174646.217    98991130.39046
     -1210.777  
  22291377.431   117141976.19947      2866.293    22291376.915    91279472.04445
      2233.472  
  23073301.971   121251017.39348     -3096.030    23073302.646    94481308.13746
     -2412.496  
  20097315.311   105612120.53449       852.434    20097314.765    82295166.91148
       664.230  
 20 09 30 05 47 15.0000000  0  8G29G27G13G18G30G20G 5G15
  23802296.164   125081907.44946     -3589.288    23802298.234    97466435.49044
     -2796.851  
  24642735.717   129498451.82746      2273.839    24642739.617   100907901.86545
      1771.820  
  20724922.596   108910213.07749     -1258.644    20724921.927    84865103.48047
      -980.766  
  20533471.492   107904130.14049      1075.194    20533471.523    84081146.70648
       837.813  
  24176121.492   127046375.68446     -1557.136    24176126.002    98997190.76945
     -1213.355  
  22288650.765   117127647.25248      2865.270    22288650.091    91268306.62645
      2232.676  
  23076248.412   121266500.79348     -3097.101    23076249.136    94493373.11546
     -2413.327  
  20096505.791   105607866.38549       849.233    20096505.235    82291851.99048
       661.737  
 20 09 30 05 47 20.0000000  0  8G29G27G13G18G30G20G 5G15
  23805712.095   125099857.32146     -3590.277    23805714.039    97480422.38745
     -2797.620  
  24640573.937   129487090.28446      2271.016    24640577.472   100899048.71045
      1769.621  
  20726121.648   108916514.66549     -1261.827    20726120.957    84870013.80547
      -983.246  
  20532450.061   107898762.04549      1072.242    20532450.055    84076963.77848
       835.512  
  24177604.314   127054167.93246     -1559.890    24177608.887    99003262.65346
     -1215.504  
  22285925.246   117113324.05548      2864.229    22285924.526    91257145.70645
      2231.863  
  23079196.002   121281989.01548     -3098.297    23079196.372    94505441.86946
     -2414.261  
  20095699.510   105603629.12749       845.770    20095699.134    82288550.23448
       659.039  
 20 09 30 05 47 25.0000000  0  8G29G27G13G18G30G20G 5G15
  23809128.774   125117811.21245     -3591.047    23809130.537    97494412.40846
     -2798.227  
  24638414.428   129475741.24047      2268.637    24638417.956   100890205.29145
      1767.766  
  20727323.542   108922830.94649     -1264.667    20727322.928    84874935.58447
      -985.457  
  20531431.102   107893407.72649      1069.621    20531431.278    84072791.58548
       833.468  
  24179089.780   127061973.60946     -1562.137    24179094.105    99009345.00046
     -1217.254  
  22283200.492   117099005.28348      2863.391    22283199.834    91245988.23345
      2231.211  
  23082143.964   121297480.72148     -3098.593    23082144.621    94517513.32946
     -2414.492  
  20094896.051   105599407.36149       842.805    20094895.706    82285260.55148
       656.726  
 20 09 30 05 47 30.0000000  0  8G29G27G13G18G30G20G 5G15
  23812546.389   125135770.24445     -3591.941    23812547.968    97508406.43645
     -2798.922  
  24636257.297   129464405.84747      2265.773    24636260.815   100881372.53344
      1765.534  
  20728528.670   108929163.02949     -1268.042    20728527.813    84879869.66947
      -988.090  
  20530415.194   107888068.34149      1066.371    20530415.426    84068631.03048
       830.933  
  24180577.853   127069793.86147     -1565.566    24180582.240    99015438.69545
     -1219.925  
  22280476.858   117084692.01948      2862.198    22280476.242    91234835.04945
      2230.195  
  23085093.065   121312977.04148     -3099.852    23085093.619    94529588.38945
     -2415.473  
  20094095.842   105595202.23349       839.331    20094095.460    82281983.83248
       654.023  
 20 09 30 05 47 35.0000000  0  8G29G27G13G18G30G20G 5G15
  23815964.906   125153734.04945     -3593.179    23815966.436    97522404.17745
     -2799.886  
  24634102.809   129453083.78147      2262.687    24634106.476   100872550.12445
      1763.129  
  20729736.446   108935510.52549     -1271.188    20729735.633    84884815.77147
      -990.538  
  20529401.936   107882743.54149      1063.590    20529402.014    84064481.84048
       828.769  
  24182068.891   127077628.32047     -1568.347    24182073.003    99021543.46345
     -1222.094  
  22277753.980   117070383.94948      2860.965    22277753.342    91223685.91745
      2229.320  
  23088042.716   121328477.65248     -3100.461    23088043.317    94541666.78646
     -2415.945  
  20093298.654   105591013.39149       836.198    20093298.381    82278719.80048
       651.581  
 20 09 30 05 47 40.0000000  0  8G29G27G13G18G30G20G 5G15
  23819384.216   125171702.64645     -3593.996    23819385.655    97536405.68244
     -2800.523  
  24631950.953   129441775.07346      2260.625    24631954.489   100863738.16145
      1761.522  
  20730947.280   108941873.47249     -1273.991    20730946.400    84889773.90747
      -992.723  
  20528391.524   107877433.38549      1060.628    20528391.793    84060344.06048
       826.460  
  24183562.555   127085477.01247     -1570.901    24183566.512    99027659.32045
     -1224.081  
  22275032.453   117056081.13348      2860.199    22275031.675    91212540.86345
      2228.800  
  23090993.325   121343982.64948     -3101.386    23090993.978    94553748.59345
     -2416.667  
  20092504.522   105586840.91349       832.875    20092504.469    82275468.52048
       648.992  
 20 09 30 05 47 45.0000000  0  8G29G27G13G18G30G20G 5G15
  23822804.436   125189675.42845     -3594.977    23822805.827    97550410.43545
     -2801.284  
  24629801.308   129430479.11646      2258.054    24629805.099   100854936.14345
      1759.519  
  20732160.982   108948251.30149     -1277.054    20732160.083    84894743.64147
      -995.108  
  20527383.752   107872137.25649      1057.867    20527383.982    84056217.20948
       824.309  
  24185058.649   127093339.29347     -1573.558    24185062.561    99033785.76745
     -1226.152  
  22272311.513   117041782.90648      2859.328    22272310.960    91201399.39745
      2228.042  
  23093944.702   121359491.26948     -3101.984    23093945.360    94565833.22746
     -2417.132  
  20091713.624   105582684.15649       829.698    20091713.480    82272229.49348
       646.515  
 20 09 30 05 47 50.0000000  0  8G29G27G13G18G30G20G 5G15
  23826225.672   125207653.14745     -3596.004    23826227.054    97564419.03945
     -2802.086  
  24627654.164   129419196.76347      2255.133    24627658.097   100846144.68845
      1757.241  
  20733377.541   108954644.76849     -1280.023    20733376.709    84899725.55347
      -997.425  
  20526378.617   107866855.95449      1055.050    20526378.868    84052101.90448
       822.113  
  24186557.630   127101216.02347     -1576.636    24186561.407    99039923.47645
     -1228.551  
  22269591.903   117027490.13548      2858.129    22269591.258    91190262.17345
      2227.109  
  23096896.818   121375004.33948     -3102.910    23096897.427    94577921.32346
     -2417.855  
  20090925.560   105578543.94349       826.543    20090925.647    82269003.35148
       644.054  
 20 09 30 05 47 55.0000000  0  8G29G27G13G18G30G20G 5G15
  23829647.435   125225634.91145     -3596.800    23829648.720    97578430.78344
     -2802.707  
  24625509.540   129407927.12846      2252.676    24625513.673   100837363.15945
      1755.328  
  20734596.945   108961052.96749     -1283.343    20734596.049    84904718.95647
     -1000.011  
  20525376.336   107861588.65248      1051.832    20525376.662    84047997.50848
       819.604  
  24188059.091   127109106.28147     -1579.479    24188062.709    99046071.71344
     -1230.765  
  22266872.823   117013201.96148      2856.879    22266872.287    91179128.53345
      2226.137  
  23099849.516   121390520.92948     -3103.749    23099850.224    94590012.15846
     -2418.508  
  20090140.735   105574419.41249       823.269    20090140.730    82265789.43548
       641.503  
 20 09 30 05 48  0.0000000  0  8G29G27G13G18G30G20G 5G15
  23833070.416   125243621.92545     -3597.565    23833071.569    97592446.62144
     -2803.305  
  24623367.457   129396671.43546      2249.808    24623371.574   100828592.49944
      1753.094  
  20735819.566   108967477.13149     -1286.280    20735818.565    84909724.79847
     -1002.301  
  20524376.903   107856336.53448      1049.015    20524377.118    84043904.95048
       817.409  
  24189563.399   127117011.25547     -1582.301    24189567.042    99052231.42345
     -1232.964  
  22264155.042   116998919.54848      2855.852    22264154.566    91167999.38845
      2225.336  
  23102803.368   121406042.28048     -3104.815    23102803.717    94602106.71646
     -2419.340  
  20089358.986   105570311.76249       819.909    20089358.980    82262588.67648
       638.886  
 20 09 30 05 48  5.0000000  0  8G29G27G13G18G30G20G 5G15
  23836494.121   125261612.67545     -3598.198    23836494.955    97606465.37445
     -2803.796  
  24621227.821   129385428.16846      2247.589    24621231.867   100819831.53644
      1751.366  
  20737044.642   108973915.73349     -1289.086    20737043.776    84914741.89447
     -1004.484  
  20523380.134   107851098.10249      1046.366    20523380.500    84039823.06048
       815.348  
  24191070.160   127124929.43247     -1585.020    24191073.805    99058401.42945
     -1235.082  
  22261438.027   116984641.41348      2855.206    22261437.574    91156873.57346
      2224.832  
  23105757.596   121421566.91248     -3105.195    23105757.892    94614203.81946
     -2419.637  
  20088580.273   105566219.44249       816.898    20088580.169    82259399.85648
       636.542  
 20 09 30 05 48 10.0000000  0  8G29G27G13G18G30G20G 5G15
  23839918.690   125279608.12645     -3599.882    23839919.162    97620487.80544
     -2805.104  
  24619090.662   129374198.38046      2244.456    24619094.814   100811081.03545
      1748.925  
  20738272.726   108980369.76248     -1292.379    20738272.190    84919771.01447
     -1007.050  
  20522386.040   107845874.35449      1043.202    20522386.324    84035752.60448
       812.882  
  24192579.598   127132861.83146     -1587.762    24192583.272    99064582.50945
     -1237.218  
  22258721.928   116970368.56148      2854.050    22258721.503    91145751.87446
      2223.934  
  23108712.757   121437095.79547     -3106.171    23108713.018    94626304.25446
     -2420.397  
  20087804.624   105562143.47349       813.391    20087804.508    82256223.77948
       633.808  
 20 09 30 05 48 15.0000000  0  7G27G13G18G30G20G 5G15
  24616956.225   129362982.99546      2241.324    24616960.144   100802341.79545
      1746.483  
  20739504.027   108986840.19848     -1295.781    20739503.323    84924812.92047
     -1009.703  
  20521394.989   107840666.28348      1040.023    20521395.314    84031694.36748
       810.406  
  24194092.078   127140809.40446     -1590.922    24194095.736    99070775.42045
     -1239.684  
  22256006.962   116956101.97447      2852.711    22256006.877    91134635.05945
      2222.886  
  23111668.794   121452629.90747     -3107.496    23111668.852    94638408.74746
     -2421.430  
  20087032.213   105558084.83349       809.848    20087032.267    82253061.20748
       631.047  
 20 09 30 05 48 20.0000000  0  7G27G13G18G30G20G 5G15
  24614821.652   129351765.92846      2241.222    24614825.416   100793601.22145
      1746.401  
  20740735.132   108993310.85848     -1296.128    20740734.680    84929854.99647
     -1009.973  
  20520403.740   107835457.73248      1039.757    20520404.069    84027635.75748
       810.198  
  24195604.164   127148755.97446     -1591.191    24195607.852    99076967.56245
     -1239.895  
  22253290.265   116941825.50848      2854.487    22253290.080    91123510.54046
      2224.128  
  23114622.901   121468153.09647     -3105.647    23114622.658    94650504.74446
     -2419.987  
  20086260.194   105554027.37549       809.323    20086260.037    82249899.55448
       630.640  
 20 09 30 05 48 25.0000000  0  7G27G13G18G30G20G 5G15
  24612691.468   129340571.80046      2236.418    24612694.803   100784878.52845
      1742.660  
  20741971.225   108999806.41548     -1301.648    20741970.913    84934916.47747
     -1014.273  
  20519417.246   107830273.39048      1034.445    20519417.697    84023596.01048
       806.059  
  24197121.004   127156726.23846     -1596.573    24197124.650    99083178.16145
     -1244.085  
  22250576.252   116927563.86947      2851.004    22250576.203    91112397.57646
      2221.558  
  23117579.471   121483690.03947     -3109.015    23117579.170    94662611.44846
     -2422.612  
  20085492.949   105549995.78749       803.644    20085492.912    82246758.05648
       626.214  
 20 09 30 05 48 30.0000000  0  7G27G13G18G30G20G 5G15
  24610565.106   129329397.25446      2233.804    24610568.192   100776171.10045
      1740.624  
  20743211.341   109006323.42449     -1304.801    20743211.067    84939994.66947
     -1016.729  
  20518434.546   107825109.83248      1031.421    20518434.966    84019572.45448
       803.702  
  24198641.477   127164716.72447     -1599.352    24198645.016    99089404.52544
     -1246.246  
  22247864.546   116913313.57047      2849.559    22247864.539    91101293.45246
      2220.434  
  23120537.920   121499237.26247     -3109.766    23120537.614    94674726.15646
     -2423.194  
  20084730.093   105545986.61049       800.296    20084729.946    82243634.02248
       623.604  
 20 09 30 05 48 35.0000000  0  7G27G13G18G30G20G 5G15
  24608440.963   129318235.90246      2231.113    24608443.739   100767473.94745
      1738.526  
  20744454.368   109012855.54349     -1307.961    20744454.119    84945084.63347
     -1019.194  
  20517454.729   107819960.69948      1028.456    20517455.164    84015560.14048
       801.391  
  24200164.788   127172721.12146     -1602.714    24200168.123    99095641.70445
     -1248.871  
  22245153.743   116899068.26647      2848.551    22245153.809    91090193.21646
      2219.647  
  23123497.096   121514788.49147     -3110.816    23123496.546    94686843.98647
     -2424.015  
  20083970.285   105541993.44849       796.984    20083969.912    82240522.46948
       621.022  
 20 09 30 05 48 40.0000000  0  7G27G13G18G30G20G 5G15
  24606319.436   129307087.44845      2228.077    24606322.134   100758786.79645
      1736.156  
  20745700.292   109019402.41549     -1311.011    20745700.090    84950186.08547
     -1021.570  
  20516477.535   107814825.66848      1025.336    20516477.801    84011558.81748
       798.961  
  24201690.366   127180738.99146     -1605.269    24201693.892    99101889.37945
     -1250.863  
  22242443.708   116884827.65547      2847.547    22242443.804    91079096.63746
      2218.863  
  23126457.015   121530343.28447     -3111.397    23126456.479    94698964.60547
     -2424.468  
  20083213.530   105538016.04649       793.729    20083213.054    82237423.19848
       618.487  
 20 09 30 05 48 45.0000000  0  7G27G13G18G30G20G 5G15
  24604200.518   129295953.77446      2225.229    24604203.591   100750111.24745
      1733.940  
  20746949.283   109025965.93849     -1314.288    20746948.979    84955300.51147
     -1024.125  
  20515503.434   107809706.66849      1022.195    20515503.598    84007569.99348
       796.511  
  24203219.164   127188772.34846     -1608.132    24203222.511    99108149.13145
     -1253.093  
  22239735.018   116870593.67748      2846.129    22239735.284    91068005.23046
      2217.758  
  23129417.863   121545903.61447     -3112.523    23129417.442    94711089.53546
     -2425.348  
  20082460.012   105534056.31849       790.211    20082459.375    82234337.69648
       615.746  
 20 09 30 05 48 50.0000000  0  7G27G13G18G30G20G 5G15
  24602084.129   129284832.35346      2222.933    24602087.237   100741445.16545
      1732.152  
  20748201.137   109032543.51049     -1316.926    20748200.527    84960425.89147
     -1026.180  
  20514531.968   107804601.11249      1019.840    20514532.096    84003591.63648
       794.676  
  24204750.267   127196818.56946     -1610.715    24204753.424    99114418.90045
     -1255.105  
  22237027.075   116856363.74447      2845.526    22237027.219    91056916.97046
      2217.288  
  23132379.281   121561466.84247     -3112.867    23132378.895    94723216.72046
     -2425.613  
  20081709.352   105530111.66349       787.472    20081708.625    82231263.94048
       613.613  
 20 09 30 05 48 55.0000000  0  8G29G27G13G18G30G20G 5G15
  23870776.342   125441776.81055     -3610.147    23870774.025    97746823.22053
     -2813.109  
  24599970.659   129273726.87146      2218.280    24599973.873   100732791.54144
      1728.526  
  20749456.248   109039138.85249     -1322.460    20749455.743    84965565.10747
     -1030.492  
  20513563.549   107799512.72449      1014.379    20513563.764    83999626.66448
       790.422  
  24206284.589   127204881.32646     -1615.805    24206287.818    99120701.55045
     -1259.070  
  22234320.617   116842141.55648      2841.977    22234320.849    91045834.74246
      2214.523  
  23135342.074   121577036.80047     -3116.316    23135341.852    94735349.16046
     -2428.301  
  20080962.280   105526185.80649       781.737    20080961.529    82228204.83048
       609.145  
 20 09 30 05 49  0.0000000  0  8G29G27G13G18G30G20G 5G15
  23874211.642   125459824.86745     -3608.504    23874208.549    97760886.61244
     -2811.819  
  24597860.695   129262638.30746      2217.676    24597863.899   100724151.11345
      1728.055  
  20750714.953   109045752.85949     -1322.781    20750714.109    84970718.87447
     -1030.742  
  20512598.731   107794442.44949      1014.156    20512598.870    83995675.80348
       790.250  
  24207822.132   127212961.54746     -1616.285    24207825.305    99126997.83545
     -1259.444  
  22231615.895   116827928.05147      2843.723    22231616.173    91034759.29646
      2215.792  
  23138306.377   121592614.28947     -3114.405    23138306.099    94747487.47446
     -2426.813  
  20080219.038   105522279.66749       781.117    20080218.368    82225161.08448
       608.659  
 20 09 30 05 49  5.0000000  0  8G29G27G13G18G30G20G 5G15
  23877645.306   125477866.42746     -3608.852    23877642.368    97774944.96844
     -2812.093  
  24595751.145   129251552.27146      2215.878    24595754.076   100715512.64945
      1726.655  
  20751974.587   109052371.18449     -1325.184    20751973.678    84975876.00347
     -1032.613  
  20511634.493   107789375.90348      1011.785    20511634.699    83991727.84248
       788.401  
  24209360.235   127221044.83346     -1617.940    24209363.366    99133296.49945
     -1260.737  
  22228909.833   116813708.88347      2843.362    22228910.263    91023679.42446
      2215.605  
  23141269.177   121608184.93647     -3114.472    23141269.146    94759620.43946
     -2426.862  
  20079476.728   105518378.83549       778.578    20079475.957    82222121.47248
       606.680  
 20 09 30 05 49 10.0000000  0  8G29G27G13G18G30G20G 5G15
  23881079.634   125495911.94346     -3609.637    23881076.219    97789006.38743
     -2812.707  
  24593644.151   129240479.15946      2213.488    24593647.022   100706884.27144
      1724.793  
  20753236.849   109059004.32349     -1328.203    20753235.699    84981044.67547
     -1034.965  
  20510673.080   107784323.54848      1009.191    20510673.245    83987790.94148
       786.379  
  24210901.060   127229141.70146     -1620.676    24210904.020    99139605.75245
     -1262.866  
  22226204.877   116799494.45847      2842.465    22226205.380    91012603.25546
      2214.816  
  23144232.926   121623759.23147     -3115.214    23144232.957    94771756.24746
     -2427.440  
  20078737.470   105514493.78949       775.401    20078736.711    82219094.16748
       604.206  
 20 09 30 05 49 15.0000000  0  8G29G27G13G18G30G20G 5G15
  23884514.890   125513962.42746     -3611.055    23884510.931    97803071.67943
     -2813.816  
  24591539.831   129229420.13146      2210.218    24591542.369   100698266.85044
      1722.246  
  20754502.119   109065653.20549     -1331.492    20754500.902    84986225.62547
     -1037.531  
  20509714.555   107779286.40548      1005.843    20509714.715    83983865.89148
       783.770  
  24212444.727   127237253.10046     -1623.979    24212447.467    99145926.34644
     -1265.441  
  22223500.901   116785285.84647      2841.022    22223501.465    91001531.61146
      2213.780  
  23147197.434   121639338.11048     -3116.535    23147197.518    94783895.63246
     -2428.472  
  20078001.440   105510625.57849       771.772    20078000.417    82216079.97948
       601.378  
 20 09 30 05 49 20.0000000  0  8G29G27G13G18G30G20G 5G15
  23887950.818   125532018.75646     -3611.629    23887947.312    97817141.55044
     -2814.258  
  24589438.344   129218376.05446      2207.527    24589440.870   100689661.09444
      1720.148  
  20755770.406   109072318.75749     -1334.633    20755769.285    84991419.56647
     -1039.977  
  20508759.055   107774265.43748      1002.719    20508759.379    83979953.45148
       781.335  
  24213991.047   127245379.97546     -1626.816    24213993.719    99152258.96045
     -1267.651  
  22220798.255   116771083.96847      2839.843    22220799.029    90990465.21246
      2212.922  
  23150162.906   121654922.51947     -3117.425    23150163.337    94796039.32246
     -2429.167  
  20077268.830   105506775.09449       768.507    20077267.786    82213079.60148
       598.835  
 20 09 30 05 49 25.0000000  0  8G29G27G13G18G30G20G 5G15
  23891387.526   125550079.71645     -3612.566    23891384.742    97831215.03543
     -2814.988  
  24587339.324   129207345.69246      2204.655    24587341.868   100681066.03245
      1717.914  
  20757041.693   109078999.72548     -1337.808    20757040.624    84996625.51947
     -1042.452  
  20507806.434   107769259.34848       999.901    20507806.722    83976052.60548
       779.140  
  24215540.469   127253521.05647     -1629.625    24215542.942    99158602.64244
     -1269.839  
  22218096.730   116756887.55047      2838.780    22218097.616    90979403.06546
      2212.035  
  23153129.324   121670511.24548     -3117.925    23153129.902    94808186.37746
     -2429.555  
  20076539.258   105502941.07549       765.098    20076538.341    82210092.05248
       596.175  
 20 09 30 05 49 30.0000000  0  8G29G27G13G18G30G20G 5G15
  23894825.059   125568146.32445     -3613.972    23894823.122    97845292.90544
     -2816.085  
  24585243.378   129196330.14146      2201.629    24585245.550   100672482.48945
      1715.550  
  20758316.202   109085697.22048     -1341.219    20758315.177    85001844.35147
     -1045.108  
  20506856.850   107764269.31248       996.332    20506857.264    83972164.26348
       776.359  
  24217092.560   127261677.44547     -1632.563    24217095.195    99164958.26644
     -1272.128  
  22215396.372   116742697.72547      2837.397    22215397.428    90968346.05846
      2210.957  
  23156096.733   121686105.42948     -3119.449    23156097.457    94820337.67446
     -2430.741  
  20075812.912   105499124.66149       761.535    20075812.079    82207118.22648
       593.402  
 20 09 30 05 49 35.0000000  0  8G29G27G13G18G30G20G 5G15
  23898264.729   125586224.00645     -3616.358    23898263.574    97859379.38845
     -2817.944  
  24583151.034   129185334.86346      2197.362    24583153.156   100663914.73445
      1712.227  
  20759594.700   109092416.58748     -1345.727    20759593.877    85007080.22447
     -1048.621  
  20505911.265   107759300.66748       991.999    20505911.710    83968292.59448
       772.983  
  24218648.600   127269854.55047     -1637.137    24218651.258    99171330.02145
     -1275.694  
  22212698.347   116728519.91847      2834.718    22212699.427    90957298.41745
      2208.866  
  23159066.250   121701710.37648     -3121.815    23159067.207    94832497.36646
     -2432.585  
  20075091.147   105495331.20149       756.785    20075090.223    82204162.28448
       589.699  
 20 09 30 05 49 40.0000000  0  9G29G27G13G18G30G20G 5G24G15
  23901704.083   125604301.96745     -3615.136    23901704.481    97873466.14145
     -2816.992  
  24581060.518   129174348.97145      2197.034    24581062.778   100655354.30044
      1711.972  
  20760875.316   109099146.99048     -1346.558    20760874.547    85012324.70047
     -1049.270  
  20504967.785   107754342.61648       991.160    20504968.354    83964429.18148
       772.327  
  24220206.587   127278041.48247     -1637.840    24220209.165    99177709.45244
     -1276.242  
  22210000.716   116714343.26847      2835.867    22210001.662    90946251.67446
      2209.761  
  23162035.775   121717315.30348     -3120.632    23162036.951    94844657.03546
     -2431.664  
  24541521.377   128966557.29156      3851.026    24541527.238   100493440.71655
      3000.797  
  20074371.443   105491549.88149       755.551    20074370.556    82201215.80348
       588.737  
 20 09 30 05 49 45.0000000  0  9G29G27G13G18G30G20G 5G24G15
  23905143.751   125622378.44746     -3615.602    23905144.459    97887551.71344
     -2817.354  
  24578971.509   129163370.84445      2194.202    24578973.631   100646799.93645
      1709.766  
  20762157.858   109105886.79349     -1349.352    20762157.174    85017576.49747
     -1051.444  
  20504026.022   107749393.46548       988.476    20504026.470    83960572.69848
       770.237  
  24221766.128   127286236.54947     -1640.406    24221768.736    99184095.23045
     -1278.241  
  22207302.902   116700166.09748      2834.984    22207303.899    90935204.53546
      2209.074  
  23165004.965   121732918.47248     -3120.960    23165006.215    94856815.33146
     -2431.921  
  24537856.914   128947299.62546      3851.569    24537859.345   100478434.77645
      3001.219  
  20073654.028   105487779.02549       752.590    20073653.085    82198277.47448
       586.429  
 20 09 30 05 49 50.0000000  0  9G29G27G13G18G30G20G 5G24G15
  23908584.125   125640458.05046     -3616.199    23908585.124    97901639.69445
     -2817.820  
  24576884.870   129152405.07545      2191.816    24576887.234   100638255.17545
      1707.905  
  20763443.078   109112640.60449     -1352.144    20763442.481    85022839.21047
     -1053.620  
  20503086.724   107744457.88648       985.788    20503087.269    83956726.79449
       768.145  
  24223328.099   127294444.41947     -1642.769    24223330.568    99190490.95044
     -1280.081  
  22204605.865   116685993.04348      2834.339    22204606.917    90924160.59646
      2208.574  
  23167974.734   121748524.55648     -3121.340    23167975.981    94868975.90346
     -2432.214  
  24534192.125   128928041.43546      3851.691    24534195.848   100463428.40245
      3001.316  
  20072939.282   105484023.26149       749.675    20072938.303    82195350.90448
       584.160  
 20 09 30 05 49 55.0000000  0  9G29G27G13G18G30G20G 5G24G15
  23912025.599   125658543.33546     -3617.495    23912026.895    97915732.13945
     -2818.832  
  24574800.844   129141454.22345      2188.784    24574803.289   100629722.01945
      1705.539  
  20764731.361   109119410.92049     -1355.609    20764730.685    85028114.78147
     -1056.319  
  20502150.662   107739538.38048       982.444    20502151.217    83952893.41348
       765.538  
  24224892.914   127302667.60947     -1645.996    24224895.516    99196898.65145
     -1282.598  
  22201909.960   116671826.65648      2832.844    22201911.115    90913121.86246
      2207.406  
  23170945.651   121764136.04747     -3122.609    23170946.929    94881140.68747
     -2433.206  
  24530527.374   128908785.31946      3851.112    24530531.215   100448423.68545
      3000.866  
  20072227.943   105480285.11849       746.069    20072227.179    82192438.06648
       581.351  
 20 09 30 05 50  0.0000000  0  9G29G27G13G18G30G20G 5G24G15
  23915467.900   125676632.59446     -3618.233    23915469.537    97929827.65045
     -2819.406  
  24572719.228   129130516.63545      2186.238    24572721.970   100621199.21244
      1703.554  
  20766022.696   109126196.09049     -1358.534    20766021.776    85033401.92947
     -1058.601  
  20501217.273   107734633.29649       979.628    20501217.834    83949071.27348
       763.343  
  24226460.348   127310904.43647     -1648.633    24226462.853    99203316.94645
     -1284.651  
  22199215.253   116657665.27848      2831.578    22199216.537    90902087.01746
      2206.421  
  23173917.176   121779751.30147     -3123.547    23173918.647    94893308.40747
     -2433.937  
  24526862.969   128889529.73946      3851.008    24526867.143   100433419.36145
      3000.785  
  20071519.467   105476562.95549       742.781    20071518.745    82189537.67848
       578.789  
 20 09 30 05 50  5.0000000  0  9G29G27G13G18G30G20G 5G24G15
  23918911.024   125694725.83446     -3618.930    23918912.914    97943926.26545
     -2819.948  
  24570640.207   129119592.39645      2183.159    24570643.017   100612686.83746
      1701.159  
  20767316.712   109132996.09749     -1361.465    20767315.821    85038700.63847
     -1060.887  
  20500286.568   107729742.68949       976.707    20500287.122    83945260.41248
       761.065  
  24228030.303   127319154.91847     -1651.433    24228032.918    99209745.88044
     -1286.836  
  22196521.315   116643508.97648      2830.608    22196522.728    90891056.13046
      2205.668  
  23176889.417   121795370.37447     -3124.355    23176891.019    94905479.11447
     -2434.565  
  24523198.549   128870274.77146      3850.671    24523203.077   100418415.49645
      3000.519  
  20070814.218   105472856.78749       739.535    20070813.485    82186649.75548
       576.257  
 20 09 30 05 50 10.0000000  0  9G29G27G13G18G30G20G 5G24G15
  23922355.187   125712824.37246     -3620.039    23922357.294    97958029.02144
     -2820.812  
  24568563.939   129108682.75645      2180.417    24568566.839   100604185.80145
      1699.023  
  20768613.770   109139812.27349     -1364.890    20768612.773    85044011.93947
     -1063.555  
  20499358.899   107724867.87849       973.444    20499359.348    83941461.86448
       758.527  
  24229603.265   127327420.39147     -1654.617    24229605.831    99216186.51144
     -1289.315  
  22193828.905   116629359.01548      2829.425    22193830.112    90880030.19446
      2204.745  
  23179862.617   121810994.52147     -3125.516    23179864.141    94917653.77347
     -2435.469  
  24519534.977   128851021.60046      3850.336    24519539.789   100403413.03945
      3000.258  
  20070112.206   105469167.97149       736.051    20070111.665    82183775.35548
       573.542  
 20 09 30 05 50 15.0000000  0  9G29G27G13G18G30G20G 5G24G15
  23925800.227   125730927.12046     -3620.656    23925802.290    97972135.04545
     -2821.293  
  24566490.258   129097786.64545      2178.023    24566493.414   100595695.31644
      1697.156  
  20769913.693   109146643.47949     -1367.758    20769912.645    85049334.95047
     -1065.789  
  20498434.057   107720007.73749       970.526    20498434.518    83937674.74448
       756.250  
  24231178.744   127335699.71546     -1657.374    24231181.245    99222637.91245
     -1291.465  
  22191137.209   116615214.30748      2828.140    22191138.412    90869008.35046
      2203.741  
  23182836.586   121826622.61447     -3126.253    23182838.229    94929831.50947
     -2436.047  
  24515871.101   128831769.18146      3849.956    24515876.459   100388411.18845
      2999.968  
  20069413.415   105465495.45349       732.722    20069412.763    82180913.65648
       570.948  
 20 09 30 05 50 20.0000000  0  9G29G27G13G18G30G20G 5G24G15
  23929246.117   125749035.20446     -3622.219    23929248.290    97986245.24745
     -2822.512  
  24564419.571   129086905.29645      2174.433    24564422.714   100587216.36345
      1694.359  
  20771216.661   109153490.90649     -1371.128    20771215.697    85054670.60447
     -1068.414  
  20497512.284   107715163.47749       967.249    20497512.609    83933899.99348
       753.699  
  24232757.297   127343994.03646     -1660.292    24232759.922    99229101.01744
     -1293.737  
  22188446.888   116601076.01548      2826.960    22188447.963    90857991.50646
      2202.823  
  23185811.495   121842255.86747     -3127.538    23185813.229    94942013.26147
     -2437.046  
  24512207.594   128812518.63446      3849.637    24512213.227   100373410.77545
      2999.714  
  20068717.869   105461840.27249       729.323    20068717.273    82178065.46248
       568.300  
 20 09 30 05 50 25.0000000  0  9G29G27G13G18G30G20G 5G24G15
  23932692.612   125767146.22045     -3622.508    23932694.615    98000357.71644
     -2822.737  
  24562351.193   129076036.21245      2172.516    24562354.101   100578746.92545
      1692.867  
  20772522.461   109160352.14649     -1373.585    20772521.431    85060017.02247
     -1070.328  
  20496592.968   107710332.68949       964.922    20496593.409    83930135.74448
       751.883  
  24234337.898   127352300.96146     -1662.441    24234340.700    99235573.91444
     -1295.413  
  22185757.116   116586941.76348      2826.531    22185758.219    90846977.79846
      2202.487  
  23188786.975   121857891.84047     -3127.272    23188788.706    94954197.12646
     -2436.840  
  24508544.205   128793267.61346      3850.394    24508549.541   100358409.99645
      3000.308  
  20068025.165   105458200.05649       726.625    20068024.464    82175228.93048
       566.199  
 20 09 30 05 50 30.0000000  0  9G29G27G13G18G30G20G 5G24G15
  23936139.698   125785260.72045     -3623.198    23936141.738    98014472.88745
     -2823.276  
  24560285.479   129065180.09145      2169.957    24560288.288   100570287.60945
      1690.870  
  20773830.720   109167227.78449     -1376.601    20773829.622    85065374.66047
     -1072.680  
  20495676.307   107705515.97749       962.011    20495676.903    83926382.46048
       749.617  
  24235921.403   127360621.08846     -1665.472    24235924.247    99242057.15145
     -1297.773  
  22183068.516   116572812.16648      2825.309    22183069.455    90835967.72846
      2201.535  
  23191763.236   121873531.16348     -3128.289    23191764.617    94966383.60646
     -2437.632  
  24504880.853   128774016.78746      3850.081    24504886.541   100343409.37345
      3000.065  
  20067335.333   105454575.40549       723.238    20067334.846    82172404.52748
       563.559  
 20 09 30 05 50 35.0000000  0  9G29G27G13G18G30G20G 5G24G15
  23939587.768   125803379.41845     -3623.632    23939589.585    98028591.34144
     -2823.616  
  24558222.256   129054337.59246      2167.257    24558225.047   100561838.95244
      1688.772  
  20775141.987   109174118.50449     -1379.683    20775140.981    85070744.04947
     -1075.082  
  20494762.683   107700714.07149       958.851    20494763.085    83922640.71548
       747.152  
  24237507.316   127368955.08446     -1668.117    24237510.143    99248551.19044
     -1299.831  
  22180380.672   116558687.91748      2824.258    22180381.663    90824961.82546
      2200.718  
  23194740.069   121889174.49648     -3129.022    23194741.510    94978573.20546
     -2438.202  
  24501217.712   128754766.69446      3849.562    24501223.309   100328409.30145
      2999.655  
  20066648.561   105450966.98849       720.034    20066648.141    82169592.77648
       561.063  
 20 09 30 05 50 40.0000000  0  9G29G27G13G18G30G20G 5G24G15
  23943036.296   125821501.89945     -3625.066    23943038.070    98042712.74445
     -2824.733  
  24556161.756   129043508.34446      2164.296    24556164.400   100553400.57244
      1686.460  
  20776455.910   109181023.81449     -1382.406    20776454.843    85076124.81347
     -1077.202  
  20493851.521   107695926.47548       956.245    20493852.174    83918910.12348
       745.124  
  24239095.771   127377302.53546     -1670.890    24239098.527    99255055.70345
     -1301.996  
  22177693.978   116544568.56048      2823.496    22177694.772    90813959.73646
      2200.124  
  23197717.623   121904821.40148     -3129.563    23197718.859    94990765.60646
     -2438.624  
  24497554.832   128735517.10046      3849.882    24497560.035   100313409.64945
      2999.905  
  20065965.018   105447374.38149       717.062    20065964.621    82166793.34548
       558.746  
 20 09 30 05 50 45.0000000  0  9G29G27G13G18G30G20G 5G24G15
  23946485.648   125839627.55445     -3625.929    23946487.253    98056836.60444
     -2825.405  
  24554103.584   129032691.79746      2162.070    24554106.213   100544972.07945
      1684.726  
  20777772.687   109187943.27349     -1385.448    20777771.643    85081516.60547
     -1079.573  
  20492943.033   107691152.77648       953.300    20492943.700    83915190.35548
       742.828  
  24240686.660   127385662.89846     -1673.464    24240689.791    99261570.25345
     -1303.999  
  22175008.051   116530453.63548      2822.476    22175008.913    90802961.09346
      2199.327  
  23200695.772   121920471.36348     -3130.320    23200696.923    95002960.37646
     -2439.214  
  24493891.726   128716267.50346      3849.418    24493896.965   100298409.99244
      2999.546  
  20065284.330   105443797.12249       713.729    20065283.778    82164005.87148
       556.152  
 20 09 30 05 50 50.0000000  0  9G29G27G13G18G30G20G 5G24G15
  23949935.869   125857758.33544     -3626.699    23949937.131    98070964.49945
     -2826.004  
  24552048.270   129021889.92546      2159.078    24552050.682   100536555.05445
      1682.395  
  20779092.316   109194878.78449     -1388.504    20779091.358    85086920.90247
     -1081.952  
  20492037.596   107686394.89048       950.070    20492038.136    83911482.91048
       740.312  
  24242280.513   127394038.18746     -1676.484    24242283.557    99268096.46145
     -1306.355  
  22172323.442   116516345.07748      2821.144    22172324.030    90791967.41346
      2198.261  
  23203674.887   121936126.34648     -3131.352    23203675.988    95015159.05746
     -2440.015  
  24490229.119   128697019.71846      3849.671    24490234.358   100283411.73045
      2999.742  
  20064606.890   105440237.14949       710.309    20064606.360    82161231.86748
       553.483  
 20 09 30 05 50 55.0000000  0  8G27G13G18G30G20G 5G24G15
  24549995.678   129011102.16446      2156.417    24549997.646   100528149.02844
      1680.323  
  20780415.034   109201829.80549     -1391.761    20780414.292    85092337.28347
     -1084.491  
  20491135.210   107681652.22848       947.105    20491135.758    83907787.32548
       738.000  
  24243876.872   127402427.73546     -1679.038    24243880.156    99274633.76445
     -1308.343  
  22169639.803   116502242.30348      2820.124    22169640.355    90780978.24446
      2197.496  
  23206654.744   121951785.78548     -3132.210    23206655.757    95027361.20946
     -2440.688  
  24486566.860   128677773.29146      3849.034    24486571.954   100268414.54645
      2999.250  
  20063932.489   105436693.87049       707.101    20063932.121    82158470.87448
       550.984  
 20 09 30 05 51  0.0000000  0  8G27G13G18G30G20G 5G24G15
  24547945.331   129000327.08245      2153.582    24547946.824   100519752.87844
      1678.113  
  20781740.449   109208794.81449     -1394.398    20781739.659    85097764.56447
     -1086.547  
  20490235.272   107676923.33348       944.457    20490235.819    83904102.47348
       735.937  
  24245475.925   127410830.09547     -1681.688    24245479.352    99281181.05145
     -1310.409  
  22166956.924   116488143.86448      2819.191    22166957.376    90769992.45646
      2196.770  
  23209635.355   121967448.19148     -3132.823    23209636.060    95039565.68047
     -2441.164  
  24482904.403   128658526.57446      3849.538    24482909.374   100253417.11145
      2999.637  
  20063261.148   105433165.82149       704.027    20063260.794    82155721.74748
       548.589  
 20 09 30 05 51  5.0000000  0  8G27G13G18G30G20G 5G24G15
  24545897.400   128989565.22745      2150.890    24545899.009   100511367.04445
      1676.019  
  20783068.781   109215774.43249     -1397.683    20783067.981    85103203.22447
     -1089.104  
  20489338.036   107672208.82748       941.113    20489338.571    83900428.83148
       733.332  
  24247077.297   127419245.86147     -1684.770    24247080.655    99287738.80645
     -1312.813  
  22164275.178   116474050.38648      2817.874    22164275.423    90759010.52546
      2195.741  
  23212616.533   121983114.16647     -3134.050    23212617.073    95051772.93046
     -2442.121  
  24479242.181   128639280.49846      3848.667    24479246.988   100238420.19244
      2998.956  
  20062592.852   105429653.59449       700.632    20062592.400    82152984.94248
       545.945  
 20 09 30 05 51 10.0000000  0  8G27G13G18G30G20G 5G24G15
  24543852.287   128978818.08445      2148.309    24543853.566   100502992.64144
      1674.003  
  20784400.173   109222770.04249     -1400.648    20784399.239    85108654.34847
     -1091.417  
  20488444.035   107667510.13048       938.070    20488444.539    83896767.51548
       730.961  
  24248681.704   127427676.45246     -1687.429    24248685.074    99294308.10244
     -1314.883  
  22161594.576   116459963.22648      2816.999    22161594.636    90748033.52646
      2195.063  
  23215598.621   121998785.05247     -3134.792    23215599.310    95063984.00346
     -2442.699  
  24475580.257   128620036.36346      3848.858    24475584.607   100223424.79344
      2999.116  
  20061927.793   105426158.62249       697.327    20061927.422    82150261.59348
       543.371  
 20 09 30 05 51 15.0000000  0  8G27G13G18G30G20G 5G24G15
  24541809.566   128968084.26445      2145.503    24541810.955   100494628.64545
      1671.815  
  20785734.239   109229780.25749     -1403.762    20785733.153    85114116.84847
     -1093.843  
  20487552.493   107662825.83048       935.183    20487553.186    83893117.41548
       728.710  
  24250288.588   127436120.43246     -1690.308    24250291.639    99300887.81044
     -1317.124  
  22158914.918   116445881.02748      2815.733    22158914.861    90737060.38845
      2194.073  
  23218581.224   122014459.51747     -3135.633    23218581.831    95076197.86446
     -2443.351  
  24471918.229   128600792.90146      3848.288    24471922.520   100208429.90746
      2998.668  
  20061265.769   105422679.50649       694.016    20061265.361    82147550.59448
       540.788  
 20 09 30 05 51 20.0000000  0  8G27G13G18G30G20G 5G24G15
  24539769.495   128957364.71145      2142.703    24539771.247   100486275.75946
      1669.637  
  20787071.324   109236806.00449     -1406.487    20787070.244    85119591.44847
     -1095.968  
  20486664.010   107658156.91148       932.406    20486664.774    83889479.29748
       726.546  
  24251898.144   127444578.80146     -1693.168    24251901.359    99307478.75045
     -1319.354  
  22156236.224   116431804.77048      2814.887    22156236.094    90726091.88146
      2193.413  
  23221564.782   122030138.47147     -3135.882    23221565.589    95088415.23146
     -2443.546  
  24468256.562   128581550.90046      3848.616    24468260.944   100193436.17745
      2998.922  
  20060606.982   105419217.18049       690.918    20060606.471    82144852.67848
       538.374  
 20 09 30 05 51 25.0000000  0  8G27G13G18G30G20G 5G24G15
  24537732.069   128946658.24645      2139.827    24537734.152   100477933.06945
      1667.394  
  20788411.049   109243846.08849     -1409.465    20788410.034    85125077.22547
     -1098.289  
  20485778.395   107653502.19049       929.660    20485779.018    83885852.24648
       724.406  
  24253510.355   127453050.27946     -1695.660    24253513.384    99314079.91444
     -1321.297  
  22153558.667   116417733.23648      2813.827    22153558.485    90715127.05246
      2192.589  
  23224548.894   122045820.77247     -3136.929    23224549.844    95100635.19446
     -2444.362  
  24464595.121   128562309.21045      3848.109    24464598.950   100178442.67544
      2998.526  
  20059951.073   105415770.45149       687.780    20059950.513    82142166.91948
       535.929  
 20 09 30 05 51 30.0000000  0  8G27G13G18G30G20G 5G24G15
  24535697.150   128935965.77045      2136.938    24535699.588   100469601.27545
      1665.144  
  20789753.598   109250901.44549     -1412.609    20789752.479    85130574.90847
     -1100.737  
  20484895.438   107648862.59749       926.296    20484895.949    83882236.97648
       721.784  
  24255125.074   127461535.83946     -1698.394    24255128.408    99320692.04045
     -1323.425  
  22150882.061   116403667.39048      2812.547    22150881.631    90704166.65745
      2191.589  
  23227533.956   122061507.22347     -3137.902    23227534.830    95112858.40046
     -2445.120  
  24460933.636   128543068.69446      3847.867    24460937.599   100163450.11544
      2998.344  
  20059298.390   105412340.26549       684.344    20059297.946    82139494.04948
       533.250  
 20 09 30 05 51 35.0000000  0  8G27G13G18G30G20G 5G24G15
  24533665.037   128925287.07145      2133.983    24533667.694   100461280.22945
      1662.844  
  20791098.928   109257971.73749     -1415.637    20791098.078    85136084.22447
     -1103.098  
  20484015.360   107644237.82049       923.613    20484016.043    83878633.25248
       719.694  
  24256742.626   127470035.16746     -1701.035    24256745.368    99327314.91044
     -1325.483  
  22148206.373   116389606.92848      2811.511    22148205.992    90693210.45646
      2190.784  
  23230519.598   122077197.59547     -3138.625    23230520.561    95125084.65747
     -2445.684  
  24457272.478   128523829.08445      3847.383    24457276.277   100148458.20844
      2997.956  
  20058648.741   105408926.33649       680.996    20058648.077    82136833.84948
       530.645  
 20 09 30 05 51 40.0000000  0  9G29G27G13G18G30G20G 5G24G15
  23984479.015   126039288.60855     -3634.800    23984480.867    98212439.85356
     -2832.316  
  24531635.385   128914622.01945      2131.473    24531638.276   100452969.78744
      1660.883  
  20792447.079   109265056.94248     -1418.624    20792446.387    85141605.16847
     -1105.426  
  20483138.126   107639627.82949       920.531    20483138.815    83875041.05548
       717.293  
  24258362.574   127478548.20746     -1704.246    24258365.448    99333948.42845
     -1327.987  
  22145531.832   116375551.78148      2810.569    22145531.358    90682258.40045
      2190.050  
  23233505.996   122092891.85047     -3139.367    23233506.994    95137313.94246
     -2446.262  
  24453611.331   128504590.40845      3847.492    24453615.218   100133467.06545
      2998.047  
  20058002.133   105405528.60449       677.816    20058001.609    82134186.26748
       528.164  
 20 09 30 05 51 45.0000000  0  9G29G27G13G18G30G20G 5G24G15
  23987937.831   126057464.18045     -3635.167    23987939.634    98226602.61545
     -2832.602  
  24529608.483   128903971.38945      2128.535    24529611.786   100444670.61845
      1658.593  
  20793798.255   109272157.73049     -1421.694    20793797.599    85147138.24847
     -1107.815  
  20482263.943   107635033.30749       917.476    20482264.241    83871460.91548
       714.913  
  24259985.179   127487075.64446     -1706.766    24259988.146    99340593.19945
     -1329.948  
  22142858.442   116361502.70748      2809.277    22142857.956    90671311.07846
      2189.043  
  23236493.362   122108590.69047     -3140.137    23236494.486    95149546.78846
     -2446.863  
  24449950.521   128485353.37945      3846.887    24449954.274   100118477.20844
      2997.574  
  20057358.747   105402147.77749       674.624    20057358.091    82131551.85448
       525.679  
 20 09 30 05 51 50.0000000  0  9G29G27G13G18G30G20G 5G24G15
  23991397.087   126075642.47745     -3636.132    23991399.225    98240767.49745
     -2833.352  
  24527583.954   128893333.23045      2126.012    24527587.687   100436381.11544
      1656.629  
  20795152.114   109279272.15149     -1424.461    20795151.246    85152681.95847
     -1109.972  
  20481392.238   107630452.37549       914.715    20481392.588    83867891.36048
       712.761  
  24261610.293   127495615.55346     -1709.238    24261612.976    99347247.63844
     -1331.883  
  22140185.814   116347457.76448      2808.257    22140185.047    90660366.96545
      2188.250  
  23239481.306   122124292.19147     -3140.809    23239482.420    95161781.72147
     -2447.386  
  24446289.668   128466116.03045      3847.191    24446293.312   100103487.05544
      2997.808  
  20056718.223   105398781.92549       671.445    20056717.721    82128929.11548
       523.198  
 20 09 30 05 51 55.0000000  0  9G29G27G13G18G30G20G 5G24G15
  23994857.293   126093824.26245     -3636.641    23994859.422    98254935.08244
     -2833.753  
  24525561.908   128882708.49544      2123.164    24525566.099   100428102.11346
      1654.410  
  20796508.678   109286401.10349     -1427.152    20796507.811    85158236.98847
     -1112.069  
  20480523.191   107625885.91149       911.882    20480523.642    83864333.07848
       710.555  
  24263237.894   127504168.81046     -1711.762    24263240.352    99353912.50344
     -1333.848  
  22137514.116   116333417.80348      2807.628    22137513.425    90649426.74346
      2187.840  
  23242469.826   122139997.37447     -3141.383    23242471.017    95174019.52747
     -2447.832  
  24442628.870   128446879.44045      3847.344    24442632.482   100088497.56445
      2997.930  
  20056080.735   105395431.93349       668.461    20056080.033    82126318.73248
       520.875  
 20 09 30 05 52  0.0000000  0  9G29G27G13G18G30G20G 5G24G15
  23998318.014   126112010.53745     -3637.652    23998320.086    98269106.20546
     -2834.538  
  24523542.748   128872098.05144      2120.608    24523547.137   100419834.20746
      1652.413  
  20797868.133   109293545.49149     -1430.397    20797867.585    85163804.03647
     -1114.598  
  20479657.164   107621334.81449       908.655    20479657.399    83860786.76948
       708.038  
  24264868.335   127512736.30246     -1714.969    24264870.423    99360588.49544
     -1336.343  
  22134843.581   116319383.76548      2806.254    22134843.004    90638491.12945
      2186.687  
  23245459.131   122155706.90547     -3142.280    23245460.335    95186260.72147
     -2448.534  
  24438968.455   128427644.39045      3847.277    24438972.085   100073509.22946
      2997.879  
  20055446.500   105392098.69449       664.973    20055445.762    82123721.40448
       518.155  
 20 09 30 05 52  5.0000000  0  9G29G27G13G18G30G20G 5G24G15
  24001779.399   126130200.33245     -3638.504    24001781.282    98283280.03444
     -2835.198  
  24521526.157   128861501.04044      2117.723    24521530.703   100411576.78146
      1650.168  
  20799230.488   109300704.43249     -1433.370    20799229.801    85169382.42647
     -1116.913  
  20478794.005   107616798.25849       905.785    20478794.114    83857251.79048
       705.805  
  24266501.225   127521317.19746     -1717.395    24266502.977    99367274.87644
     -1338.234  
  22132173.963   116305354.82948      2805.359    22132173.356    90627559.49245
      2185.991  
  23248449.137   122171419.99347     -3143.155    23248450.337    95198504.68447
     -2449.215  
  24435308.269   128408410.26545      3846.488    24435311.805   100058521.64745
      2997.266  
  20054815.298   105388781.39349       661.781    20054814.441    82121136.50148
       515.671  
 20 09 30 05 52 10.0000000  0  9G29G27G13G18G30G20G 5G24G15
  24005241.422   126148393.54246     -3639.270    24005243.007    98297456.53544
     -2835.800  
  24519512.196   128850917.38945      2115.277    24519516.858   100403329.76446
      1648.265  
  20800595.532   109307877.75949     -1436.167    20800594.930    85174972.02747
     -1119.094  
  20477933.504   107612276.07249       902.984    20477933.783    83853728.00648
       703.620  
  24268136.577   127529911.31046     -1720.398    24268138.197    99373971.60744
     -1340.574  
  22129505.306   116291330.84548      2804.230    22129504.681    90616631.71545
      2185.112  
  23251439.967   122187136.44147     -3143.582    23251441.108    95210751.27047
     -2449.546  
  24431648.050   128389176.68645      3846.655    24431651.688   100043534.42544
      2997.391  
  20054186.953   105385479.82749       658.726    20054186.060    82118563.85548
       513.289  
 20 09 30 05 52 15.0000000  0  9G29G27G13G18G30G20G 5G24G15
  24008704.105   126166590.78446     -3639.941    24008705.938    98311636.18944
     -2836.319  
  24517500.924   128840347.70745      2112.136    24517505.528   100395093.67345
      1645.815  
  20801963.608   109315066.17149     -1439.199    20801962.792    85180573.37947
     -1121.456  
  20477075.665   107607768.97749       899.745    20477075.890    83850215.98348
       701.098  
  24269774.571   127538519.31247     -1723.038    24269776.113    99380679.13044
     -1342.632  
  22126837.766   116277312.48748      2803.008    22126837.205    90605708.31245
      2184.160  
  23254431.303   122202856.98947     -3144.843    23254432.567    95223001.04246
     -2450.531  
  24427988.258   128369944.31445      3846.441    24427991.918   100028548.18445
      2997.223  
  20053561.822   105382194.70949       655.222    20053561.077    82116004.02648
       510.559  
 20 09 30 05 52 20.0000000  0  9G29G27G13G18G30G20G 5G24G15
  24012167.504   126184791.91046     -3640.578    24012168.960    98325818.87045
     -2836.816  
  24515492.374   128829791.86245      2109.680    24515496.839   100386868.33345
      1643.901  
  20803334.339   109322269.47449     -1442.120    20803333.588    85186186.34447
     -1123.733  
  20476220.862   107603276.80049       896.901    20476221.179    83846715.58448
       698.882  
  24271415.275   127547141.05047     -1726.016    24271416.566    99387397.35443
     -1344.949  
  22124171.178   116263299.59948      2801.949    22124170.702    90594789.17845
      2183.331  
  23257423.658   122218581.41847     -3145.137    23257424.474    95235253.84046
     -2450.757  
  24424328.720   128350713.12645      3845.219    24424332.176   100013562.87444
      2996.273  
  20052939.745   105378925.86149       652.124    20052938.815    82113456.87748
       508.145  
 20 09 30 05 52 25.0000000  0  9G29G27G13G18G30G20G 5G24G15
  24015631.578   126202995.96146     -3640.777    24015632.470    98340003.80445
     -2836.977  
  24513486.260   128819248.94146      2107.215    24513490.657   100378653.10545
      1641.983  
  20804707.673   109329486.73549     -1444.824    20804707.101    85191810.18147
     -1125.840  
  20475368.749   107598798.60149       894.214    20475369.128    83843226.07948
       696.789  
  24273058.271   127555775.54947     -1728.151    24273059.546    99394125.55444
     -1346.616  
  22121505.528   116249291.23248      2801.250    22121504.946    90583873.57445
      2182.789  
  23260416.414   122234308.86647     -3145.656    23260417.199    95247508.98546
     -2451.164  
  24420669.197   128331482.11045      3846.198    24420672.693    99998577.68444
      2997.038  
  20052320.700   105375672.34949       649.227    20052319.716    82110921.67748
       505.886  
 20 09 30 05 52 30.0000000  0  9G29G27G13G18G30G20G 5G24G15
  24019096.231   126221203.86746     -3641.734    24019097.052    98354191.74944
     -2837.722  
  24511482.827   128808719.89246      2104.233    24511486.889   100370448.66645
      1639.659  
  20806083.854   109336718.89449     -1448.059    20806083.306    85197445.63547
     -1128.359  
  20474519.477   107594335.33649       891.016    20474519.775    83839748.21348
       694.293  
  24274703.985   127564423.77147     -1731.215    24274705.128    99400864.40644
     -1348.999  
  22118840.799   116235288.35748      2799.995    22118840.388    90572962.24945
      2181.813  
  23263410.082   122250040.16547     -3146.773    23263410.884    95259767.12646
     -2452.034  
  24417009.872   128312252.34945      3845.855    24417013.500    99983593.45945
      2996.765  
  20051704.689   105372435.12949       645.770    20051703.832    82108399.17048
       503.195  
 20 09 30 05 52 35.0000000  0  9G29G27G13G18G30G20G 5G24G15
  24022561.935   126239416.13846     -3642.448    24022562.661    98368383.12253
     -2838.273  
  24509482.266   128798205.31246      2101.964    24509486.116   100362255.49244
      1637.891  
  20807463.034   109343966.47248     -1450.781    20807462.698    85203093.10647
     -1130.480  
  20473673.066   107589887.57448       888.222    20473673.332    83836282.42348
       692.116  
  24276352.507   127573086.28347     -1733.758    24276353.532    99407614.43744
     -1350.984  
  22116177.255   116221291.50148      2799.019    22116176.775    90562055.60245
      2181.051  
  23266404.272   122265775.92547     -3147.378    23266405.032    95272028.75346
     -2452.507  
  24413350.933   128293024.21745      3845.690    24413354.645    99968610.56145
      2996.645  
  20051091.728   105369214.74549       642.547    20051090.885    82105889.78548
       500.684  
 20 09 30 05 52 40.0000000  0  9G29G27G13G18G30G20G 5G24G15
  24026028.032   126257631.25946     -3643.190    24026028.677    98382576.71944
     -2838.855  
  24507483.842   128787703.70946      2098.301    24507487.753   100354072.43345
      1635.035  
  20808844.653   109351227.93049     -1453.719    20808844.501    85208751.39347
     -1132.769  
  20472829.289   107585453.77648       885.261    20472829.585    83832827.51448
       689.813  
  24278003.342   127581761.48347     -1736.133    24278004.330    99414374.33445
     -1352.831  
  22113514.620   116207299.16448      2797.824    22113514.109    90551152.49345
      2180.120  
  23269399.265   122281514.62847     -3148.223    23269399.897    95284292.66546
     -2453.163  
  24409692.008   128273796.21745      3845.988    24409695.634    99953627.70944
      2996.875  
  20050481.816   105366009.63849       639.426    20050481.111    82103392.30248
       498.250  
 20 09 30 05 52 45.0000000  0  9G29G27G13G18G30G20G 5G24G15
  24029495.024   126275850.23646     -3644.117    24029495.884    98396773.29243
     -2839.582  
  24505488.103   128777215.97146      2095.984    24505492.175   100345900.15945
      1633.230  
  20810229.338   109358504.31249     -1456.702    20810229.244    85214421.30947
     -1135.098  
  20471988.556   107581035.00348       882.187    20471988.774    83829384.31248
       687.414  
  24279656.781   127590450.45347     -1739.315    24279657.589    99421144.96544
     -1355.316  
  22110852.938   116193312.39648      2796.788    22110852.441    90540253.71945
      2179.313  
  23272395.022   122297257.21747     -3148.968    23272395.544    95296559.61646
     -2453.746  
  24406033.328   128254569.66145      3844.976    24406037.171    99938646.01145
      2996.086  
  20049874.941   105362820.86249       636.055    20049874.293    82100907.54748
       495.625  
 20 09 30 05 52 50.0000000  0  9G29G27G13G18G30G20G 5G24G15
  24032962.815   126294073.44646     -3645.171    24032963.878    98410973.17743
     -2840.402  
  24503495.060   128766742.52045      2093.003    24503499.209   100337739.04345
      1630.909  
  20811616.717   109365795.97449     -1459.960    20811616.901    85220103.12347
     -1137.637  
  20471150.492   107576631.60748       879.030    20471150.888    83825953.09248
       684.956  
  24281312.909   127599153.55947     -1742.105    24281313.832    99427926.60045
     -1357.488  
  22108192.401   116179331.58648      2795.343    22108191.935    90529359.58045
      2178.187  
  23275391.508   122313004.26447     -3149.890    23275392.187    95308830.02846
     -2454.465  
  24402374.993   128235344.60645      3845.227    24402378.788    99923665.45044
      2996.277  
  20049271.320   105359648.77949       632.620    20049270.651    82098435.79548
       492.948  
 20 09 30 05 52 55.0000000  0  9G29G27G13G18G30G20G 5G24G15
  24036431.336   126312300.27246     -3645.641    24036432.210    98425175.92044
     -2840.762  
  24501504.551   128756282.95145      2090.797    24501508.707   100329588.74146
      1629.188  
  20813007.187   109373102.32049     -1462.477    20813007.221    85225796.37947
     -1139.594  
  20470315.492   107572243.02448       876.461    20470315.699    83822533.41248
       682.953  
  24282971.727   127607870.17547     -1744.593    24282972.499    99434718.78045
     -1359.425  
  22105533.002   116165356.10548      2794.727    22105532.415    90518469.60445
      2177.706  
  23278388.758   122328755.04347     -3150.276    23278389.328    95321103.34846
     -2454.765  
  24398716.782   128216120.70245      3844.781    24398720.671    99908685.82245
      2995.933  
  20048670.748   105356492.81749       629.746    20048670.192    82095976.60848
       490.707  
 20 09 30 05 53  0.0000000  0  9G29G27G13G18G30G20G 5G24G15
  24039900.385   126330530.02646     -3646.543    24039901.172    98439380.86344
     -2841.469  
  24499516.700   128745836.44246      2088.022    24499520.874   100321448.55245
      1627.023  
  20814400.175   109380422.64449     -1465.663    20814400.226    85231500.52947
     -1142.077  
  20469482.979   107567868.54449       873.233    20469483.202    83819124.72848
       680.437  
  24284632.761   127616599.56347     -1747.421    24284633.729    99441520.89744
     -1361.628  
  22102874.344   116151385.25848      2793.582    22102873.843    90507583.22845
      2176.813  
  23281386.425   122344508.82847     -3151.125    23281387.254    95333379.00946
     -2455.429  
  24395058.806   128196897.22345      3844.637    24395062.753    99893706.51044
      2995.815  
  20048073.213   105353352.28249       626.440    20048072.652    82093529.44048
       488.132  
 20 09 30 05 53  5.0000000  0  9G29G27G13G18G30G20G 5G24G15
  24043370.235   126348764.15346     -3647.312    24043371.231    98453589.26744
     -2842.066  
  24497531.643   128735404.51846      2085.051    24497535.724   100313319.79145
      1624.710  
  20815796.241   109387758.43049     -1468.496    20815796.147    85237216.72047
     -1144.285  
  20468653.523   107563509.66149       870.332    20468653.872    83815728.19848
       678.175  
  24286296.691   127625343.26446     -1750.151    24286297.864    99448334.15744
     -1363.757  
  22100216.844   116137420.56848      2792.387    22100216.241    90496701.66445
      2175.882  
  23284385.244   122360267.13447     -3152.023    23284385.866    95345658.20046
     -2456.124  
  24391401.014   128177675.52045      3844.444    24391404.978    99878728.59645
      2995.667  
  20047478.729   105350228.65149       623.241    20047478.306    82091095.44248
       485.641  
 20 09 30 05 53 10.0000000  0  9G29G27G13G18G30G20G 5G24G15
  24046840.616   126367001.18646     -3647.968    24046841.589    98467799.92955
     -2842.577  
  24495549.081   128724985.74446      2082.328    24495553.169   100305201.27545
      1622.590  
  20817195.017   109395108.23449     -1471.530    20817194.728    85242943.83047
     -1146.651  
  20467826.719   107559164.96849       867.351    20467826.998    83812342.72348
       675.855  
  24287962.844   127634099.83146     -1752.901    24287964.100    99455157.46145
     -1365.901  
  22097560.304   116123460.60548      2791.261    22097559.672    90485823.77345
      2175.007  
  23287384.456   122376028.50547     -3152.434    23287384.995    95357939.78946
     -2456.445  
  24387743.295   128158454.23445      3844.090    24387747.119    99863750.99345
      2995.391  
  20046887.301   105347120.49149       619.918    20046886.896    82088673.49948
       483.051  
 20 09 30 05 53 15.0000000  0  9G29G27G13G18G30G20G 5G24G15
  24050311.736   126385242.57645     -3648.601    24050312.979    98482013.97444
     -2843.070  
  24493569.417   128714581.47746      2079.546    24493573.285   100297094.04745
      1620.421  
  20818596.633   109402473.39849     -1474.522    20818596.210    85248682.91447
     -1148.984  
  20467002.955   107554835.84149       864.265    20467003.293    83808969.38349
       673.449  
  24289631.948   127642870.59346     -1755.586    24289633.158    99461991.81745
     -1367.992  
  22094904.895   116109506.70848      2790.187    22094904.276    90474950.61845
      2174.168  
  23290384.630   122391794.31047     -3153.266    23290385.080    95370224.82346
     -2457.093  
  24384085.840   128139234.89645      3842.844    24384089.686    99848774.88645
      2994.422  
  20046299.109   105344029.20849       616.559    20046298.646    82086264.71248
       480.433  
 20 09 30 05 53 20.0000000  0  9G29G27G13G18G30G20G 5G24G15
  24053783.509   126403487.08846     -3649.293    24053785.236    98496230.47255
     -2843.609  
  24491592.255   128704190.69946      2076.551    24491595.981   100288997.34945
      1618.089  
  20820000.904   109409852.83449     -1477.465    20820000.584    85254433.12447
     -1151.273  
  20466182.045   107550521.17649       861.202    20466182.271    83805607.30948
       671.062  
  24291303.480   127651654.49046     -1758.145    24291304.878    99468836.38945
     -1369.984  
  22092250.432   116095557.82148      2789.206    22092249.931    90464081.36345
      2173.406  
  23293385.349   122407563.47347     -3154.218    23293385.974    95382512.48247
     -2457.835  
  24380428.659   128120016.18545      3843.417    24380432.753    99833799.29345
      2994.871  
  20045713.774   105340953.65649       613.413    20045713.563    82083868.17548
       477.980  
 20 09 30 05 53 25.0000000  0  9G29G27G13G18G30G20G 5G24G15
  24057255.932   126421735.00946     -3649.636    24057257.793    98510449.63943
     -2843.874  
  24489617.700   128693813.53446      2074.011    24489621.134   100280911.27345
      1616.112  
  20821408.018   109417246.70249     -1480.058    20821407.420    85260194.57147
     -1153.297  
  20465363.792   107546221.16948       858.651    20465363.921    83802256.64848
       669.077  
  24292977.506   127660451.64846     -1760.742    24292979.041    99475691.33644
     -1372.011  
  22089597.109   116081614.10848      2788.430    22089596.580    90453216.14845
      2172.800  
  23296386.830   122423336.14647     -3155.008    23296387.335    95394802.86847
     -2458.449  
  24376771.518   128100798.56345      3843.477    24376775.887    99818824.53645
      2994.917  
  20045131.683   105337894.05849       610.496    20045131.410    82081484.07848
       475.707  
 20 09 30 05 53 30.0000000  0  9G29G27G13G18G30G20G 5G24G15
  24060728.955   126439986.65246     -3650.781    24060730.887    98524671.68844
     -2844.770  
  24487645.817   128683450.40446      2071.069    24487649.162   100272836.12645
      1613.815  
  20822817.948   109424655.40449     -1483.085    20822817.174    85265967.58747
     -1155.655  
  20464548.376   107541936.22249       855.574    20464548.485    83798917.72948
       666.679  
  24294654.186   127669262.44446     -1763.672    24294655.696    99482556.89445
     -1374.293  
  22086944.537   116067675.99948      2787.168    22086944.239    90442355.28545
      2171.816  
  23299388.933   122439112.67647     -3155.730    23299389.660    95407096.26246
     -2459.015  
  24373114.817   128081582.31345      3843.397    24373119.338    99803850.86445
      2994.854  
  20044552.461   105334850.82249       607.066    20044552.180    82079112.72548
       473.035  
 20 09 30 05 53 35.0000000  0  9G29G27G13G18G30G20G 5G24G15
  24064202.738   126458241.78746     -3651.573    24064204.850    98538896.48643
     -2845.386  
  24485676.583   128673101.13646      2068.550    24485679.665   100264771.77144
      1611.854  
  20824230.494   109432078.69749     -1486.063    20824229.626    85271751.96747
     -1157.973  
  20463735.846   107537666.12849       852.434    20463735.973    83795590.38048
       664.230  
  24296333.290   127678086.72846     -1766.253    24296335.081    99489432.97645
     -1376.305  
  22084293.288   116053743.30948      2785.780    22084292.893    90431498.65445
      2170.828  
  23302391.757   122454892.84147     -3156.401    23302392.470    95419392.48546
     -2459.538  
  24369458.337   128062367.28445      3843.234    24369463.127    99788878.13144
      2994.727  
  20043976.473   105331823.70349       603.832    20043976.100    82076753.93148
       470.516  
 20 09 30 05 53 40.0000000  0  9G29G27G13G18G30G20G 5G24G15
  24067677.350   126476500.18346     -3652.242    24067679.341    98553123.78944
     -2845.906  
  24483709.764   128662765.46446      2065.444    24483713.016   100256718.01745
      1609.434  
  20825645.829   109439516.36048     -1489.176    20825645.027    85277547.55047
     -1160.398  
  20462925.992   107533410.62749       849.500    20462926.156    83792274.40848
       661.945  
  24298015.079   127686924.18346     -1768.741    24298017.131    99496319.28746
     -1378.241  
  22081642.820   116039815.72548      2784.729    22081642.741    90420646.00845
      2169.918  
  23305395.331   122470676.48147     -3157.066    23305396.053    95431691.43446
     -2460.055  
  24365802.031   128043153.04745      3842.816    24365806.632    99773906.02144
      2994.398  
  20043403.507   105328812.40449       600.495    20043403.198    82074407.46248
       467.914  
 20 09 30 05 53 45.0000000  0  9G29G27G13G18G30G20G 5G24G15
  24071152.584   126494762.40946     -3653.081    24071154.575    98567354.07454
     -2846.565  
  24481745.724   128652444.01846      2062.941    24481748.848   100248675.32944
      1607.484  
  20827063.814   109446968.98848     -1492.102    20827063.162    85283354.79247
     -1162.680  
  20462119.189   107529170.35349       846.487    20462119.260    83788970.30248
       659.598  
  24299699.389   127695775.44446     -1771.516    24299701.572    99503216.38245
     -1380.406  
  22078993.505   116025893.91648      2783.754    22078993.381    90409797.85145
      2169.155  
  23308399.769   122486464.15747     -3157.762    23308400.398    95443993.50746
     -2460.597  
  24362145.928   128023940.37946      3842.390    24362150.592    99758935.14845
      2994.065  
  20042833.588   105325817.58349       597.249    20042833.204    82072073.83948
       465.387  
 20 09 30 05 53 50.0000000  0  9G29G27G13G18G30G20G 5G24G15
  24074628.579   126513028.48146     -3653.581    24074630.479    98581587.38143
     -2846.952  
  24479784.069   128642136.82645      2060.323    24479787.390   100240643.76546
      1605.444  
  20828484.815   109454436.58648     -1494.858    20828484.207    85289173.70447
     -1164.827  
  20461315.246   107524945.35449       843.504    20461315.300    83785678.09748
       657.273  
  24301386.352   127704640.53046     -1774.280    24301388.790    99510124.22845
     -1382.558  
  22076345.320   116011977.89148      2782.890    22076345.449    90398954.20245
      2168.484  
  23311404.745   122502255.88347     -3158.359    23311405.444    95456298.73046
     -2461.063  
  24358490.148   128004729.43745      3842.355    24358494.676    99743965.59645
      2994.039  
  20042266.911   105322839.24049       594.062    20042266.635    82069753.05248
       462.901  
 20 09 30 05 53 55.0000000  0  9G29G27G13G18G30G20G 5G24G15
  24078105.150   126531297.70245     -3653.879    24078107.084    98595823.09353
     -2847.184  
  24477825.297   128631843.22145      2057.871    24477828.469   100232622.78045
      1603.530  
  20829908.479   109461918.45748     -1497.593    20829907.961    85295003.74047
     -1166.960  
  20460513.939   107520734.89249       840.757    20460514.039    83782397.22248
       655.133  
  24303075.806   127713518.70046     -1776.723    24303078.403    99517042.28344
     -1384.460  
  22073698.120   115998066.98148      2781.737    22073698.263    90388114.54145
      2167.585  
  23314410.502   122518050.93147     -3159.207    23314411.173    95468606.56546
     -2461.722  
  24354835.253   127985526.33855      3842.476    24354835.321    99728990.71254
      2994.133  
  20041703.086   105319876.69449       591.117    20041702.736    82067444.57448
       460.608  
 20 09 30 05 54  0.0000000  0  9G29G27G13G18G30G20G 5G24G15
  24081582.077   126549568.85945     -3654.612    24081584.030    98610060.35344
     -2847.753  
  24475868.604   128621561.97945      2054.188    24475871.849   100224611.40445
      1600.659  
  20831334.640   109469413.32648     -1500.492    20831334.159    85300843.90447
     -1169.218  
  20459715.305   107516537.75949       837.929    20459715.216    83779126.73748
       652.930  
  24304767.523   127722408.73446     -1779.227    24304770.184    99523969.56344
     -1386.417  
  22071051.685   115984159.93448      2780.710    22071051.795    90377277.88645
      2166.784  
  23317416.788   122533848.06947     -3159.883    23317417.329    95480916.02046
     -2462.249  
  24351179.778   127966315.99745      3841.581    24351181.195    99714021.64645
      2993.449  
  20041142.093   105316928.74849       587.895    20041141.753    82065147.47348
       458.097  
 20 09 30 05 54  5.0000000  0  8G27G13G18G30G20G 5G24G15
  24473914.727   128611294.32045      2052.539    24473917.800   100216610.62146
      1599.378  
  20832763.467   109476922.49049     -1503.077    20832763.273    85306695.20247
     -1171.234  
  20458919.499   107512355.27449       835.296    20458919.353    83775867.65448
       650.879  
  24306461.715   127731311.92746     -1781.991    24306464.621    99530907.12645
     -1388.570  
  22068406.376   115970258.05548      2780.097    22068406.486    90366445.25846
      2166.308  
  23320423.470   122549648.66347     -3160.195    23320424.035    95493228.16846
     -2462.491  
  24347524.085   127947106.67145      3841.766    24347528.530    99699053.34245
      2993.581  
  20040584.147   105313996.66149       585.035    20040583.711    82062862.72848
       455.866  
 20 09 30 05 54 10.0000000  0  8G27G13G18G30G20G 5G24G15
  24471963.531   128601041.46445      2049.012    24471966.557   100208621.38544
      1596.628  
  20834195.385   109484447.02249     -1506.590    20834195.075    85312558.47447
     -1173.969  
  20458126.531   107508188.51149       831.675    20458126.436    83772620.82448
       648.054  
  24308158.772   127740229.33546     -1784.906    24308161.510    99537855.75945
     -1390.839  
  22065762.066   115956362.45448      2778.104    22065762.159    90355617.52445
      2164.754  
  23323431.094   122565453.77147     -3161.766    23323431.447    95505543.82946
     -2463.714  
  24343868.846   127927899.47645      3841.472    24343872.688    99684086.71843
      2993.351  
  20040029.435   105311081.50649       581.218    20040029.059    82060591.17648
       452.895  
 20 09 30 05 54 15.0000000  0  8G27G13G18G30G20G 5G24G15
  24470015.241   128590804.57345      2045.559    24470018.182   100200644.58445
      1593.938  
  20835630.391   109491988.21549     -1510.051    20835630.033    85318434.73047
     -1176.668  
  20457336.800   107504038.72749       827.969    20457336.918    83769387.22548
       645.168  
  24309858.660   127749162.18146     -1788.241    24309861.607    99544816.40344
     -1393.437  
  22063119.278   115942474.35648      2776.809    22063119.351    90344795.63345
      2163.742  
  23326439.874   122581264.55147     -3162.852    23326440.085    95517863.91546
     -2464.563  
  24340213.960   127908695.57645      3839.858    24340218.110    99669122.70745
      2992.097  
  20039478.148   105308184.53549       577.351    20039477.593    82058333.79748
       449.882  
 20 09 30 05 54 20.0000000  0  8G27G13G18G30G20G 5G24G15
  24468069.684   128580581.88045      2043.245    24468072.503   100192678.82545
      1592.133  
  20837068.265   109499544.19849     -1512.581    20837067.897    85324322.51247
     -1178.636  
  20456550.132   107499904.10249       825.585    20456550.072    83766165.44148
       643.308  
  24311560.994   127758108.69346     -1790.472    24311564.079    99551787.71044
     -1395.176  
  22060477.476   115928591.96748      2775.957    22060477.682    90333978.19245
      2163.081  
  23329449.392   122597079.23547     -3163.145    23329449.706    95530187.03146
     -2464.792  
  24336559.949   127889493.11945      3841.270    24336564.516    99654159.75941
      2993.199  
  20038929.899   105305303.93249       574.640    20038929.515    82056089.16748
       447.769  
 20 09 30 05 54 25.0000000  0  8G27G13G18G30G20G 5G24G15
  24466127.058   128570373.74945      2039.824    24466129.851   100184724.46045
      1589.468  
  20838509.016   109507115.30549     -1515.780    20838508.675    85330222.07047
     -1181.133  
  20455766.313   107495785.01049       822.355    20455766.136    83762955.76148
       640.793  
  24313266.152   127767069.17346     -1793.944    24313269.150    99558769.93944
     -1397.879  
  22057836.991   115914715.62448      2774.387    22057837.048    90323165.45646
      2161.855  
  23332459.700   122612898.32347     -3164.503    23332459.734    95542513.59446
     -2465.852  
  24332905.663   127870292.65845      3839.582    24332910.135    99639198.36644
      2991.879  
  20038385.078   105302440.03749       571.066    20038384.383    82053857.56548
       444.984  
 20 09 30 05 54 30.0000000  0  8G27G13G18G30G20G 5G24G15
  24464186.901   128560178.68845      2038.305    24464189.671   100176780.24645
      1588.285  
  20839952.444   109514700.06749     -1517.914    20839951.900    85336132.26947
     -1182.793  
  20454984.962   107491679.98249       820.073    20454985.143    83759757.03748
       639.015  
  24314973.578   127776042.16446     -1795.242    24314976.683    99565761.87845
     -1398.894  
  22055197.274   115900843.94248      2774.241    22055197.401    90312356.35645
      2161.741  
  23335470.549   122628720.25747     -3164.280    23335470.554    95554842.36346
     -2465.675  
  24329252.122   127851092.57545      3840.644    24329256.162    99624237.30044
      2992.711  
  20037842.901   105299591.41049       568.652    20037842.169    82051637.85348
       443.102  
 20 09 30 05 54 35.0000000  0  8G27G13G18G30G20G 5G24G15
  24462249.134   128549995.15346      2035.394    24462251.731   100168845.04944
      1586.022  
  20841397.982   109522296.85949     -1520.613    20841397.351    85342051.84047
     -1184.897  
  20454206.274   107487587.42249       817.206    20454206.304    83756568.03848
       636.780  
  24316683.127   127785026.05846     -1797.976    24316686.482    99572762.31344
     -1401.022  
  22052558.346   115886975.24948      2773.383    22052558.180    90301549.59345
      2161.074  
  23338481.588   122644543.27747     -3164.563    23338481.383    95567171.98745
     -2465.895  
  24325598.644   127831891.54145      3840.480    24325602.754    99609275.45844
      2992.577  
  20037303.400   105296756.47049       565.602    20037302.637    82049428.81148
       440.727  
 20 09 30 05 54 40.0000000  0  8G27G13G18G30G20G 5G24G15
  24460314.166   128539826.29646      2032.358    24460316.689   100160921.28346
      1583.652  
  20842846.540   109529908.86649     -1523.871    20842845.959    85347983.27347
     -1187.433  
  20453430.439   107483510.53849       813.940    20453430.408    83753391.25048
       634.238  
  24318395.327   127794024.01646     -1800.875    24318398.801    99579773.72145
     -1403.281  
  22049920.360   115873112.75748      2771.948    22049920.205    90290747.65245
      2159.957  
  23341493.396   122660370.68447     -3166.038    23341493.489    95579505.02646
     -2467.046  
  24321945.260   127812692.53845      3840.187    24321949.612    99594315.20045
      2992.352  
  20036767.137   105293938.35649       562.035    20036766.307    82047232.87648
       437.945  
 20 09 30 05 54 45.0000000  0  8G27G13G18G30G20G 5G24G15
  24458381.893   128529671.19546      2029.616    24458384.445   100153008.22046
      1581.515  
  20844297.912   109537535.12549     -1526.711    20844297.052    85353925.81747
     -1189.647  
  20452657.409   107479448.36149       810.925    20452657.196    83750225.92048
       631.886  
  24320110.011   127803035.11246     -1803.491    24320113.675    99586795.34644
     -1405.319  
  22047283.517   115859255.52348      2770.949    22047283.210    90279949.81545
      2159.180  
  23344505.939   122676201.42447     -3166.566    23344505.849    95591840.66846
     -2467.456  
  24318292.283   127793494.76145      3839.819    24318296.235    99579355.91944
      2992.070  
  20036233.905   105291136.11049       558.937    20036233.142    82045049.31148
       435.531  
 20 09 30 05 54 50.0000000  0  8G27G13G18G30G20G 5G24G15
  24456452.216   128519530.23646      2026.612    24456454.998   100145106.20846
      1579.179  
  20845751.954   109545176.04649     -1529.781    20845751.088    85359879.78747
     -1192.039  
  20451887.262   107475401.30448       807.707    20451887.157    83747072.36548
       629.379  
  24321827.158   127812059.72146     -1806.340    24321831.035    99593827.52045
     -1407.538  
  22044647.605   115845403.92948      2769.675    22044647.455    90269156.36945
      2158.188  
  23347519.072   122692035.91947     -3167.175    23347519.096    95604179.22346
     -2467.933  
  24314639.556   127774298.52045      3839.112    24314643.136    99564397.84144
      2991.512  
  20035703.758   105288350.13549       555.457    20035702.912    82042878.42148
       432.820  
 20 09 30 05 54 55.0000000  0  8G27G13G18G30G20G 5G24G15
  24454525.317   128509403.34346      2024.097    24454528.176   100137215.10245
      1577.214  
  20847208.638   109552831.50049     -1532.445    20847208.086    85365845.07947
     -1194.116  
  20451119.964   107471369.21948       805.038    20451119.854    83743930.48048
       627.300  
  24323546.958   127821097.64446     -1808.633    24323551.099    99600870.02245
     -1409.332  
  22042012.844   115831557.85648      2768.707    22042012.635    90258367.22545
      2157.430  
  23350533.152   122707874.07947     -3168.008    23350532.879    95616520.63146
     -2468.582  
  24310987.060   127755103.52445      3839.039    24310990.280    99549440.72345
      2991.460  
  20035176.662   105285580.32149       552.434    20035175.866    82040720.13148
       430.464  
 20 09 30 05 55  0.0000000  0  9G29G27G13G18G30G20G 5G24G15
  24123359.818   126769111.09155     -3662.332    24123357.136    98781118.64753
     -2853.772  
  24452600.877   128499289.59446      2021.602    24452603.879   100129334.27045
      1575.269  
  20848667.971   109560500.56449     -1535.050    20848667.293    85371820.97247
     -1196.147  
  20450355.329   107467351.25348       802.370    20450355.268    83740799.59648
       625.223  
  24325269.214   127830148.09446     -1811.398    24325273.310    99607922.31445
     -1411.484  
  22039379.016   115817716.40348      2767.749    22039378.550    90247581.68046
      2156.683  
  23353547.648   122723715.01847     -3168.492    23353547.478    95628864.22246
     -2468.956  
  24307334.825   127735909.24545      3839.191    24307337.967    99534484.17444
      2991.577  
  20034652.414   105282825.75649       549.515    20034651.514    82038573.71548
       428.191  
 20 09 30 05 55  5.0000000  0  9G29G27G13G18G30G20G 5G24G15
  24126845.055   126787427.25845     -3663.582    24126844.490    98795390.93444
     -2854.750  
  24450679.460   128489191.54646      2017.965    24450682.525   100121465.64546
      1572.438  
  20850130.369   109568185.76849     -1538.675    20850129.884    85377809.44647
     -1198.972  
  20449593.743   107463349.90548       798.515    20449593.867    83737681.66448
       622.214  
  24326994.126   127839213.47845     -1814.194    24326998.443    99614986.25945
     -1413.660  
  22036746.508   115803882.10548      2766.269    22036745.918    90236801.70945
      2155.531  
  23356563.098   122739561.22547     -3169.652    23356562.771    95641211.90346
     -2469.862  
  24303682.985   127716718.07145      3837.976    24303686.155    99519530.05444
      2990.640  
  20034131.600   105280088.95549       545.508    20034130.855    82036441.14448
       425.065  
 20 09 30 05 55 10.0000000  0  9G29G27G13G18G30G20G 5G24G15
  24130331.557   126805747.01445     -3664.102    24130330.783    98809666.06644
     -2855.147  
  24448760.582   128479107.92646      2015.422    24448764.003   100113608.27646
      1570.456  
  20851595.657   109575885.81849     -1541.296    20851595.178    85383809.48647
     -1201.016  
  20448835.180   107459363.91048       795.827    20448835.428    83734575.69948
       620.121  
  24328721.647   127848292.53545     -1816.855    24328726.055    99622060.85445
     -1415.733  
  22034114.933   115790053.71148      2765.254    22034114.495    90226026.34746
      2154.738  
  23359579.323   122755411.46547     -3170.429    23359579.050    95653562.71946
     -2470.469  
  24300031.171   127697528.56545      3837.722    24300034.441    99504577.17745
      2990.426  
  20033614.031   105277368.64349       542.586    20033613.128    82034321.41948
       422.792  
 20 09 30 05 55 15.0000000  0  9G29G27G13G18G30G20G 5G24G15
  24133818.117   126824069.47645     -3664.972    24133817.283    98823943.29544
     -2855.824  
  24446844.307   128469037.77446      2012.090    24446847.868   100105761.39946
      1567.858  
  20853063.640   109583599.71249     -1544.390    20853063.137    85389820.31247
     -1203.425  
  20448079.492   107455392.33948       792.707    20448079.647    83731480.96848
       617.691  
  24330451.659   127857384.33945     -1819.895    24330456.343    99629145.37145
     -1418.101  
  22031484.532   115776230.26848      2763.991    22031483.849    90215254.82445
      2153.758  
  23362596.159   122771264.67447     -3171.097    23362595.846    95665915.87046
     -2470.987  
  24296379.577   127678339.93445      3837.058    24296383.268    99489625.04644
      2989.918  
  20033099.323   105274663.89249       539.055    20033098.362    82032213.82048
       420.038  
 20 09 30 05 55 20.0000000  0  8G29G27G13G18G30G20G 5G15
  24137305.599   126842396.22745     -3665.422    24137304.987    98838223.86044
     -2856.176  
  24444930.766   128458982.57646      2010.062    24444934.604   100097926.18245
      1566.276  
  20854534.491   109591328.99549     -1547.027    20854533.992    85395843.12547
     -1205.480  
  20447326.663   107451436.72448       789.828    20447327.018    83728398.66848
       615.448  
  24332184.316   127866490.39045     -1822.027    24332189.121    99636240.99746
     -1419.765  
  22028855.251   115762413.33248      2763.066    22028854.710    90204488.37745
      2153.034  
  23365613.935   122787122.44147     -3171.480    23365613.607    95678272.56646
     -2471.284  
  20032588.048   105271976.25349       536.188    20032587.013    82030119.55548
       417.805  
 20 09 30 05 55 25.0000000  0  8G29G27G13G18G30G20G 5G15
  24140793.252   126860725.49545     -3666.171    24140793.335    98852506.40444
     -2856.762  
  24443019.714   128448940.90146      2006.546    24443023.737   100090101.50145
      1563.539  
  20856008.200   109599072.10349     -1550.112    20856007.272    85401876.70947
     -1207.883  
  20446576.669   107447495.48348       786.663    20446577.062    83725327.56948
       612.979  
  24333919.530   127875609.12545     -1824.987    24333924.543    99643346.47945
     -1422.073  
  22026226.913   115748601.29048      2761.691    22026226.314    90193725.75146
      2151.926  
  23368632.266   122802983.19347     -3172.526    23368631.921    95690631.58846
     -2472.102  
  20032079.625   105269304.12849       532.749    20032078.609    82028037.38448
       415.124  
 20 09 30 05 55 30.0000000  0  8G29G27G13G18G30G20G 5G15
  24144281.654   126879059.58245     -3667.125    24144282.502    98866792.71144
     -2857.504  
  24441111.650   128438914.95646      2003.777    24441115.791   100082289.06344
      1561.383  
  20857484.761   109606831.29749     -1553.309    20857483.695    85407922.82247
     -1210.375  
  20445829.731   107443570.92348       783.452    20445830.258    83722269.46848
       610.480  
  24335657.352   127884742.81845     -1827.980    24335662.591    99650463.64944
     -1424.402  
  22023599.906   115734796.46548      2760.515    22023599.333    90182968.73546
      2151.047  
  23371651.545   122818849.14047     -3173.726    23371651.223    95702994.65746
     -2473.034  
  20031574.412   105266649.77649       529.210    20031573.617    82025969.05648
       412.366  
 20 09 30 05 55 35.0000000  0  8G29G27G13G18G30G20G 5G15
  24147770.920   126897397.07745     -3667.750    24147772.029    98881081.64745
     -2857.988  
  24439206.451   128428903.31846      2000.788    24439210.361   100074487.80445
      1559.055  
  20858964.163   109614605.13749     -1556.293    20858963.052    85413980.35547
     -1212.698  
  20445085.862   107439661.61148       780.394    20445086.355    83719223.24848
       608.098  
  24337398.082   127893890.00745     -1830.777    24337403.407    99657591.31545
     -1426.581  
  22020974.038   115720997.43348      2759.104    22020973.603    90172216.24945
      2149.948  
  23374671.373   122834718.91247     -3174.397    23374671.254    95715360.70846
     -2473.559  
  20031072.441   105264011.77749       525.948    20031071.577    82023913.47448
       409.827  
 20 09 30 05 55 40.0000000  0  8G29G27G13G18G30G20G 5G15
  24151260.406   126915736.94944     -3668.331    24151262.100    98895372.43545
     -2858.444  
  24437303.740   128418905.06846      1997.984    24437307.592   100066696.96844
      1556.867  
  20860445.952   109622392.64848     -1558.788    20860444.835    85420048.53847
     -1214.645  
  20444344.688   107435766.59048       777.558    20444345.156    83716188.16448
       605.887  
  24339140.888   127903049.73746     -1833.125    24339146.222    99664728.75444
     -1428.414  
  22018349.107   115707203.20548      2758.191    22018348.550    90161467.50346
      2149.238  
  23377691.958   122850591.56947     -3174.772    23377691.996    95727729.01746
     -2473.852  
  20030573.497   105261389.15349       522.999    20030572.448    82021869.87248
       407.526  
 20 09 30 05 55 45.0000000  0  8G29G27G13G18G30G20G 5G15
  24154750.797   126934080.35945     -3668.534    24154752.671    98909665.98845
     -2858.601  
  24435403.738   128408921.30246      1995.453    24435407.569   100058917.44245
      1554.897  
  20861930.546   109630194.96148     -1561.737    20861929.596    85426128.26147
     -1216.940  
  20443606.545   107431887.00249       774.684    20443606.911    83713165.10848
       603.644  
  24340886.620   127912223.11646     -1835.487    24340891.963    99671876.83744
     -1430.254  
  22015725.151   115693414.97048      2757.430    22015724.720    90150723.41846
      2148.645  
  23380713.307   122866468.27247     -3175.594    23380713.215    95740100.46747
     -2474.491  
  20030077.596   105258783.07949       519.820    20030076.766    82019839.16948
       405.051  
 20 09 30 05 55 50.0000000  0  8G29G27G13G18G30G20G 5G15
  24158241.565   126952425.34544     -3669.534    24158243.693    98923960.76446
     -2859.382  
  24433506.307   128398950.14146      1992.409    24433509.814   100051147.70245
      1552.523  
  20863417.746   109638010.06448     -1564.710    20863416.593    85432217.95547
     -1219.258  
  20442870.690   107428020.86949       771.616    20442871.127    83710152.54148
       601.257  
  24342634.463   127921408.21846     -1838.445    24342639.937    99679034.06044
     -1432.558  
  22013102.127   115679630.73248      2756.180    22013101.612    90139982.45045
      2147.668  
  23383734.835   122882346.97447     -3176.449    23383735.001    95752473.48846
     -2475.160  
  20029584.340   105256191.56349       516.578    20029583.503    82017819.81048
       402.522  
 20 09 30 05 55 55.0000000  0  8G29G27G13G18G30G20G 5G15
  24161732.969   126970773.73545     -3670.445    24161735.565    98938258.18045
     -2860.094  
  24431611.549   128388993.39846      1989.652    24431614.884   100043389.21945
      1550.374  
  20864907.390   109645839.82248     -1567.305    20864906.793    85438319.07347
     -1221.281  
  20442138.097   107424170.09549       768.464    20442138.304    83707151.94148
       598.800  
  24344384.872   127930606.83646     -1841.069    24344390.084    99686201.83645
     -1434.598  
  22010480.249   115665852.32948      2755.257    22010479.701    90129246.03545
      2146.949  
  23386757.319   122898229.54947     -3176.741    23386757.469    95764849.52246
     -2475.386  
  20029094.317   105253616.44649       513.472    20029093.651    82015813.22949
       400.104  
 20 09 30 05 56  0.0000000  0  8G29G27G13G18G30G20G 5G15
  24165224.977   126989125.45345     -3670.647    24165227.931    98952558.24245
     -2860.249  
  24429719.709   128379051.05846      1987.163    24429722.458   100035641.95645
      1548.438  
  20866400.119   109653684.25648     -1570.430    20866399.456    85444431.62347
     -1223.714  
  20441408.168   107420334.63849       765.651    20441408.647    83704163.27248
       596.609  
  24346137.832   127939818.95346     -1843.722    24346143.143    99693380.10345
     -1436.671  
  22007859.299   115652079.83148      2753.910    22007858.806    90118514.22245
      2145.902  
  23389780.343   122914115.99347     -3177.878    23389780.664    95777228.56246
     -2476.272  
  20028607.316   105251057.73849       510.090    20028606.731    82013819.43449
       397.468  
 20 09 30 05 56  5.0000000  0  8G29G27G13G18G30G20G 5G15
  24168717.708   127007480.38045     -3671.198    24168720.696    98966860.78045
     -2860.679  
  24427830.316   128369122.97946      1984.320    24427833.048   100027905.79544
      1546.219  
  20867895.617   109661543.12249     -1573.063    20867895.078    85450555.41447
     -1225.765  
  20440681.289   107416514.32949       762.641    20440681.697    83701186.41148
       594.262  
  24347893.466   127949044.40646     -1846.176    24347898.509    99700568.75345
     -1438.582  
  22005239.484   115638312.94948      2752.765    22005238.881    90107786.78545
      2145.008  
  23392804.326   122930006.07047     -3178.152    23392804.555    95789610.42146
     -2476.483  
  20028123.547   105248515.23349       506.984    20028122.969    82011838.26148
       395.050  
 20 09 30 05 56 10.0000000  0  8G29G27G13G18G30G20G 5G15
  24172210.895   127025837.64045     -3672.277    24172213.984    98981165.11644
     -2861.520  
  24425943.807   128359208.24846      1981.426    24425946.450   100020180.02545
      1543.964  
  20869393.628   109669415.53549     -1575.862    20869393.156    85456689.76147
     -1227.949  
  20439957.089   107412708.26049       759.702    20439957.410    83698220.64048
       591.972  
  24349651.355   127958282.30045     -1848.875    24349656.532    99707767.12545
     -1440.684  
  22002620.636   115624550.87248      2752.055    22002620.136    90097063.08845
      2144.452  
  23395828.483   122945898.93047     -3178.824    23395828.903    95801994.46446
     -2477.007  
  20027642.612   105245988.02749       503.906    20027642.135    82009869.01448
       392.651  
 20 09 30 05 56 15.0000000  0  8G29G27G13G18G30G20G 5G15
  24175704.894   127044198.00945     -3671.851    24175707.456    98995471.86146
     -2861.187  
  24424059.722   128349307.81646      1978.770    24424062.344   100012465.42446
      1541.894  
  20870894.560   109677302.42249     -1578.785    20870894.193    85462835.38147
     -1230.227  
  20439235.724   107408917.40049       756.594    20439236.004    83695266.72548
       589.550  
  24351411.676   127967533.50445     -1851.355    24351416.875    99714975.84045
     -1442.616  
  22000002.933   115610794.53248      2750.792    22000002.196    90086343.87245
      2143.472  
  23398853.592   122961795.45447     -3179.753    23398853.977    95814381.35646
     -2477.733  
  20027164.733   105243477.10049       500.507    20027164.201    82007912.45248
       390.003  
 20 09 30 05 56 20.0000000  0  8G29G27G13G18G30G20G 5G15
  24179199.254   127062561.64945     -3673.425    24179201.801    99009781.18244
     -2862.414  
  24422178.489   128339421.71246      1975.671    24422180.883   100004761.96645
      1539.479  
  20872398.166   109685203.80149     -1581.801    20872397.898    85468992.30247
     -1232.573  
  20438517.218   107405141.74749       753.414    20438517.505    83692324.65648
       587.074  
  24353174.679   127976798.05445     -1854.202    24353179.754    99722194.97445
     -1444.835  
  21997386.179   115597043.96248      2749.457    21997385.747    90075629.13845
      2142.429  
  23401879.286   122977695.67947     -3180.512    23401879.723    95826771.12346
     -2478.324  
  20026689.861   105240982.44349       497.238    20026689.430    82005968.56348
       387.456  
 20 09 30 05 56 25.0000000  0  8G29G27G13G18G30G20G 5G15
  24182694.458   127080928.35245     -3673.105    24182696.613    99024092.85443
     -2862.167  
  24420299.974   128329549.89246      1972.940    24420302.428    99997069.63645
      1537.354  
  20873904.666   109693119.60449     -1584.511    20873904.315    85475160.45247
     -1234.687  
  20437801.734   107401381.26249       750.641    20437801.925    83689394.41248
       584.909  
  24354939.904   127986075.90645     -1857.007    24354945.484    99729424.46645
     -1447.022  
  21994770.782   115583299.11448      2748.460    21994769.962    90064918.87445
      2141.656  
  23404905.723   122993599.52747     -3180.965    23404905.962    95839163.72246
     -2478.675  
  20026218.226   105238504.01749       494.175    20026217.832    82004037.32548
       385.069  
 20 09 30 05 56 30.0000000  0  8G29G27G13G18G30G20G 5G15
  24186190.171   127099298.07145     -3675.034    24186191.821    99038406.89844
     -2863.668  
  24418424.261   128319692.10946      1970.055    24418426.755    99989388.28645
      1535.108  
  20875413.813   109701049.57249     -1587.604    20875413.360    85481339.64747
     -1237.097  
  20437088.950   107397635.74449       747.409    20437089.024    83686475.82748
       582.395  
  24356707.804   127995366.81645     -1859.297    24356713.558    99736664.09446
     -1448.808  
  21992156.136   115569559.77448      2747.289    21992155.408    90054212.90045
      2140.741  
  23407932.724   123009506.80647     -3182.078    23407932.892    95851558.99446
     -2479.543  
  20025749.472   105236041.60449       490.698    20025749.152    82002118.56448
       382.359  
 20 09 30 05 56 35.0000000  0  8G29G27G13G18G30G20G 5G15
  24189686.222   127117670.63545     -3674.199    24189688.045    99052723.16144
     -2863.016  
  24416550.995   128309848.56246      1967.496    24416553.585    99981717.99945
      1533.112  
  20876925.608   109708993.79349     -1590.128    20876925.109    85487529.94447
     -1239.066  
  20436379.191   107393905.27749       744.742    20436379.058    83683568.97748
       580.315  
  24358478.223   128004670.86845     -1861.578    24358483.997    99743914.02546
     -1450.582  
  21989542.846   115555826.03348      2746.223    21989542.074    90043511.26745
      2139.909  
  23410960.473   123025417.54847     -3182.202    23410960.579    95863956.96246
     -2479.641  
  20025283.960   105233595.26149       487.832    20025283.651    82000212.32048
       380.124  
 20 09 30 05 56 40.0000000  0  8G29G27G13G18G30G20G 5G15
  24193182.888   127136045.98945     -3675.437    24193184.543    99067041.57944
     -2863.987  
  24414680.359   128300018.95846      1964.452    24414683.268    99974058.55245
      1530.738  
  20878440.210   109716952.04949     -1593.094    20878439.745    85493731.18947
     -1241.375  
  20435672.099   107390189.64449       741.594    20435672.034    83680673.67848
       577.863  
  24360251.154   128013987.83845     -1864.979    24360256.797    99751173.99946
     -1453.234  
  21986930.272   115542097.61348      2745.140    21986929.493    90032813.80745
      2139.065  
  23413988.797   123041331.58647     -3183.344    23413988.937    95876357.51646
     -2480.530  
  20024821.310   105231164.76649       484.472    20024821.081    81998318.42448
       377.507  
 20 09 30 05 56 45.0000000  0  8G29G27G13G18G30G20G 5G15
  24196680.222   127154424.88345     -3676.074    24196681.736    99081362.81544
     -2864.476  
  24412812.809   128290204.16746      1961.531    24412815.676    99966410.66745
      1528.461  
  20879957.423   109724925.18649     -1596.023    20879957.038    85499944.03047
     -1243.656  
  20434968.042   107386489.70449       738.499    20434967.998    83677790.61248
       575.452  
  24362026.871   128023318.54345     -1867.445    24362032.265    99758444.68346
     -1455.155  
  21984319.059   115528375.44048      2744.085    21984318.363    90022121.19846
      2138.137  
  23417017.858   123057249.72547     -3183.875    23417018.088    95888761.26046
     -2480.945  
  20024361.922   105228750.97849       481.207    20024361.692    81996437.55248
       374.964  
 20 09 30 05 56 50.0000000  0  8G29G27G13G18G30G20G 5G15
  24200178.103   127172806.71645     -3676.469    24200179.853    99095686.26744
     -2864.789  
  24410947.631   128280403.62246      1958.413    24410950.649    99958773.88245
      1526.034  
  20881477.264   109732912.59749     -1598.995    20881476.779    85506167.99047
     -1245.972  
  20434266.826   107382804.85349       735.348    20434266.909    83674919.30048
       572.996  
  24363805.033   128032662.38045     -1870.335    24363810.360    99765725.59046
     -1457.405  
  21981708.828   115514658.86248      2742.512    21981707.941    90011432.95745
      2137.020  
  23420047.668   123073171.38947     -3184.746    23420047.660    95901167.75646
     -2481.624  
  20023905.775   105226353.28349       477.777    20023905.471    81994569.21748
       372.289  
 20 09 30 05 56 55.0000000  0  8G29G27G13G18G30G20G 5G15
  24203676.575   127191191.84145     -3676.878    24203678.461    99110012.32545
     -2865.104  
  24409085.378   128270617.60646      1955.809    24409088.552    99951148.40646
      1524.003  
  20882999.936   109740914.60349     -1601.934    20882999.672    85512403.32547
     -1248.261  
  20433568.634   107379135.45149       732.277    20433568.767    83672060.02448
       570.601  
  24365585.652   128042019.68745     -1872.625    24365591.076    99773017.01245
     -1459.191  
  21979099.938   115500948.24048      2741.652    21979099.071    90000749.35146
      2136.347  
  23423078.058   123089096.91647     -3185.308    23423078.239    95913577.25446
     -2482.063  
  20023452.683   105223972.02449       474.694    20023452.187    81992713.68748
       369.891  
 20 09 30 05 57  0.0000000  0  8G29G27G13G18G30G20G 5G15
  24207175.661   127209579.31745     -3677.785    24207177.685    99124340.22046
     -2865.809  
  24407225.735   128260845.27346      1953.469    24407228.976    99943533.59546
      1522.179  
  20884525.273   109748930.27149     -1604.624    20884524.958    85518649.30447
     -1250.358  
  20432873.084   107375480.56348       729.398    20432873.310    83669212.05848
       568.358  
  24367368.717   128051389.57445     -1875.180    24367373.977    99780318.22345
     -1461.184  
  21976491.796   115487242.70748      2740.262    21976490.920    89990069.72345
      2135.266  
  23426109.185   123105025.37847     -3186.141    23426109.301    95925989.03646
     -2482.710  
  20023002.473   105221606.30749       471.484    20023002.074    81990870.27248
       367.387  
 20 09 30 05 57  5.0000000  0  8G29G27G13G18G30G20G 5G15
  24210675.247   127227970.08045     -3678.601    24210677.423    99138670.68944
     -2866.444  
  24405368.820   128251087.58846      1950.343    24405372.312    99935930.21045
      1519.745  
  20886053.295   109756960.58349     -1607.288    20886052.932    85524906.69647
     -1252.438  
  20432180.556   107371841.17948       726.477    20432180.795    83666376.16948
       566.081  
  24369154.187   128060772.93645     -1877.781    24369159.230    99787629.91544
     -1463.210  
  21973884.994   115473543.21448      2739.479    21973883.986    89979394.79445
      2134.656  
  23429140.905   123120957.76547     -3186.652    23429140.869    95938403.86646
     -2483.109  
  20022555.486   105219257.09449       468.366    20022554.912    81989039.71648
       364.957  
 20 09 30 05 57 10.0000000  0  8G29G27G13G18G30G20G 5G15
  24214175.165   127246363.83445     -3679.261    24214177.939    99153003.46545
     -2866.960  
  24403514.788   128241344.33046      1947.125    24403518.207    99928338.05645
      1517.238  
  20887584.201   109765005.26949     -1610.484    20887583.791    85531175.27947
     -1254.926  
  20431490.882   107368217.04248       723.242    20431491.144    83663552.16548
       563.562  
  24370942.341   128070169.56145     -1881.104    24370947.267    99794951.96945
     -1465.801  
  21971279.129   115459849.51848      2737.909    21971278.271    89968724.38845
      2133.434  
  23432173.390   123136893.73947     -3187.758    23432173.423    95950821.51245
     -2483.968  
  20022111.556   105216924.09949       464.894    20022110.928    81987221.80148
       362.253  
 20 09 30 05 57 15.0000000  0  8G29G27G13G18G30G20G 5G15
  24217675.900   127264760.88145     -3679.664    24217678.884    99167338.84245
     -2867.273  
  24401663.501   128231615.68946      1944.694    24401666.820    99920757.27845
      1515.343  
  20889117.814   109773064.58049     -1613.136    20889117.326    85537455.25247
     -1256.992  
  20430804.055   107364608.42948       720.409    20430804.409    83660740.25548
       561.355  
  24372733.017   128079579.65545     -1882.957    24372738.020    99802284.49045
     -1467.241  
  21968674.431   115446161.89648      2737.077    21968673.576    89958058.72345
      2132.784  
  23435206.590   123152833.62447     -3188.315    23435206.701    95963242.18446
     -2484.406  
  20021670.667   105214607.61849       461.891    20021670.133    81985416.75448
       359.910  
 20 09 30 05 57 20.0000000  0  9G29G27G13G18G30G20G 5G24G15
  24221177.156   127283159.38945     -3679.237    24221180.151    99181675.32145
     -2866.940  
  24399814.715   128221899.94446      1941.824    24399817.859    99913186.56045
      1513.104  
  20890653.910   109781136.69549     -1615.434    20890653.267    85543745.20447
     -1258.780  
  20430119.918   107361013.51348       717.733    20430120.334    83657939.01848
       559.269  
  24374525.920   128089001.45645     -1885.628    24374530.929    99809626.18346
     -1469.323  
  21966070.662   115432478.49448      2736.378    21966069.834    89947396.33445
      2132.237  
  23438240.177   123168775.54347     -3188.395    23438240.215    95975664.44745
     -2484.464  
  24205193.896   127199152.66855      3829.555    24205199.080    99116243.81955
      2984.066  
  20021232.633   105212305.80149       459.105    20021232.278    81983623.12548
       357.741  
 20 09 30 05 57 25.0000000  0  9G29G27G13G18G30G20G 5G24G15
  24224678.354   127301558.62345     -3680.102    24224681.498    99196012.37644
     -2867.616  
  24397968.464   128212196.29547      1939.348    24397971.297    99905625.29345
      1511.175  
  20892192.281   109789220.88949     -1618.492    20892191.439    85550044.57447
     -1261.163  
  20429438.269   107357431.58348       714.695    20429438.449    83655147.90848
       556.901  
  24376320.965   128098434.14245     -1887.961    24376325.845    99816976.31645
     -1471.141  
  21963467.477   115418798.57248      2735.284    21963466.586    89936736.65846
      2131.387  
  23441273.996   123184718.77847     -3189.019    23441274.035    95988087.74646
     -2484.953  
  24201550.655   127180004.77645      3828.913    24201554.809    99101323.38945
      2983.565  
  20020797.277   105210017.95549       455.804    20020796.878    81981840.39348
       355.168  
 20 09 30 05 57 30.0000000  0  9G29G27G13G18G30G20G 5G24G15
  24228180.601   127319962.17745     -3681.625    24228183.561    99210352.80244
     -2868.801  
  24396125.093   128202508.40847      1936.203    24396127.758    99898076.30745
      1508.727  
  20893733.693   109797320.72349     -1621.441    20893732.784    85556356.12447
     -1263.465  
  20428759.865   107353866.26148       711.358    20428759.999    83652369.73848
       554.305  
  24378118.670   128107881.42245     -1891.195    24378123.466    99824337.83745
     -1473.660  
  21960865.623   115405125.83148      2733.757    21960864.788    89926082.57645
      2130.199  
  23444308.718   123200666.94147     -3190.003    23444308.785    96000514.88246
     -2485.718  
  24197907.799   127160860.15745      3828.546    24197912.243    99086405.53345
      2983.285  
  20020365.336   105207747.65249       452.386    20020364.907    81980071.32448
       352.507  
 20 09 30 05 57 35.0000000  0  9G29G27G13G18G30G20G 5G24G15
  24231683.454   127338369.48345     -3681.719    24231686.644    99224696.12544
     -2868.879  
  24394284.573   128192835.81747      1933.109    24394287.122    99890539.24245
      1506.315  
  20895277.965   109805435.70749     -1624.543    20895276.867    85562679.48247
     -1265.879  
  20428084.495   107350317.07549       708.102    20428084.772    83649604.13948
       551.765  
  24379919.065   128117342.69045     -1893.574    24379923.966    99831710.23845
     -1475.516  
  21958265.129   115391459.67248      2732.753    21958264.159    89915433.61945
      2129.413  
  23447344.448   123216619.62647     -3191.078    23447344.534    96012945.54746
     -2486.558  
  24194265.089   127141718.39945      3827.914    24194269.701    99071489.87044
      2982.784  
  20019936.638   105205494.45349       448.922    20019936.100    81978315.58748
       349.805  
 20 09 30 05 57 40.0000000  0  9G29G27G13G18G30G20G 5G24G15
  24235186.909   127356779.98346     -3682.414    24235189.972    99239041.97844
     -2869.417  
  24392446.887   128183177.93047      1930.125    24392449.205    99883013.62545
      1503.995  
  20896825.093   109813565.20049     -1627.223    20896823.918    85569014.14647
     -1267.968  
  20427411.985   107346783.38949       705.328    20427412.218    83646850.61248
       549.601  
  24381722.135   128126817.41745     -1896.112    24381727.177    99839093.14745
     -1477.492  
  21955665.758   115377799.54448      2731.434    21955664.724    89904789.36945
      2128.387  
  23450380.932   123232576.17247     -3191.559    23450381.029    96025379.20847
     -2486.934  
  24190622.766   127122578.73544      3828.555    24190627.584    99056575.88546
      2983.289  
  20019510.972   105203257.69149       445.866    20019510.466    81976572.65648
       347.426  
 20 09 30 05 57 45.0000000  0  9G29G27G13G18G30G20G 5G24G15
  24238690.982   127375192.69746     -3682.914    24238694.058    99253389.52945
     -2869.808  
  24390611.836   128173533.70247      1927.395    24390613.986    99875498.64545
      1501.863  
  20898374.652   109821708.21749     -1630.054    20898373.474    85575359.35247
     -1270.176  
  20426742.334   107343264.22249       702.370    20426742.627    83644108.40448
       547.300  
  24383527.425   128136304.56046     -1898.953    24383532.340    99846485.70945
     -1479.711  
  21953067.323   115364144.51948      2730.469    21953066.259    89894149.09045
      2127.637  
  23453417.847   123248535.48847     -3192.109    23453418.063    96037815.04047
     -2487.358  
  24186980.645   127103440.29244      3827.187    24186985.263    99041662.84845
      2982.226  
  20019088.364   105201036.39949       442.663    20019087.761    81974841.78248
       344.929  
 20 09 30 05 57 50.0000000  0  9G29G27G13G18G30G20G 5G24G15
  24242195.614   127393608.84846     -3683.140    24242198.747    99267739.73944
     -2869.987  
  24388779.636   128163904.52447      1924.776    24388781.793    99867995.40245
      1499.824  
  20899927.030   109829866.08548     -1632.929    20899926.003    85581716.13647
     -1272.414  
  20426075.536   107339760.92449       699.309    20426075.956    83641378.56048
       544.913  
  24385335.486   128145805.45445     -1901.183    24385340.568    99853889.00545
     -1481.445  
  21950470.026   115350495.94348      2729.229    21950468.815    89883513.83346
      2126.668  
  23456455.491   123264498.91847     -3192.789    23456455.841    96050254.07646
     -2487.890  
  24183339.084   127084304.51145      3826.815    24183343.783    99026751.84645
      2981.933  
  20018668.782   105198831.91949       439.323    20018668.469    81973124.00748
       342.327  
 20 09 30 05 57 55.0000000  0  9G29G27G13G18G30G20G 5G24G15
  24245700.674   127412026.31646     -3683.789    24245703.713    99282091.02244
     -2870.488  
  24386949.853   128154288.25847      1921.758    24386952.014    99860502.23346
      1497.473  
  20901481.647   109838036.65048     -1635.331    20901480.728    85588082.81747
     -1274.288  
  20425411.609   107336271.33949       696.519    20425411.970    83638659.40048
       542.738  
  24387145.665   128155317.88245     -1903.444    24387150.681    99861301.30345
     -1483.206  
  21947873.659   115336851.60348      2728.570    21947872.351    89872881.87446
      2126.155  
  23459493.743   123280464.34947     -3193.309    23459493.875    96062694.66246
     -2488.296  
  24179698.161   127065169.23645      3826.824    24179702.633    99011841.25745
      2981.940  
  20018252.239   105196642.06649       436.519    20018251.609    81971417.63048
       340.140  
 20 09 30 05 58  0.0000000  0  9G29G27G13G18G30G20G 5G24G15
  24249206.102   127430446.99446     -3684.422    24249208.872    99296444.78245
     -2870.979  
  24385122.684   128144686.76847      1919.004    24385124.889    99853020.55645
      1495.323  
  20903039.070   109846221.80948     -1638.597    20903038.413    85594460.87047
     -1276.832  
  20424750.562   107332797.38849       693.132    20424750.908    83635952.42848
       540.101  
  24388958.450   128164843.78846     -1906.632    24388963.497    99868724.07445
     -1485.690  
  21945278.421   115323213.46948      2726.992    21945277.125    89862254.76346
      2124.926  
  23462532.556   123296433.67147     -3194.230    23462532.837    96075138.29746
     -2489.015  
  24176057.352   127046036.31245      3826.254    24176061.631    98996932.49345
      2981.491  
  20017838.549   105194468.76549       433.050    20017838.167    81969724.15348
       337.438  
 20 09 30 05 58  5.0000000  0  9G29G27G13G18G30G20G 5G24G15
  24252712.226   127448870.67746     -3685.324    24252714.812    99310800.86243
     -2871.687  
  24383298.320   128135099.94946      1916.062    24383300.790    99845550.30145
      1493.031  
  20904599.337   109854421.34548     -1641.401    20904599.017    85600850.12647
     -1279.020  
  20424092.325   107329338.89549       690.078    20424092.740    83633257.49748
       537.718  
  24390773.845   128174383.06745     -1909.343    24390778.721    99876157.27046
     -1487.804  
  21942684.290   115309581.34448      2725.832    21942683.154    89851632.32146
      2124.022  
  23465572.132   123312406.74947     -3195.116    23465572.326    96087584.84246
     -2489.702  
  24172416.727   127026905.44945      3826.249    24172420.986    98982025.34945
      2981.491  
  20017428.110   105192311.83349       429.723    20017427.664    81968043.42948
       334.843  
 20 09 30 05 58 10.0000000  0  9G29G27G13G18G30G20G 5G24G15
  24256219.068   127467298.28645     -3685.629    24256221.655    99325160.04645
     -2871.926  
  24381476.957   128125528.68746      1912.655    24381479.521    99838092.16345
      1490.379  
  20906162.481   109862636.19548     -1644.512    20906162.285    85607251.32247
     -1281.440  
  20423437.357   107325896.76549       686.840    20423437.710    83630575.32248
       535.195  
  24392591.730   128183936.46246     -1912.151    24392596.703    99883601.50944
     -1489.991  
  21940091.522   115295956.10048      2724.418    21940090.449    89841015.25246
      2122.917  
  23468612.698   123328384.47147     -3195.812    23468613.034    96100035.00146
     -2490.246  
  24168776.623   127007777.70045      3825.128    24168781.002    98967120.62945
      2980.616  
  20017021.076   105190172.16749       426.269    20017020.560    81966376.15948
       332.156  
 20 09 30 05 58 15.0000000  0  9G29G27G13G18G30G20G 5G24G15
  24259726.239   127485728.12845     -3686.105    24259728.264    99339520.93344
     -2872.293  
  24379658.316   128115971.34846      1910.073    24379660.679    99830644.87246
      1488.366  
  20907728.155   109870864.68048     -1647.078    20907728.213    85613663.13047
     -1283.441  
  20422785.225   107322469.35049       684.168    20422785.334    83627904.60948
       533.113  
  24394412.076   128193502.38146     -1914.461    24394417.108    99891055.48145
     -1491.788  
  21937499.694   115282336.10648      2723.554    21937498.710    89830402.26546
      2122.176  
  23471653.855   123344365.14147     -3196.059    23471653.984    96112487.46246
     -2490.437  
  24165137.028   126988651.49945      3825.191    24165141.223    98952217.12445
      2980.667  
  20016616.880   105188048.10449       423.265    20016616.366    81964721.05048
       329.812  
 20 09 30 05 58 20.0000000  0  9G29G27G13G18G30G20G 5G24G15
  24263233.759   127504160.45545     -3686.835    24263235.630    99353883.76144
     -2872.863  
  24377842.318   128106428.21446      1906.715    24377844.781    99823208.66646
      1485.750  
  20909296.738   109879107.07748     -1650.008    20909296.551    85620085.77447
     -1285.722  
  20422135.752   107319056.93949       680.766    20422135.875    83625245.58648
       530.465  
  24396234.888   128203081.13846     -1917.270    24396240.020    99898519.44045
     -1493.979  
  21934908.845   115268721.66748      2722.141    21934907.936    89819793.60546
      2121.145  
  23474695.621   123360349.10347     -3197.077    23474695.659    96124942.48946
     -2491.234  
  24161497.878   126969527.10645      3824.863    24161501.989    98937315.00445
      2980.413  
  20016215.546   105185939.95649       419.824    20016215.115    81963078.33748
       327.133  
 20 09 30 05 58 25.0000000  0  9G29G27G13G18G30G20G 5G24G15
  24266741.799   127522595.79845     -3687.641    24266743.541    99368248.94543
     -2873.487  
  24376028.900   128096899.73246      1904.284    24376031.531    99815783.86746
      1483.854  
  20910867.831   109887363.87949     -1652.836    20910867.752    85626519.64147
     -1287.925  
  20421489.527   107315660.03749       677.805    20421489.351    83622598.64948
       528.156  
  24398060.169   128212673.17745     -1920.007    24398065.280    99905993.76445
     -1496.113  
  21932319.294   115255113.26648      2721.042    21932318.413    89809189.66046
      2120.297  
  23477737.952   123376336.78348     -3197.866    23477738.020    96137400.41946
     -2491.848  
  24157858.798   126950404.95145      3824.227    24157862.925    98922414.64744
      2979.914  
  20015817.623   105183848.16849       416.734    20015817.039    81961448.37948
       324.727  
 20 09 30 05 58 30.0000000  0  9G29G27G13G18G30G20G 5G24G15
  24270250.509   127541034.44145     -3687.909    24270252.136    99382616.74243
     -2873.698  
  24374218.587   128087386.41446      1901.335    24374221.280    99808370.87846
      1481.558  
  20912442.006   109895635.50549     -1655.840    20912441.903    85632965.06147
     -1290.269  
  20420846.148   107312279.05649       674.624    20420846.040    83619964.11848
       525.679  
  24399887.930   128222278.87745     -1922.445    24399893.216    99913478.69644
     -1498.016  
  21929730.919   115241511.32448      2719.633    21929730.098    89798590.75246
      2119.191  
  23480781.217   123392328.56148     -3198.608    23480781.116    96149861.54345
     -2492.426  
  24154220.654   126931285.53445      3822.968    24154224.639    98907516.41144
      2978.934  
  20015422.751   105181773.19249       413.379    20015422.124    81959831.51548
       322.109  
 20 09 30 05 58 35.0000000  0  9G29G27G13G18G30G20G 5G24G15
  24273759.466   127559474.79545     -3688.214    24273761.029    99396985.82142
     -2873.938  
  24372410.684   128077886.50746      1898.633    24372413.611    99800968.37046
      1479.448  
  20914018.672   109903920.22349     -1658.214    20914018.208    85639420.67347
     -1292.117  
  20420205.446   107308912.30049       672.082    20420205.185    83617340.67348
       523.695  
  24401718.142   128231896.61045     -1925.011    24401723.651    99920973.02245
     -1500.011  
  21927143.479   115227914.17448      2719.093    21927142.738    89787995.57346
      2118.770  
  23483824.885   123408322.80347     -3199.089    23483824.687    96162324.58445
     -2492.800  
  24150582.589   126912167.06145      3823.562    24150586.390    98892618.92145
      2979.394  
  20015030.720   105179713.33749       410.445    20015030.147    81958226.43848
       319.823  
 20 09 30 05 58 40.0000000  0  9G29G27G13G18G30G20G 5G24G15
  24277269.175   127577918.16045     -3688.886    24277270.568    99411357.26443
     -2874.468  
  24370605.595   128068401.41847      1895.563    24370608.602    99793577.38144
      1477.059  
  20915598.003   109912219.35149     -1661.362    20915597.426    85645887.52347
     -1294.569  
  20419567.775   107305561.16049       668.598    20419567.559    83614729.38848
       520.980  
  24403550.826   128241527.61845     -1927.625    24403556.261    99928477.69245
     -1502.050  
  21924557.184   115214323.16748      2717.526    21924556.617    89777405.18546
      2117.550  
  23486869.306   123424320.81248     -3199.983    23486868.967    96174790.55746
     -2493.495  
  24146945.003   126893051.04145      3822.640    24146948.945    98877723.34944
      2978.680  
  20014641.738   105177669.94349       406.859    20014641.349    81956634.18748
       317.031  
 20 09 30 05 58 45.0000000  0  9G29G27G13G18G30G20G 5G24G15
  24280779.244   127596364.81945     -3689.867    24280780.759    99425731.28544
     -2875.223  
  24368803.407   128058931.41647      1892.461    24368806.485    99786198.16745
      1474.641  
  20917180.156   109920533.15149     -1663.948    20917179.357    85652365.79847
     -1296.585  
  20418932.958   107302225.86049       665.694    20418932.864    83612130.44748
       518.718  
  24405386.189   128251172.23445     -1930.077    24405391.674    99935992.99645
     -1503.961  
  21921972.041   115200738.55448      2716.585    21921971.415    89766819.77746
      2116.820  
  23489914.483   123440322.82648     -3200.425    23489914.017    96187259.65245
     -2493.840  
  24143307.744   126873937.58745      3822.683    24143311.719    98862829.76444
      2978.715  
  20014256.173   105175643.22049       403.984    20014255.478    81955054.92348
       314.788  
 20 09 30 05 58 50.0000000  0  9G29G27G13G18G30G20G 5G24G15
  24284289.742   127614812.95746     -3690.457    24284291.145    99440106.44843
     -2875.683  
  24367003.725   128049474.74447      1889.733    24367006.803    99778829.33545
      1472.516  
  20918764.557   109928859.92349     -1666.820    20918763.995    85658854.18947
     -1298.823  
  20418301.016   107298904.70349       662.660    20418300.830    83609542.53248
       516.355  
  24407223.663   128260828.66545     -1932.016    24407229.347    99943517.45845
     -1505.472  
  21919387.850   115187158.63248      2715.371    21919387.426    89756238.02246
      2115.871  
  23492960.220   123456327.21748     -3201.292    23492959.587    96199730.59746
     -2494.516  
  24139670.857   126854825.24045      3822.054    24139674.941    98847937.04945
      2978.227  
  20013873.287   105173631.51849       400.683    20013872.794    81953487.36448
       312.219  
 20 09 30 05 58 55.0000000  0  9G29G27G13G18G30G20G 5G24G15
  24287800.822   127633263.99245     -3690.155    24287801.873    99454483.85541
     -2875.453  
  24365206.912   128040032.86647      1887.050    24365210.087    99771472.04946
      1470.425  
  20920351.958   109937201.08748     -1669.461    20920351.090    85665353.79447
     -1300.883  
  20417672.079   107295599.11849       659.809    20417671.715    83606966.75348
       514.132  
  24409063.835   128270498.42545     -1935.336    24409069.454    99951052.35846
     -1508.059  
  21916804.800   115173584.83248      2714.292    21916804.396    89745661.03946
      2115.030  
  23496006.540   123472335.32947     -3201.909    23496005.821    96212204.44645
     -2495.000  
  24136034.467   126835715.25945      3822.101    24136038.241    98833046.15245
      2978.262  
  20013493.660   105171636.25449       397.632    20013493.032    81951932.61448
       309.839  
 20 09 30 05 59  0.0000000  0  9G29G27G13G18G30G20G 5G24G15
  24291312.304   127651716.67446     -3691.004    24291312.942    99468862.56643
     -2876.112  
  24363412.762   128030604.51347      1884.227    24363415.732    99764125.28246
      1468.226  
  20921941.620   109945555.28748     -1672.284    20921940.895    85671863.56147
     -1303.082  
  20417045.629   107292307.81949       656.824    20417045.553    83604402.10348
       511.808  
  24410906.337   128280180.15345     -1937.738    24410911.654    99958596.54845
     -1509.930  
  21914222.699   115160015.86148      2713.237    21914222.079    89735087.81946
      2114.207  
  23499053.186   123488345.87847     -3202.441    23499052.617    96224680.19046
     -2495.410  
  24132398.142   126816606.39645      3821.460    24132402.071    98818156.14445
      2977.762  
  20013116.878   105169656.12349       394.406    20013116.233    81950389.65548
       307.327  
 20 09 30 05 59  5.0000000  0  9G29G27G13G18G30G20G 5G24G15
  24294824.607   127670173.10945     -3691.229    24294824.711    99483244.17141
     -2876.289  
  24361621.519   128021191.84046      1880.835    24361624.384    99756790.72945
      1465.581  
  20923534.109   109953924.71748     -1675.519    20923533.607    85678385.20147
     -1305.602  
  20416422.396   107289032.98648       653.276    20416422.283    83601850.28848
       509.042  
  24412751.248   128289875.97445     -1940.734    24412756.551    99966151.71745
     -1512.265  
  21911641.929   115146453.88848      2711.719    21911641.468    89724520.05646
      2113.023  
  23502100.952   123504361.02447     -3203.565    23502100.103    96237159.51246
     -2496.288  
  24128762.420   126797500.73445      3820.679    24128766.301    98803268.64745
      2977.152  
  20012743.345   105167693.29049       390.753    20012742.849    81948860.17548
       304.479  
 20 09 30 05 59 10.0000000  0  9G29G27G13G18G30G20G 5G24G15
  24298337.142   127688631.19746     -3691.312    24298336.939    99497627.06444
     -2876.363  
  24359832.968   128011792.78946      1878.257    24359835.792    99749466.80646
      1463.573  
  20925129.273   109962307.26548     -1677.883    20925128.756    85684917.06947
     -1307.445  
  20415802.024   107285772.50349       650.543    20415801.704    83599309.65448
       506.914  
  24414598.679   128299583.81946     -1942.594    24414603.893    99973716.27345
     -1513.710  
  21909062.115   115132896.81348      2710.843    21909061.605    89713956.10546
      2112.343  
  23505148.920   123520378.67447     -3203.793    23505148.127    96249640.78945
     -2496.465  
  24125127.191   126778396.32445      3820.617    24125131.069    98788382.10644
      2977.104  
  20012372.669   105165745.62549       387.968    20012372.174    81947342.51248
       302.308  
 20 09 30 05 59 15.0000000  0  9G29G27G13G18G30G20G 5G24G15
  24301850.072   127707091.95546     -3692.379    24301849.555    99512012.07643
     -2877.179  
  24358047.221   128002408.27846      1875.261    24358050.085    99742154.19846
      1461.237  
  20926726.940   109970703.93749     -1680.977    20926726.329    85691459.92847
     -1309.855  
  20415184.495   107282527.37049       647.358    20415184.085    83596780.98348
       504.434  
  24416448.572   128309304.63746     -1945.617    24416453.520    99981290.93644
     -1516.070  
  21906483.439   115119345.62248      2709.589    21906482.704    89703396.74846
      2111.367  
  23508197.637   123536399.76147     -3204.569    23508196.890    96262124.74446
     -2497.069  
  24121492.185   126759294.05145      3820.241    24121496.062    98773497.20244
      2976.808  
  20012005.239   105163814.14149       384.581    20012004.662    81945837.45748
       299.671  
 20 09 30 05 59 20.0000000  0  9G29G27G13G18G30G20G 5G24G15
  24305363.742   127725555.63346     -3693.194    24305362.513    99526399.33342
     -2877.819  
  24356264.162   127993038.68046      1872.507    24356267.068    99734853.19745
      1459.093  
  20928327.512   109979114.96749     -1683.800    20928326.857    85698013.97647
     -1312.054  
  20414569.866   107279297.87749       644.245    20414569.657    83594264.50148
       502.008  
  24418300.987   128319038.73846     -1948.136    24418305.839    99988875.93845
     -1518.031  
  21903905.910   115105800.64648      2708.254    21903905.310    89692842.22146
      2110.324  
  23511247.113   123552424.61347     -3205.401    23511246.399    96274611.63045
     -2497.719  
  24117857.498   126740194.48345      3819.386    24117861.586    98758614.47443
      2976.141  
  20011640.849   105161899.16649       381.323    20011640.355    81944345.27448
       297.132  
 20 09 30 05 59 25.0000000  0  9G29G27G13G18G30G20G 5G24G15
  24308877.917   127744022.27846     -3693.445    24308876.300    99540788.95344
     -2878.008  
  24354484.165   127983684.10446      1869.676    24354486.808    99727563.92346
      1456.887  
  20929931.007   109987540.48349     -1686.499    20929930.338    85704579.30947
     -1314.160  
  20413958.452   107276084.15749       641.219    20413958.213    83591760.30548
       499.647  
  24420156.016   128328786.23045     -1950.457    24420160.843    99996471.39745
     -1519.839  
  21901329.525   115092261.99348      2707.180    21901328.869    89682292.62546
      2109.487  
  23514297.343   123568453.33747     -3205.882    23514296.644    96287101.52845
     -2498.093  
  24114223.482   126721097.50545      3818.800    24114227.519    98743733.70243
      2975.688  
  20011279.496   105160000.77449       378.152    20011279.209    81942866.00448
       294.660  
 20 09 30 05 59 30.0000000  0  9G29G27G13G18G30G20G 5G24G15
  24312392.342   127762491.64546     -3693.890    24312391.005    99555180.61643
     -2878.363  
  24352706.836   127974344.20946      1866.738    24352709.752    99720286.08046
      1454.597  
  20931537.215   109995980.16449     -1689.281    20931536.279    85711155.67947
     -1316.328  
  20413349.698   107272885.91349       638.218    20413349.730    83589268.16948
       497.309  
  24422013.251   128338546.78446     -1953.363    24422018.204   100004077.01146
     -1522.105  
  21898754.473   115078729.37848      2706.113    21898753.631    89671747.73846
      2108.655  
  23517348.119   123584485.58647     -3206.555    23517347.601    96299594.18846
     -2498.617  
  24110589.781   126702002.87145      3818.570    24110594.057    98728854.78544
      2975.508  
  20010921.405   105158118.61849       374.886    20010920.979    81941399.39448
       292.116  
 20 09 30 05 59 35.0000000  0  9G29G27G13G18G30G20G 5G24G15
  24315907.360   127780963.37646     -3694.444    24315906.235    99569574.14544
     -2878.800  
  24350932.217   127965018.77446      1863.742    24350935.096    99713019.50545
      1452.261  
  20933145.885   110004433.72049     -1692.190    20933144.890    85717742.86047
     -1318.594  
  20412743.996   107269702.86649       635.124    20412743.925    83586787.87348
       494.897  
  24423873.207   128348320.07546     -1955.676    24423877.833   100011692.57045
     -1523.906  
  21896180.391   115065202.48848      2704.754    21896179.604    89661207.30746
      2107.598  
  23520399.683   123600521.16447     -3207.555    23520399.047    96312089.44346
     -2499.395  
  24106956.644   126682910.20345      3818.434    24106961.105    98713977.39144
      2975.402  
  20010566.316   105156252.42649       371.612    20010565.947    81939945.21948
       289.565  
 20 09 30 05 59 40.0000000  0  9G29G27G13G18G30G20G 5G24G15
  24319422.526   127799436.91746     -3694.925    24319421.923    99583969.14442
     -2879.168  
  24349160.494   127955707.21147      1860.886    24349163.157    99705763.74345
      1450.039  
  20934757.206   110012900.57849     -1694.816    20934756.168    85724340.40147
     -1320.640  
  20412141.131   107266534.44349       632.117    20412141.026    83584318.97848
       492.555  
  24425735.238   128358105.61745     -1958.401    24425739.855   100019317.64345
     -1526.034  
  21893607.254   115051680.78048      2703.664    21893606.287    89650670.91346
      2106.745  
  23523451.625   123616559.44747     -3207.973    23523450.936    96324586.79146
     -2499.723  
  24103323.677   126663819.02345      3818.382    24103328.292    98699101.12745
      2975.359  
  20010214.087   105154401.63749       368.487    20010213.829    81938503.04448
       287.129  
 20 09 30 05 59 45.0000000  0  9G29G27G13G18G30G20G 5G24G15
  24322938.465   127817913.61646     -3695.738    24322938.135    99598366.56945
     -2879.800  
  24347391.456   127946410.91847      1857.804    24347394.164    99698519.88646
      1447.637  
  20936371.365   110021382.10649     -1697.699    20936370.124    85730949.37647
     -1322.886  
  20411541.322   107263382.05148       628.992    20411541.300    83581862.57448
       490.120  
  24427599.900   128367904.72945     -1960.945    24427604.605   100026953.33046
     -1528.011  
  21891035.468   115038165.64148      2702.355    21891034.458    89640139.64146
      2105.726  
  23526504.316   123632601.78947     -3208.706    23526503.859    96337087.31446
     -2500.293  
  24099691.020   126644730.93645      3817.354    24099695.995    98684227.32344
      2974.559  
  20009865.073   105152567.67849       365.155    20009864.609    81937073.98548
       284.534  
 20 09 30 05 59 50.0000000  0  9G29G27G13G18G30G20G 5G24G15
  24326454.755   127836392.96646     -3696.184    24326454.993    99612766.07545
     -2880.140  
  24345625.481   127937129.37647      1854.909    24345628.143    99691287.51545
      1445.382  
  20937987.926   110029877.72548     -1700.503    20937986.733    85737569.33847
     -1325.069  
  20410944.367   107260245.12848       625.995    20410944.469    83579418.21348
       487.784  
  24429467.048   128377716.84845     -1963.738    24429471.848   100034599.12745
     -1530.187  
  21888464.794   115024656.50248      2701.401    21888463.862    89629613.04146
      2104.983  
  23529557.771   123648647.71147     -3209.550    23529557.340    96349590.61946
     -2500.953  
  24096059.169   126625645.18045      3817.219    24096063.960    98669355.31144
      2974.453  
  20009519.130   105150749.98749       362.074    20009518.822    81935657.60848
       282.132  
 20 09 30 05 59 55.0000000  0  9G29G27G13G18G30G20G 5G24G15
  24329971.518   127854873.65346     -3696.641    24329971.799    99627166.59144
     -2880.504  
  24343861.959   127927861.28547      1852.147    24343864.493    99684065.62946
      1443.230  
  20939607.103   110038386.18248     -1703.187    20939605.778    85744199.30347
     -1327.164  
  20410350.062   107257122.41048       622.957    20410350.083    83576984.92848
       485.418  
  24431336.515   128387540.68145     -1966.026    24431341.261   100042254.05945
     -1531.973  
  21885895.071   115011152.13948      2700.241    21885893.969    89619090.16746
      2104.081  
  23532611.648   123664695.84747     -3210.152    23532611.282    96362095.66146
     -2501.421  
  24092427.233   126606560.54245      3816.741    24092432.181    98654484.18944
      2974.082  
  20009176.207   105148947.28949       358.871    20009175.698    81934252.91448
       279.637  
 20 09 30 06 00  0.0000000  0  9G29G27G13G18G30G20G 5G24G15
  24333488.996   127873357.40547     -3697.047    24333489.428    99641569.50344
     -2880.820  
  24342101.320   127918608.47447      1848.965    24342103.743    99676855.65245
      1440.749  
  20941228.862   110046909.23948     -1705.969    20941227.517    85750840.65047
     -1329.327  
  20409758.809   107254015.66648       619.961    20409759.072    83574564.08848
       483.081  
  24433208.644   128397378.03646     -1968.433    24433213.060   100049919.51545
     -1533.848  
  21883326.460   114997654.34448      2698.945    21883325.326    89608572.40946
      2103.069  
  23535666.491   123680748.02847     -3210.866    23535665.905    96374603.83146
     -2501.977  
  24088795.962   126587478.80145      3816.151    24088800.881    98639615.30944
      2973.629  
  20008836.291   105147161.33349       355.554    20008835.956    81932861.26148
       277.050  
 20 09 30 06 00  5.0000000  0  9G29G27G13G18G30G20G 5G24G15
  24337006.638   127891842.80247     -3697.465    24337007.265    99655973.67745
     -2881.148  
  24340343.344   127909369.40247      1846.292    24340345.661    99669656.38346
      1438.667  
  20942853.081   110055445.37748     -1708.554    20942851.937    85757492.18847
     -1331.344  
  20409170.392   107250923.44948       617.023    20409170.498    83572154.56548
       480.792  
  24435082.908   128407227.42046     -1971.246    24435087.336   100057594.36245
     -1536.038  
  21880758.794   114984161.57348      2698.019    21880757.647    89598058.56746
      2102.324  
  23538721.497   123696802.85147     -3211.293    23538721.255    96387114.07046
     -2502.308  
  24085165.091   126568398.60145      3816.082    24085169.816    98624747.61146
      2973.566  
  20008499.258   105145390.65149       352.602    20008498.916    81931481.51248
       274.749  
 20 09 30 06 00 10.0000000  0  9G29G27G13G18G30G20G 5G24G15
  24340524.961   127910330.83847     -3697.840    24340525.563    99670379.92544
     -2881.437  
  24338588.140   127900145.21447      1843.265    24338590.200    99662468.72145
      1436.309  
  20944479.957   110063995.66848     -1711.515    20944478.815    85764154.76447
     -1333.652  
  20408584.832   107247846.80948       613.801    20408585.101    83569757.18348
       478.280  
  24436959.609   128417089.83246     -1973.694    24436964.027   100065279.34745
     -1537.949  
  21878192.286   114970674.92048      2696.503    21878191.193    89587549.49046
      2101.167  
  23541777.461   123712861.23747     -3212.284    23541777.070    96399627.09246
     -2503.082  
  24081534.634   126549320.98345      3815.379    24081539.320    98609881.96344
      2973.020  
  20008165.452   105143636.26849       349.155    20008165.031    81930114.46648
       272.066  
 20 09 30 06 00 15.0000000  0  9G29G27G13G18G30G20G 5G24G15
  24344043.824   127928821.24647     -3698.269    24344044.495    99684788.02145
     -2881.772  
  24336835.569   127890935.57447      1840.644    24336837.873    99655292.39045
      1434.266  
  20946109.543   110072559.79548     -1714.055    20946108.622    85770828.11447
     -1335.629  
  20408002.332   107244785.47148       610.734    20408002.394    83567371.71948
       475.895  
  24438839.005   128426965.03046     -1976.276    24438843.064   100072974.31444
     -1539.960  
  21875627.111   114957194.11848      2695.711    21875625.745    89577044.97346
      2100.550  
  23544833.830   123728922.91047     -3212.563    23544833.349    96412142.66946
     -2503.297  
  24077904.707   126530245.59045      3815.175    24077909.556    98595018.03045
      2972.863  
  20007834.517   105141897.88149       346.164    20007834.075    81928759.88248
       269.733  
 20 09 30 06 00 20.0000000  0  9G29G27G13G18G30G20G 5G24G15
  24347562.917   127947313.98447     -3698.605    24347563.571    99699197.92344
     -2882.038  
  24335085.765   127881740.60647      1837.409    24335088.156    99648127.49945
      1431.750  
  20947741.850   110081137.87648     -1716.949    20947740.953    85777512.33047
     -1337.886  
  20407422.704   107241739.47848       607.746    20407422.874    83564998.21448
       473.565  
  24440720.683   128436853.03646     -1978.624    24440724.677   100080679.26745
     -1541.788  
  21873062.883   114943719.25448      2694.448    21873061.794    89566545.08446
      2099.565  
  23547890.908   123744987.93447     -3213.374    23547890.405    96424660.86246
     -2503.933  
  24074275.245   126511172.54345      3814.386    24074279.780    98580155.92343
      2972.245  
  20007506.816   105140175.61249       342.956    20007506.315    81927417.85348
       267.233  
 20 09 30 06 00 25.0000000  0  9G29G27G13G18G30G20G 5G24G15
  24351082.770   127965809.02847     -3699.030    24351083.344    99713609.64944
     -2882.362  
  24333338.742   127872560.19147      1834.776    24333341.102    99640973.91745
      1429.695  
  20949376.867   110089729.79349     -1719.620    20949376.046    85784207.32447
     -1339.968  
  20406845.908   107238708.79848       604.605    20406846.040    83562636.64448
       471.116  
  24442604.658   128446753.79946     -1981.098    24442608.830   100088394.12244
     -1543.715  
  21870499.807   114930250.26448      2693.202    21870498.562    89556049.76546
      2098.597  
  23550948.758   123761056.22747     -3213.987    23550948.131    96437181.61447
     -2504.410  
  24070646.151   126492101.65045      3814.176    24070650.487    98565295.48245
      2972.082  
  20007182.163   105138469.39149       339.676    20007181.702    81926088.33348
       264.679  
 20 09 30 06 00 30.0000000  0  9G29G27G13G18G30G20G 5G24G15
  24354602.827   127984306.80647     -3699.809    24354603.603    99728023.49045
     -2882.973  
  24331594.335   127863394.82946      1831.508    24331597.212    99633832.07445
      1427.145  
  20951014.575   110098335.94448     -1722.684    20951013.834    85790913.41847
     -1342.355  
  20406272.152   107235693.84849       601.445    20406272.397    83560287.32748
       468.656  
  24444491.294   128456667.72846     -1984.223    24444495.274   100096119.26544
     -1546.151  
  21867937.856   114916787.58948      2691.859    21867936.800    89545559.37246
      2097.551  
  23554007.077   123777128.18147     -3214.925    23554006.625    96449705.20146
     -2505.141  
  24067017.657   126473033.60045      3812.679    24067021.729    98550437.26044
      2970.917  
  20006860.568   105136779.61849       336.250    20006860.026    81924771.62548
       262.012  
 20 09 30 06 00 35.0000000  0  9G29G27G13G18G30G20G 5G24G15
  24358123.577   128002807.19147     -3700.215    24358124.265    99742439.35945
     -2883.289  
  24329852.911   127854244.40046      1828.797    24329855.696    99626701.88545
      1425.035  
  20952655.151   110106956.19849     -1725.457    20952654.341    85797630.49047
     -1344.516  
  20405701.462   107232694.54048       598.234    20405701.677    83557950.20248
       466.152  
  24446380.364   128466594.70246     -1986.879    24446384.181   100103854.55244
     -1548.218  
  21865377.250   114903331.11048      2690.613    21865375.995    89535073.80646
      2096.578  
  23557065.974   123793203.72947     -3215.438    23557065.528    96462231.61346
     -2505.539  
  24063389.709   126453968.13345      3812.367    24063393.570    98535581.08745
      2970.671  
  20006542.221   105135106.22549       332.891    20006541.537    81923467.68648
       259.391  
 20 09 30 06 00 40.0000000  0  9G29G27G13G18G30G20G 5G24G15
  24361644.710   128021310.27447     -3700.898    24361645.353    99756857.34345
     -2883.819  
  24328114.197   127845108.98946      1825.770    24328117.321    99619583.37546
      1422.675  
  20954298.206   110115590.66548     -1728.108    20954297.562    85804358.64347
     -1346.582  
  20405133.604   107229710.95649       595.246    20405133.890    83555625.33048
       463.824  
  24448271.920   128476534.80246     -1989.238    24448275.782   100111600.09444
     -1550.058  
  21862817.612   114889880.93148      2689.484    21862816.680    89524593.15146
      2095.699  
  23560125.644   123809282.96547     -3216.042    23560125.225    96474760.87446
     -2506.011  
  24059762.150   126434905.37045      3812.164    24059765.567    98520726.99144
      2970.515  
  20006226.913   105133449.27149       329.742    20006226.244    81922176.55048
       256.937  
 20 09 30 06 00 45.0000000  0  9G29G27G13G18G30G20G 5G24G15
  24365166.202   128039815.08847     -3701.164    24365166.767    99771276.66445
     -2884.030  
  24326378.363   127835987.71246      1822.718    24326381.431    99612475.88145
      1420.297  
  20955943.893   110124238.46948     -1730.894    20955943.475    85811097.19247
     -1348.754  
  20404568.793   107226742.19949       592.085    20404569.053    83553312.01248
       461.362  
  24450165.968   128486487.06146     -1991.379    24450169.497   100119355.10244
     -1551.727  
  21860259.294   114876436.13248      2688.312    21860258.098    89514116.68446
      2094.785  
  23563185.869   123825364.99347     -3216.784    23563185.676    96487292.31646
     -2506.589  
  24056134.950   126415844.43145      3811.770    24056138.384    98505874.34644
      2970.207  
  20005914.476   105131807.83849       326.605    20005913.897    81920897.51148
       254.496  
 20 09 30 06 00 50.0000000  0  9G29G27G13G18G30G20G 5G24G15
  24368688.088   128058322.16347     -3701.698    24368688.576    99785697.75843
     -2884.445  
  24324645.459   127826881.05346      1819.452    24324648.391    99605379.78046
      1417.753  
  20957592.188   110132900.06548     -1733.793    20957591.824    85817846.50147
     -1351.011  
  20404006.649   107223788.76649       588.965    20404006.888    83551010.63748
       458.930  
  24452062.256   128496452.09146     -1994.124    24452065.635   100127120.06544
     -1553.867  
  21857701.970   114862997.23748      2687.082    21857700.785    89503644.82146
      2093.828  
  23566246.876   123841450.29147     -3217.468    23566246.628    96499826.31146
     -2507.121  
  24052508.147   126396785.79645      3811.582    24052511.395    98491023.46245
      2970.062  
  20005605.291   105130182.46949       323.301    20005604.478    81919630.99148
       251.918  
 20 09 30 06 00 55.0000000  0  9G29G27G13G18G30G20G 5G24G15
  24372210.351   128076831.62347     -3701.671    24372210.792    99800120.70745
     -2884.421  
  24322915.343   127817789.23347      1817.202    24322918.274    99598295.24045
      1416.000  
  20959242.911   110141575.60848     -1736.167    20959242.826    85824606.67247
     -1352.862  
  20403447.575   107220850.84549       586.359    20403447.890    83548721.34948
       456.897  
  24453961.031   128506430.00546     -1996.793    24453964.182   100134895.04645
     -1555.944  
  21855145.776   114849564.40948      2686.300    21855144.726    89493177.68547
      2093.218  
  23569308.441   123857539.01247     -3217.645    23569308.030    96512362.95846
     -2507.258  
  24048881.888   126377729.70645      3811.750    24048884.970    98476174.57743
      2970.195  
  20005299.140   105128573.31949       320.582    20005298.510    81918377.10548
       249.801  
 20 09 30 06 01  0.0000000  0  9G29G27G13G18G30G20G 5G24G15
  24375732.962   128095342.63047     -3702.390    24375733.222    99814544.84244
     -2884.987  
  24321187.920   127808711.40747      1813.925    24321190.677    99591221.61545
      1413.445  
  20960896.267   110150264.27348     -1739.340    20960896.479    85831377.07347
     -1355.332  
  20402891.359   107217927.62749       582.987    20402891.582    83546443.52048
       454.272  
  24455861.930   128516419.91946     -1999.266    24455864.933   100142679.39845
     -1557.870  
  21852590.546   114836136.83948      2684.809    21852589.600    89482714.65346
      2092.055  
  23572370.423   123873630.37147     -3218.757    23572370.118    96524901.66645
     -2508.125  
  24045256.028   126358675.34145      3810.890    24045259.026    98461327.03744
      2969.522  
  20004995.845   105126979.49449       317.077    20004995.215    81917135.16048
       247.069  
 20 09 30 06 01  5.0000000  0  9G29G27G13G18G30G20G 5G24G15
  24379256.151   128113856.36247     -3702.897    24379256.485    99828971.11044
     -2885.383  
  24319463.409   127799648.72947      1811.214    24319466.013    99584159.77945
      1411.331  
  20962552.299   110158967.24948     -1741.937    20962552.501    85838158.61447
     -1357.355  
  20402338.182   107215020.25749       580.019    20402338.452    83544178.04348
       451.960  
  24457765.681   128526423.04246     -2001.835    24457768.468   100150474.02345
     -1559.875  
  21850036.601   114822715.70448      2683.742    21850035.651    89472256.63046
      2091.223  
  23575433.186   123889725.42147     -3218.980    23575432.972    96537443.25846
     -2508.301  
  24041630.729   126339624.04645      3810.167    24041633.451    98446481.94444
      2968.968  
  20004695.776   105125402.21849       313.875    20004695.100    81915906.11548
       244.574  
 20 09 30 06 01 10.0000000  0  9G29G27G13G18G30G20G 5G24G15
  24382779.499   128132371.55647     -3703.473    24382779.626    99843398.53244
     -2885.823  
  24317741.728   127790600.01847      1808.449    24317744.129    99577108.85745
      1409.180  
  20964210.830   110167683.26548     -1744.695    20964211.173    85844950.31647
     -1359.508  
  20401787.669   107212127.54049       576.930    20401787.780    83541923.97648
       449.550  
  24459671.457   128536438.14846     -2004.379    24459673.989   100158277.99945
     -1561.854  
  21847483.638   114809299.79448      2682.562    21847482.696    89461802.67246
      2090.305  
  23578496.522   123905823.08347     -3219.909    23578496.110    96549986.89045
     -2509.022  
  24038005.619   126320574.34345      3809.253    24038008.039    98431637.95645
      2968.242  
  20004398.558   105123840.26549       310.648    20004397.909    81914689.01148
       242.059  
 20 09 30 06 01 15.0000000  0  9G29G27G13G18G30G20G 5G24G15
  24386303.427   128150889.45447     -3703.758    24386303.645    99857828.02144
     -2886.051  
  24316022.714   127781566.53747      1805.270    24316025.184    99570069.78245
      1406.698  
  20965872.068   110176413.53748     -1747.406    20965872.474    85851753.12847
     -1361.616  
  20401240.186   107209250.71649       573.737    20401240.515    83539682.30148
       447.066  
  24461579.784   128546466.44446     -2007.316    24461582.461   100166092.24945
     -1564.145  
  21844931.969   114795890.33448      2681.348    21844930.972    89451353.75847
      2089.358  
  23581560.434   123921924.48747     -3220.641    23581560.178    96562533.42546
     -2509.593  
  24034381.111   126301527.64345      3808.729    24034383.614    98416796.41745
      2967.839  
  20004104.374   105122294.88049       307.522    20004103.657    81913484.81948
       239.624  
 20 09 30 06 01 20.0000000  0  9G29G27G13G18G30G20G 5G24G15
  24389827.642   128169409.45946     -3703.961    24389827.824    99872259.19644
     -2886.207  
  24314306.524   127772547.71047      1802.090    24314309.172    99563042.12745
      1404.222  
  20967535.987   110185157.54849     -1750.499    20967536.160    85858566.64347
     -1364.026  
  20400695.729   107206389.23249       570.546    20400695.948    83537452.57648
       444.577  
  24463490.527   128556507.30846     -2009.598    24463493.167   100173916.27345
     -1565.926  
  21842381.247   114782486.76348      2679.921    21842380.472    89440909.42147
      2088.246  
  23584625.109   123938029.11847     -3221.363    23584624.704    96575082.48846
     -2510.156  
  24030757.129   126282483.36245      3808.195    24030759.599    98401956.74343
      2967.425  
  20003813.414   105120765.49549       304.141    20003812.816    81912293.09248
       236.987  
 20 09 30 06 01 25.0000000  0  9G29G27G13G18G30G20G 5G24G15
  24393352.406   128187932.05946     -3704.386    24393352.507    99886692.37044
     -2886.543  
  24312593.168   127763543.96247      1799.598    24312595.875    99556026.20945
      1402.281  
  20969202.615   110193915.64649     -1752.729    20969202.792    85865391.12847
     -1365.765  
  20400154.160   107203543.51849       567.828    20400154.556    83535235.13648
       442.461  
  24465403.775   128566561.27646     -2011.969    24465406.272   100181750.52345
     -1567.769  
  21839831.853   114769089.51348      2679.147    21839831.176    89430470.00947
      2087.645  
  23587690.338   123954137.37747     -3221.715    23587689.917    96587634.36845
     -2510.430  
  24027133.706   126263441.95945      3808.277    24027136.358    98387119.33244
      2967.491  
  20003525.480   105119252.51949       301.258    20003524.892    81911114.15448
       234.741  
 20 09 30 06 01 30.0000000  0  9G29G27G13G18G30G20G 5G24G15
  24396877.339   128206456.33446     -3704.695    24396877.539    99901126.84944
     -2886.777  
  24310882.640   127754554.51247      1796.477    24310885.221    99549021.46345
      1399.847  
  20970871.907   110202687.02149     -1755.598    20970871.590    85872225.95447
     -1367.999  
  20399615.447   107200712.74949       564.616    20399615.826    83533029.34748
       439.957  
  24467319.324   128576627.40045     -2014.386    24467321.867   100189594.28145
     -1569.655  
  21837283.403   114755697.79148      2677.707    21837282.612    89420034.90847
      2086.522  
  23590756.140   123970248.46347     -3222.815    23590755.770    96600188.46345
     -2511.288  
  24023510.706   126244402.59245      3807.750    24023513.277    98372283.45243
      2967.074  
  20003240.603   105117755.10649       297.887    20003239.907    81909947.34248
       232.116  
 20 09 30 06 01 35.0000000  0  9G29G27G13G18G30G20G 5G24G15
  24400402.759   128224983.48046     -3705.660    24400403.159    99915563.57744
     -2887.530  
  24309174.916   127745580.51947      1793.378    24309177.482    99542028.74645
      1397.433  
  20972543.703   110211472.87149     -1758.538    20972543.566    85879072.07247
     -1370.292  
  20399079.962   107197898.10449       561.465    20399080.272    83530836.12148
       437.499  
  24469237.345   128586706.95245     -2017.565    24469239.939   100197448.46846
     -1572.132  
  21834736.289   114742312.77048      2676.175    21834735.793    89409605.01847
      2085.347  
  23593822.678   123986363.51047     -3223.386    23593822.344    96612745.63246
     -2511.733  
  24019888.299   126225366.49445      3806.866    24019891.129    98357450.14544
      2966.391  
  20002958.755   105116274.48549       294.534    20002958.086    81908793.61648
       229.504  
 20 09 30 06 01 40.0000000  0  9G29G27G13G18G30G20G 5G24G15
  24403928.791   128243513.33846     -3706.094    24403929.192    99930002.40744
     -2887.866  
  24307470.030   127736621.87647      1790.253    24307472.636    99535047.99645
      1395.000  
  20974218.524   110220273.05049     -1761.382    20974217.998    85885929.34147
     -1372.507  
  20398547.329   107195099.47149       558.245    20398547.626    83528655.36848
       434.992  
  24471157.966   128596799.72745     -2020.063    24471160.538   100205312.96746
     -1574.077  
  21832190.509   114728934.32648      2675.219    21832189.930    89399180.25747
      2084.582  
  23596890.016   124002482.45347     -3224.047    23596889.613    96625305.83546
     -2512.246  
  24016266.533   126206333.57645      3806.632    24016269.528    98342619.32344
      2966.202  
  20002680.126   105114810.49749       291.175    20002679.446    81907652.84948
       226.887  
 20 09 30 06 01 45.0000000  0  9G29G27G13G18G30G20G 5G24G15
  24407455.116   128262044.67846     -3706.168    24407455.661    99944442.39545
     -2887.929  
  24305767.934   127727677.36547      1787.559    24305770.708    99528078.22945
      1392.898  
  20975895.647   110229086.26549     -1763.836    20975894.912    85892796.77247
     -1374.421  
  20398017.554   107192315.61149       555.569    20398017.929    83526486.12948
       432.910  
  24473080.882   128606904.46645     -2021.847    24473083.407   100213186.79745
     -1575.468  
  21829645.687   114715561.22848      2674.249    21829645.039    89388759.66747
      2083.828  
  23599957.690   124018603.93547     -3224.418    23599957.544    96637868.03145
     -2512.534  
  24012645.127   126187302.43245      3806.233    24012648.151    98327789.86144
      2965.895  
  20002404.357   105113361.88549       288.370    20002403.968    81906524.06348
       224.702  
 20 09 30 06 01 50.0000000  0  9G29G27G13G18G30G20G 5G24G15
  24410981.881   128280577.73346     -3706.734    24410982.356    99958883.71744
     -2888.371  
  24304068.471   127718747.25246      1784.058    24304071.121    99521119.70545
      1390.172  
  20977575.218   110237912.81549     -1766.905    20977574.563    85899674.60047
     -1376.813  
  20397490.636   107189546.82348       551.949    20397490.901    83524328.63248
       430.086  
  24475006.096   128617021.50246     -2024.995    24475008.707   100221070.20245
     -1577.921  
  21827101.815   114702193.74448      2672.551    21827101.396    89378343.43847
      2082.504  
  23603026.145   124034728.34147     -3225.453    23603025.702    96650432.49946
     -2513.344  
  24009024.115   126168273.44445      3805.343    24009027.273    98312962.09744
      2965.199  
  20002131.632   105111928.95549       284.745    20002131.200    81905407.49748
       221.874  
 20 09 30 06 01 55.0000000  0  9G29G27G13G18G30G20G 5G24G15
  24414509.199   128299113.72446     -3707.211    24414509.759    99973327.31244
     -2888.741  
  24302371.866   127709832.72146      1781.332    24302374.821    99514173.32945
      1388.046  
  20979257.614   110246753.99048     -1769.297    20979256.890    85906563.82347
     -1378.675  
  20396966.920   107186794.27148       549.203    20396967.054    83522183.78448
       427.948  
  24476933.691   128627151.95946     -2026.691    24476936.531   100228964.03845
     -1579.246  
  21824559.488   114688833.07048      2672.065    21824558.983    89367932.52747
      2082.125  
  23606095.152   124050856.80047     -3225.363    23606094.918    96663000.11746
     -2513.272  
  24005403.594   126149247.85345      3805.378    24005406.840    98298136.96645
      2965.230  
  20001862.155   105110512.87349       281.995    20001861.836    81904304.06048
       219.733  
 20 09 30 06 02  0.0000000  0  9G29G27G13G18G30G20G 5G24G15
  24418037.028   128317651.43447     -3707.812    24418037.389    99987772.27444
     -2889.206  
  24300678.122   127700932.62846      1778.484    24300681.243    99507238.19145
      1385.827  
  20980942.665   110255608.49348     -1772.352    20980941.952    85913463.43647
     -1381.055  
  20396445.899   107184056.78748       545.926    20396446.134    83520050.67648
       425.394  
  24478863.809   128637294.70446     -2029.930    24478866.578   100236867.47645
     -1581.766  
  21822018.109   114675478.06548      2670.472    21822017.800    89357526.02547
      2080.882  
  23609164.921   124066988.13947     -3226.569    23609164.356    96675569.98145
     -2514.215  
  24001783.662   126130224.45145      3804.281    24001787.121    98283313.57246
      2964.375  
  20001595.719   105109112.46049       278.405    20001595.148    81903212.83148
       216.937  
 20 09 30 06 02  5.0000000  0  9G29G27G13G18G30G20G 5G24G15
  24421565.120   128336190.96647     -3708.090    24421565.327   100002218.65044
     -2889.425  
  24298987.306   127692047.11546      1775.676    24298990.377    99500314.40846
      1383.640  
  20982630.160   110264476.40248     -1774.948    20982629.475    85920373.49447
     -1383.081  
  20395927.913   107181334.53748       542.878    20395928.138    83517929.44348
       423.019  
  24480796.230   128647449.79846     -2032.875    24480798.968   100244780.53946
     -1584.062  
  21819477.671   114662128.84648      2669.163    21819477.598    89347124.04147
      2079.863  
  23612235.095   124083122.47947     -3227.020    23612234.755    96688142.19045
     -2514.563  
  23998164.045   126111203.45445      3804.188    23998167.578    98268491.99044
      2964.296  
  20001332.149   105107727.89349       275.296    20001331.651    81902133.95048
       214.515  
 20 09 30 06 02 10.0000000  0  9G29G27G13G18G30G20G 5G24G15
  24425093.570   128354731.81347     -3708.155    24425093.652   100016666.02244
     -2889.479  
  24297299.023   127683175.65746      1772.770    24297302.193    99493401.57645
      1381.375  
  20984320.120   110273357.20248     -1777.569    20984319.482    85927293.60547
     -1385.120  
  20395412.572   107178626.99548       539.941    20395412.839    83515819.66148
       420.730  
  24482730.964   128657616.77346     -2035.011    24482733.648   100252702.82645
     -1585.730  
  21816938.393   114648784.91748      2668.058    21816938.350    89336726.18247
      2079.011  
  23615305.803   124099259.34747     -3227.905    23615305.359    96700716.36346
     -2515.253  
  23994544.828   126092184.34145      3803.605    23994548.643    98253671.93245
      2963.843  
  20001071.621   105106358.62349       272.206    20001071.073    81901066.98548
       212.104  
 20 09 30 06 02 15.0000000  0  9G29G27G13G18G30G20G 5G24G15
  24428622.533   128373275.48347     -3709.276    24428622.140   100031115.65244
     -2890.347  
  24295613.840   127674319.80247      1769.202    24295616.942    99486500.91446
      1378.598  
  20986012.740   110282252.44948     -1780.585    20986012.139    85934224.97147
     -1387.472  
  20394900.469   107175935.68648       536.534    20394900.709    83513722.54048
       418.073  
  24484668.311   128667797.09946     -2037.266    24484671.016   100260635.55645
     -1587.484  
  21814400.454   114635447.76948      2666.733    21814400.307    89326333.60047
      2077.973  
  23618377.256   124115400.21947     -3228.641    23618376.756    96713293.65746
     -2515.828  
  23990926.176   126073168.63445      3802.690    23990930.176    98238854.47945
      2963.133  
  20000814.336   105105006.14249       268.819    20000813.926    81900013.10648
       209.468  
 20 09 30 06 02 20.0000000  0  9G29G27G13G18G30G20G 5G24G15
  24432151.921   128391821.16847     -3709.495    24432151.126   100045566.79244
     -2890.520  
  24293931.573   127665478.77647      1766.652    24293934.624    99479611.78945
      1376.608  
  20987708.063   110291161.33749     -1783.132    20987707.498    85941166.96247
     -1389.457  
  20394391.231   107173259.84148       533.722    20394391.520    83511637.46948
       415.882  
  24486607.907   128677990.02646     -2040.031    24486610.859   100268578.07745
     -1589.637  
  21811863.677   114622116.66448      2665.750    21811863.475    89315945.73047
      2077.203  
  23621449.338   124131544.40147     -3228.988    23621448.883    96725873.53645
     -2516.097  
  23987308.117   126054155.48145      3802.284    23987312.222    98224039.06045
      2962.819  
  20000559.925   105103669.73449       265.757    20000559.463    81898971.74648
       207.082  
 20 09 30 06 02 25.0000000  0  9G29G27G13G18G30G20G 5G24G15
  24435681.430   128410368.11246     -3709.117    24435680.470   100060018.95845
     -2890.223  
  24292251.950   127656651.86047      1763.781    24292254.968    99472733.69346
      1374.371  
  20989405.915   110300083.17349     -1785.729    20989405.534    85948119.04547
     -1391.480  
  20393884.882   107170598.77449       530.512    20393885.037    83509563.91048
       413.383  
  24488549.650   128688194.79846     -2042.058    24488552.617   100276529.84145
     -1591.218  
  21809327.826   114608790.92548      2664.581    21809327.849    89305562.04747
      2076.292  
  23624521.979   124147691.08647     -3229.578    23624521.470    96738455.36046
     -2516.559  
  23983690.483   126035144.34345      3801.660    23983694.647    98209225.19544
      2962.328  
  20000308.535   105102348.67349       262.538    20000308.178    81897942.34248
       204.574  
 20 09 30 06 02 30.0000000  0  9G29G27G13G18G30G20G 5G24G15
  24439211.286   128428917.59946     -3710.070    24439210.442   100074473.07145
     -2890.973  
  24290575.420   127647840.32247      1760.719    24290578.256    99465867.55545
      1371.983  
  20991106.460   110309019.15949     -1788.659    20991105.966    85955082.15247
     -1393.765  
  20393381.542   107167953.64148       527.413    20393381.739    83507502.76848
       410.968  
  24490494.085   128698412.65246     -2045.133    24490496.988   100284491.81145
     -1593.612  
  21806793.300   114595471.74848      2663.237    21806793.220    89295183.47647
      2075.246  
  23627595.224   124163841.47247     -3230.738    23627594.908    96751040.07346
     -2517.461  
  23980073.274   126016136.18845      3801.160    23980077.555    98194413.65445
      2961.944  
  20000060.412   105101044.12149       259.262    20000059.824    81896925.80948
       202.019  
 20 09 30 06 02 35.0000000  0  9G29G27G13G18G30G20G 5G24G15
  24442741.625   128447469.72146     -3710.628    24442740.609   100088929.26544
     -2891.406  
  24288901.733   127639044.22347      1757.574    24288904.460    99459013.45346
      1369.534  
  20992809.698   110317969.38949     -1791.438    20992809.084    85962056.35547
     -1395.930  
  20392881.231   107165324.61348       524.277    20392881.618    83505454.17248
       408.522  
  24492440.947   128708643.66946     -2047.202    24492444.073   100292464.01944
     -1595.226  
  21804260.142   114582159.25348      2661.902    21804260.037    89284810.10946
      2074.206  
  23630669.198   124179995.68647     -3231.296    23630668.784    96763627.76846
     -2517.897  
  23976456.678   125997131.40845      3800.597    23976461.121    98179604.73945
      2961.503  
  19999815.325   105099756.24249       255.934    19999814.856    81895922.26948
       199.426  
 20 09 30 06 02 40.0000000  0  9G29G27G13G18G30G20G 5G24G15
  24446272.341   128466023.06946     -3710.996    24446271.006   100103386.40144
     -2891.688  
  24287230.609   127630262.22247      1754.855    24287233.311    99452170.34645
      1367.418  
  20994515.393   110326932.47549     -1793.870    20994514.644    85969040.55847
     -1397.823  
  20392383.791   107162710.32849       521.309    20392384.197    83503417.06548
       406.210  
  24494390.097   128718886.48946     -2050.062    24494393.243   100300445.41945
     -1597.453  
  21801727.920   114568852.09248      2660.809    21801727.557    89274440.90147
      2073.355  
  23633743.739   124196152.32347     -3231.667    23633743.333    96776217.34746
     -2518.187  
  23972840.466   125978128.71545      3800.929    23972845.164    98164797.44045
      2961.762  
  19999573.091   105098483.63749       252.882    19999572.602    81894930.62448
       197.047  
 20 09 30 06 02 45.0000000  0  9G29G27G13G18G30G20G 5G24G15
  24449803.388   128484579.12746     -3711.245    24449802.016   100117845.64145
     -2891.886  
  24285562.250   127621495.93346      1751.793    24285564.969    99445339.48246
      1365.031  
  20996223.754   110335909.97049     -1796.749    20996222.880    85976035.99947
     -1400.066  
  20391889.391   107160112.33149       518.034    20391889.722    83501392.64848
       403.660  
  24496341.688   128729142.64245     -2052.444    24496345.072   100308437.23745
     -1599.313  
  21799196.836   114555551.84048      2659.391    21799196.787    89264077.07446
      2072.249  
  23636819.088   124212313.01447     -3232.527    23636818.632    96788810.08946
     -2518.855  
  23969225.012   125959129.56245      3799.297    23969229.752    98149992.93245
      2960.487  
  19999334.082   105097227.85749       249.515    19999333.765    81893952.09548
       194.426  
 20 09 30 06 02 50.0000000  0  9G29G27G13G18G30G20G 5G24G15
  24453334.695   128503137.64845     -3712.063    24453333.572   100132306.80343
     -2892.526  
  24283896.881   127612744.98746      1748.776    24283899.597    99438520.56245
      1362.680  
  20997934.936   110344901.51249     -1799.655    20997934.027    85983042.39147
     -1402.332  
  20391398.045   107157530.29549       514.781    20391398.408    83499380.67248
       401.125  
  24498295.784   128739411.79645     -2054.862    24498299.346   100316439.16346
     -1601.195  
  21796667.273   114542258.11548      2657.999    21796666.947    89253718.33146
      2071.163  
  23639895.006   124228477.35747     -3233.327    23639894.512    96801405.67746
     -2519.479  
  23965610.102   125940133.45545      3799.277    23965614.961    98135190.77646
      2960.473  
  19999098.300   105095988.59149       246.145    19999097.864    81892986.43348
       191.797  
 20 09 30 06 02 55.0000000  0  9G29G27G13G18G30G20G 5G24G15
  24456866.409   128521697.55345     -3711.695    24456865.646   100146769.05744
     -2892.238  
  24282234.308   127604008.42146      1745.766    24282236.910    99431712.85645
      1360.331  
  20999648.542   110353906.13648     -1802.354    20999647.375    85990058.98447
     -1404.438  
  20390909.558   107154963.24449       511.718    20390910.036    83497380.37348
       398.738  
  24500252.130   128749692.96445     -2057.289    24500255.705   100324450.46846
     -1603.086  
  21794138.451   114528969.97148      2657.063    21794138.131    89243363.93946
      2070.434  
  23642971.506   124244644.34947     -3233.816    23642971.121    96814003.31646
     -2519.858  
  23961995.627   125921139.72845      3798.340    23962000.618    98120390.49145
      2959.741  
  19998865.365   105094764.85349       243.082    19998864.895    81892032.87048
       189.409  
 20 09 30 06 03  0.0000000  0  9G29G27G13G18G30G20G 5G24G15
  24460398.392   128540259.87545     -3713.034    24460398.078   100161233.21244
     -2893.276  
  24280574.630   127595287.22146      1742.581    24280577.427    99424917.11146
      1357.852  
  21001364.540   110362924.79648     -1805.370    21001363.617    85997086.52047
     -1406.784  
  20390424.129   107152412.17549       508.386    20390424.576    83495392.52648
       396.140  
  24502211.172   128759987.08145     -2059.738    24502214.545   100332471.87545
     -1604.991  
  21791611.178   114515688.37848      2655.426    21791610.743    89233014.64647
      2069.160  
  23646048.559   124260814.99247     -3234.722    23646048.283    96826603.81046
     -2520.565  
  23958381.873   125902149.13745      3797.644    23958386.891    98105592.63245
      2959.199  
  19998635.640   105093557.60949       239.698    19998635.356    81891092.16448
       186.776  
 20 09 30 06 03  5.0000000  0  9G29G27G13G18G30G20G 5G24G15
  24463930.721   128558823.51545     -3712.387    24463930.653   100175698.39045
     -2892.773  
  24278917.592   127586580.43046      1739.668    24278920.393    99418132.58545
      1355.581  
  21003083.140   110371956.47748     -1807.660    21003082.359    86004124.20147
     -1408.569  
  20389941.572   107149876.06849       505.668    20389942.033    83493416.34248
       394.023  
  24504172.312   128770293.22346     -2062.452    24504175.686   100340502.63645
     -1607.109  
  21789084.846   114502412.34848      2654.574    21789084.361    89222669.69347
      2068.495  
  23649126.374   124276988.39647     -3234.940    23649126.133    96839206.46646
     -2520.737  
  23954768.356   125883160.82145      3797.703    23954773.551    98090796.55045
      2959.250  
  19998408.800   105092365.87349       236.647    19998408.499    81890163.53648
       184.398  
 20 09 30 06 03 10.0000000  0  9G29G27G13G18G30G20G 5G24G15
  24467463.578   128577389.86345     -3713.594    24467463.576   100190165.65343
     -2893.711  
  24277263.678   127577889.26846      1736.562    24277266.536    99411360.25344
      1353.163  
  21004804.429   110381002.47048     -1810.819    21004803.780    86011173.03747
     -1411.031  
  20389462.051   107147356.23349       502.184    20389462.425    83491452.83548
       391.308  
  24506135.918   128780612.60446     -2065.608    24506139.335   100348543.69944
     -1609.570  
  21786559.861   114489143.21648      2653.167    21786559.436    89212330.10947
      2067.402  
  23652204.709   124293165.68647     -3235.854    23652204.697    96851812.13846
     -2521.449  
  23951155.700   125864176.09445      3796.823    23951160.985    98076003.28646
      2958.566  
  19998185.182   105091190.90849       233.229    19998184.812    81889247.97848
       181.733  
 20 09 30 06 03 15.0000000  0  9G29G27G13G18G30G20G 5G24G15
  24470996.852   128595957.47246     -3713.909    24470996.637   100204633.91343
     -2893.960  
  24275612.435   127569212.43046      1733.992    24275615.426    99404599.08044
      1351.159  
  21006528.219   110390061.45648     -1813.073    21006527.397    86018231.99047
     -1412.788  
  20388985.382   107144851.35049       499.503    20388985.763    83489500.98448
       389.218  
  24508101.865   128790943.88146     -2067.358    24508105.493   100356594.03844
     -1610.933  
  21784035.817   114475879.64948      2652.004    21784035.240    89201994.85447
      2066.573  
  23655283.662   124309345.60147     -3236.159    23655283.544    96864419.84546
     -2521.691  
  23947543.312   125845193.49145      3796.491    23947548.602    98061211.65147
      2958.301  
  19997964.608   105090031.37849       230.344    19997964.284    81888344.45448
       179.483  
 20 09 30 06 03 20.0000000  0  9G29G27G13G18G30G20G 5G24G15
  24474530.325   128614526.52746     -3713.882    24474530.250   100219103.28344
     -2893.940  
  24273964.068   127560550.10946      1730.824    24273966.972    99397849.21645
      1348.691  
  21008254.534   110399133.58249     -1815.656    21008253.963    86025301.17847
     -1414.800  
  20388511.562   107142361.53249       496.515    20388512.013    83487560.86748
       386.891  
  24510070.263   128801287.19246     -2069.777    24510073.489   100364653.74644
     -1612.819  
  21781512.892   114462621.71248      2651.081    21781512.501    89191664.00547
      2065.772  
  23658363.174   124325528.26147     -3236.793    23658363.100    96877029.70846
     -2522.179  
  23943931.460   125826213.23645      3795.938    23943936.784    98046421.83147
      2957.871  
  19997746.896   105088887.41749       227.262    19997746.695    81887453.05748
       177.081  
 20 09 30 06 03 25.0000000  0  9G29G27G13G18G30G20G 5G24G15
  24478064.254   128633097.54646     -3714.488    24478064.245   100233574.18044
     -2894.413  
  24272318.366   127551902.82446      1727.930    24272321.484    99391111.09546
      1346.437  
  21009983.571   110408219.35849     -1818.648    21009982.767    86032380.99947
     -1417.133  
  20388040.786   107139887.37048       493.155    20388041.225    83485632.94748
       384.273  
  24512040.954   128811643.09146     -2072.351    24512044.201   100372723.26545
     -1614.827  
  21778991.326   114449370.07648      2649.539    21778990.729    89181338.04747
      2064.574  
  23661443.221   124341714.14747     -3237.558    23661443.423    96889642.08545
     -2522.777  
  23940320.056   125807235.92845      3794.559    23940325.564    98031634.33146
      2956.797  
  19997532.230   105087759.58949       223.820    19997532.039    81886574.23448
       174.401  
 20 09 30 06 03 30.0000000  0  9G29G27G13G18G30G20G 5G24G15
  24481598.637   128651670.44846     -3714.547    24481598.364   100248046.55844
     -2894.456  
  24270675.783   127543270.58846      1725.285    24270678.754    99384384.66945
      1344.375  
  21011715.089   110417318.70349     -1820.948    21011714.497    86039471.39447
     -1418.926  
  20387572.836   107137428.80748       490.395    20387573.613    83483717.18448
       382.120  
  24514013.952   128822011.54646     -2074.891    24514017.182   100380802.57244
     -1616.801  
  21776470.675   114436124.62248      2648.738    21776469.969    89171016.92547
      2063.948  
  23664523.866   124357903.23447     -3237.804    23664523.978    96902256.94346
     -2522.969  
  23936709.442   125788261.68045      3794.366    23936714.816    98016849.20346
      2956.648  
  19997320.634   105086647.83449       221.008    19997320.303    81885707.93148
       172.211  
 20 09 30 06 03 35.0000000  0  9G29G27G13G18G30G20G 5G24G15
  24485134.621   128670252.26146     -3715.688    24485134.336   100262525.83444
     -2895.348  
  24269037.409   127534660.40546      1721.375    24269040.319    99377675.42744
      1341.328  
  21013450.621   110426438.67349     -1824.254    21013449.900    86046577.86047
     -1421.499  
  20387109.276   107134992.88048       486.604    20387110.124    83481819.05648
       379.167  
  24515990.718   128832399.52046     -2077.921    24515994.052   100388897.09045
     -1619.164  
  21773952.682   114422892.41448      2646.730    21773952.147    89160706.11547
      2062.382  
  23667606.412   124374102.61747     -3239.312    23667606.738    96914879.83046
     -2524.145  
  23933100.795   125769297.39345      3793.180    23933105.784    98002071.85345
      2955.723  
  19997113.616   105085559.19549       217.128    19997113.197    81884859.64648
       169.187  
 20 09 30 06 03 40.0000000  0  9G29G27G13G18G30G20G 5G24G15
  24488669.359   128688827.15446     -3714.495    24488668.830   100276999.80844
     -2894.413  
  24267400.148   127526056.44346      1719.648    24267403.188    99370971.05545
      1339.988  
  21015187.095   110435563.43649     -1825.776    21015186.527    86053688.05547
     -1422.687  
  20386647.065   107132563.78948       484.796    20386647.883    83479926.25748
       377.762  
  24517968.256   128842791.23846     -2079.043    24517971.239   100396994.52745
     -1620.034  
  21771434.165   114409657.64548      2646.785    21771433.621    89150393.29947
      2062.425  
  23670687.999   124390296.40847     -3238.397    23670688.526    96927498.35846
     -2523.430  
  23929490.981   125750327.09945      3794.164    23929495.781    97987289.80745
      2956.488  
  19996907.746   105084477.84349       215.152    19996907.567    81884017.03148
       167.647  
 20 09 30 06 03 45.0000000  0  9G29G27G13G18G30G20G 5G24G15
  24492203.855   128707401.83746     -3715.758    24492203.431   100291473.53545
     -2895.405  
  24265765.447   127517465.47347      1716.273    24265768.276    99364276.80045
      1337.351  
  21016925.641   110444699.65449     -1828.956    21016925.092    86060807.19147
     -1425.163  
  20386187.511   107130148.22148       481.172    20386188.071    83478043.99648
       374.938  
  24519947.736   128853193.35046     -2082.171    24519950.580   100405100.06344
     -1622.422  
  21768916.422   114396426.97548      2645.191    21768915.826    89140083.69247
      2061.184  
  23673769.797   124406491.33447     -3239.563    23673770.277    96940117.77246
     -2524.336  
  23925881.188   125731357.76146      3793.210    23925885.935    97972508.52645
      2955.745  
  19996704.758   105083410.47849       211.453    19996704.379    81883185.32548
       164.766  
 20 09 30 06 03 50.0000000  0  9G29G27G13G18G30G20G 5G24G15
  24495739.069   128725979.63546     -3716.030    24495738.515   100305949.73944
     -2895.613  
  24264133.845   127508890.84447      1713.554    24264136.717    99357595.27745
      1335.234  
  21018667.014   110453850.72248     -1831.558    21018666.332    86067937.90147
     -1427.191  
  20385731.000   107127749.58448       478.223    20385731.656    83476174.92748
       372.637  
  24521929.904   128863609.27946     -2084.469    24521932.588   100413216.36745
     -1624.266  
  21766400.190   114383203.86548      2643.929    21766399.492    89129779.97547
      2060.203  
  23676852.377   124422690.77347     -3240.229    23676852.973    96952740.70846
     -2524.858  
  23922272.358   125712392.69846      3792.871    23922276.909    97957730.54445
      2955.480  
  19996505.004   105082360.54349       208.382    19996504.606    81882367.19448
       162.370  
 20 09 30 06 03 55.0000000  0  9G29G27G13G18G30G20G 5G24G15
  24499274.826   128744560.44446     -3716.605    24499274.510   100320428.26344
     -2896.063  
  24262505.474   127500332.38647      1710.043    24262508.007    99350926.35845
      1332.495  
  21020411.205   110463016.44548     -1834.655    21020410.726    86075080.02747
     -1429.605  
  20385277.716   107125367.68348       474.729    20385278.418    83474318.90148
       369.917  
  24523914.571   128874038.74046     -2086.961    24523917.184   100421343.24044
     -1626.391  
  21763885.464   114369988.07848      2642.340    21763884.626    89119481.95947
      2058.965  
  23679935.865   124438894.55247     -3241.031    23679936.691    96965367.02046
     -2525.479  
  23918664.240   125693431.75646      3791.636    23918668.488    97942955.78945
      2954.520  
  19996308.484   105081327.79149       204.812    19996308.012    81881562.45248
       159.589  
 20 09 30 06 04  0.0000000  0  9G29G27G13G18G30G20G 5G24G15
  24502811.945   128763148.54046     -3717.909    24502811.752   100334912.45945
     -2897.078  
  24260880.908   127491794.51447      1706.073    24260883.224    99344273.48745
      1329.405  
  21022159.005   110472201.26248     -1838.391    21022158.502    86082237.03447
     -1432.516  
  20384828.438   107123006.93248       470.344    20384829.304    83472479.35548
       366.500  
  24525902.820   128884486.28046     -2091.109    24525905.285   100429484.14944
     -1629.484  
  21761372.854   114356784.07048      2639.867    21761372.263    89109193.12546
      2057.035  
  23683021.069   124455107.06447     -3243.093    23683021.898    96978000.14446
     -2527.090  
  23915057.895   125674479.34446      3789.988    23915061.798    97928187.71345
      2953.237  
  19996116.149   105080316.65849       200.363    19996115.538    81880774.55748
       156.124  
 20 09 30 06 04  5.0000000  0 10G29G27G13G18G30G20G 5G24G15G10
  24506348.736   128781734.28046     -3716.687    24506348.478   100349394.85444
     -2896.125  
  24259258.404   127483267.54247      1704.651    24259260.586    99337629.11845
      1328.300  
  21023908.532   110481395.39948     -1839.366    21023907.965    86089401.29447
     -1433.276  
  20384381.438   107120657.65148       469.090    20384382.106    83470648.74648
       365.520  
  24527892.611   128894942.07946     -2091.395    24527894.858   100437631.52645
     -1629.687  
  21758860.589   114343582.09048      2640.640    21758859.866    89098905.87247
      2057.641  
  23686105.909   124471318.60247     -3241.918    23686106.786    96990632.49746
     -2526.172  
  23911451.147   125655525.69646      3791.116    23911454.899    97913418.66145
      2954.117  
  19995926.099   105079317.41049       199.034    19995925.265    81879995.92148
       155.089  
  24980602.837   131273957.37056      3238.184    24980604.641   102291400.99953
      2523.257  
 20 09 30 06 04 10.0000000  0 10G29G27G13G18G30G20G 5G24G15G10
  24509884.928   128800317.09546     -3716.602    24509884.682   100363874.95744
     -2896.055  
  24257637.814   127474750.97247      1701.542    24257639.762    99330992.83545
      1325.874  
  21025659.838   110490598.38649     -1841.984    21025659.151    86096572.45247
     -1435.315  
  20383936.541   107118319.32348       465.977    20383937.152    83468826.66948
       363.094  
  24529883.757   128905405.68246     -2094.272    24529885.898   100445784.96945
     -1631.781  
  21756348.543   114330381.69848      2639.391    21756347.993    89088619.86047
      2056.663  
  23689190.557   124487528.63247     -3242.313    23689191.375    97003263.68346
     -2526.479  
  23907844.255   125636570.41246      3790.261    23907847.892    97898648.31845
      2953.453  
  19995738.129   105078329.55749       195.875    19995737.406    81879226.16848
       152.624  
  24977521.162   131257765.52946      3238.094    24977524.582   102278783.98843
      2523.190  
 20 09 30 06 04 15.0000000  0 10G29G27G13G18G30G20G 5G24G15G10
  24513421.748   128818903.02246     -3717.210    24513421.823   100378357.45845
     -2896.534  
  24256020.429   127466250.80447      1698.667    24256022.375    99324369.34245
      1323.633  
  21027414.021   110499816.21349     -1844.851    21027413.252    86103755.17047
     -1437.550  
  20383494.695   107115997.97248       462.672    20383495.382    83467017.82348
       360.519  
  24531877.735   128915883.01647     -2096.418    24531880.007   100453949.10445
     -1633.577  
  21753838.033   114317188.91148      2638.043    21753837.597    89078339.77347
      2055.613  
  23692276.194   124503743.19847     -3242.890    23692277.041    97015898.40746
     -2526.930  
  23904238.043   125617619.48345      3789.754    23904241.603    97883881.38646
      2953.055  
  19995553.575   105077359.09649       192.636    19995552.489    81878469.96648
       150.101  
  24974440.556   131241575.86746      3238.104    24974442.978   102266168.70943
      2523.199  
 20 09 30 06 04 20.0000000  0 10G29G27G13G18G30G20G 5G24G15G10
  24516958.895   128837491.79546     -3718.066    24516959.382   100392842.23346
     -2897.198  
  24254406.078   127457766.86547      1694.854    24254407.838    99317758.49144
      1320.664  
  21029170.890   110509048.61849     -1847.964    21029170.043    86110949.24947
     -1439.976  
  20383056.272   107113693.35349       459.340    20383057.026    83465222.01648
       357.926  
  24533874.075   128926373.88346     -2099.258    24533876.281   100462123.79445
     -1635.789  
  21751329.016   114304003.49848      2636.300    21751328.606    89068065.43647
      2054.258  
  23695362.601   124519962.09847     -3243.917    23695363.409    97028536.50445
     -2527.730  
  23900632.616   125598672.71145      3788.637    23900636.142    97869117.68945
      2952.183  
  19995372.048   105076405.78949       189.050    19995371.265    81877727.13348
       147.308  
  24971360.076   131225388.24146      3237.280    24971362.457   102253554.95943
      2522.558  
 20 09 30 06 04 25.0000000  0 10G29G27G13G18G30G20G 5G24G15G10
  24520496.615   128856082.13546     -3718.680    24520497.366   100407328.18745
     -2897.676  
  24252794.559   127449297.83947      1692.058    24252796.267    99311159.24945
      1318.484  
  21030930.403   110518294.29849     -1850.559    21030929.282    86118153.66247
     -1441.996  
  20382620.731   107111404.22549       456.034    20382621.396    83463438.27848
       355.347  
  24535873.012   128936877.02746     -2101.843    24535875.192   100470308.06445
     -1637.949  
  21748821.127   114290824.17348      2635.034    21748820.604    89057795.83847
      2053.269  
  23698449.605   124536184.00647     -3244.729    23698450.186    97041176.93746
     -2528.363  
  23897027.720   125579728.79545      3788.624    23897031.350    97854356.20144
      2952.171  
  19995193.747   105075468.40249       185.745    19995192.710    81876996.69948
       144.733  
  24968279.850   131209201.29746      3237.151    24968281.966   102240941.73943
      2522.452  
 20 09 30 06 04 30.0000000  0 10G29G27G13G18G30G20G 5G24G15G10
  24524034.666   128874675.90746     -3719.062    24524035.812   100421816.84546
     -2897.973  
  24251186.185   127440845.68046      1689.051    24251187.882    99304573.15245
      1316.140  
  21032692.765   110527555.19849     -1853.629    21032691.412    86125369.94546
     -1444.391  
  20382188.407   107109132.50449       452.620    20382189.170    83461668.10448
       352.688  
  24537874.400   128947394.32946     -2104.809    24537876.461   100478503.36545
     -1640.112  
  21746314.562   114277652.83448      2633.616    21746314.311    89047532.45647
      2052.167  
  23701537.365   124552410.79447     -3245.929    23701538.154    97053821.17946
     -2529.301  
  23893423.744   125560789.61745      3787.382    23893427.326    97839598.41646
      2951.207  
  19995018.652   105074548.80649       182.269    19995017.831    81876280.12948
       142.023  
  24965200.077   131193017.00946      3236.680    24965201.632   102228330.66241
      2522.094  
 20 09 30 06 04 35.0000000  0 10G29G27G13G18G30G20G 5G24G15G10
  24527573.092   128893270.68146     -3718.594    24527574.639   100436306.28046
     -2897.608  
  24249580.372   127432407.88846      1686.449    24249582.228    99297998.26644
      1314.113  
  21034457.358   110536828.79349     -1855.784    21034456.253    86132596.11347
     -1446.070  
  20381758.964   107106875.67649       450.074    20381759.611    83459909.53648
       350.703  
  24539878.073   128957923.26446     -2106.688    24539879.898   100486707.72945
     -1641.723  
  21743809.305   114264487.02648      2632.804    21743808.996    89037273.39147
      2051.530  
  23704625.908   124568640.13447     -3245.707    23704626.402    97066467.41645
     -2529.125  
  23889820.145   125541852.88945      3787.305    23889823.744    97824842.53946
      2951.145  
  19994846.609   105073644.49449       179.519    19994845.654    81875575.46948
       139.883  
  24962120.427   131176832.86946      3236.671    24962122.218   102215719.63243
      2522.077  
 20 09 30 06 04 40.0000000  0 10G29G27G13G18G30G20G 5G24G15G10
  24531111.702   128911866.89146     -3719.479    24531113.487   100450796.80345
     -2898.301  
  24247977.285   127423984.95646      1682.996    24247979.343    99291434.93745
      1311.421  
  21036224.584   110546115.56548     -1858.776    21036223.299    86139832.55847
     -1448.402  
  20381332.546   107104634.26749       446.488    20381332.978    83458162.98148
       347.909  
  24541883.967   128968464.33846     -2109.983    24541885.875   100494921.55645
     -1644.148  
  21741305.023   114251327.25048      2631.129    21741304.850    89027019.01847
      2050.227  
  23707714.804   124584872.39447     -3246.733    23707715.132    97079115.93345
     -2529.926  
  23886217.221   125522919.11245      3786.105    23886220.620    97810088.94445
      2950.207  
  19994677.399   105072755.97449       175.870    19994676.652    81874883.11948
       137.039  
  24959041.136   131160649.36846      3236.335    24959043.007   102203109.08843
      2521.816  
 20 09 30 06 04 45.0000000  0 10G29G27G13G18G30G20G 5G24G15G10
  24534650.859   128930465.78646     -3719.973    24534653.074   100465289.44645
     -2898.683  
  24246377.294   127415578.25845      1679.820    24246379.927    99284884.25345
      1308.949  
  21037994.438   110555416.83548     -1861.645    21037993.296    86147080.30647
     -1450.637  
  20380909.160   107102409.54749       443.370    20380909.741    83456429.43048
       345.479  
  24543892.268   128979018.84446     -2112.222    24543894.200   100503145.84145
     -1645.890  
  21738802.086   114238174.82148      2629.777    21738801.904    89016770.37447
      2049.176  
  23710804.482   124601108.82147     -3247.413    23710804.783    97091767.69646
     -2530.456  
  23882614.846   125503989.41245      3785.641    23882618.600    97795338.55545
      2949.848  
  19994511.619   105071884.54749       172.644    19994510.849    81874204.09249
       134.522  
  24955961.986   131144467.79546      3235.944    24955962.347   102190500.11441
      2521.515  
 20 09 30 06 04 50.0000000  0 10G29G27G13G18G30G20G 5G24G15G10
  24538190.330   128949066.23946     -3720.230    24538192.886   100479783.28946
     -2898.882  
  24244779.968   127407186.53645      1676.425    24244783.247    99278345.24345
      1306.301  
  21039766.945   110564731.39148     -1864.258    21039765.774    86154338.40247
     -1452.671  
  20380488.825   107100200.36149       440.237    20380489.187    83454707.98948
       343.039  
  24545903.106   128989585.58646     -2114.742    24545905.037   100511379.66345
     -1647.854  
  21736300.500   114225028.54948      2628.477    21736300.169    89006526.52847
      2048.160  
  23713894.923   124617348.25947     -3248.191    23713894.906    97104421.79445
     -2531.063  
  23879012.977   125485062.58845      3785.151    23879016.913    97780590.37245
      2949.464  
  19994348.883   105071029.05349       169.465    19994347.971    81873537.47548
       132.047  
  24952882.980   131128286.97746      3236.180    24952882.789   102177891.68343
      2521.694  
 20 09 30 06 04 55.0000000  0 10G29G27G13G18G30G20G 5G24G15G10
  24541730.008   128967668.55945     -3720.250    24541732.843   100494278.60546
     -2898.898  
  24243185.666   127398810.17345      1673.823    24243189.370    99271818.20546
      1304.277  
  21041541.946   110574059.58348     -1867.043    21041540.979    86161607.13047
     -1454.843  
  20380071.523   107098007.07949       437.039    20380071.789    83452998.93548
       340.546  
  24547916.220   129000164.91546     -2117.254    24547918.295   100519623.27545
     -1649.815  
  21733800.041   114211888.80048      2627.375    21733799.643    88996287.76247
      2047.301  
  23716985.923   124633591.07647     -3248.672    23716985.818    97117078.53345
     -2531.437  
  23875411.885   125466139.34645      3784.266    23875416.052    97765845.01345
      2948.773  
  19994188.997   105070189.84249       166.289    19994188.283    81872883.55048
       129.573  
  24949804.345   131112107.33246      3235.729    24949804.456   102165284.17541
      2521.347  
 20 09 30 06 05  0.0000000  0 10G29G27G13G18G30G20G 5G24G15G10
  24545269.801   128986271.54545     -3721.054    24545273.028   100508774.44645
     -2899.526  
  24241593.955   127390447.98745      1670.590    24241598.111    99265302.20646
      1301.754  
  21043319.443   110583400.17549     -1869.641    21043318.349    86168885.50947
     -1456.867  
  20379656.904   107095828.46349       434.008    20379657.312    83451301.31848
       338.184  
  24549931.644   129010755.60446     -2119.699    24549933.568   100527875.76345
     -1651.718  
  21731300.712   114198754.36148      2626.172    21731300.280    88986053.13146
      2046.363  
  23720077.297   124649836.01147     -3249.581    23720076.902    97129736.91145
     -2532.144  
  23871811.140   125447218.21045      3783.852    23871815.241    97751101.26145
      2948.452  
  19994032.176   105069365.65349       163.121    19994031.552    81872241.32548
       127.104  
  24946725.544   131095927.55646      3235.582    24946724.779   102152676.56842
      2521.229  
 20 09 30 06 05  5.0000000  0 10G29G27G13G18G30G20G 5G24G15G10
  24548810.016   129004876.66045     -3721.155    24548813.504   100523271.94545
     -2899.605  
  24240005.716   127382101.48645      1667.770    24240009.774    99258798.41745
      1299.558  
  21045099.438   110592754.70749     -1872.309    21045098.428    86176174.75847
     -1458.944  
  20379245.524   107093666.08549       430.780    20379245.788    83449616.35148
       335.672  
  24551949.520   129021359.17846     -2121.926    24551951.461   100536138.29245
     -1653.452  
  21728802.538   114185626.77848      2624.874    21728801.924    88975823.84647
      2045.355  
  23723169.231   124666084.61047     -3250.051    23723169.022    97142398.15646
     -2532.511  
  23868211.018   125428300.78645      3782.749    23868215.206    97736360.43945
      2947.597  
  19993878.610   105068558.09649       159.843    19993877.995    81871612.06448
       124.550  
  24943647.027   131079749.25146      3235.417    24943645.348   102140070.06041
      2521.097  
 20 09 30 06 05 10.0000000  0 10G29G27G13G18G30G20G 5G24G15G10
  24552350.676   129023483.32845     -3721.749    24552354.342   100537770.64946
     -2900.065  
  24238420.456   127373770.04145      1664.702    24238424.429    99252306.38345
      1297.168  
  21046882.121   110602122.48649     -1875.016    21046881.201    86183474.32347
     -1461.054  
  20378836.979   107091519.26049       427.793    20378837.215    83447943.49948
       333.343  
  24553969.505   129031974.95546     -2124.565    24553971.619   100544410.31344
     -1655.335  
  21726305.652   114172505.39848      2623.698    21726305.039    88965599.39546
      2044.438  
  23726261.889   124682336.20047     -3250.522    23726261.375    97155061.73345
     -2532.878  
  23864611.610   125409386.29645      3782.358    23864615.734    97721621.89245
      2947.289  
  19993727.877   105067766.42249       156.757    19993727.375    81870995.17648
       122.144  
  24940568.539   131063571.74946      3235.305    24940566.765   102127464.21841
      2520.953  
 20 09 30 06 05 15.0000000  0 10G29G27G13G18G30G20G 5G24G15G10
  24555891.541   129042091.29346     -3721.719    24555895.454   100552270.34845
     -2900.042  
  24236837.791   127365453.51746      1661.500    24236841.668    99245825.95745
      1294.668  
  21048667.335   110611503.41149     -1877.508    21048666.446    86190784.13247
     -1462.996  
  20378431.284   107089387.84749       424.780    20378431.599    83446282.66648
       330.995  
  24555991.974   129042602.75846     -2126.628    24555993.946   100552691.71545
     -1657.116  
  21723809.889   114159390.07548      2622.523    21723809.148    88955379.66947
      2043.522  
  23729354.934   124698590.67047     -3251.344    23729354.458    97167727.54646
     -2533.520  
  23861012.606   125390474.71545      3782.226    23861016.880    97706885.59245
      2947.187  
  19993580.210   105066990.49049       153.613    19993579.704    81870390.55348
       119.694  
  24937490.088   131047394.90946      3234.992    24937488.454   102114858.89343
      2520.766  
 20 09 30 06 05 20.0000000  0 10G29G27G13G18G30G20G 5G24G15G10
  24559432.541   129060699.77946     -3721.691    24559436.569   100566770.43545
     -2900.027  
  24235258.008   127357151.07746      1658.804    24235261.807    99239356.53545
      1292.570  
  21050454.834   110620896.68649     -1879.925    21050453.888    86198103.56647
     -1464.879  
  20378028.632   107087271.08349       421.746    20378028.930    83444633.24048
       328.628  
  24558016.522   129053241.86046     -2129.194    24558018.393   100560981.92845
     -1659.070  
  21721314.887   114146279.99948      2621.456    21721314.484    88945164.03146
      2042.690  
  23732448.528   124714847.20847     -3251.754    23732447.833    97180394.99146
     -2533.836  
  23857414.216   125371565.42345      3781.516    23857418.504    97692151.09345
      2946.633  
  19993435.403   105066229.55849       150.629    19993434.942    81869797.61848
       117.370  
  24934411.697   131031217.85445      3235.395    24934410.917   102102253.42443
      2521.082  
 20 09 30 06 05 25.0000000  0 10G29G27G13G18G30G20G 5G24G15G10
  24562974.111   129079310.88846     -3722.319    24562978.193   100581272.57245
     -2900.515  
  24233680.982   127348864.90546      1655.887    24233684.882    99232899.79246
      1290.296  
  21052245.176   110630304.37649     -1882.995    21052244.280    86205434.23547
     -1467.272  
  20377629.009   107085171.08349       418.324    20377629.183    83442996.87548
       325.964  
  24560043.704   129063894.30646     -2131.753    24560045.470   100569282.53345
     -1661.109  
  21718821.596   114133177.35448      2619.729    21718821.035    88934954.17947
      2041.344  
  23735542.684   124731107.91847     -3252.749    23735542.170    97193065.65846
     -2534.613  
  23853816.656   125352660.49545      3780.680    23853820.991    97677420.00444
      2945.983  
  19993293.835   105065485.73949       147.133    19993293.596    81869218.01748
       114.645  
  24931333.570   131015042.84345      3234.788    24931331.866   102089649.50545
      2520.617  
