     2.11           OBSERVATION DATA    G                   RINEX VERSION / TYPE
LEICA GEO OFFICE 8.4                    27-9-20 23:26       PGM / RUN BY / DATE
                                                            OBSERVER / AGENCY
powo                                                        MARKER NAME
powo                                                        MARKER NUMBER
457569              LEICA GX1220        2.14                REC # / TYPE / VERS
                    LEIAX1202                               ANT # / TYPE
 -1148910.5689  3863062.9758  4927934.5720                  APPROX POSITION XYZ
        1.3970        0.0000        0.0000                  ANTENNA: DELTA H/E/N
L1PhaOff:   0.0648  L2PhaOff:   0.0622                      COMMENT
     1     1                                                WAVELENGTH FACT L1/2
     6    C1    L1    D1    P2    L2    D2                  # / TYPES OF OBSERV
  2020     9    27     3    52   45.0000000     GPS         TIME OF FIRST OBS
  2020     9    27     9    30    0.0000000     GPS         TIME OF LAST OBS
    18                                                      LEAP SECONDS
    18                                                      # OF SATELLITES
          C1    L1    D1    P2    L2    D2                  COMMENT
   G 1     0     0     0     0     0     0                  PRN / # OF OBS
   G 2  1126  1126  1126  1126  1126  1126                  PRN / # OF OBS
   G 3     0     0     0     0     0     0                  PRN / # OF OBS
   G 4     0     0     0     0     0     0                  PRN / # OF OBS
   G 5  2052  2052  2052  2052  2052  2052                  PRN / # OF OBS
   G 6     0     0     0     0     0     0                  PRN / # OF OBS
   G 7   997   997   997   996   996   996                  PRN / # OF OBS
   G 8   667   667   667   667   667   667                  PRN / # OF OBS
   G 9     0     0     0     0     0     0                  PRN / # OF OBS
   G10  2346  2346  2346  2345  2345  2345                  PRN / # OF OBS
   G11   563   563   563   563   563   563                  PRN / # OF OBS
   G12   440   440   440   439   439   439                  PRN / # OF OBS
   G13  2980  2980  2980  2980  2980  2980                  PRN / # OF OBS
   G14     0     0     0     0     0     0                  PRN / # OF OBS
   G15  3922  3922  3922  3922  3922  3922                  PRN / # OF OBS
   G16     0     0     0     0     0     0                  PRN / # OF OBS
   G17     0     0     0     0     0     0                  PRN / # OF OBS
   G18  3698  3698  3698  3698  3698  3698                  PRN / # OF OBS
   G19     0     0     0     0     0     0                  PRN / # OF OBS
   G20  3312  3312  3312  3312  3312  3312                  PRN / # OF OBS
   G21  1510  1510  1510  1509  1509  1509                  PRN / # OF OBS
   G22     0     0     0     0     0     0                  PRN / # OF OBS
   G23     0     0     0     0     0     0                  PRN / # OF OBS
   G24  2507  2507  2507  2506  2506  2506                  PRN / # OF OBS
   G25    42    42    42    42    42    42                  PRN / # OF OBS
   G26     0     0     0     0     0     0                  PRN / # OF OBS
   G27  1616  1616  1616  1616  1616  1616                  PRN / # OF OBS
   G28     0     0     0     0     0     0                  PRN / # OF OBS
   G29  1807  1807  1807  1807  1807  1807                  PRN / # OF OBS
   G30  1710  1710  1710  1710  1710  1710                  PRN / # OF OBS
   G31     0     0     0     0     0     0                  PRN / # OF OBS
   G32  1213  1213  1213  1213  1213  1213                  PRN / # OF OBS
                                                            END OF HEADER
 20 09 27 03 52 45.0000000  0  7G 5G 2G29G15G13G 7G18
  20119240.826   105727320.01848      -615.426    20119240.104    82384926.82247
      -479.554  
  21865700.469   114905027.23048     -1877.913    21865698.251    89536374.51247
     -1463.313  
  21035187.814   110540657.92348       540.078    21035188.410    86135578.17348
       420.835  
  24112671.226   126712948.22047      4059.070    24112673.722    98737389.16346
      3162.910  
  22438500.841   117915126.59648      3291.867    22438502.194    91881919.09445
      2565.090  
  25025481.165   131509798.35945      1311.922    25025482.366   102475168.34645
      1022.522  
  24228498.989   127321624.37947      3366.430    24228500.375    99211658.88245
      2623.183  
 20 09 27 03 52 50.0000000  0  7G 5G 2G29G15G13G 7G18
  20119827.522   105730403.09148      -617.949    20119826.960    82387329.21247
      -481.522  
  21867487.711   114914419.74848     -1879.413    21867485.617    89543693.35347
     -1464.479  
  21034675.366   110537964.93248       536.913    21034675.806    86133479.74248
       418.370  
  24108808.820   126692651.82947      4059.246    24108811.358    98721573.77546
      3163.047  
  22435369.569   117898671.05448      3290.203    22435370.696    91869096.60245
      2563.793  
  25024233.769   131503243.71845      1309.593    25024235.056   102470060.82045
      1020.461  
  24225295.506   127304790.77546      3366.625    24225296.835    99198541.76746
      2623.339  
 20 09 27 03 52 55.0000000  0  7G 5G 2G29G15G13G 7G18
  20120417.028   105733501.59148      -620.831    20120416.487    82389743.63247
      -483.770  
  21869277.207   114923823.51948     -1881.496    21869274.929    89551020.97547
     -1466.105  
  21034166.888   110535292.01648       532.940    21034167.129    86131396.94948
       415.277  
  24104947.537   126672360.74247      4058.198    24104950.119    98705762.55345
      3162.229  
  22432240.377   117882227.35148      3287.824    22432241.593    91856283.35346
      2561.938  
  25022989.199   131496703.61645      1306.468    25022990.478   102464964.63644
      1018.023  
  24222092.890   127287961.35146      3365.797    24222094.195    99185427.95946
      2622.694  
 20 09 27 03 53  0.0000000  0  7G 5G 2G29G15G13G 7G18
  20121009.014   105736612.50248      -623.354    20121008.436    82392167.72047
      -485.733  
  21871068.255   114933235.53948     -1883.309    21871066.213    89558355.01447
     -1467.515  
  21033661.454   110532636.13248       529.504    21033661.831    86129327.43048
       412.597  
  24101086.662   126652071.96047      4057.741    24101089.338    98689953.11246
      3161.875  
  22429112.881   117865792.47048      3286.184    22429113.973    91843476.96046
      2560.659  
  25021746.901   131490175.01445      1304.659    25021748.155   102459877.40845
      1016.613  
  24218890.525   127271133.09346      3365.691    24218892.154    99172315.07446
      2622.617  
 20 09 27 03 53  5.0000000  0  7G 5G 2G29G15G13G 7G18
  20121603.275   105739735.39748      -625.961    20121602.840    82394601.14347
      -487.766  
  21872860.827   114942655.38248     -1884.824    21872858.718    89565695.14847
     -1468.699  
  21033159.068   110529996.91748       526.102    21033159.489    86127270.89648
       409.944  
  24097226.381   126631785.04447      4057.141    24097228.819    98674145.11846
      3161.405  
  22425986.909   117849365.99948      3284.398    22425988.359    91830677.12346
      2559.269  
  25020506.456   131483657.58545      1302.354    25020507.880   102454798.90844
      1014.819  
  24215688.292   127254305.71447      3365.351    24215689.676    99159202.80555
      2622.347  
 20 09 27 03 53 10.0000000  0  7G 5G 2G29G15G13G 7G18
  20122200.021   105742871.56548      -628.551    20122199.466    82397044.91247
      -489.780  
  21874655.107   114952084.29448     -1886.746    21874652.972    89573042.35047
     -1470.195  
  21032660.276   110527375.59048       522.456    21032660.842    86125228.30048
       407.104  
  24093366.445   126611501.28747      4056.394    24093368.830    98658339.60845
      3160.824  
  22422863.035   117832949.21248      3282.359    22422864.171    91817884.81746
      2557.680  
  25019268.432   131477152.44745      1299.804    25019270.012   102449729.98345
      1012.832  
  24212486.554   127237480.30846      3364.832    24212487.830    99146092.06546
      2621.945  
 20 09 27 03 53 15.0000000  0  7G 5G 2G29G15G13G 7G18
  20122799.250   105746020.72648      -630.995    20122798.778    82399498.80747
      -491.688  
  21876450.899   114961521.99448     -1888.191    21876448.899    89580396.39947
     -1471.320  
  21032164.739   110524771.90348       519.171    21032165.364    86123199.46248
       404.547  
  24089507.114   126591220.46346      4056.332    24089509.569    98642536.36345
      3160.772  
  22419740.694   117816541.88848      3280.727    22419741.905    91805099.90846
      2556.406  
  25018032.850   131470659.45045      1297.667    25018034.551   102444670.50844
      1011.168  
  24209285.009   127220656.67247      3364.660    24209286.358    99132982.79146
      2621.812  
 20 09 27 03 53 20.0000000  0  7G 5G 2G29G15G13G 7G18
  20123400.738   105749181.81548      -633.163    20123400.266    82401961.98947
      -493.378  
  21878248.411   114970967.54548     -1889.949    21878246.296    89587756.56547
     -1472.690  
  21031672.442   110522184.89848       515.797    21031673.027    86121183.61148
       401.918  
  24085648.103   126570941.66047      4055.491    24085650.514    98626734.70746
      3160.120  
  22416620.264   117800143.04448      3278.949    22416621.354    91792321.58646
      2555.023  
  25016799.320   131464177.64445      1295.265    25016801.122   102439619.72644
      1009.292  
  24206083.725   127203833.87646      3364.684    24206085.390    99119874.11145
      2621.828  
 20 09 27 03 53 25.0000000  0  7G 5G 2G29G15G13G 7G18
  20124004.883   105752356.33648      -636.227    20124004.419    82404435.64547
      -495.766  
  21880047.648   114980422.35148     -1891.757    21880045.409    89595123.94647
     -1474.102  
  21031183.574   110519615.97148       512.078    21031184.122    86119181.84648
       399.019  
  24081789.846   126550666.16447      4054.766    24081792.209    98610935.62544
      3159.554  
  22413501.527   117783754.09548      3276.809    22413502.553    91779550.99345
      2553.354  
  25015568.301   131457708.40545      1292.336    25015569.894   102434578.77245
      1007.031  
  24202882.931   127187013.34046      3363.941    24202884.385    99106767.18746
      2621.250  
 20 09 27 03 53 30.0000000  0  7G 5G 2G29G15G13G 7G18
  20124611.125   105755542.90848      -638.508    20124610.812    82406918.69247
      -497.542  
  21881848.390   114989885.09448     -1893.339    21881846.206    89602497.50147
     -1475.331  
  21030697.962   110517063.77948       508.801    21030698.623    86117193.12348
       396.464  
  24077931.783   126530392.80847      4054.538    24077934.357    98595138.21245
      3159.379  
  22410384.344   117767373.74948      3275.249    22410385.720    91766787.08146
      2552.140  
  25014339.335   131451250.39545      1290.063    25014341.062   102429546.56945
      1005.516  
  24199682.283   127170193.66047      3363.723    24199683.571    99093660.95146
      2621.078  
 20 09 27 03 53 35.0000000  0  7G 5G 2G29G15G13G 7G18
  20125219.839   105758741.91048      -640.965    20125219.622    82409411.41647
      -499.457  
  21883650.675   114999356.10348     -1895.008    21883648.479    89609877.50947
     -1476.633  
  21030215.569   110514528.72948       505.426    21030216.075    86115217.76348
       393.835  
  24074074.341   126510121.84946      4054.226    24074076.751    98579342.64646
      3159.132  
  22407269.033   117751002.42748      3273.313    22407270.329    91754030.23346
      2550.629  
  25013112.666   131444804.05445      1288.335    25013114.443   102424523.45545
      1003.895  
  24196482.003   127153375.26646      3363.637    24196483.281    99080555.70447
      2621.011  
 20 09 27 03 53 40.0000000  0  7G 5G 2G29G15G13G 7G18
  20125831.252   105761954.06248      -643.874    20125830.875    82411914.39447
      -501.722  
  21885454.636   115008836.16948     -1897.051    21885452.468    89617264.57447
     -1478.222  
  21029736.577   110512011.57648       501.641    21029737.183    86113256.34348
       390.886  
  24070217.642   126489854.16647      4053.168    24070219.922    98563549.66745
      3158.308  
  22404155.447   117734640.83148      3271.133    22404156.623    91741280.94146
      2548.930  
  25011888.227   131438370.08145      1285.383    25011890.011   102419509.98745
      1001.594  
  24193281.795   127136558.93646      3362.914    24193283.298    99067452.09047
      2620.449  
 20 09 27 03 53 45.0000000  0  6G 5G 2G29G15G13G18
  20126444.732   105765178.76948      -646.136    20126444.545    82414427.14647
      -503.487  
  21887260.134   115018324.65648     -1898.210    21887258.163    89624658.18847
     -1479.128  
  21029260.821   110509511.70948       498.429    21029261.437    86111308.39647
       388.382  
  24066361.324   126469589.10847      4053.191    24066363.611    98547758.72245
      3158.327  
  22401043.745   117718288.38148      3269.820    22401044.911    91728538.78046
      2547.910  
  24190082.282   127119744.09646      3362.995    24190083.473    99054349.62446
      2620.512  
 20 09 27 03 53 50.0000000  0  6G 5G 2G29G15G13G18
  20127056.717   105768394.67448      -645.636    20127056.534    82416933.04547
      -503.098  
  21889063.356   115027800.24848     -1897.191    21889061.177    89632041.75747
     -1478.336  
  21028784.323   110507007.79348       497.940    21028785.003    86109357.29447
       388.003  
  24062501.409   126449305.33847      4055.195    24062503.908    98531953.19445
      3159.890  
  22397929.584   117701923.79148      3270.715    22397930.965    91715787.16245
      2548.605  
  24186878.673   127102909.36447      3365.655    24186880.049    99041231.66856
      2622.586  
 20 09 27 03 53 55.0000000  0  6G 5G 2G29G15G13G18
  20127674.388   105771640.37048      -651.534    20127674.139    82419462.15947
      -507.691  
  21890871.336   115037301.49548     -1902.241    21890869.341    89639445.32447
     -1482.269  
  21028314.468   110504538.37648       491.042    21028315.141    86107433.06947
       382.629  
  24058645.276   126429041.41047      4051.551    24058647.747    98516163.10845
      3157.051  
  22394820.564   117685585.59448      3265.586    22394821.911    91703056.10346
      2544.609  
  24183678.653   127086093.27047      3361.758    24183680.137    99028128.22146
      2619.546  
 20 09 27 03 54  0.0000000  0  6G 5G 2G29G15G13G18
  20128295.527   105774904.19748      -653.921    20128295.188    82422005.40847
      -509.551  
  21892681.974   115046816.77548     -1903.660    21892679.937    89646859.82047
     -1483.375  
  21027848.828   110502091.82348       487.859    21027849.425    86105526.66247
       380.147  
  24054790.649   126408785.70747      4051.019    24054793.023    98500379.47245
      3156.637  
  22391714.395   117669262.16048      3264.164    22391715.567    91690336.55346
      2543.500  
  24180480.090   127069284.23846      3362.125    24180481.618    99015030.25756
      2619.836  
 20 09 27 03 54  5.0000000  0  7G 5G 2G29G15G13G 7G18
  20128921.205   105778192.34848      -662.180    20128920.833    82424567.59847
      -515.987  
  21894496.607   115056352.23548     -1911.429    21894494.651    89654290.05047
     -1489.430  
  21027388.879   110499674.34148       478.383    21027389.341    86103642.91548
       372.762  
  24050938.910   126388544.43047      4044.815    24050941.300    98484607.03045
      3151.801  
  22388612.048   117652959.71748      3256.141    22388613.365    91677633.36746
      2537.250  
  25005797.508   131406351.82655      1267.722    25005799.372   102394566.43354
       987.835  
  24177283.958   127052488.48546      3355.535    24177285.506    99001942.65146
      2614.699  
 20 09 27 03 54 10.0000000  0  7G 5G 2G29G15G13G 7G18
  20129549.547   105781494.49348      -658.902    20129549.180    82427140.70147
      -513.433  
  21896312.925   115065897.55448     -1907.183    21896310.850    89661727.95947
     -1486.121  
  21026932.388   110497275.58948       480.839    21026932.910    86101773.75048
       374.675  
  24047087.930   126368307.23946      4050.133    24047090.179    98468837.80045
      3155.944  
  22385511.791   117636667.94348      3260.237    22385513.098    91664938.48046
      2540.440  
  25004590.049   131400003.46245      1271.711    25004591.712   102389619.64044
       990.941  
  24174088.207   127035695.54046      3361.327    24174089.911    98988857.28646
      2619.218  
 20 09 27 03 54 15.0000000  0  7G 5G 2G29G15G13G 7G18
  20130177.138   105784792.00748      -660.801    20130176.783    82429710.19247
      -514.914  
  21898127.748   115075434.13648     -1908.206    21898125.844    89669159.05547
     -1486.917  
  21026475.889   110494876.98048       477.960    21026476.463    86099904.70747
       372.433  
  24043234.122   126348055.65146      4049.983    24043236.484    98453057.34645
      3155.828  
  22382410.201   117620368.23048      3258.847    22382411.362    91652237.41746
      2539.359  
  25003380.996   131393649.78045      1269.644    25003383.186   102384668.74145
       989.477  
  24170889.574   127018886.95847      3361.449    24170891.252    98975759.68946
      2619.309  
 20 09 27 03 54 20.0000000  0  7G 5G 2G29G15G13G 7G18
  20130806.976   105788102.70248      -663.671    20130806.594    82432289.94647
      -517.148  
  21899944.074   115084979.80548     -1910.137    21899942.299    89676597.22847
     -1488.421  
  21026023.002   110492496.35748       474.249    21026023.445    86098049.67447
       369.543  
  24039381.063   126327807.41147      4049.191    24039383.346    98437279.51545
      3155.210  
  22379310.324   117604078.42248      3256.848    22379311.568    91639544.06246
      2537.801  
  25002174.419   131387308.64545      1266.710    25002176.582   102379727.58845
       987.043  
  24167691.448   127002080.50146      3360.983    24167693.042    98962663.74046
      2618.944  
 20 09 27 03 54 25.0000000  0  7G 5G 2G29G15G13G 7G18
  20131439.718   105791427.21848      -666.269    20131439.360    82434880.48747
      -519.175  
  21901762.519   115094535.11348     -1912.070    21901760.478    89684042.92847
     -1489.930  
  21025573.539   110490134.25948       470.565    21025574.090    86096209.07947
       366.671  
  24035528.732   126307563.02647      4048.449    24035530.894    98421504.68045
      3154.633  
  22376212.527   117587799.10848      3254.843    22376213.479    91626858.90546
      2536.241  
  25000970.235   131380980.52345      1264.257    25000972.030   102374796.58445
       985.133  
  24164493.714   126985276.79546      3360.297    24164495.190    98949569.94446
      2618.410  
 20 09 27 03 54 30.0000000  0  6G 5G 2G29G15G13G18
  20132073.586   105794758.03148      -663.554    20132073.097    82437475.93647
      -517.058  
  21903581.154   115104092.60248     -1908.261    21903579.395    89691490.30847
     -1486.960  
  21025126.195   110487783.26348       472.410    21025126.672    86094377.13348
       368.109  
  24031675.654   126287315.24547      4053.288    24031677.860    98405727.18246
      3158.401  
  22373115.111   117571522.88948      3258.352    22373116.385    91614176.13745
      2538.972  
  24161295.235   126968468.33046      3365.559    24161296.761    98936472.41347
      2622.507  
 20 09 27 03 54 35.0000000  0  6G 5G 2G29G15G13G18
  20132710.675   105798106.52048      -669.183    20132710.494    82440085.12847
      -521.444  
  21905402.433   115113663.67548     -1913.077    21905400.716    89698948.28446
     -1490.715  
  21024683.017   110485454.84448       465.902    21024683.397    86092562.77747
       363.038  
  24027824.135   126267075.37747      4049.577    24027826.180    98389955.85346
      3155.512  
  22370020.787   117555261.13848      3253.401    22370021.713    91601504.62945
      2535.113  
  24158097.897   126951666.61546      3362.046    24158099.459    98923380.21454
      2619.773  
 20 09 27 03 54 40.0000000  0  6G 5G 2G29G15G13G18
  20133347.190   105801451.48948      -670.948    20133346.912    82442691.59047
      -522.820  
  21907222.390   115123227.08448     -1914.335    21907220.556    89706400.28647
     -1491.695  
  21024240.228   110483127.69348       463.011    21024240.635    86090749.42847
       360.785  
  24023970.117   126246822.21546      4049.254    24023972.319    98374174.18745
      3155.258  
  22366924.897   117538992.62848      3252.105    22366925.803    91588827.86146
      2534.104  
  24154897.952   126934850.44646      3362.097    24154899.285    98910276.69545
      2619.813  
 20 09 27 03 54 45.0000000  0  7G 5G 2G29G15G13G 7G18
  20133988.686   105804822.88548      -676.901    20133988.430    82445318.68947
      -527.457  
  21909046.344   115132812.77848     -1919.472    21909044.577    89713869.63047
     -1495.698  
  21023803.353   110480831.83448       455.979    21023803.722    86088960.43648
       355.305  
  24020119.140   126226585.72647      4045.769    24020121.307    98358405.49946
      3152.542  
  22363833.604   117522747.33148      3246.754    22363834.551    91576169.23545
      2529.937  
  24996170.431   131355762.78915      1254.207           0.000           0.0000 
         0.000  
  24151700.880   126918049.59546      3358.453    24151702.387    98897185.14755
      2616.977  
 20 09 27 03 54 50.0000000  0  6G 5G 2G29G15G13G18
  20134636.044   105808224.87248      -678.586    20134635.824    82447969.56347
      -528.770  
  21910875.613   115142425.08848     -1920.464    21910873.734    89721359.75347
     -1496.468  
  21023373.339   110478571.40948       453.163    21023373.671    86087199.07248
       353.113  
  24016272.390   126206370.16847      4045.699    24016274.515    98342653.11945
      3152.487  
  22360747.460   117506529.50648      3245.527    22360748.205    91563531.97446
      2528.979  
  24148507.700   126901268.41546      3359.206    24148508.842    98884108.86446
      2617.559  
 20 09 27 03 54 55.0000000  0  7G 5G 2G29G15G13G 7G18
  20135282.094   105811619.48248      -680.711    20135281.766    82450614.71247
      -530.426  
  21912702.439   115152025.96548     -1921.437    21912700.707    89728840.96547
     -1497.227  
  21022942.723   110476308.50848       450.301    21022942.892    86085435.76248
       350.878  
  24012422.207   126186137.60147      4045.609    24012424.264    98326887.45545
      3152.417  
  22357659.398   117490301.16448      3243.968    22357660.156    91550886.52346
      2527.765  
  24993790.181   131343253.48956      1250.285    24993790.810   102345395.91055
       974.246  
  24145310.730   126884468.94346      3359.328    24145312.015    98871018.36456
      2617.655  
 20 09 27 03 55  0.0000000  0  7G 5G 2G29G15G13G 7G18
  20135933.488   105815042.92148      -686.762    20135933.333    82453282.33247
      -535.141  
  21914534.197   115161651.61048     -1926.819    21914532.559    89736341.46747
     -1501.422  
  21022518.574   110474079.24748       443.354    21022518.701    86083698.67648
       345.468  
  24008575.813   126165924.10547      4041.495    24008577.676    98311136.69545
      3149.215  
  22354576.076   117474098.50748      3238.641    22354576.979    91538261.08846
      2523.612  
  24992604.548   131337020.13546      1245.011    24992604.041   102340538.78745
       970.137  
  24142117.492   126867687.36547      3355.461    24142118.569    98857941.82846
      2614.641  
 20 09 27 03 55  5.0000000  0  7G 5G 2G29G15G13G 7G18
  20136586.976   105818476.02448      -686.835    20136586.598    82455957.47247
      -535.198  
  21916366.907   115171282.78448     -1925.988    21916365.370    89743846.26947
     -1500.773  
  21022097.073   110471864.52648       442.340    21022097.222    86081972.91747
       344.676  
  24004729.210   126145710.60247      4043.492    24004731.033    98295385.92845
      3150.769  
  22351494.048   117457902.37348      3239.284    22351494.823    91525640.73446
      2524.113  
  24991419.538   131330796.14646      1244.726    24991421.149   102335688.85545
       969.905  
  24138923.764   126850904.42646      3357.535    24138925.155    98844864.20847
      2616.257  
 20 09 27 03 55 10.0000000  0  7G 5G 2G29G15G13G 7G18
  20137240.851   105821912.66048      -688.261    20137240.591    82458635.37147
      -536.313  
  21918199.631   115180913.43848     -1926.785    21918197.968    89751350.67247
     -1501.395  
  21021677.283   110469658.26248       439.727    21021677.423    86080253.75248
       342.640  
  24000881.509   126125490.98147      4043.917    24000883.440    98279630.36845
      3151.102  
  22348412.056   117441706.73948      3238.402    22348412.869    91513020.77345
      2523.425  
  24990235.827   131324575.07645      1243.108    24990237.226   102330841.29544
       968.651  
  24135728.807   126834114.12947      3358.258    24135729.935    98831780.87946
      2616.820  
 20 09 27 03 55 15.0000000  0  7G 5G 2G29G15G13G 7G18
  20137897.176   105825361.86248      -690.921    20137897.029    82461323.06147
      -538.382  
  21920033.847   115190552.58948     -1928.543    21920032.229    89758861.69647
     -1502.766  
  21021260.723   110467469.41348       436.245    21021261.051    86078548.15248
       339.930  
  23997034.539   126105274.29847      4043.062    23997036.406    98263877.12645
      3150.433  
  22345331.960   117425520.60148      3236.472    22345332.888    91500408.20546
      2521.922  
  24989054.330   131318366.02046      1240.633    24989055.766   102326003.07144
       966.722  
  24132533.943   126817325.44146      3358.039    24132535.095    98818698.76147
      2616.652  
 20 09 27 03 55 20.0000000  0  7G 5G 2G29G15G13G 7G18
  20138556.182   105828824.05648      -693.563    20138555.626    82464020.87147
      -540.440  
  21921869.801   115200200.68348     -1930.609    21921868.199    89766379.68747
     -1504.374  
  21020847.626   110465298.44948       432.320    21020847.839    86076856.49448
       336.871  
  23993187.971   126085060.94647      4042.233    23993189.828    98248126.46845
      3149.788  
  22342253.761   117409344.40148      3234.261    22342254.568    91487803.37445
      2520.198  
  24987875.098   131312169.42346      1238.089    24987876.468   102321174.54244
       964.742  
  24129339.328   126800538.84647      3357.202    24129340.982    98805618.33856
      2616.003  
 20 09 27 03 55 25.0000000  0  7G 5G 2G29G15G13G 7G18
  20139217.258   105832298.84648      -696.332    20139216.939    82466728.49747
      -542.597  
  21923707.458   115209857.26448     -1932.253    21923705.883    89773904.29047
     -1505.655  
  21020437.738   110463144.93948       428.929    21020438.062    86075178.43347
       334.227  
  23989342.148   126064850.57447      4041.918    23989344.051    98232378.12146
      3149.543  
  22339177.280   117393177.69348      3232.343    22339178.020    91475205.95446
      2518.707  
  24986698.153   131305984.91246      1235.270    24986699.310   102316355.49544
       962.547  
  24126145.252   126783753.99046      3356.804    24126147.079    98792539.21446
      2615.687  
 20 09 27 03 55 30.0000000  0  7G 5G 2G29G15G13G 7G18
  20139880.830   105835785.90648      -698.698    20139880.504    82469445.68247
      -544.445  
  21925546.621   115219522.06748     -1933.730    21925545.033    89781435.30047
     -1506.804  
  21020031.282   110461008.62748       425.496    21020031.451    86073513.77347
       331.550  
  23985496.719   126044642.89347      4041.272    23985498.436    98216631.88045
      3149.042  
  22336102.702   117377020.24148      3230.632    22336103.460    91462615.73945
      2517.371  
  24985523.857   131299812.10146      1233.558    24985524.741   102311545.49044
       961.211  
  24122951.368   126766970.38946      3356.469    24122953.105    98779461.11256
      2615.430  
 20 09 27 03 55 35.0000000  0  6G 5G 2G29G15G13G18
  20140546.120   105839281.50048      -697.542    20140545.739    82472169.52247
      -543.542  
  21927386.556   115229191.48948     -1931.820    21927384.953    89788969.90346
     -1505.316  
  21019627.332   110458885.82248       425.586    21019627.554    86071859.63047
       331.621  
  23981651.303   126024434.22347      4044.168    23981652.819    98200884.90545
      3151.305  
  22333029.083   117360868.29648      3232.242    22333029.810    91450029.81146
      2518.628  
  24119757.063   126750184.61246      3359.913    24119758.769    98766381.27746
      2618.112  
 20 09 27 03 55 40.0000000  0  7G 5G 2G29G15G13G 7G18
  20141213.322   105842787.82648      -706.410    20141212.909    82474901.72047
      -550.452  
  21929227.805   115238867.47648     -1939.719    21929226.316    89796509.63246
     -1511.473  
  21019226.413   110456778.63648       415.913    21019226.572    86070217.68048
       324.085  
  23977805.878   126004226.72447      4037.487    23977807.483    98185138.80445
      3146.089  
  22329956.980   117344724.12948      3224.175    22329957.661    91437449.90846
      2512.340  
  24983178.919   131287494.96154      1226.547    24983181.290   102301953.13454
       955.745  
  24116562.757   126733398.60647      3353.179    24116564.745    98753301.34856
      2612.874  
 20 09 27 03 55 45.0000000  0  6G 5G 2G29G15G13G18
  20141883.355   105846308.49748      -703.488    20141883.046    82477645.07047
      -548.180  
  21931070.978   115248553.72948     -1936.292    21931069.600    89804057.35546
     -1508.805  
  21018829.123   110454690.67448       417.879    21018829.244    86068590.68647
       325.617  
  23973961.351   125984023.97147      4042.152    23973963.176    98169396.41645
      3149.726  
  22326886.989   117328591.28248      3227.547    22326887.709    91424878.87445
      2514.968  
  24113369.248   126716616.10147      3358.262    24113371.192    98740224.03245
      2616.820  
 20 09 27 03 55 50.0000000  0  6G 5G 2G29G15G13G18
  20142555.288   105849839.34148      -708.733    20142554.870    82480396.38947
      -552.266  
  21932915.479   115258246.05348     -1940.608    21932913.889    89811609.81646
     -1512.168  
  21018434.679   110452617.82548       411.598    21018434.844    86066975.49548
       320.722  
  23970117.034   125963821.88647      4038.945    23970118.871    98153654.50545
      3147.227  
  22323818.319   117312465.65548      3222.812    22323819.177    91412313.46846
      2511.277  
  24110175.374   126699832.87047      3355.319    24110177.085    98727146.19855
      2614.531  
 20 09 27 03 55 55.0000000  0  6G 5G 2G29G15G13G18
  20143230.854   105853389.93348      -711.468    20143230.610    82483163.08947
      -554.395  
  21934762.819   115267954.10848     -1942.495    21934761.362    89819174.53246
     -1513.636  
  21018044.980   110450569.69548       407.813    21018045.091    86065379.52447
       317.772  
  23966274.775   125943630.08446      4037.703    23966276.431    98137920.63845
      3146.254  
  22320752.902   117296356.81048      3220.737    22320753.834    91399761.11946
      2509.664  
  24106983.469   126683058.57847      3354.789    24106984.961    98714075.26345
      2614.113  
 20 09 27 03 56  0.0000000  0  6G 5G 2G29G15G13G18
  20143909.061   105856953.09048      -714.449    20143908.539    82485939.56547
      -556.719  
  21936611.713   115277670.64348     -1944.335    21936610.303    89826745.85447
     -1515.069  
  21017658.694   110448539.02848       403.809    21017658.748    86063797.19948
       314.652  
  23962432.908   125923441.22247      4037.034    23962434.773    98122189.09645
      3145.741  
  22317689.393   117280257.58748      3218.547    22317690.219    91387216.28446
      2507.957  
  24103791.678   126666285.97746      3354.011    24103793.280    98701005.73845
      2613.512  
 20 09 27 03 56  5.0000000  0  6G 5G 2G29G15G13G18
  20144590.125   105860532.32548      -716.620    20144589.664    82488728.59548
      -558.409  
  21938463.089   115287399.25348     -1946.015    21938461.668    89834326.57447
     -1516.378  
  21017276.235   110446529.47248       400.688    21017276.329    86062231.29048
       312.219  
  23958592.448   125903259.18447      4036.397    23958594.055    98106462.81245
      3145.242  
  22314628.344   117264171.63348      3216.722    22314629.062    91374681.82446
      2506.538  
  24100601.050   126649518.73747      3353.668    24100602.533    98687940.38456
      2613.246  
 20 09 27 03 56 10.0000000  0  6G 5G 2G29G15G13G18
  20145272.157   105864116.01948      -717.085    20145271.734    82491521.08747
      -558.770  
  21940314.449   115297128.24748     -1945.684    21940313.051    89841907.61347
     -1516.121  
  21016895.637   110444529.32248       399.319    21016895.594    86060672.74248
       311.155  
  23954751.014   125883072.02947      4038.077    23954752.599    98090732.56545
      3146.551  
  22311567.662   117248087.17548      3216.930    22311568.349    91362148.46846
      2506.694  
  24097409.292   126632745.03047      3355.632    24097410.258    98674869.95646
      2614.777  
 20 09 27 03 56 15.0000000  0  6G 5G 2G29G15G13G18
  20145956.484   105867712.81248      -721.648    20145956.011    82494323.77647
      -562.328  
  21942167.513   115306866.38348     -1949.522    21942166.146    89849495.76246
     -1519.112  
  21016518.485   110442547.28348       393.563    21016518.542    86059128.30947
       306.667  
  23950910.116   125862888.59947      4035.128    23950911.907    98075005.22945
      3144.254  
  22308508.707   117232012.97248      3212.801    22308509.576    91349623.11846
      2503.477  
  24094217.796   126615973.70047      3352.953    24094218.983    98661801.34456
      2612.683  
 20 09 27 03 56 20.0000000  0  6G 5G 2G29G15G13G18
  20146644.601   105871328.29548      -723.413    20146644.205    82497141.03348
      -563.703  
  21944023.433   115316619.21148     -1950.550    21944022.140    89857095.37146
     -1519.913  
  21016145.699   110440588.93848       390.808    21016145.886    86057602.31347
       304.523  
  23947071.121   125842714.45147      4035.402    23947072.897    98059285.12445
      3144.464  
  22305453.000   117215954.65748      3211.608    22305453.765    91337110.17545
      2502.550  
  24091027.913   126599210.31146      3353.401    24091028.939    98648738.95846
      2613.038  
 20 09 27 03 56 25.0000000  0  6G 5G 2G29G15G13G18
  20147333.280   105874947.70448      -726.117    20147332.877    82499961.34448
      -565.809  
  21945879.152   115326371.86348     -1952.526    21945877.898    89864694.82947
     -1521.452  
  21015774.777   110438639.54248       387.093    21015774.931    86056083.31448
       301.628  
  23943230.968   125822534.84447      4034.808    23943232.669    98043560.78446
      3144.008  
  22302397.453   117199897.46148      3209.491    22302398.163    91324598.05646
      2500.897  
  24087836.599   126582440.03146      3352.734    24087837.633    98635671.25055
      2612.520  
 20 09 27 03 56 30.0000000  0  6G 5G 2G29G15G13G18
  20148026.150   105878588.91448      -729.733    20148025.707    82502798.67847
      -568.624  
  21947738.503   115336142.28748     -1955.426    21947737.346    89872308.14446
     -1523.711  
  21015408.852   110436716.93348       382.468    21015409.114    86054585.16748
       298.022  
  23939393.308   125802367.58647      4033.043    23939395.152    98027846.07345
      3142.632  
  22299345.521   117183859.29648      3206.319    22299345.988    91312100.81645
      2498.434  
  24084647.232   126565680.82746      3351.164    24084648.516    98622612.10046
      2611.292  
 20 09 27 03 56 35.0000000  0  6G 5G 2G29G15G13G18
  20148720.737   105882238.49648      -730.945    20148720.252    82505642.50347
      -569.570  
  21949598.602   115345917.11248     -1955.483    21949597.256    89879924.88247
     -1523.757  
  21015045.581   110434807.68448       380.460    21015045.740    86053097.43048
       296.460  
  23935555.467   125782199.34647      4033.390    23935557.149    98012130.56445
      3142.897  
  22296294.554   117167826.69748      3205.957    22296295.048    91299607.88645
      2498.144  
  24081457.680   126548919.18346      3352.417    24081459.077    98609551.13056
      2612.272  
 20 09 27 03 56 40.0000000  0  7G 5G 2G29G15G13G 7G18
  20149419.510   105885910.29048      -736.586    20149418.938    82508503.63448
      -573.964  
  21951462.142   115355710.20848     -1960.527    21951460.805    89887555.86546
     -1527.688  
  21014687.451   110432925.73048       373.644    21014687.474    86051630.98848
       291.148  
  23931719.863   125762043.98347      4029.933    23931721.790    97996425.09746
      3140.203  
  22293247.399   117151813.66848      3200.636    22293248.051    91287130.22146
      2494.000  
  24969318.188   131214658.08055      1196.648    24969321.190   102245206.62554
       932.449  
  24078270.172   126532169.08646      3349.312    24078271.667    98596499.09446
      2609.852  
 20 09 27 03 56 45.0000000  0  6G 5G 2G29G15G13G18
  20150118.841   105889585.73748      -734.905    20150118.365    82511367.63947
      -572.656  
  21953325.502   115365502.76248     -1958.180    21953324.362    89895186.41547
     -1525.858  
  21014331.028   110431052.36848       374.362    21014331.156    86050171.20647
       291.707  
  23927883.357   125741882.94747      4033.229    23927885.284    97980715.18344
      3142.773  
  22290200.408   117135801.37048      3202.827    22290201.024    91274653.09545
      2495.707  
  24075081.046   126515411.87046      3352.632    24075082.644    98583441.51446
      2612.438  
 20 09 27 03 56 50.0000000  0  6G 5G 2G29G15G13G18
  20150820.638   105893273.36048      -739.265    20150820.239    82514241.10147
      -576.054  
  21955190.574   115375303.59048     -1961.659    21955189.401    89902823.43647
     -1528.569  
  21013977.823   110429196.29848       368.870    21013977.777    86048724.92647
       287.430  
  23924047.407   125721724.73647      4030.801    23924049.178    97965007.50245
      3140.879  
  22287155.127   117119798.62148      3198.836    22287155.680    91262183.44946
      2492.598  
  24071892.661   126498656.16946      3350.538    24071894.388    98570385.14046
      2610.804  
 20 09 27 03 56 55.0000000  0  7G 5G 2G29G15G13G 7G18
  20151525.695   105896978.71348      -742.414    20151525.263    82517128.40247
      -578.507  
  21957058.311   115385118.08348     -1963.808    21957057.144    89910471.09547
     -1530.242  
  21013628.811   110427362.94448       364.995    21013629.069    86047296.33948
       284.409  
  23920212.973   125701574.96247      4029.522    23920214.800    97949306.39545
      3139.887  
  22284112.709   117103810.79648      3196.378    22284113.307    91249725.41146
      2490.683  
  24965907.493   131196719.56855      1191.480    24965906.460   102231214.53455
       928.421  
  24068705.324   126481907.37746      3349.526    24068707.394    98557334.18246
      2610.026  
 20 09 27 03 57  0.0000000  0  7G 5G 2G29G15G13G 7G18
  20152232.091   105900690.66148      -743.371    20152231.516    82520020.82747
      -579.253  
  21958926.399   115394935.17048     -1963.828    21958925.112    89918120.77047
     -1530.258  
  21013282.240   110425541.26248       362.940    21013282.283    86045876.84048
       282.809  
  23916378.171   125681422.44147      4030.469    23916379.950    97933603.14045
      3140.620  
  22281071.050   117087826.89648      3196.215    22281071.679    91237270.42146
      2490.554  
  24964774.281   131190765.03245      1189.980    24964774.108   102226574.64845
       927.253  
  24065517.386   126465154.55946      3350.558    24065519.418    98544280.01556
      2610.820  
 20 09 27 03 57  5.0000000  0  7G 5G 2G29G15G13G 7G18
  20152940.573   105904413.50948      -745.722    20152939.966    82522921.74847
      -581.085  
  21960795.846   115404759.18048     -1965.512    21960794.527    89925775.83747
     -1531.570  
  21012938.535   110423735.55248       359.304    21012938.692    86044469.79648
       279.973  
  23912543.526   125661271.59047      4029.741    23912545.407    97917901.20146
      3140.058  
  22278031.099   117071851.21848      3194.145    22278031.514    91224821.85946
      2488.940  
  24963643.004   131184821.03344      1187.358    24963642.700   102221942.96845
       925.210  
  24062329.401   126448401.89546      3350.601    24062331.473    98531226.00946
      2610.855  
 20 09 27 03 57 10.0000000  0  7G 5G 2G29G15G13G 7G18
  20153651.512   105908149.01448      -748.477    20153650.846    82525832.52747
      -583.229  
  21962666.783   115414591.83548     -1967.477    21962665.667    89933437.65347
     -1533.101  
  21012598.276   110421947.57248       355.879    21012598.510    86043076.55847
       277.304  
  23908709.672   125641124.11647      4029.054    23908711.306    97902201.88545
      3139.522  
  22274992.845   117055885.52548      3192.073    22274993.521    91212381.06646
      2487.327  
  24962514.162   131178889.49246      1184.835    24962513.857   102217321.01545
       923.250  
  24059142.093   126431651.29147      3349.742    24059143.874    98518173.57456
      2610.183  
 20 09 27 03 57 15.0000000  0  7G 5G 2G29G15G13G 7G18
  20154364.746   105911897.24448      -751.082    20154364.188    82528753.22847
      -585.262  
  21964539.665   115424433.26948     -1969.304    21964538.514    89941106.30547
     -1534.527  
  21012261.411   110420177.45748       352.199    21012261.758    86041697.24348
       274.437  
  23904876.346   125620980.22647      4028.792    23904878.103    97886505.37245
      3139.316  
  22271956.489   117039929.99048      3190.016    22271957.241    91199948.19546
      2485.723  
  24961387.418   131172970.50846      1182.690    24961387.516   102212708.83845
       921.578  
  24055954.939   126414902.74947      3349.120    24055956.800    98505122.79046
      2609.707  
 20 09 27 03 57 20.0000000  0  7G 5G 2G29G15G13G 7G18
  20155080.451   105915658.23348      -753.472    20155079.703    82531683.86147
      -587.125  
  21966414.053   115434283.46548     -1970.835    21966412.810    89948781.76447
     -1535.719  
  21011928.014   110418425.13348       348.969    21011928.165    86040331.79748
       271.921  
  23901043.623   125600839.85047      4028.063    23901045.476    97870811.56145
      3138.746  
  22268922.239   117023984.52348      3188.281    22268922.937    91187523.16645
      2484.371  
  24960263.544   131167064.04344      1180.538    24960263.624   102208106.37643
       919.897  
  24052768.421   126398156.32647      3349.405    24052769.897    98492073.60855
      2609.921  
 20 09 27 03 57 25.0000000  0  7G 5G 2G29G15G13G 7G18
  20155798.242   105919430.00548      -755.644    20155797.431    82534622.90247
      -588.816  
  21968289.773   115444140.40848     -1972.313    21968288.585    89956462.49947
     -1536.870  
  21011597.469   110416688.70348       345.468    21011597.757    86038978.73548
       269.190  
  23897211.466   125580701.07046      4027.222    23897213.281    97855119.02046
      3138.097  
  22265889.523   117008047.21548      3186.520    22265890.079    91175104.49546
      2483.000  
  24959141.582   131161168.24845      1177.547    24959141.747   102203512.25745
       917.565  
  24049581.563   126381409.99146      3349.050    24049583.055    98479024.49446
      2609.647  
 20 09 27 03 57 30.0000000  0  7G 5G 2G29G15G13G 7G18
  20156518.497   105923215.59248      -758.386    20156517.851    82537572.71447
      -590.952  
  21970167.412   115454007.19148     -1974.276    21970166.071    89964150.89847
     -1538.402  
  21011270.733   110414971.15848       341.762    21011271.001    86037640.38248
       266.305  
  23893379.852   125560566.83947      4026.769    23893381.842    97839430.04445
      3137.741  
  22262858.890   116992121.13248      3184.137    22262859.423    91162694.55745
      2481.140  
  24958022.262   131155286.02545      1174.917    24958022.815   102198928.70043
       915.604  
  24046395.505   126364666.89447      3348.316    24046396.979    98465977.95046
      2609.074  
 20 09 27 03 57 35.0000000  0  7G 5G 2G29G15G13G 7G18
  20157241.252   105927013.91748      -760.832    20157240.729    82540532.43347
      -592.859  
  21972046.571   115463882.70148     -1975.953    21972045.533    89971846.10347
     -1539.706  
  21010947.206   110413271.42048       338.499    21010947.424    86036315.92147
       263.762  
  23889549.174   125540436.23547      4025.926    23889550.860    97823743.87545
      3137.082  
  22259830.174   116976205.18548      3182.265    22259830.702    91150292.54746
      2479.684  
  24956905.114   131149416.40245      1172.749    24956906.080   102194354.94946
       913.823  
  24043209.730   126347925.84646      3347.969    24043211.103    98452932.97846
      2608.804  
 20 09 27 03 57 40.0000000  0  7G 5G 2G29G15G13G 7G18
  20157966.285   105930823.80448      -762.085    20157965.761    82543501.19347
      -593.835  
  21973927.247   115473765.78548     -1976.417    21973926.189    89979547.20347
     -1540.069  
  21010626.907   110411588.39448       336.011    21010627.260    86035004.46247
       261.823  
  23885718.952   125520308.00647      4026.198    23885720.723    97808059.54345
      3137.293  
  22256803.167   116960298.24648      3181.519    22256803.698    91137897.53345
      2479.102  
  24955790.331   131143558.08345      1171.585    24955791.479   102189790.03444
       912.637  
  24040024.190   126331185.75446      3348.773    24040025.477    98439888.74745
      2609.430  
 20 09 27 03 57 45.0000000  0  6G 5G 2G29G15G13G18
  20158691.687   105934635.16148      -763.316    20158691.070    82546471.08647
      -594.797  
  21975807.550   115483646.31248     -1976.753    21975806.359    89987246.30747
     -1540.332  
  21010307.775   110409911.87848       333.569    21010308.323    86033698.09348
       259.922  
  23881887.223   125500172.06847      4027.078    23881889.030    97792369.24345
      3137.983  
  22253775.968   116944390.21048      3180.690    22253776.471    91125501.66846
      2478.457  
  24036836.844   126314436.41746      3349.801    24036838.318    98426837.33047
      2610.230  
 20 09 27 03 57 50.0000000  0  6G 5G 2G29G15G13G18
  20159420.518   105938465.10048      -768.366    20159419.799    82549455.42547
      -598.729  
  21977690.522   115493541.52148     -1980.898    21977689.217    89994956.85947
     -1543.558  
  21009993.431   110408259.17648       327.555    21009993.784    86032410.26648
       255.233  
  23878057.179   125480045.70947      4023.511    23878059.055    97776686.35645
      3135.198  
  22250751.814   116928498.32948      3176.124    22250752.371    91113118.39046
      2474.897  
  24033650.980   126297695.24447      3346.707    24033652.649    98413792.29745
      2607.823  
 20 09 27 03 57 55.0000000  0  7G 5G 2G29G15G13G 7G18
  20160153.730   105942318.62048      -774.112    20160153.165    82552458.18647
      -603.206  
  21979577.299   115503456.32248     -1986.019    21979576.007    90002682.67047
     -1547.550  
  21009684.378   110406635.15148       320.711    21009684.599    86031144.80048
       249.902  
  23874229.994   125459933.77947      4019.597    23874231.832    97761014.73444
      3132.151  
  22247731.667   116912627.47248      3171.051    22247732.196    91100751.49746
      2470.944  
  24952459.174   131126055.67455      1159.116    24952456.116   102176138.56054
       903.202  
  24030467.758   126280967.02246      3343.164    24030469.277    98400757.29956
      2605.058  
 20 09 27 03 58  0.0000000  0  7G 5G 2G29G15G13G 7G18
  20160890.161   105946188.31048      -773.784    20160889.475    82555473.53147
      -602.953  
  21981466.346   115513383.36248     -1984.977    21981465.218    90010418.01647
     -1546.737  
  21009379.331   110405032.52348       320.030    21009379.820    86029896.00148
       249.370  
  23870404.305   125439829.05247      4021.906    23870405.996    97745348.73145
      3133.953  
  22244714.187   116896770.38348      3171.690    22244714.725    91088395.33446
      2471.444  
  24951355.339   131120256.70044      1159.901    24951353.660   102171619.90643
       903.820  
  24027285.449   126264244.43846      3345.749    24027287.016    98387726.72146
      2607.073  
 20 09 27 03 58  5.0000000  0  7G 5G 2G29G15G13G 7G18
  20161626.969   105950060.51448      -775.563    20161626.261    82558490.83147
      -604.335  
  21983355.034   115523308.95548     -1985.914    21983353.949    90018152.24247
     -1547.469  
  21009075.794   110403437.55448       317.129    21009076.269    86028653.16747
       247.109  
  23866577.115   125419717.75147      4021.996    23866579.005    97729677.59645
      3134.019  
  22241696.701   116880913.32448      3170.523    22241697.251    91076039.19046
      2470.534  
  24950251.821   131114460.17745      1157.492    24950251.042   102167103.12044
       901.934  
  24024101.599   126247513.81546      3345.941    24024103.390    98374689.90056
      2607.222  
 20 09 27 03 58 10.0000000  0  7G 5G 2G29G15G13G 7G18
  20162366.253   105953945.03948      -778.214    20162365.491    82561517.72947
      -606.406  
  21985245.432   115533242.84348     -1987.581    21985244.137    90025892.93047
     -1548.770  
  21008775.698   110401860.03748       313.687    21008775.893    86027423.92447
       244.430  
  23862750.683   125399609.68747      4021.476    23862752.616    97714009.01345
      3133.617  
  22238681.118   116865066.14448      3168.512    22238681.521    91063690.74746
      2468.969  
  24949150.946   131108675.82145      1155.602    24949151.039   102162595.82245
       900.461  
  24020918.213   126230784.98047      3345.792    24020920.206    98361654.44946
      2607.109  
 20 09 27 03 58 15.0000000  0  7G 5G 2G29G15G13G 7G18
  20163107.640   105957841.46348      -780.430    20163106.918    82564553.90247
      -608.129  
  21987137.353   115543184.73848     -1989.270    21987136.043    90033639.84647
     -1550.082  
  21008478.628   110400299.64248       310.309    21008479.181    86026208.03447
       241.797  
  23858924.849   125379504.51147      4021.137    23858926.543    97698342.63445
      3133.352  
  22235667.232   116849228.46948      3166.613    22235667.729    91051349.71146
      2467.487  
  24948052.586   131102903.39845      1153.266    24948052.786   102158097.81645
       898.640  
  24017735.188   126214057.53747      3345.395    24017737.125    98348620.07846
      2606.797  
 20 09 27 03 58 20.0000000  0  7G 5G 2G29G15G13G 7G18
  20163851.302   105961749.52448      -783.148    20163850.773    82567599.14847
      -610.249  
  21989030.776   115553134.30648     -1990.883    21989029.405    90041392.75247
     -1551.339  
  21008185.007   110398756.06148       306.788    21008185.379    86025005.24448
       239.055  
  23855099.372   125359401.99347      4020.054    23855101.283    97682678.36845
      3132.511  
  22232655.276   116833400.06748      3164.440    22232655.657    91039015.90246
      2465.797  
  24946956.468   131097142.50945      1150.707    24946956.536   102153608.82343
       896.652  
  24014552.385   126197331.23447      3344.940    24014554.171    98335586.59946
      2606.445  
 20 09 27 03 58 25.0000000  0  7G 5G 2G29G15G13G 7G18
  20164596.475   105965665.21548      -786.651    20164595.874    82570650.33547
      -612.979  
  21990924.779   115563087.54248     -1993.776    21990923.509    90049148.51147
     -1553.598  
  21007893.659   110397225.32848       302.094    21007894.045    86023812.46648
       235.394  
  23851273.887   125339298.15347      4018.035    23851275.711    97667013.03845
      3130.933  
  22229644.064   116817576.94648      3161.191    22229644.770    91026686.20246
      2463.261  
  24945861.300   131091389.30255      1147.183    24945863.875   102149141.84255
       893.906  
  24011369.057   126180602.07247      3343.347    24011370.708    98322550.91346
      2605.203  
 20 09 27 03 58 30.0000000  0  7G 5G 2G29G15G13G 7G18
  20165345.656   105969602.28348      -787.979    20165345.102    82573718.17647
      -614.015  
  21992822.211   115573058.20948     -1994.621    21992820.763    90056917.85447
     -1554.253  
  21007607.455   110395721.19148       299.652    21007607.815    86022640.40548
       233.491  
  23847450.496   125319206.66147      4018.835    23847452.347    97651357.34645
      3131.559  
  22226636.662   116801772.85048      3160.344    22226637.285    91014371.33246
      2462.602  
  24944771.677   131085657.51145      1145.531    24944772.070   102144675.48645
       892.617  
  24008187.580   126163883.76947      3344.230    24008189.269    98309523.64045
      2605.891  
 20 09 27 03 58 35.0000000  0  7G 5G 2G29G15G13G 7G18
  20166096.352   105973547.15348      -790.187    20166095.817    82576792.10047
      -615.733  
  21994720.192   115583032.73148     -1995.766    21994719.009    90064690.20147
     -1555.144  
  21007323.740   110394230.07048       296.457    21007324.057    86021478.49248
       231.003  
  23843627.120   125299114.02747      4018.078    23843628.707    97635700.77445
      3130.969  
  22223630.394   116785974.17948      3158.688    22223630.785    91002060.68846
      2461.312  
  24943681.422   131079933.40145      1143.827    24943681.874   102140215.13246
       891.292  
  24005005.649   126147162.76547      3344.140    24005007.430    98296494.29046
      2605.819  
 20 09 27 03 58 40.0000000  0  7G 5G 2G29G15G13G 7G18
  20166849.532   105977505.86148      -792.762    20166848.996    82579876.80747
      -617.738  
  21996620.304   115593017.19748     -1997.894    21996618.967    90072470.30247
     -1556.804  
  21007043.626   110392758.06548       292.816    21007043.966    86020331.47447
       228.163  
  23839804.504   125279026.36047      4017.051    23839806.266    97620048.04845
      3130.168  
  22220626.221   116770187.08148      3156.457    22220626.733    90989759.06446
      2459.573  
  24942594.817   131074223.15945      1140.983    24942594.938   102135765.62344
       889.073  
  24001824.558   126130445.20547      3343.546    24001826.103    98283467.63146
      2605.359  
 20 09 27 03 58 45.0000000  0  7G 5G 2G29G15G13G 7G18
  20167605.186   105981476.78948      -795.468    20167604.822    82582971.03747
      -619.847  
  21998521.727   115603009.86848     -1999.363    21998520.402    90080256.79747
     -1557.948  
  21006766.739   110391303.44948       289.141    21006767.291    86019198.00448
       225.301  
  23835982.435   125258941.84547      4016.448    23835984.078    97604397.79545
      3129.698  
  22217623.750   116754409.80248      3154.445    22217624.403    90977465.08746
      2458.008  
  24941510.353   131068525.04445      1138.214    24941511.155   102131325.52544
       886.917  
  23998643.516   126113729.31246      3342.823    23998645.226    98270442.25246
      2604.793  
 20 09 27 03 58 50.0000000  0  7G 5G 2G29G15G13G 7G18
  20168363.124   105985459.37348      -797.854    20168362.614    82586074.35147
      -621.707  
  22000424.886   115613010.28648     -2000.983    22000423.525    90088049.33347
     -1559.211  
  21006493.100   110389865.71748       285.691    21006493.517    86018077.69648
       222.613  
  23832161.153   125238860.12047      4015.879    23832162.662    97588749.70445
      3129.253  
  22214623.206   116738641.90048      3152.554    22214623.820    90965178.42046
      2456.531  
  24940428.318   131062838.59945      1136.086    24940428.535   102126894.53445
       885.257  
  23995462.623   126097014.60546      3342.535    23995464.257    98257417.84456
      2604.570  
 20 09 27 03 58 55.0000000  0  7G 5G 2G29G15G13G 7G18
  20169123.323   105989454.37248      -800.229    20169122.821    82589187.33347
      -623.558  
  22002329.562   115623019.17648     -2002.652    22002328.122    90095848.46447
     -1560.511  
  21006222.909   110388445.63748       282.440    21006223.452    86016971.13948
       220.082  
  23828340.274   125218781.92147      4015.566    23828341.890    97573104.37645
      3129.011  
  22211624.747   116722884.14348      3150.604    22211625.151    90952899.65546
      2455.016  
  24939348.477   131057164.55845      1133.848    24939349.116   102122473.21044
       883.520  
  23992282.177   126080301.90646      3342.429    23992283.829    98244394.92646
      2604.488  
 20 09 27 03 59  0.0000000  0  7G 5G 2G29G15G13G 7G18
  20169885.827   105993461.76248      -802.425    20169885.265    82592309.97747
      -625.269  
  22004235.758   115633036.52248     -2004.180    22004234.436    90103654.18947
     -1561.702  
  21005956.132   110387043.18248       279.081    21005956.536    86015878.31648
       217.464  
  23824520.286   125198707.28147      4014.605    23824521.716    97557461.80645
      3128.262  
  22208628.012   116707136.53648      3148.800    22208628.422    90940628.80146
      2453.609  
  24938270.879   131051502.96045      1131.602    24938271.756   102118061.57045
       881.628  
  23989102.210   126063591.13146      3342.261    23989104.077    98231373.59546
      2604.359  
 20 09 27 03 59  5.0000000  0  7G 5G 2G29G15G13G 7G18
  20170650.783   105997481.94748      -804.894    20170650.395    82595442.58747
      -627.194  
  22006143.687   115643062.81848     -2005.805    22006142.195    90111466.89147
     -1562.969  
  21005692.586   110385658.86248       275.219    21005693.024    86014799.62448
       214.452  
  23820700.883   125178636.61847      4014.011    23820702.525    97541822.36045
      3127.800  
  22205633.333   116691399.54748      3146.691    22205633.920    90928366.22146
      2451.965  
  24937196.200   131045854.30145      1128.363    24937196.865   102113660.04145
       879.242  
  23985922.582   126046882.85246      3341.574    23985924.457    98218354.14346
      2603.820  
 20 09 27 03 59 10.0000000  0  7G 5G 2G29G15G13G 7G18
  20171417.866   106001512.99348      -807.629    20171417.462    82598583.66247
      -629.324  
  22008053.097   115653096.05748     -2007.690    22008051.456    90119284.99747
     -1564.437  
  21005432.258   110384290.64148       271.805    21005432.706    86013733.47747
       211.793  
  23816881.864   125158567.94447      4013.351    23816883.499    97526184.43145
      3127.284  
  22202640.394   116675671.17349      3144.441    22202640.882    90916110.35446
      2450.210  
  24936123.251   131040216.51045      1126.308    24936123.840   102109266.93145
       877.641  
  23982743.125   126030174.94346      3341.187    23982744.735    98205334.99446
      2603.519  
 20 09 27 03 59 15.0000000  0  7G 5G 2G29G15G13G 7G18
  20172187.585   106005557.14548      -810.062    20172186.955    82601734.95047
      -631.222  
  22009964.055   115663138.48948     -2009.308    22009962.642    90127110.26547
     -1565.699  
  21005175.367   110382940.82648       268.273    21005175.814    86012681.67148
       209.042  
  23813063.801   125138503.54347      4012.585    23813065.255    97510549.85845
      3126.688  
  22199649.349   116659953.68749      3142.629    22199649.830    90903862.96646
      2448.796  
  24935052.897   131034591.85245      1124.152    24935053.994   102104884.12445
       876.082  
  23979564.305   126013469.78847      3340.831    23979566.310    98192318.03246
      2603.245  
 20 09 27 03 59 20.0000000  0  7G 5G 2G29G15G13G 7G18
  20172959.205   106009612.31448      -812.086    20172958.658    82604894.82147
      -632.797  
  22011876.517   115673188.04648     -2010.758    22011875.023    90134941.08547
     -1566.828  
  21004921.707   110381607.33748       265.007    21004922.059    86011642.58748
       206.496  
  23809246.078   125118441.40147      4011.694    23809247.702    97494917.02445
      3125.992  
  22196660.217   116644245.06749      3140.723    22196660.666    90891622.49646
      2447.312  
  24933984.928   131028978.42145      1120.887    24933985.874   102100510.00444
       873.413  
  23976385.726   125996765.33447      3340.745    23976387.314    98179301.54446
      2603.175  
 20 09 27 03 59 25.0000000  0  7G 5G 2G29G15G13G 7G18
  20173733.108   106013679.67248      -814.944    20173732.803    82608064.18947
      -635.027  
  22013790.319   115683245.86048     -2012.473    22013788.892    90142778.33847
     -1568.163  
  21004671.275   110380291.33848       261.300    21004671.740    86010617.13647
       203.608  
  23805428.984   125098382.62347      4011.348    23805430.413    97479286.83145
      3125.722  
  22193672.784   116628546.50149      3138.625    22193673.200    90879389.85546
      2445.679  
  24932919.175   131023377.28645      1118.992    24932920.119   102096145.47946
       871.938  
  23973207.346   125980062.65047      3340.371    23973208.837    98166286.46346
      2602.883  
 20 09 27 03 59 30.0000000  0  7G 5G 2G29G15G13G 7G18
  20174509.453   106017759.73848      -817.188    20174509.137    82611243.46047
      -636.772  
  22015706.027   115693312.44348     -2014.038    22015704.475    90150622.42447
     -1569.382  
  21004424.263   110378993.31148       257.781    21004424.596    86009605.68547
       200.866  
  23801612.618   125078327.79947      4010.507    23801614.155    97463659.70445
      3125.066  
  22190687.436   116612858.57949      3136.675    22190687.974    90867165.50746
      2444.159  
  24931855.714   131017788.91745      1116.594    24931856.330   102091790.94345
       870.074  
  23970029.538   125963362.37247      3339.840    23970031.119    98153273.27146
      2602.468  
 20 09 27 03 59 35.0000000  0  7G 5G 2G29G15G13G 7G18
  20175288.322   106021852.28148      -819.930    20175287.928    82614432.44847
      -638.909  
  22017623.250   115703387.58148     -2016.198    22017621.793    90158473.17647
     -1571.066  
  21004180.700   110377713.06848       254.074    21004181.132    86008608.08548
       197.977  
  23797797.000   125058276.65547      4009.769    23797798.646    97448035.45845
      3124.491  
  22187704.008   116597180.96449      3134.202    22187704.701    90854949.19246
      2442.234  
  24930794.679   131012213.17545      1113.710    24930795.636   102087446.20345
       867.844  
  23966852.086   125946664.15847      3339.254    23966853.505    98140261.68946
      2602.012  
 20 09 27 03 59 40.0000000  0  7G 5G 2G29G15G13G 7G18
  20176069.637   106025958.43448      -822.223    20176069.410    82617632.04947
      -640.695  
  22019542.390   115713472.45048     -2017.570    22019540.779    90166331.51247
     -1572.137  
  21003940.553   110376451.77548       250.858    21003941.085    86007625.25948
       195.473  
  23793982.353   125038230.45547      4008.894    23793984.029    97432415.05445
      3123.815  
  22184722.865   116581514.82649      3132.574    22184723.391    90842741.81946
      2440.964  
  24929736.305   131006651.16145      1111.203    24929737.278   102083112.15345
       865.870  
  23963675.194   125929969.25947      3338.956    23963676.395    98127252.67445
      2601.780  
 20 09 27 03 59 45.0000000  0  7G 5G 2G29G15G13G 7G18
  20176852.872   106030074.95448      -824.605    20176852.597    82620839.72447
      -642.554  
  22021462.667   115723563.79048     -2019.323    22021461.012    90174194.88847
     -1573.503  
  21003703.656   110375206.18448       247.340    21003703.936    86006654.67348
       192.730  
  23790167.864   125018185.89847      4008.612    23790169.441    97416795.95445
      3123.590  
  22181743.252   116565856.97949      3130.448    22181743.804    90830540.90746
      2439.309  
  24928679.890   131001099.72745      1108.789    24928680.891   102078786.36445
       863.891  
  23960498.216   125913274.40847      3338.671    23960499.548    98114243.70346
      2601.559  
 20 09 27 03 59 50.0000000  0  7G 5G 2G29G15G13G 7G18
  20177638.774   106034204.24048      -827.124    20177638.458    82624057.34947
      -644.515  
  22023384.852   115733664.00348     -2020.980    22023383.193    90182065.17847
     -1574.793  
  21003469.995   110373978.72248       243.737    21003470.471    86005698.20448
       189.922  
  23786354.358   124998145.44247      4007.527    23786356.134    97401180.00345
      3122.749  
  22178765.739   116550209.79649      3128.456    22178766.384    90818348.30946
      2437.754  
  24927626.170   130995561.20345      1106.539    24927626.746   102074470.62645
       862.233  
  23957321.564   125896581.99046      3338.257    23957323.267    98101236.64746
      2601.242  
 20 09 27 03 59 55.0000000  0  7G 5G 2G29G15G13G 7G18
  20178426.787   106038345.81148      -829.570    20178426.542    82627284.54547
      -646.421  
  22025308.382   115743772.59848     -2022.500    22025306.833    90189942.00747
     -1575.976  
  21003239.742   110372768.82948       240.315    21003240.191    86004755.43248
       187.258  
  23782541.402   124978108.56847      4007.094    23782543.078    97385566.89545
      3122.410  
  22175790.123   116534572.82649      3126.444    22175790.662    90806163.66246
      2436.188  
  24926574.693   130990035.15345      1104.366    24926575.229   102070164.58945
       860.542  
  23954145.425   125879891.51646      3338.070    23954147.198    98088231.11046
      2601.094  
 20 09 27 04 00  0.0000000  0  7G 5G 2G29G15G13G 7G18
  20179217.266   106042499.70948      -832.258    20179217.032    82630521.34747
      -648.516  
  22027233.601   115753889.62948     -2024.296    22027231.948    90197825.40647
     -1577.378  
  21003012.916   110371576.60048       236.565    21003013.324    86003826.41947
       184.336  
  23778729.230   124958075.37647      4006.362    23778730.915    97369956.63245
      3121.843  
  22172816.590   116518946.15149      3124.233    22172817.160    90793987.04146
      2434.465  
  24925525.415   130984521.59845      1101.441    24925526.074   102065868.35045
       858.265  
  23950969.733   125863203.10846      3337.617    23950971.458    98075227.14546
      2600.737  
 20 09 27 04 00  5.0000000  0  7G 5G 2G29G15G13G 7G18
  20180010.029   106046665.77348      -834.503    20180009.746    82633767.62847
      -650.266  
  22029160.345   115764014.98748     -2025.890    22029158.784    90205715.28947
     -1578.620  
  21002789.326   110370401.90948       233.194    21002789.856    86002911.07548
       181.707  
  23774917.602   124938045.72747      4005.762    23774919.508    97354349.11945
      3121.370  
  22169844.785   116503329.67949      3122.272    22169845.360    90781818.36446
      2432.938  
  24924478.706   130979020.47845      1099.039    24924479.094   102061581.73544
       856.386  
  23947794.174   125846516.59246      3336.991    23947796.013    98062224.69746
      2600.253  
 20 09 27 04 00 10.0000000  0  7G 5G 2G29G15G13G 7G18
  20180805.252   106050844.01148      -836.742    20180804.891    82637023.39647
      -652.011  
  22031088.795   115774148.65448     -2027.512    22031087.049    90213611.65047
     -1579.882  
  21002569.176   110369244.73348       229.793    21002569.593    86002009.38348
       179.054  
  23771106.784   124918019.62347      4004.977    23771108.582    97338744.39145
      3120.762  
  22166875.072   116487723.35649      3120.370    22166875.525    90769657.60446
      2431.453  
  24923434.255   130973531.69445      1097.117    24923434.699   102057304.77145
       854.894  
  23944619.306   125829832.04547      3336.593    23944620.921    98049223.75545
      2599.941  
 20 09 27 04 00 15.0000000  0  7G 5G 2G29G15G13G 7G18
  20181602.578   106055034.29848      -839.413    20181602.238    82640288.55447
      -654.093  
  22033018.779   115784290.50948     -2029.452    22033017.040    90221514.39047
     -1581.394  
  21002352.452   110368105.03048       225.977    21002352.731    86001121.30748
       176.081  
  23767296.524   124897996.94547      4004.218    23767298.351    97323142.31945
      3120.172  
  22163907.251   116472127.13049      3118.027    22163907.625    90757504.70446
      2429.629  
  24922392.185   130968055.29945      1093.698    24922392.576   102053037.44944
       852.479  
  23941444.665   125813149.25947      3336.199    23941446.377    98036224.15346
      2599.632  
 20 09 27 04 00 20.0000000  0  7G 5G 2G29G15G13G 7G18
  20182402.375   106059237.44848      -841.891    20182402.017    82643563.73347
      -656.023  
  22034950.439   115794441.32648     -2031.022    22034948.744    90229424.11247
     -1582.616  
  21002138.965   110366983.55148       222.531    21002139.297    86000247.42248
       173.397  
  23763487.207   124877978.53447      4003.581    23763488.876    97307543.56045
      3119.671  
  22160941.335   116456541.79349      3116.031    22160941.921    90745360.29846
      2428.073  
  24921352.386   130962591.96345      1091.473    24921353.051   102048780.30345
       850.495  
  23938270.611   125796469.08747      3336.016    23938272.106    98023226.63746
      2599.488  
 20 09 27 04 00 25.0000000  0  7G 5G 2G29G15G13G 7G18
  20183204.264   106063451.87048      -843.754    20183204.018    82646847.69848
      -657.473  
  22036883.431   115804599.51648     -2032.012    22036881.675    90237339.58347
     -1583.391  
  21001928.676   110365878.69548       219.597    21001929.034    85999386.49548
       171.112  
  23759678.249   124857962.82647      4003.074    23759679.911    97291946.92545
      3119.277  
  22157977.317   116440965.74649      3114.375    22157977.937    90733223.12546
      2426.781  
  24920315.093   130957140.13745      1089.155    24920315.694   102044532.12145
       848.691  
  23935096.606   125779789.95247      3336.066    23935098.122    98010229.89245
      2599.526  
 20 09 27 04 00 30.0000000  0  7G 5G 2G29G15G13G 7G18
  20184008.649   106067678.69048      -846.979    20184008.430    82650141.32247
      -659.987  
  22038818.164   115814766.13648     -2034.128    22038816.311    90245261.62347
     -1585.039  
  21001721.836   110364791.58648       215.554    21001722.186    85998539.39548
       167.961  
  23755870.075   124837950.89347      4001.539    23755872.065    97276353.24444
      3118.078  
  22155015.378   116425400.11649      3112.030    22155015.906    90721094.07046
      2424.957  
  24919279.964   130951700.90845      1086.632    24919280.355   102040293.76945
       846.629  
  23931923.140   125763112.93447      3334.977    23931924.530    97997234.81446
      2598.680  
 20 09 27 04 00 35.0000000  0  7G 5G 2G29G15G13G 7G18
  20184815.308   106071917.93448      -849.065    20184815.041    82653444.63247
      -661.613  
  22040754.422   115824941.33748     -2035.862    22040752.647    90253190.34647
     -1586.390  
  21001518.420   110363722.38048       212.187    21001518.761    85997706.24748
       165.335  
  23752062.655   124817942.86247      4001.358    23752064.497    97260762.57545
      3117.938  
  22152055.348   116409845.05749      3109.995    22152055.794    90708973.24946
      2423.370  
  24918247.455   130946274.47346      1084.047    24918247.917   102036065.39145
       844.707  
  23928750.240   125746438.16547      3334.777    23928751.445    97984241.49946
      2598.522  
 20 09 27 04 00 40.0000000  0  7G 5G 2G29G15G13G 7G18
  20185624.423   106076169.01548      -851.348    20185624.086    82656757.16047
      -663.390  
  22042692.187   115835124.54848     -2037.617    22042690.471    90261125.31647
     -1587.757  
  21001318.254   110362670.43948       208.480    21001318.523    85996886.55448
       162.448  
  23748256.019   124797938.16847      4000.426    23748257.741    97245174.51545
      3117.211  
  22149097.046   116394299.98049      3107.883    22149097.651    90696860.21446
      2421.723  
  24917217.234   130940860.09445      1082.074    24917217.533   102031846.35845
       843.171  
  23925577.500   125729765.05647      3334.413    23925578.749    97971249.46346
      2598.241  
 20 09 27 04 00 45.0000000  0  7G 5G 2G29G15G13G 7G18
  20186435.630   106080432.43848      -853.941    20186435.351    82660079.31247
      -665.409  
  22044631.666   115845316.23348     -2039.211    22044629.753    90269066.88547
     -1588.999  
  21001121.500   110361636.20448       205.093    21001121.700    85996080.65848
       159.808  
  23744449.907   124777937.25547      3999.855    23744451.732    97229589.42145
      3116.770  
  22146141.018   116378765.32249      3105.886    22146141.513    90684755.29146
      2420.167  
  24916189.310   130935458.40745      1079.211    24916189.689   102027637.29245
       840.941  
  23922405.058   125713094.07247      3334.070    23922406.483    97958259.09846
      2597.973  
 20 09 27 04 00 50.0000000  0  7G 5G 2G29G15G13G 7G18
  20187249.323   106084708.42648      -856.250    20187249.052    82663411.25248
      -667.211  
  22046572.651   115855516.64848     -2040.926    22046570.964    90277015.25647
     -1590.336  
  21000927.990   110360619.99448       201.605    21000928.297    85995288.80147
       157.094  
  23740644.580   124757940.46947      3998.785    23740646.426    97214007.51846
      3115.938  
  22143186.896   116363241.39849      3103.738    22143187.273    90672658.73246
      2418.496  
  24915163.814   130930069.64045      1076.395    24915164.372   102023438.22645
       838.683  
  23919232.964   125696425.48147      3333.456    23919234.413    97945270.59346
      2597.496  
 20 09 27 04 00 55.0000000  0  7G 5G 2G29G15G13G 7G18
  20188065.311   106088996.49948      -858.749    20188064.954    82666752.60647
      -669.159  
  22048515.352   115865725.30048     -2042.581    22048513.667    90284970.05047
     -1591.624  
  21000738.115   110359621.31848       198.030    21000738.293    85994510.61147
       154.309  
  23736840.091   124737947.27747      3998.484    23736841.865    97198428.41344
      3115.698  
  22140234.669   116347727.75149      3101.773    22140235.240    90660570.18346
      2416.964  
  24914140.826   130924693.27145      1074.324    24914141.132   102019248.85744
       837.133  
  23916061.250   125679758.82647      3333.101    23916062.914    97932283.61745
      2597.223  
 20 09 27 04 01  0.0000000  0  7G 5G 2G29G15G13G 7G18
  20188883.588   106093296.63748      -861.211    20188883.304    82670103.36547
      -671.077  
  22050459.574   115875942.15848     -2043.839    22050457.839    90292931.23447
     -1592.604  
  21000551.454   110358640.12648       194.762    21000551.708    85993746.04448
       151.757  
  23733036.124   124717957.70147      3997.895    23733037.982    97182852.14745
      3115.238  
  22137284.539   116332224.36949      3099.871    22137284.916    90648489.62946
      2415.480  
  24913120.012   130919329.35645      1071.500    24913120.530   102015069.19345
       834.933  
  23912890.192   125663094.08347      3332.848    23912891.787    97919298.10045
      2597.019  
 20 09 27 04 01  5.0000000  0  7G 5G 2G29G15G13G 7G18
  20189704.127   106097608.78948      -863.391    20189703.848    82673463.48148
      -672.772  
  22052405.328   115886167.19748     -2045.659    22052403.460    90300898.79047
     -1594.022  
  21000368.011   110357676.37748       191.168    21000368.297    85992995.07148
       148.956  
  23729232.866   124697971.72947      3997.011    23729234.721    97167278.67844
      3114.555  
  22134336.334   116316731.16249      3097.866    22134336.787    90636417.00346
      2413.917  
  24912101.530   130913977.82545      1068.953    24912102.301   102010899.15144
       832.948  
  23909719.226   125646431.17047      3332.749    23909720.919    97906314.01946
      2596.944  
 20 09 27 04 01 10.0000000  0  7G 5G 2G29G15G13G 7G18
  20190527.147   106101933.47348      -866.215    20190526.839    82676833.36447
      -674.976  
  22054352.594   115896400.86748     -2047.476    22054351.031    90308873.07947
     -1595.440  
  21000188.002   110356730.55048       187.410    21000188.313    85992258.06448
       146.031  
  23725430.430   124677989.76147      3996.012    23725432.439    97151708.31345
      3113.773  
  22131390.017   116301248.66249      3095.496    22131390.385    90624352.73046
      2412.069  
  24911085.716   130908639.12345      1065.979    24911086.213   102006739.12945
       830.632  
  23906548.726   125629770.64547      3332.238    23906550.446    97893331.80646
      2596.547  
 20 09 27 04 01 15.0000000  0  7G 5G 2G29G15G13G 7G18
  20191352.278   106106269.78548      -868.480    20191352.018    82680212.30347
      -676.741  
  22056301.573   115906642.35148     -2049.179    22056299.866    90316853.45047
     -1596.765  
  21000011.233   110355801.81048       183.961    21000011.495    85991534.36947
       143.344  
  23721628.732   124658011.07747      3994.926    23721630.548    97136140.54845
      3112.930  
  22128445.780   116285776.09749      3093.394    22128446.192    90612296.18946
      2410.434  
  24910072.053   130903312.44445      1063.586    24910072.486   102002588.49245
       828.766  
  23903378.653   125613111.67047      3331.582    23903380.356    97880350.78745
      2596.034  
 20 09 27 04 01 20.0000000  0  7G 5G 2G29G15G13G 7G18
  20192179.694   106110617.60748      -869.733    20192179.419    82683600.21847
      -677.719  
  22058251.884   115916891.55648     -2049.719    22058250.133    90324839.84547
     -1597.187  
  20999837.889   110354890.06448       181.644    20999837.866    85990823.91748
       141.539  
  23717827.421   124638035.52147      3996.249    23717829.411    97120575.18445
      3113.956  
  22125503.254   116270313.29649      3092.617    22125503.691    90600247.26646
      2409.827  
  24909060.269   130897995.70155      1062.882    24909060.458   101998438.12654
       828.218  
  23900208.963   125596454.09047      3332.461    23900210.297    97867370.86246
      2596.719  
 20 09 27 04 01 25.0000000  0  7G 5G 2G29G15G13G 7G18
  20193009.380   106114977.97948      -873.789    20193009.018    82686997.91048
      -680.879  
  22060203.926   115927149.48348     -2052.844    22060202.356    90332833.02947
     -1599.620  
  20999667.783   110353996.37348       176.538    20999667.901    85990127.53248
       137.558  
  23714027.084   124618064.14747      3993.398    23714028.959    97105013.09445
      3111.738  
  22122562.836   116254861.32949      3088.956    22122563.158    90588206.77646
      2406.977  
  24908051.858   130892693.90445      1058.229    24908051.203   101994306.86144
       824.597  
  23897039.467   125579798.99247      3330.359    23897040.888    97854392.85146
      2595.082  
 20 09 27 04 01 30.0000000  0  7G 5G 2G29G15G13G 7G18
  20193841.348   106119349.99948      -875.230    20193841.023    82690404.67647
      -681.999  
  22062157.462   115937415.25848     -2053.558    22062155.792    90340832.33447
     -1600.179  
  20999500.904   110353119.82148       173.754    20999501.106    85989444.50548
       135.391  
  23710227.320   124598096.19147      3993.530    23710229.048    97089453.65745
      3111.839  
  22119624.316   116239419.36449      3087.671    22119624.805    90576174.08446
      2405.976  
  24907045.522   130887404.16545      1057.108    24907044.951   101990184.96144
       823.714  
  23893870.564   125563145.48347      3330.894    23893872.058    97841416.08245
      2595.499  
 20 09 27 04 01 35.0000000  0  7G 5G 2G29G15G13G 7G18
  20194675.784   106123734.61748      -878.301    20194675.503    82693821.26347
      -684.395  
  22064112.532   115947689.81248     -2055.926    22064110.959    90348838.47647
     -1602.023  
  20999337.627   110352261.39248       169.629    20999337.707    85988775.60148
       132.175  
  23706428.302   124578132.49647      3992.000    23706429.994    97073897.54145
      3110.645  
  22116687.893   116223988.29649      3084.988    22116688.188    90564149.87846
      2403.882  
  24906040.768   130882127.49445      1053.788    24906042.297   101986073.29144
       821.133  
  23890701.998   125546494.52546      3329.832    23890703.309    97828441.30646
      2594.672  
 20 09 27 04 01 40.0000000  0  7G 5G 2G29G15G13G 7G18
  20195512.694   106128132.64048      -880.323    20195512.381    82697248.29647
      -685.968  
  22066069.491   115957973.95248     -2057.531    22066068.056    90356852.08747
     -1603.272  
  20999177.798   110351421.88848       166.293    20999177.986    85988121.44548
       129.573  
  23702630.254   124558173.80747      3991.473    23702631.982    97058345.35044
      3110.237  
  22113753.553   116208568.95249      3083.156    22113753.993    90552134.80946
      2402.456  
  24905039.314   130876864.65945      1051.526    24905040.637   101981972.38045
       819.367  
  23887533.986   125529846.85447      3329.723    23887535.340    97815469.12445
      2594.586  
 20 09 27 04 01 45.0000000  0  7G 5G 2G29G15G13G 7G18
  20196351.712   106132541.55048      -882.895    20196351.246    82700683.80947
      -687.972  
  22068027.978   115968265.12148     -2059.039    22068026.377    90364871.18047
     -1604.448  
  20999021.190   110350598.75548       163.008    20999021.454    85987480.03448
       127.015  
  23698832.743   124538217.75147      3990.909    23698834.576    97042795.16645
      3109.796  
  22110821.121   116193158.82549      3081.042    22110821.500    90540126.92746
      2400.809  
  24904040.101   130871613.10345      1049.401    24904040.491   101977880.26445
       817.715  
  23884366.336   125513200.05347      3329.405    23884367.482    97802497.55846
      2594.339  
 20 09 27 04 01 50.0000000  0  7G 5G 2G29G15G13G 7G18
  20197193.193   106136963.18848      -885.315    20197192.794    82704129.24148
      -689.858  
  22069987.992   115978565.18748     -2060.671    22069986.406    90372897.20047
     -1605.723  
  20998868.006   110349793.82948       159.479    20998868.084    85986852.82248
       124.266  
  23695036.220   124518266.04647      3990.398    23695037.820    97027248.39945
      3109.398  
  22107890.768   116177759.81049      3078.875    22107891.206    90528127.70846
      2399.121  
  24903043.257   130866374.81045      1046.813    24903043.933   101973798.49245
       815.694  
  23881198.823   125496555.90747      3328.676    23881200.293    97789528.13645
      2593.772  
 20 09 27 04 01 55.0000000  0  7G 5G 2G29G15G13G 7G18
  20198038.679   106141406.40248      -888.863    20198038.226    82707591.48847
      -692.625  
  22071951.241   115988882.97748     -2063.261    22071949.854    90380937.03747
     -1607.737  
  20998719.965   110349015.99248       154.952    20998720.097    85986246.71448
       120.737  
  23691241.950   124498327.61547      3988.401    23691243.493    97011711.98245
      3107.848  
  22104964.219   116162380.69249      3075.847    22104964.612    90516143.98346
      2396.762  
  24902050.706   130861158.51245      1043.223    24902051.766   101969733.82845
       812.897  
  23878033.824   125479923.25946      3327.391    23878035.066    97776567.62346
      2592.769  
 20 09 27 04 02  0.0000000  0  7G 5G 2G29G15G13G 7G18
  20198884.535   106145851.28048      -891.761    20198884.209    82711055.02447
      -694.882  
  22073914.311   115999198.69848     -2065.706    22073912.832    90388975.26047
     -1609.645  
  20998573.453   110348245.38048       150.699    20998573.585    85985646.24248
       117.425  
  23687446.544   124478382.65547      3986.879    23687448.103    96996170.46545
      3106.655  
  22102037.677   116147001.73249      3073.097    22102038.247    90504160.38346
      2394.617  
  24901058.397   130855944.39245      1040.249    24901059.385   101965670.88345
       810.581  
  23874867.081   125463282.34747      3326.363    23874868.569    97763600.69346
      2591.968  
 20 09 27 04 02  5.0000000  0  8G 5G 2G29G15G13G30G 7G18
  20199733.619   106150313.81048      -892.328    20199733.332    82714532.32048
      -695.324  
  22075880.015   116009528.26048     -2065.257    22075878.475    90397024.27047
     -1609.297  
  20998431.131   110347497.96948       149.109    20998431.204    85985063.84147
       116.187  
  23683653.024   124458447.10447      3988.133    23683654.566    96980636.28545
      3107.632  
  22099114.195   116131638.85949      3072.901    22099114.776    90492189.31946
      2394.464  
  24917020.613   130939824.37156      2260.145    24917022.122   102031053.49654
      1761.147  
  24900069.860   130850748.47246      1039.550    24900070.498   101961622.14944
       810.038  
  23871701.909   125446649.07247      3328.038    23871703.419    97750639.71346
      2593.276  
 20 09 27 04 02 10.0000000  0  8G 5G 2G29G15G13G30G 7G18
  20200583.285   106154778.18048      -893.847    20200582.949    82718011.04948
      -696.507  
  22077845.165   116019855.88248     -2066.316    22077843.656    90405071.76347
     -1610.120  
  20998290.326   110346757.97448       146.168    20998290.555    85984487.21747
       113.894  
  23679858.175   124438505.22547      3988.183    23679859.742    96965097.17645
      3107.672  
  22096190.884   116116276.28449      3071.555    22096191.316    90480218.48846
      2393.418  
  24914869.953   130928524.54946      2259.012    24914874.894   102022248.42445
      1760.266  
  24899081.471   130845554.98545      1037.456    24899082.143   101957575.21846
       808.398  
  23868535.056   125430007.70747      3327.910    23868536.797    97737672.42446
      2593.171  
 20 09 27 04 02 15.0000000  0  7G 5G 2G29G15G13G30G18
  20201435.040   106159254.55848      -895.819    20201434.769    82721499.13947
      -698.046  
  22079812.020   116030191.68248     -2067.266    22079810.531    90413125.63147
     -1610.858  
  20998152.916   110346035.53448       143.336    20998153.071    85983924.27748
       111.688  
  23676064.064   124418567.25547      3987.917    23676065.643    96949561.10145
      3107.464  
  22093269.484   116100924.16349      3069.952    22093269.830    90468255.80746
      2392.167  
  24912721.457   130917232.84447      2258.413    24912725.528   102013449.69244
      1759.800  
  23865368.696   125413368.31046      3328.292    23865370.434    97724706.66645
      2593.473  
 20 09 27 04 02 20.0000000  0  8G 5G 2G29G15G13G30G 7G18
  20202289.275   106163743.34248      -900.632    20202288.788    82724996.89148
      -701.797  
  22081780.578   116040536.14648     -2071.495    22081779.123    90421186.24947
     -1614.156  
  20998018.958   110345331.08048       137.414    20998019.019    85983375.35548
       107.074  
  23672270.735   124398633.55447      3984.703    23672272.331    96934028.37245
      3104.961  
  22090349.977   116085582.98649      3065.543    22090350.510    90456301.64746
      2388.729  
  24910574.620   130905949.76647      2253.890    24910578.817   102004657.67744
      1756.272  
  24897110.864   130835205.90555      1030.886    24897113.674   101949508.04155
       803.285  
  23862202.761   125396731.43147      3325.473    23862204.514    97711742.88046
      2591.272  
 20 09 27 04 02 25.0000000  0  8G 5G 2G29G15G13G30G 7G18
  20203146.742   106168249.01848      -901.645    20203146.212    82728507.80648
      -702.582  
  22083751.452   116050893.72048     -2071.585    22083750.149    90429257.08347
     -1614.226  
  20997889.181   110344649.13248       135.395    20997889.104    85982843.96848
       105.499  
  23668479.130   124378708.59647      3985.203    23668480.705    96918502.42245
      3105.352  
  22087433.730   116070257.22549      3064.738    22087434.139    90444359.50346
      2388.105  
  24908430.258   130894679.75547      2253.996    24908433.806   101995875.84244
      1756.355  
  24896131.757   130830055.31845      1029.968    24896131.830   101945494.58845
       802.569  
  23859038.224   125380101.51847      3326.469    23859039.942    97698784.48546
      2592.050  
 20 09 27 04 02 30.0000000  0  8G 5G 2G29G15G13G30G 7G18
  20204005.906   106172764.54848      -904.308    20204005.595    82732026.40147
      -704.659  
  22085723.658   116061257.39048     -2073.840    22085722.159    90437332.66847
     -1615.980  
  20997762.242   110343982.62148       131.453    20997762.354    85982324.60548
       102.429  
  23664687.900   124358785.32947      3983.960    23664689.257    96902977.82645
      3104.383  
  22084518.800   116054939.85149      3062.276    22084519.219    90432423.89146
      2386.188  
  24906287.045   130883415.84147      2251.820    24906290.259   101987098.75044
      1754.659  
  24895153.703   130824915.23545      1026.507    24895154.399   101941489.29545
       799.867  
  23855873.646   125363471.52047      3325.866    23855875.425    97685826.06745
      2591.582  
 20 09 27 04 02 35.0000000  0  8G 5G 2G29G15G13G30G 7G18
  20204867.568   106177292.83348      -906.867    20204867.160    82735554.92748
      -706.651  
  22087697.565   116071630.03048     -2075.374    22087696.128    90445415.23947
     -1617.179  
  20997638.937   110343334.46748       127.813    20997639.030    85981819.55347
        99.585  
  23660897.405   124338866.74047      3982.999    23660898.841    96887456.86245
      3103.633  
  22081606.160   116039633.76349      3060.109    22081606.790    90420497.07546
      2384.495  
  24904145.549   130872160.89247      2249.960    24904148.363   101978328.63444
      1753.210  
  24894178.176   130819788.36845      1024.370    24894178.223   101937494.36345
       798.210  
  23852709.669   125346844.36247      3325.276    23852711.170    97672869.84845
      2591.121  
 20 09 27 04 02 40.0000000  0  8G 5G 2G29G15G13G30G 7G18
  20205731.880   106181834.10648      -909.577    20205731.421    82739093.58648
      -708.765  
  22089672.991   116082011.90348     -2077.351    22089671.792    90453505.00347
     -1618.718  
  20997519.029   110342704.87748       124.176    20997519.109    85981328.96348
        96.757  
  23657107.905   124318952.99847      3982.207    23657109.422    96871939.66645
      3103.015  
  22078695.794   116024339.24749      3057.804    22078696.288    90408579.27646
      2382.702  
  24902005.874   130860915.17147      2248.147    24902008.336   101969565.73844
      1751.801  
  24893205.039   130814675.18845      1021.262    24893205.213   101933510.07845
       795.785  
  23849546.266   125330220.28646      3324.515    23849547.756    97659916.00945
      2590.527  
 20 09 27 04 02 45.0000000  0  8G 5G 2G29G15G13G30G 7G18
  20206598.085   106186386.91848      -911.358    20206597.862    82742641.23547
      -710.151  
  22091650.145   116092401.54148     -2078.449    22091648.683    90461600.82347
     -1619.574  
  20997402.552   110342092.43948       121.152    20997402.611    85980851.73948
        94.401  
  23653319.153   124299042.72147      3981.917    23653320.663    96856425.17545
      3102.789  
  22075787.171   116009054.86149      3056.086    22075787.707    90396669.37046
      2381.362  
  24899867.477   130849677.25347      2246.953    24899869.473   101960808.92244
      1750.870  
  24892234.436   130809574.13545      1019.344    24892234.964   101929535.22944
       794.288  
  23846382.974   125313597.85547      3324.793    23846384.470    97646963.47245
      2590.745  
 20 09 27 04 02 50.0000000  0  8G 5G 2G29G15G13G30G 7G18
  20207466.761   106190951.55748      -914.191    20207466.536    82746198.09448
      -712.359  
  22093628.789   116102799.16348     -2080.461    22093627.298    90469702.85847
     -1621.141  
  20997289.333   110341497.43948       117.218    20997289.531    85980388.09848
        91.335  
  23649531.173   124279136.22247      3980.968    23649532.419    96840913.64045
      3102.051  
  22072880.615   115993780.87049      3053.707    22072881.096    90384767.56646
      2379.507  
  24897730.594   130838447.42147      2245.206    24897732.599   101952058.37544
      1749.508  
  24891266.279   130804485.52945      1016.383    24891266.763   101925570.04445
       791.979  
  23843220.249   125296977.37446      3323.647    23843221.715    97634012.42646
      2589.851  
 20 09 27 04 02 55.0000000  0  8G 5G 2G29G15G13G30G 7G18
  20208337.740   106195528.24248      -916.563    20208337.389    82749764.34148
      -714.207  
  22095608.964   116113205.05548     -2081.995    22095607.616    90477811.33847
     -1622.336  
  20997179.537   110340920.08048       113.914    20997179.632    85979938.20848
        88.761  
  23645743.740   124259233.75547      3979.984    23645745.177    96825405.23645
      3101.285  
  22069976.163   115978517.55849      3051.483    22069976.707    90372874.08046
      2377.776  
  24895595.266   130827225.91547      2243.253    24895597.036   101943314.32044
      1747.987  
  24890300.537   130799409.55245      1014.176    24890300.718   101921614.78245
       790.265  
  23840057.647   125280358.97947      3323.629    23840059.381    97621063.07245
      2589.839  
 20 09 27 04 03  0.0000000  0  8G 5G 2G29G15G13G30G 7G18
  20209211.010   106200117.33548      -918.871    20209210.695    82753340.25848
      -716.007  
  22097590.653   116123619.61848     -2083.511    22097589.409    90485926.57347
     -1623.519  
  20997072.979   110340360.77348       110.418    20997073.168    85979502.37948
        86.035  
  23641957.266   124239335.63647      3979.039    23641958.724    96809900.21945
      3100.547  
  22067073.801   115963265.29349      3049.469    22067074.238    90360989.20546
      2376.206  
  24893461.767   130816013.11248      2241.852    24893463.315   101934577.05745
      1746.895  
  24889337.130   130794346.65645      1011.585    24889337.277   101917669.68244
       788.245  
  23836895.917   125263743.22146      3322.878    23836897.171    97608115.69546
      2589.254  
 20 09 27 04 03  5.0000000  0  8G 5G 2G29G15G13G30G 7G18
  20210086.547   106204718.46948      -921.434    20210086.185    82756925.55548
      -718.004  
  22099574.067   116134042.43748     -2085.358    22099572.880    90494048.24147
     -1624.957  
  20996970.020   110339819.09348       106.578    20996970.099    85979080.29947
        83.043  
  23638171.552   124219441.54447      3978.112    23638172.946    96794398.33845
      3099.823  
  22064173.335   115948023.67849      3047.050    22064173.735    90349112.63046
      2374.319  
  24891329.549   130804808.67348      2239.733    24891331.177   101925846.31044
      1745.245  
  24888376.221   130789296.39145      1009.387    24888376.366   101913734.38345
       786.526  
  23833734.329   125247129.56046      3322.563    23833735.946    97595170.00646
      2589.007  
 20 09 27 04 03 10.0000000  0  8G 5G 2G29G15G13G30G 7G18
  20210964.541   106209332.83248      -923.996    20210964.361    82760521.16248
      -720.000  
  22101559.207   116144474.70048     -2087.242    22101558.079    90502177.26947
     -1626.426  
  20996870.479   110339296.25248       102.863    20996870.468    85978672.88647
        80.147  
  23634386.805   124199552.65647      3977.542    23634388.119    96778900.51145
      3099.383  
  22061275.148   115932793.94849      3044.898    22061275.668    90337245.31046
      2372.644  
  24889199.263   130793613.75548      2238.070    24889200.660   101917122.97844
      1743.948  
  24887417.848   130784260.04645      1006.429    24887417.761   101909809.96245
       784.227  
  23830573.504   125230519.28346      3322.168    23830574.847    97582226.92846
      2588.698  
 20 09 27 04 03 15.0000000  0  8G 5G 2G29G15G13G30G 7G18
  20211844.835   106213958.52648      -926.319    20211844.494    82764125.59847
      -721.813  
  22103545.862   116154914.52048     -2088.765    22103544.770    90510312.18747
     -1627.613  
  20996774.200   110338790.39948        99.476    20996774.260    85978278.71548
        77.512  
  23630602.809   124179667.09247      3976.491    23630604.019    96763405.28445
      3098.563  
  22058379.054   115917574.21249      3042.839    22058379.307    90325385.79246
      2371.039  
  24887070.476   130782426.49648      2236.527    24887072.090   101908405.62144
      1742.746  
  24886461.699   130779235.66645      1003.796    24886461.927   101905894.85645
       782.179  
  23827412.868   125213910.49546      3321.383    23827414.508    97569285.02646
      2588.086  
 20 09 27 04 03 20.0000000  0  8G 5G 2G29G15G13G30G 7G18
  20212727.425   106218596.03548      -928.491    20212727.058    82767739.23948
      -723.503  
  22105534.051   116165362.42548     -2090.229    22105532.909    90518453.40847
     -1628.753  
  20996681.350   110338302.00048        96.249    20996681.442    85977898.14147
        74.995  
  23626819.400   124159785.36147      3976.097    23626820.762    96747913.04445
      3098.258  
  22055484.654   115902364.97849      3041.008    22055485.139    90313534.43746
      2369.613  
  24884943.149   130771247.44347      2235.265    24884944.791   101899694.65545
      1741.761  
  24885507.906   130774223.82545      1001.397    24885508.125   101901989.53945
       780.308  
  23824252.643   125197303.68447      3321.476    23824254.159    97556344.67646
      2588.159  
 20 09 27 04 03 25.0000000  0  8G 5G 2G29G15G13G30G 7G18
  20213612.092   106223245.52248      -931.363    20213611.832    82771362.21048
      -725.742  
  22107523.744   116175818.45948     -2092.187    22107522.487    90526600.95847
     -1630.276  
  20996591.716   110337831.18948        92.191    20996591.795    85977531.27048
        71.836  
  23623036.734   124139907.56747      3974.691    23623038.004    96732423.87545
      3097.163  
  22052592.549   115887166.36149      3038.414    22052592.934    90301691.37146
      2367.593  
  24882817.382   130760076.64847      2233.090    24882819.319   101890990.14145
      1740.065  
  24884556.603   130769224.56945       999.113    24884556.648   101898093.96545
       778.526  
  23821092.867   125180698.97847      3320.465    23821094.330    97543405.92445
      2587.370  
 20 09 27 04 03 30.0000000  0  8G 5G 2G29G15G13G30G 7G18
  20214499.236   106227907.43248      -933.445    20214498.805    82774994.86948
      -727.363  
  22109515.134   116186283.22148     -2093.706    22109514.069    90534755.30947
     -1631.465  
  20996505.516   110337378.51748        88.727    20996505.596    85977178.54647
        69.132  
  23619255.041   124120034.29647      3974.324    23619256.409    96716938.21944
      3096.870  
  22049702.373   115871978.97949      3036.402    22049702.955    90289857.04846
      2366.022  
  24880693.323   130748914.77347      2231.604    24880695.320   101882292.56445
      1738.909  
  24883607.668   130764238.50745       995.515    24883607.825   101894208.75545
       775.722  
  23817933.641   125164096.91446      3320.137    23817935.326    97530469.26746
      2587.116  
 20 09 27 04 03 35.0000000  0  8G 5G 2G29G15G13G30G 7G18
  20215388.679   106232581.42748      -935.827    20215388.220    82778636.94048
      -729.219  
  22111508.073   116196756.34448     -2095.390    22111507.089    90542916.17847
     -1632.773  
  20996422.743   110336943.63548        85.296    20996422.786    85976839.67348
        66.461  
  23615474.102   124100165.26447      3973.565    23615475.258    96701455.85245
      3096.280  
  22046814.459   115856802.48049      3034.206    22046814.912    90278031.21446
      2364.313  
  24878570.997   130737761.43547      2229.680    24878572.943   101873601.66245
      1737.409  
  24882661.318   130759265.21645       993.711    24882661.500   101890333.49343
       774.319  
  23814774.960   125147497.21646      3319.999    23814776.626    97517534.44946
      2587.011  
 20 09 27 04 03 40.0000000  0  8G 5G 2G29G15G13G30G 7G18
  20216280.226   106237266.53448      -938.483    20216279.828    82782287.67448
      -731.288  
  22113502.362   116207236.77848     -2097.063    22113501.335    90551082.74947
     -1634.077  
  20996343.190   110336525.48948        81.688    20996343.185    85976513.84547
        63.647  
  23611693.711   124080299.42447      3972.613    23611694.912    96685975.99845
      3095.539  
  22043928.262   115841635.81949      3032.104    22043928.832    90266213.04246
      2362.676  
  24876450.001   130726615.61647      2228.241    24876452.148   101864916.60845
      1736.289  
  24881716.981   130754303.85045       991.266    24881717.277   101886467.46545
       772.409  
  23811616.314   125130898.82747      3319.289    23811617.974    97504600.64046
      2586.456  
 20 09 27 04 03 45.0000000  0  8G 5G 2G29G15G13G30G 7G18
  20217174.222   106241964.33048      -940.628    20217173.902    82785948.29048
      -732.961  
  22115498.545   116217726.22548     -2098.597    22115497.516    90559256.33947
     -1635.272  
  20996267.082   110336125.75348        78.366    20996267.248    85976202.36348
        61.063  
  23607914.295   124060438.45947      3971.866    23607915.522    96670499.93345
      3094.957  
  22041044.346   115826480.67749      3030.120    22041044.715    90254403.84546
      2361.129  
  24874330.659   130715478.99647      2226.624    24874332.994   101856238.71345
      1735.026  
  24880775.373   130749355.91345       988.719    24880775.490   101882611.94045
       770.425  
  23808458.429   125114303.34246      3319.378    23808460.064    97491669.09046
      2586.526  
 20 09 27 04 03 50.0000000  0  8G 5G 2G29G15G13G30G 7G18
  20218070.498   106246674.13848      -943.105    20218070.141    82789618.27048
      -734.891  
  22117496.067   116228223.87148     -2100.332    22117495.174    90567436.32247
     -1636.625  
  20996194.404   110335743.67648        74.425    20996194.472    85975904.64048
        57.992  
  23604135.625   124040581.56947      3970.848    23604137.070    96655027.05445
      3094.168  
  22038162.514   115811336.32949      3027.703    22038163.002    90242603.05846
      2359.245  
  24872213.043   130704350.81547      2224.659    24872215.570   101847567.40545
      1733.500  
  24879836.291   130744420.66245       985.819    24879836.487   101878766.25744
       768.163  
  23805300.834   125097710.13146      3318.530    23805302.536    97478739.32346
      2585.867  
 20 09 27 04 03 55.0000000  0  8G 5G 2G29G15G13G30G 7G18
  20218969.061   106251396.08248      -945.468    20218968.607    82793297.71448
      -736.729  
  22119495.303   116238729.99148     -2101.823    22119494.299    90575622.90447
     -1637.788  
  20996125.137   110335379.48348        71.292    20996125.115    85975620.85448
        55.550  
  23600357.885   124020729.04047      3970.222    23600359.098    96639557.54744
      3093.675  
  22035282.781   115796203.01049      3025.667    22035283.009    90230810.87346
      2357.660  
  24870097.085   130693231.31946      2223.047    24870099.574   101838902.88345
      1732.241  
  24878899.622   130739498.40145       983.433    24878899.809   101874930.78045
       766.308  
  23802143.576   125081119.37546      3317.921    23802145.347    97465811.47545
      2585.390  
 20 09 27 04 04  0.0000000  0  8G 5G 2G29G15G13G30G 7G18
  20219869.909   106256130.35348      -948.241    20219869.516    82796986.75348
      -738.894  
  22121496.236   116249244.68048     -2103.824    22121495.376    90583816.16747
     -1639.347  
  20996059.285   110335033.30848        67.261    20996059.422    85975351.10348
        52.409  
  23596580.740   124000880.97747      3969.117    23596582.194    96624091.53746
      3092.816  
  22032404.960   115781080.86548      3023.194    22032405.499    90219027.38846
      2355.733  
  24867982.602   130682120.63546      2221.168    24867985.584   101830245.22646
      1730.776  
  24877965.425   130734589.28745       980.687    24877965.684   101871105.47545
       764.168  
  23798986.816   125064531.17846      3317.117    23798988.643    97452885.61045
      2584.762  
 20 09 27 04 04  5.0000000  0  8G 5G 2G29G15G13G30G 7G18
  20220773.031   106260876.32248      -950.383    20220772.606    82800684.91248
      -740.562  
  22123498.713   116259767.36448     -2105.249    22123497.652    90592015.65147
     -1640.457  
  20995996.693   110334704.50548        64.031    20995996.663    85975094.89548
        49.895  
  23592804.543   123981036.83447      3968.641    23592805.988    96608628.57345
      3092.444  
  22029529.408   115765969.27148      3021.301    22029529.921    90207252.12646
      2354.257  
  24865869.817   130671018.18746      2219.793    24865872.732   101821593.98346
      1729.706  
  24877033.637   130729692.71145       978.151    24877033.870   101867289.97545
       762.194  
  23795830.329   125047944.91246      3317.031    23795832.402    97439961.23945
      2584.694  
 20 09 27 04 04 10.0000000  0  8G 5G 2G29G15G13G30G 7G18
  20221678.463   106265634.02448      -952.730    20221678.159    82804392.21848
      -742.391  
  22125502.710   116270298.00348     -2106.909    22125501.649    90600221.34347
     -1641.750  
  20995937.522   110334393.12648        60.629    20995937.584    85974852.26047
        47.238  
  23589029.142   123961196.59248      3967.684    23589030.487    96593168.65245
      3091.699  
  22026655.782   115750868.26249      3019.284    22026656.281    90195485.11446
      2352.687  
  24863758.338   130659923.98046      2218.480    24863761.888   101812949.17945
      1728.688  
  24876104.232   130724808.65145       975.102    24876104.731   101863484.21444
       759.816  
  23792674.456   125031360.72146      3316.730    23792676.281    97427038.51445
      2584.460  
 20 09 27 04 04 15.0000000  0  8G 5G 2G29G15G13G30G 7G18
  20222585.976   106270403.85148      -955.167    20222585.658    82808108.96548
      -744.288  
  22127508.239   116280837.06748     -2108.668    22127507.127    90608433.59547
     -1643.121  
  20995881.573   110334099.67448        56.933    20995881.635    85974623.59247
        44.359  
  23585254.483   123941360.71948      3966.805    23585255.986    96577712.14145
      3091.011  
  22023784.241   115735778.30948      3016.858    22023784.606    90183726.71246
      2350.797  
  24861648.743   130648838.51445      2216.269    24861652.436   101804311.16846
      1726.965  
  24875177.337   130719937.50445       972.766    24875177.671   101859688.49544
       757.995  
  23789518.990   125014778.95046      3316.144    23789520.778    97414117.66244
      2584.004  
 20 09 27 04 04 20.0000000  0  8G 5G 2G29G15G13G30G 7G18
  20223495.766   106275184.98648      -957.538    20223495.562    82811834.52348
      -746.136  
  22129515.097   116291383.77048     -2110.245    22129514.044    90616651.80347
     -1644.351  
  20995829.045   110333823.29148        53.500    20995829.141    85974408.23348
        41.684  
  23581480.570   123921528.45548      3965.773    23581481.995    96562258.43645
      3090.210  
  22020914.589   115720698.65148      3014.637    22020915.151    90171976.33446
      2349.062  
  24859540.371   130637760.97545      2214.479    24859544.551   101795679.35846
      1725.569  
  24874252.681   130715078.56445       971.133    24874253.125   101855902.32245
       756.723  
  23786363.976   124998198.86446      3315.902    23786365.825    97401198.09245
      2583.816  
 20 09 27 04 04 25.0000000  0  8G 5G 2G29G15G13G30G 7G18
  20224408.241   106279979.32648      -960.062    20224407.917    82815570.37148
      -748.104  
  22131523.827   116301939.96448     -2111.991    22131522.926    90624877.40247
     -1645.710  
  20995779.945   110333565.86248        49.702    20995780.048    85974207.64248
        38.727  
  23577707.614   123901701.68648      3964.933    23577709.234    96546809.01745
      3089.559  
  22018047.428   115705631.12148      3012.511    22018047.850    90160235.40546
      2347.410  
  24857434.223   130626693.24845      2212.617    24857438.417   101787055.18645
      1724.117  
  24873330.708   130710233.71746       967.737    24873331.166   101852127.11645
       754.077  
  23783209.699   124981622.33746      3314.929    23783211.405    97388281.33545
      2583.058  
 20 09 27 04 04 30.0000000  0  8G 5G 2G29G15G13G30G 7G18
  20225322.598   106284784.05348      -961.952    20225322.242    82819314.31648
      -749.577  
  22133533.916   116312502.83748     -2113.519    22133533.049    90633108.20647
     -1646.901  
  20995734.080   110333324.56048        46.410    20995734.142    85974019.60647
        36.160  
  23573935.223   123881877.57448      3964.276    23573936.706    96531361.67345
      3089.043  
  22015181.788   115690572.92648      3010.559    22015182.258    90148501.75346
      2345.887  
  24855329.206   130615632.55846      2211.409    24855333.599   101778436.49445
      1723.176  
  24872411.072   130705400.12245       965.004    24872411.139   101848360.66544
       751.949  
  23780055.469   124965046.52746      3314.991    23780057.177    97375365.10945
      2583.109  
 20 09 27 04 04 35.0000000  0  8G 5G 2G29G15G13G30G 7G18
  20226239.054   106289600.96748      -964.539    20226238.771    82823067.75848
      -751.594  
  22135545.711   116323074.20048     -2115.152    22135544.635    90641345.62747
     -1648.176  
  20995691.644   110333101.21448        43.015    20995691.641    85973845.56947
        33.516  
  23570163.614   123862057.97948      3963.566    23570165.101    96515917.83445
      3088.487  
  22012318.423   115675525.96548      3008.269    22012318.880    90136776.85546
      2344.102  
  24853226.018   130604580.67046      2209.573    24853230.522   101769824.65145
      1721.746  
  24871493.714   130700579.52946       962.952    24871493.942   101844604.36645
       750.351  
  23776901.776   124948473.29246      3314.434    23776903.290    97362450.90846
      2582.671  
 20 09 27 04 04 40.0000000  0  8G 5G 2G29G15G13G30G 7G18
  20227158.180   106294430.35148      -966.883    20227157.733    82826830.90848
      -753.417  
  22137559.028   116333654.31748     -2116.859    22137557.917    90649589.86947
     -1649.504  
  20995652.667   110332896.10748        39.336    20995652.565    85973685.74947
        30.648  
  23566393.130   123842243.13948      3962.695    23566394.499    96500477.72445
      3087.815  
  22009457.343   115660490.51348      3005.995    22009457.700    90125060.92746
      2342.332  
  24851124.575   130593537.92146      2207.906    24851129.068   101761219.92545
      1720.440  
  24870579.052   130695772.35445       959.812    24870579.122   101840858.51945
       747.901  
  23773748.422   124931902.86747      3313.964    23773750.062    97349538.90345
      2582.309  
 20 09 27 04 04 45.0000000  0  8G 5G 2G29G15G13G30G 7G18
  20228079.205   106299270.83948      -969.051    20228078.893    82830602.71648
      -755.109  
  22139573.696   116344241.84648     -2118.410    22139572.670    90657839.88247
     -1650.711  
  20995616.708   110332707.92248        35.722    20995616.930    85973539.10948
        27.832  
  23562623.027   123822431.77148      3962.039    23562624.635    96485040.29045
      3087.300  
  22006598.158   115645465.14648      3004.133    22006598.485    90113352.85646
      2340.879  
  24849024.684   130582502.98046      2206.379    24849029.261   101752621.28545
      1719.254  
  24869666.612   130690977.13845       957.953    24869666.583   101837121.98145
       746.452  
  23770595.448   124915333.93846      3313.749    23770597.310    97336628.03446
      2582.140  
 20 09 27 04 04 50.0000000  0  8G 5G 2G29G15G13G30G 7G18
  20229002.699   106304123.26948      -971.620    20229002.271    82834383.82748
      -757.109  
  22141590.051   116354837.61348     -2120.035    22141589.122    90666096.32147
     -1651.980  
  20995584.369   110332537.44748        32.136    20995584.460    85973406.27447
        25.038  
  23558853.857   123802624.71348      3960.827    23558855.465    96469606.23445
      3086.355  
  22003740.883   115630450.74848      3001.859    22003741.456    90101653.32946
      2339.108  
  24846926.531   130571476.70747      2204.336    24846930.928   101744029.39845
      1717.660  
  24868756.483   130686194.78446       955.434    24868756.616   101833395.47245
       744.491  
  23767442.968   124898767.35546      3313.003    23767444.909    97323719.04446
      2581.562  
 20 09 27 04 04 55.0000000  0  8G 5G 2G29G15G13G30G 7G18
  20229928.305   106308987.77148      -973.940    20229928.068    82838174.34248
      -758.918  
  22143607.969   116365441.68848     -2121.460    22143607.047    90674359.23147
     -1653.089  
  20995555.244   110332384.70848        29.015    20995555.393    85973287.25248
        22.605  
  23555085.482   123782821.95648      3960.121    23555087.020    96454175.51745
      3085.805  
  22000885.881   115615447.36148      2999.891    22000886.384    90089962.38346
      2337.573  
  24844830.145   130560459.09247      2202.999    24844834.279   101735444.25345
      1716.620  
  24867848.946   130681425.33446       952.828    24867849.067   101829679.02545
       742.460  
  23764290.910   124882203.14746      3312.823    23764292.692    97310811.86646
      2581.417  
 20 09 27 04 05  0.0000000  0  8G 5G 2G29G15G13G30G 7G18
  20230856.389   106313864.10448      -976.277    20230856.062    82841974.07548
      -760.738  
  22145627.379   116376053.97648     -2123.086    22145626.427    90682628.53547
     -1654.354  
  20995529.560   110332249.64348        25.375    20995529.783    85973182.00748
        19.769  
  23551318.037   123763023.49248      3959.272    23551319.599    96438748.15245
      3085.145  
  21998032.790   115600454.95448      2997.440    21998033.250    90078279.99346
      2335.663  
  24842735.245   130549450.13147      2200.980    24842739.109   101726865.85044
      1715.050  
  24866943.772   130676668.70446       949.918    24866943.829   101825972.53745
       740.188  
  23761139.213   124865641.24346      3312.270    23761141.085    97297906.50145
      2580.983  
 20 09 27 04 05  5.0000000  0  8G 5G 2G29G15G13G30G 7G18
  20231786.543   106318752.19148      -978.726    20231786.028    82845782.97248
      -762.647  
  22147648.506   116386674.35148     -2124.766    22147647.507    90690904.14847
     -1655.664  
  20995507.272   110332132.17648        21.769    20995507.300    85973090.47447
        16.960  
  23547551.366   123743229.25448      3958.551    23547552.892    96423324.08445
      3084.582  
  21995181.999   115585473.41748      2995.148    21995182.582    90066606.07945
      2333.879  
  24840641.890   130538449.69547      2199.234    24840645.933   101718294.08245
      1713.714  
  24866041.096   130671924.79845       947.964    24866041.007   101822275.97745
       738.672  
  23757987.939   124849081.56346      3311.570    23757989.691    97285002.84945
      2580.441  
 20 09 27 04 05 10.0000000  0  8G 5G 2G29G15G13G30G 7G18
  20232718.798   106323651.75348      -981.097    20232718.399    82849600.81348
      -764.495  
  22149670.982   116397302.50048     -2126.565    22149669.814    90699185.81347
     -1657.066  
  20995488.064   110332031.95648        18.405    20995488.251    85973012.38047
        14.339  
  23543785.249   123723438.89148      3957.683    23543786.861    96407903.03945
      3083.905  
  21992333.088   115570502.44748      2993.046    21992333.633    90054940.39046
      2332.242  
  24838550.241   130527457.50647      2197.398    24838553.909   101709728.75145
      1712.254  
  24865140.860   130667193.30845       944.883    24865140.882   101818589.11545
       736.269  
  23754837.020   124832523.77746      3311.358    23754838.868    97272100.69245
      2580.276  
 20 09 27 04 05 15.0000000  0  8G 5G 2G29G15G13G30G 7G18
  20233653.530   106328563.61748      -983.647    20233653.233    82853428.23948
      -766.484  
  22151695.143   116407939.28848     -2128.378    22151694.071    90707474.21447
     -1658.480  
  20995472.446   110331949.88148        14.762    20995472.626    85972948.42548
        11.500  
  23540020.268   123703653.28248      3956.559    23540021.557    96392485.68345
      3083.030  
  21989486.278   115555542.92048      2990.656    21989486.863    90043283.62246
      2330.379  
  24836460.328   130516474.34447      2195.902    24836463.866   101701170.43645
      1711.090  
  24864243.028   130662475.10445       942.507    24864243.012   101814912.61446
       734.421  
  23751686.627   124815968.78846      3310.723    23751688.566    97259200.70045
      2579.780  
 20 09 27 04 05 20.0000000  0  8G 5G 2G29G15G13G30G 7G18
  20234590.535   106333487.89048      -985.918    20234590.284    82857265.33648
      -768.250  
  22153720.843   116418584.82248     -2129.594    22153719.817    90715769.42947
     -1659.425  
  20995460.430   110331886.05348        11.172    20995460.410    85972898.68748
         8.702  
  23536256.054   123683872.61148      3955.562    23536257.521    96377072.18045
      3082.254  
  21986641.757   115540594.95748      2988.508    21986642.308    90031635.86546
      2328.703  
  24834372.071   130505500.51047      2193.987    24834375.425   101692619.39945
      1709.598  
  24863347.649   130657770.35745       939.788    24863347.780   101811246.56845
       732.300  
  23748536.909   124799416.69146      3310.043    23748538.866    97246302.95945
      2579.250  
 20 09 27 04 05 25.0000000  0  8G 5G 2G29G15G13G30G 7G18
  20235529.821   106338423.12148      -988.250    20235529.281    82861110.96548
      -770.065  
  22155748.059   116429237.66248     -2131.496    22155747.014    90724070.33747
     -1660.910  
  20995451.478   110331839.00748         7.301    20995451.610    85972862.02747
         5.687  
  23532492.619   123664095.34848      3954.757    23532494.082    96361661.33845
      3081.624  
  21983799.324   115525657.12148      2986.315    21983799.695    90019995.99746
      2326.995  
  24832285.365   130494534.42147      2192.070    24832288.507   101684074.38444
      1708.105  
  24862454.554   130653077.57945       936.651    24862454.720   101807589.85844
       729.854  
  23745387.363   124782865.99746      3309.812    23745389.421    97233406.35046
      2579.073  
 20 09 27 04 05 30.0000000  0  8G 5G 2G29G15G13G30G 7G18
  20236471.216   106343370.87148      -990.887    20236470.959    82864966.35548
      -772.121  
  22157777.012   116439899.32048     -2133.090    22157775.943    90732378.11947
     -1662.152  
  20995445.955   110331810.26848         4.144    20995446.019    85972839.63248
         3.226  
  23528730.104   123644323.10248      3954.043    23528731.528    96346254.40445
      3081.069  
  21980958.791   115510730.98548      2984.046    21980959.538    90008365.24946
      2325.226  
  24830200.345   130483577.69247      2190.484    24830203.213   101675536.67244
      1706.867  
  24861564.124   130648398.27445       934.522    24861564.363   101803943.65145
       728.195  
  23742238.641   124766318.34746      3309.254    23742240.409    97220512.04945
      2578.637  
 20 09 27 04 05 35.0000000  0  8G 5G 2G29G15G13G30G 7G18
  20237415.092   106348330.25948      -993.027    20237414.607    82868830.81448
      -773.789  
  22159807.257   116450568.95548     -2134.722    22159806.305    90740692.11147
     -1663.421  
  20995443.827   110331799.02248         0.397    20995443.810    85972830.86748
         0.308  
  23524968.375   123624555.02248      3953.125    23524969.653    96330850.71445
      3080.355  
  21978120.541   115495815.66548      2982.020    21978121.072    89996742.92346
      2323.647  
  24828117.029   130472629.44847      2188.945    24828119.787   101667005.57844
      1705.667  
  24860676.053   130643731.64945       932.097    24860676.322   101800307.30246
       726.309  
  23739090.112   124749772.80946      3308.878    23739091.962    97207619.43245
      2578.344  
 20 09 27 04 05 40.0000000  0  8G 5G 2G29G15G13G30G 7G18
  20238361.061   106353301.26248      -995.152    20238360.680    82872704.32448
      -775.444  
  22161839.240   116461246.56748     -2136.246    22161838.149    90749012.32747
     -1664.609  
  20995444.921   110331805.27248        -3.003    20995445.044    85972835.73447
        -2.343  
  23521207.398   123604791.14048      3952.593    23521208.888    96315450.29445
      3079.940  
  21975284.385   115480911.21848      2979.949    21975285.052    89985129.08146
      2322.034  
  24826035.251   130461689.72547      2187.069    24826038.069   101658481.10344
      1704.206  
  24859790.445   130639077.68845       929.988    24859790.640   101796680.86245
       724.664  
  23735942.225   124733229.42946      3308.460    23735943.972    97194728.50245
      2578.019  
 20 09 27 04 05 45.0000000  0  8G 5G 2G29G15G13G30G 7G18
  20239309.101   106358283.68448      -997.651    20239308.713    82876586.73448
      -777.395  
  22163872.545   116471931.87448     -2137.820    22163871.448    90757338.53547
     -1665.835  
  20995449.293   110331828.74448        -6.452    20995449.672    85972854.02848
        -5.031  
  23517447.182   123585031.16748      3951.718    23517448.559    96300052.93645
      3079.257  
  21972450.153   115466017.41848      2977.644    21972450.733    89973523.51946
      2320.238  
  24823955.130   130450758.27447      2185.386    24823957.791   101649963.08443
      1702.894  
  24858907.270   130634436.19745       927.120    24858907.415   101793064.10944
       722.430  
  23732794.491   124716687.97646      3308.194    23732796.184    97181839.02546
      2577.812  
 20 09 27 04 05 50.0000000  0  8G 5G 2G29G15G13G30G 7G18
  20240259.612   106363278.65248     -1000.015    20240259.194    82880478.91848
      -779.234  
  22165907.786   116482626.10848     -2139.554    22165906.447    90765671.70247
     -1667.188  
  20995457.284   110331870.64348       -10.082    20995457.500    85972886.67648
        -7.859  
  23513687.933   123565276.39648      3950.499    23513689.396    96284659.60745
      3078.308  
  21969618.192   115451135.39248      2975.519    21969618.863    89961927.14246
      2318.582  
  24821876.740   130439836.28847      2183.723    24821879.217   101641452.45744
      1701.597  
  24858026.519   130629808.34845       924.371    24858026.766   101789458.00045
       720.284  
  23729647.414   124700149.59746      3307.578    23729648.750    97168951.99745
      2577.332  
 20 09 27 04 05 55.0000000  0  8G 5G 2G29G15G13G30G 7G18
  20241212.415   106368285.26148     -1002.543    20241212.110    82884380.17148
      -781.206  
  22167944.354   116493328.34448     -2141.309    22167943.157    90774011.09947
     -1668.554  
  20995468.685   110331930.02348       -13.633    20995468.746    85972932.94747
       -10.624  
  23509929.431   123545525.83448      3949.663    23509930.973    96269269.55645
      3077.656  
  21966788.332   115436264.28348      2973.020    21966788.942    89950339.27446
      2316.636  
  24819799.852   130428922.91947      2181.542    24819802.421   101632948.54245
      1699.902  
  24857148.251   130625193.17845       921.589    24857148.208   101785861.76345
       718.116  
  23726500.679   124683613.42645      3307.147    23726502.121    97156066.66946
      2576.996  
 20 09 27 04 06  0.0000000  0  8G 5G 2G29G15G13G30G 7G18
  20242167.304   106373303.92548     -1005.023    20242166.963    82888290.82148
      -783.136  
  22169982.421   116504038.99048     -2142.770    22169981.355    90782357.05047
     -1669.695  
  20995483.331   110332007.39748       -17.406    20995483.622    85972993.23448
       -13.566  
  23506171.873   123525779.92348      3948.582    23506173.503    96253883.15445
      3076.813  
  21963960.561   115421404.56148      2970.870    21963961.255    89938760.27646
      2314.960  
  24817724.868   130418018.52547      2180.101    24817727.397   101624451.63244
      1698.781  
  24856272.454   130620591.11345       919.065    24856272.598   101782275.72544
       716.152  
  23723354.255   124667079.94846      3306.457    23723355.889    97143183.46946
      2576.457  
 20 09 27 04 06  5.0000000  0  8G 5G 2G29G15G13G30G 7G18
  20243124.678   106378334.77148     -1007.538    20243124.271    82892210.96248
      -785.098  
  22172022.414   116514758.13248     -2144.687    22172020.993    90790709.62347
     -1671.188  
  20995501.399   110332102.78248       -20.781    20995501.711    85973067.55848
       -16.194  
  23502415.306   123506038.74848      3947.804    23502416.814    96238500.42345
      3076.206  
  21961135.088   115406556.28448      2968.636    21961135.737    89927190.19146
      2313.218  
  24815651.604   130407123.26247      2178.164    24815654.098   101615961.82045
      1697.265  
  24855399.132   130616002.30645       916.101    24855399.617   101778700.07545
       713.844  
  23720208.646   124650549.10046      3305.895    23720210.325    97130302.28546
      2576.019  
 20 09 27 04 06 10.0000000  0  8G 5G 2G29G15G13G30G 7G18
  20244084.334   106383377.20548     -1009.679    20244084.012    82896140.12948
      -786.765  
  22174063.725   116525485.20148     -2146.140    22174062.331    90799068.37147
     -1672.320  
  20995522.916   110332215.63648       -24.637    20995523.210    85973155.49748
       -19.199  
  23498659.456   123486301.81248      3946.866    23498660.854    96223120.98945
      3075.477  
  21958311.498   115391718.87948      2966.355    21958312.167    89915628.57846
      2311.441  
  24813579.832   130396236.55746      2176.288    24813582.461   101607478.68845
      1695.804  
  24854528.244   130611426.13245       913.979    24854528.748   101775134.20045
       712.188  
  23717063.246   124634020.44346      3305.679    23717064.966    97117422.84845
      2575.855  
 20 09 27 04 06 15.0000000  0  8G 5G 2G29G15G13G30G 7G18
  20245046.067   106388431.61248     -1011.840    20245045.704    82900078.62948
      -788.448  
  22176106.562   116536220.66348     -2147.866    22176105.144    90807433.66147
     -1673.664  
  20995547.828   110332346.39448       -27.945    20995548.130    85973257.38548
       -21.776  
  23494904.571   123466569.54148      3945.961    23494906.151    96207745.20145
      3074.772  
  21955490.209   115376892.83948      2964.277    21955490.782    89904075.82546
      2309.823  
  24811509.738   130385358.86046      2174.706    24811512.666   101599002.59745
      1694.577  
  24853659.863   130606863.13445       911.179    24853660.491   101771578.61445
       710.007  
  23713918.524   124617494.44346      3304.977    23713920.259    97104545.42645
      2575.305  
 20 09 27 04 06 20.0000000  0  8G 5G 2G29G15G13G30G 7G18
  20246010.108   106393497.15248     -1014.331    20246009.605    82904025.80048
      -790.391  
  22178150.931   116546963.61648     -2149.612    22178149.443    90815804.78747
     -1675.026  
  20995576.004   110332494.17648       -31.522    20995576.222    85973372.54248
       -24.565  
  23491150.438   123446841.09448      3945.000    23491151.911    96192372.40545
      3074.023  
  21952671.012   115362077.29748      2961.902    21952671.611    89892531.25745
      2307.972  
  24809441.324   130374489.27146      2173.180    24809444.211   101590532.80945
      1693.386  
  24852793.757   130602312.34045       908.707    24852794.583   101768032.55645
       708.082  
  23710774.242   124600970.12946      3304.469    23710775.958    97091669.34846
      2574.906  
 20 09 27 04 06 25.0000000  0  8G 5G 2G29G15G13G30G 7G18
  20246976.217   106398574.99348     -1016.645    20246975.962    82907982.55748
      -792.195  
  22180197.012   116557715.21548     -2151.351    22180195.441    90824182.65047
     -1676.382  
  20995607.582   110332660.12348       -34.831    20995607.708    85973501.84848
       -27.144  
  23487397.084   123427117.58348      3944.477    23487398.659    96177003.43345
      3073.612  
  21949853.902   115347273.41148      2959.566    21949854.388    89880995.76446
      2306.152  
  24807374.656   130363629.04446      2171.063    24807377.802   101582070.30246
      1691.734  
  24851930.350   130597775.01245       906.277    24851931.096   101764496.99945
       706.188  
  23707630.345   124584448.74747      3304.155    23707631.923    97078795.55345
      2574.664  
 20 09 27 04 06 30.0000000  0  8G 5G 2G29G15G13G30G 7G18
  20247944.815   106403664.26348     -1019.039    20247944.509    82911948.22148
      -794.059  
  22182244.430   116568474.62648     -2152.918    22182242.894    90832566.60047
     -1677.602  
  20995642.415   110332843.45048       -38.539    20995642.648    85973644.70148
       -30.034  
  23483644.666   123407398.24748      3943.308    23483646.104    96161637.72245
      3072.703  
  21947038.893   115332480.37748      2957.398    21947039.368    89869468.72946
      2304.465  
  24805309.469   130352777.31845      2169.077    24805312.785   101573614.43645
      1690.190  
  24851069.247   130593250.26445       903.663    24851070.266   101760971.20145
       704.152  
  23704487.044   124567929.46446      3303.562    23704488.312    97065923.36445
      2574.202  
 20 09 27 04 06 35.0000000  0  8G 5G 2G29G15G13G30G 7G18
  20248915.514   106408765.25748     -1021.409    20248915.258    82915923.02348
      -795.906  
  22184293.557   116579242.14648     -2154.383    22184291.824    90840956.87347
     -1678.741  
  20995680.673   110333044.46948       -42.136    20995680.993    85973801.34148
       -32.836  
  23479893.018   123387683.41948      3942.327    23479894.530    96146275.52945
      3071.940  
  21944225.979   115317698.53848      2955.105    21944226.564    89857950.42046
      2302.675  
  24803245.998   130341934.36245      2168.272    24803249.647   101565165.41945
      1689.563  
  24850210.659   130588738.41645       900.987    24850211.596   101757455.46944
       702.065  
  23701344.016   124551412.55346      3303.065    23701345.314    97053053.03445
      2573.815  
 20 09 27 04 06 40.0000000  0  8G 5G 2G29G15G13G30G 7G18
  20249888.481   106413878.32548     -1023.883    20249888.196    82919907.22848
      -797.831  
  22186344.201   116590018.10248     -2156.109    22186342.449    90849353.71447
     -1680.090  
  20995722.353   110333263.46748       -45.679    20995722.505    85973971.98248
       -35.598  
  23476142.316   123367973.40848      3941.663    23476143.941    96130917.08945
      3071.421  
  21941415.333   115302928.18148      2952.948    21941415.929    89846441.06045
      2300.996  
  24801184.180   130331100.65445      2165.245    24801188.131   101556723.60446
      1687.207  
  24849354.504   130584239.75745       898.179    24849355.545   101753950.02046
       699.878  
  23698201.480   124534898.38346      3302.355    23698202.471    97040184.86746
      2573.262  
 20 09 27 04 06 45.0000000  0  8G 5G 2G29G15G13G30G 7G18
  20250863.714   106419003.55748     -1026.319    20250863.350    82923900.91848
      -799.733  
  22188396.359   116600802.57748     -2157.793    22188394.795    90857757.19847
     -1681.398  
  20995767.440   110333500.52648       -49.315    20995767.676    85974156.70348
       -38.429  
  23472392.557   123348268.29648      3940.633    23472394.117    96115562.46445
      3070.620  
  21938606.790   115288169.43748      2950.569    21938607.273    89834940.74146
      2299.141  
  24799124.246   130320276.09845      2163.996    24799128.270   101548288.91246
      1686.230  
  24848501.018   130579754.44345       895.878    24848501.823   101750454.98446
       698.086  
  23695059.507   124518387.04646      3301.507    23695060.278    97027318.86145
      2572.601  
 20 09 27 04 06 50.0000000  0  8G 5G 2G29G15G13G30G 7G18
  20251841.241   106424140.84048     -1028.559    20251840.927    82927903.99148
      -801.476  
  22190450.237   116611595.53048     -2159.375    22190448.587    90866167.28747
     -1682.632  
  20995815.964   110333755.67848       -52.956    20995816.269    85974355.52548
       -41.269  
  23468643.747   123328568.22748      3939.530    23468645.267    96100211.77045
      3069.762  
  21935800.536   115273422.28548      2948.289    21935801.045    89823449.45646
      2297.362  
  24797065.841   130309460.82245      2162.074    24797070.269   101539861.45946
      1684.734  
  24847649.877   130575282.41545       893.563    24847650.914   101746970.30645
       696.280  
  23691917.831   124501878.39346      3301.597    23691918.964    97014455.01644
      2572.675  
 20 09 27 04 06 55.0000000  0  8G 5G 2G29G15G13G30G 7G18
  20252821.066   106429289.79048     -1030.733    20252820.946    82931916.16348
      -803.172  
  22192505.619   116622396.53948     -2160.843    22192503.858    90874583.65647
     -1683.776  
  20995867.928   110334028.43548       -56.145    20995868.287    85974568.06148
       -43.754  
  23464895.714   123308872.52448      3938.718    23464897.376    96084864.47045
      3069.129  
  21932996.388   115258686.26248      2946.183    21932996.792    89811966.85246
      2295.722  
  24795009.329   130298654.30945      2160.727    24795013.797   101531440.83346
      1683.687  
  24846801.321   130570823.28545       890.483    24846802.443   101743495.65145
       693.879  
  23688776.738   124485372.15046      3301.288    23688777.909    97001593.01845
      2572.430  
 20 09 27 04 07  0.0000000  0  8G 5G 2G29G15G13G30G 7G18
  20253803.152   106434450.12548     -1033.296    20253802.925    82935937.20348
      -805.168  
  22194562.518   116633205.33548     -2162.574    22194560.839    90883006.08747
     -1685.125  
  20995923.119   110334318.53248       -59.629    20995923.482    85974794.10948
       -46.469  
  23461148.633   123289181.01148      3937.723    23461150.232    96069520.44745
      3068.352  
  21930194.315   115243961.14348      2943.839    21930194.703    89800492.73446
      2293.897  
  24792954.347   130287856.37345      2158.195    24792959.042   101523026.89145
      1681.715  
  24845955.074   130566376.72945       888.273    24845956.345   101740030.80144
       692.156  
  23685636.023   124468868.02446      3300.566    23685637.197    96988732.67045
      2571.866  
 20 09 27 04 07  5.0000000  0  8G 5G 2G29G15G13G30G 7G18
  20254787.326   106439622.33848     -1035.734    20254787.119    82939967.50048
      -807.070  
  22196620.968   116644022.37648     -2164.351    22196619.025    90891434.95147
     -1686.511  
  20995981.732   110334626.44848       -63.640    20995982.100    85975034.04448
       -49.594  
  23457402.323   123269494.20748      3937.124    23457404.096    96054180.08445
      3067.887  
  21927394.346   115229247.42648      2941.277    21927394.799    89789027.50346
      2291.901  
  24790901.172   130277067.45945      2156.940    24790906.034   101514619.97946
      1680.734  
  24845111.477   130561943.28245       885.227    24845112.883   101736576.18446
       689.789  
  23682495.747   124452366.47946      3300.016    23682497.176    96975874.33845
      2571.438  
 20 09 27 04 07 10.0000000  0  8G 5G 2G29G15G13G30G 7G18
  20255773.419   106444804.41448     -1037.562    20255773.244    82944005.48548
      -808.491  
  22198680.552   116654845.71848     -2165.812    22198678.691    90899868.72047
     -1687.648  
  20996043.372   110334950.18148       -66.809    20996043.628    85975286.30447
       -52.063  
  23453656.575   123249810.10748      3936.285    23453658.169    96038841.82746
      3067.230  
  21924596.268   115214543.11848      2939.594    21924596.619    89777569.61146
      2290.590  
  24788849.362   130266285.62445      2155.358    24788854.423   101506218.56746
      1679.500  
  24844270.207   130557521.97155       882.640    24844271.001   101733132.25455
       687.769  
  23679355.782   124435865.57146      3299.854    23679357.123    96963016.47145
      2571.313  
 20 09 27 04 07 15.0000000  0  8G 5G 2G29G15G13G30G 7G18
  20256762.172   106450000.90948     -1040.440    20256762.057    82948054.69948
      -810.738  
  22200742.219   116665679.81948     -2167.757    22200740.291    90908310.87647
     -1689.163  
  20996108.825   110335294.26348       -70.602    20996109.090    85975554.42047
       -55.015  
  23449912.156   123230133.23848      3935.063    23449913.935    96023509.22445
      3066.276  
  21921800.670   115199852.77748      2936.741    21921801.118    89766122.59346
      2288.367  
  24786799.885   130255515.42346      2152.956    24786805.025   101497826.22046
      1677.624  
  24843430.975   130553115.33945       879.836    24843432.153   101729698.50045
       685.586  
  23676216.765   124419369.77046      3298.707    23676218.127    96950162.62146
      2570.418  
 20 09 27 04 07 20.0000000  0  8G 5G 2G29G15G13G30G 7G18
  20257753.209   106455208.62848     -1042.469    20257753.069    82952112.66448
      -812.315  
  22202805.412   116676521.53848     -2168.934    22202803.369    90916758.96247
     -1690.081  
  20996177.507   110335655.59748       -73.788    20996177.687    85975835.97148
       -57.500  
  23446168.520   123210460.52148      3934.270    23446170.172    96008179.82845
      3065.660  
  21919007.365   115185173.23148      2935.012    21919007.604    89754683.99746
      2287.020  
  24784751.977   130244753.68746      2151.605    24784757.087   101489440.50645
      1676.581  
  24842595.285   130548721.19945       878.355    24842596.025   101726274.50945
       684.429  
  23673078.235   124402875.99247      3298.757    23673079.638    96937310.34545
      2570.457  
 20 09 27 04 07 25.0000000  0  8G 5G 2G29G15G13G30G 7G18
  20258746.158   106460426.04648     -1044.664    20258746.010    82956178.18648
      -814.027  
  22204869.723   116687369.34448     -2170.398    22204867.676    90925211.79747
     -1691.223  
  20996249.226   110336032.57948       -77.175    20996249.464    85976129.72947
       -60.140  
  23442425.450   123190790.36548      3933.667    23442427.200    95992852.45245
      3065.190  
  21916215.767   115170503.00548      2932.808    21916216.068    89743252.65646
      2285.301  
  24782705.421   130233998.89946      2149.730    24782710.596   101481060.15546
      1675.113  
  24841761.232   130544338.06645       875.163    24841762.314   101722859.06945
       681.941  
  23669939.809   124386382.64346      3298.336    23669941.015    96924458.36445
      2570.129  
 20 09 27 04 07 30.0000000  0  8G 5G 2G29G15G13G30G 7G18
  20259741.197   106465655.17048     -1047.188    20259740.927    82960252.82848
      -815.991  
  22206935.577   116698225.26148     -2172.102    22206933.448    90933670.94547
     -1692.551  
  20996324.403   110336427.25848       -80.809    20996324.660    85976437.27247
       -62.972  
  23438683.141   123171124.83548      3932.429    23438684.913    95977528.66046
      3064.227  
  21913426.255   115155844.11448      2930.562    21913426.683    89731830.15146
      2283.551  
  24780660.760   130223253.07446      2148.202    24780665.624   101472686.80746
      1673.922  
  24840929.581   130539967.86645       872.378    24840930.658   101719453.73346
       679.772  
  23666801.787   124369891.81847      3297.796    23666802.926    96911608.38545
      2569.707  
 20 09 27 04 07 35.0000000  0  8G 5G 2G29G15G13G30G 7G18
  20260738.525   106470896.91248     -1049.808    20260738.511    82964337.30048
      -818.034  
  22209003.125   116709090.20648     -2173.983    22209001.162    90942137.14047
     -1694.016  
  20996402.988   110336840.57348       -84.710    20996403.288    85976759.33447
       -66.011  
  23434941.982   123151464.88148      3931.401    23434943.848    95962209.22045
      3063.426  
  21910639.014   115141197.47248      2927.870    21910639.512    89720417.18446
      2281.453  
  24778617.828   130212517.17546      2146.085    24778622.717   101464321.19345
      1672.277  
  24840100.498   130535611.62846       869.836    24840101.414   101716059.27645
       677.796  
  23663664.502   124353404.39846      3297.026    23663665.573    96898761.04346
      2569.109  
 20 09 27 04 07 40.0000000  0  8G 5G 2G29G15G13G30G 7G18
  20261738.308   106476150.90048     -1051.996    20261738.312    82968431.31648
      -819.741  
  22211072.217   116719963.82448     -2175.522    22211070.364    90950610.08047
     -1695.214  
  20996485.184   110337272.13948       -88.141    20996485.336    85977095.61947
       -68.684  
  23431201.941   123131810.11648      3930.503    23431203.549    95946893.81946
      3062.726  
  21907854.079   115126562.72448      2925.667    21907854.538    89709013.49546
      2279.737  
  24776576.631   130201790.79845      2143.956    24776581.268   101455962.98945
      1670.613  
  24839274.421   130531269.00245       867.073    24839275.354   101712675.38344
       675.637  
  23660527.703   124336920.03446      3296.179    23660528.576    96885916.06545
      2568.448  
 20 09 27 04 07 45.0000000  0  8G 5G 2G29G15G13G30G 7G18
  20262740.382   106481416.27548     -1054.198    20262740.294    82972534.20648
      -821.457  
  22213142.986   116730845.29148     -2177.229    22213141.015    90959089.14547
     -1696.547  
  20996570.605   110337721.12148       -91.507    20996570.805    85977445.47447
       -71.309  
  23427462.490   123112159.73248      3929.465    23427464.216    95931581.84446
      3061.918  
  21905071.419   115111939.06148      2923.593    21905071.749    89697618.43946
      2278.121  
  24774537.338   130191073.24045      2142.546    24774541.854   101447611.68045
      1669.519  
  24838450.540   130526939.16745       864.249    24838451.364   101709301.50045
       673.437  
  23657390.951   124320437.85346      3296.102    23657391.921    96873072.83045
      2568.386  
 20 09 27 04 07 50.0000000  0  7G 5G 2G29G15G13G30G18
  20263744.183   106486691.90948     -1056.573    20263744.234    82976645.07848
      -823.308  
  22215214.913   116741733.40348     -2178.809    22215212.900    90967573.38747
     -1697.776  
  20996659.101   110338186.39148       -95.210    20996659.434    85977808.02147
       -74.195  
  23423723.788   123092512.59248      3928.641    23423725.612    95916272.38845
      3061.272  
  21902290.484   115097325.33548      2921.223    21902290.935    89686231.12746
      2276.272  
  24772499.363   130180363.14146      2140.672    24772503.947   101439266.13545
      1668.054  
  23654254.471   124303956.75745      3295.726    23654255.732    96860230.40945
      2568.094  
 20 09 27 04 07 55.0000000  0  8G 5G 2G29G15G13G30G 7G18
  20264749.859   106491976.89548     -1058.375    20264749.872    82980763.24848
      -824.710  
  22217288.003   116752627.28648     -2179.770    22217286.008    90976062.13747
     -1698.523  
  20996750.653   110338667.03148       -98.042    20996750.773    85978182.53947
       -76.397  
  23419985.473   123072867.77048      3928.270    23419987.268    95900964.74146
      3060.983  
  21899511.283   115082720.65948      2919.503    21899511.568    89674850.86246
      2274.933  
  24770462.575   130169659.71845      2139.866    24770466.960   101430925.85643
      1667.434  
  24836809.548   130518316.51055       859.855    24836810.563   101702576.16353
       670.016  
  23651118.084   124287475.87446      3295.750    23651119.432    96847388.22246
      2568.120  
 20 09 27 04 08  0.0000000  0  8G 5G 2G29G15G13G30G 7G18
  20265758.228   106497275.09948     -1060.984    20265757.973    82984891.72148
      -826.746  
  22219362.775   116763530.81448     -2181.613    22219360.809    90984558.38247
     -1699.961  
  20996845.615   110339166.90248      -101.890    20996846.017    85978572.04548
       -79.398  
  23416248.495   123053229.16248      3927.312    23416250.146    95885661.94646
      3060.242  
  21896734.531   115068128.95048      2916.914    21896734.920    89663480.70246
      2272.917  
  24768427.881   130158966.98446      2137.770    24768432.224   101422593.86045
      1665.792  
  24835992.251   130514023.39645       857.499    24835993.658   101699230.88945
       668.184  
  23647982.685   124270999.02146      3294.655    23647983.996    96834549.10646
      2567.262  
 20 09 27 04 08  5.0000000  0  7G 5G 2G29G15G13G30G18
  20266768.893   106502586.14548     -1063.383    20266768.753    82989030.19648
      -828.612  
  22221439.445   116774443.60148     -2183.121    22221437.351    90993061.84647
     -1701.137  
  20996944.378   110339685.62548      -105.348    20996944.652    85978976.25247
       -82.093  
  23412512.470   123033596.50248      3926.020    23412514.199    95870363.77345
      3059.233  
  21893960.251   115053549.82148      2914.804    21893960.720    89652120.34846
      2271.272  
  24766395.207   130148284.49144      2136.069    24766399.428   101414269.86843
      1664.468  
  23644847.860   124254525.90246      3294.456    23644849.136    96821712.90945
      2567.105  
 20 09 27 04 08 10.0000000  0  7G 5G 2G29G15G13G30G18
  20267781.837   106507909.73548     -1066.128    20267781.745    82993178.44748
      -830.753  
  22223517.861   116785365.28448     -2185.469    22223515.822    91001572.24547
     -1702.965  
  20997046.573   110340222.91648      -109.539    20997046.726    85979394.91648
       -85.358  
  23408777.586   123013969.36548      3924.684    23408779.241    95855069.90446
      3058.190  
  21891188.256   115038982.92348      2912.007    21891188.694    89640769.52346
      2269.093  
  24764364.313   130137611.85445      2133.269    24764368.751   101405953.52444
      1662.285  
  23641714.018   124238056.17147      3293.339    23641715.169    96808879.36745
      2566.233  
 20 09 27 04 08 15.0000000  0  8G 5G 2G29G15G13G30G 7G18
  20268797.615   106513247.58948     -1069.348    20268797.390    82997337.81248
      -833.262  
  22225598.155   116796297.71048     -2187.737    22225596.246    91010091.01747
     -1704.733  
  20997152.792   110340780.50348      -113.655    20997152.968    85979829.39647
       -88.565  
  23405044.038   122994349.62648      3923.262    23405045.736    95839781.79245
      3057.082  
  21888419.126   115024430.13848      2908.902    21888419.362    89629429.69546
      2266.675  
  24762335.634   130126950.91745      2131.254    24762339.925   101397646.28944
      1660.715  
  24833557.353   130501225.10755       847.566    24833560.068   101689280.08653
       660.438  
  23638580.992   124221591.60246      3292.292    23638581.963    96796049.81945
      2565.418  
 20 09 27 04 08 20.0000000  0  7G 5G 2G29G15G13G30G18
  20269816.060   106518599.49148     -1071.249    20269815.982    83001508.12048
      -834.742  
  22227680.566   116807240.63448     -2189.026    22227678.349    91018617.97047
     -1705.738  
  20997262.783   110341358.26148      -117.101    20997262.858    85980279.59948
       -91.249  
  23401312.006   122974737.10448      3922.438    23401313.710    95824499.30146
      3056.440  
  21885652.452   115009891.23448      2906.968    21885652.724    89618100.68246
      2265.167  
  24760309.212   130116301.65545      2129.085    24760313.294   101389348.10645
      1659.015  
  23635449.118   124205132.08547      3291.906    23635450.152    96783224.20346
      2565.116  
 20 09 27 04 08 25.0000000  0  7G 5G 2G29G15G13G30G18
  20270835.467   106523956.73048     -1071.953    20270835.327    83005682.60648
      -835.293  
  22229763.354   116818185.35048     -2189.104    22229761.230    91027146.30447
     -1705.801  
  20997374.870   110341947.37548      -118.886    20997374.951    85980738.66147
       -92.641  
  23397579.394   122955122.99948      3923.081    23397581.229    95809215.60146
      3056.945  
  21882886.738   114995357.52649      2906.121    21882887.042    89606775.73846
      2264.507  
  24758282.178   130105660.95455      2128.878    24758287.904   101381042.03555
      1658.863  
  23632316.231   124188668.78047      3292.886    23632317.273    96770395.65145
      2565.883  
 20 09 27 04 08 30.0000000  0  8G 5G 2G29G15G13G30G 7G18
  20271858.483   106529332.06348     -1076.176    20271858.320    83009871.18548
      -838.582  
  22231848.772   116829144.64348     -2192.577    22231846.796    91035686.00347
     -1708.503  
  20997491.515   110342560.69448      -124.504    20997491.653    85981216.56947
       -97.020  
  23393849.251   122935520.18748      3919.813    23393850.870    95793940.68846
      3054.395  
  21880124.433   114980841.76748      2901.867    21880124.762    89595464.75746
      2261.191  
  24756260.098   130095029.97646      2125.124    24756263.986   101372758.20946
      1655.945  
  24831146.511   130488555.26856       840.102    24831147.525   101679410.34554
       654.624  
  23629185.205   124172214.53446      3290.327    23629186.328    96757574.17346
      2563.891  
 20 09 27 04 08 35.0000000  0  8G 5G 2G29G15G13G30G 7G18
  20272882.821   106534715.96248     -1076.882    20272882.765    83014066.42948
      -839.133  
  22233935.156   116840108.91248     -2192.668    22233933.067    91044229.58947
     -1708.574  
  20997611.009   110343188.64148      -126.434    20997611.086    85981705.87547
       -98.523  
  23390119.308   122915919.07648      3920.612    23390121.043    95778667.10846
      3055.019  
  21877363.853   114966334.41148      2901.288    21877364.204    89584160.32946
      2260.741  
  24754238.931   130084405.11046      2125.065    24754242.105   101364479.06745
      1655.894  
  24830348.286   130484357.68945       839.179    24830348.521   101676139.46345
       653.902  
  23626053.918   124155759.75846      3291.925    23626055.193    96744752.29145
      2565.133  
 20 09 27 04 08 40.0000000  0  8G 5G 2G29G15G13G30G 7G18
  20273908.877   106540107.64148     -1079.917    20273908.676    83018267.73748
      -841.495  
  22236022.489   116851077.39348     -2194.844    22236020.327    91052776.44547
     -1710.269  
  20997733.199   110343830.44048      -130.656    20997733.194    85982205.98147
      -101.813  
  23386389.362   122896318.89348      3919.238    23386391.297    95763394.23246
      3053.949  
  21874604.598   114951834.65049      2898.371    21874604.895    89572861.82646
      2258.469  
  24752217.650   130073785.45846      2122.789    24752221.650   101356204.02145
      1654.116  
  24829550.995   130480169.20945       836.026    24829551.306   101672875.75345
       651.448  
  23622922.311   124139303.71046      3290.273    23622923.672    96731929.42345
      2563.851  
 20 09 27 04 08 45.0000000  0  8G 5G 2G29G15G13G30G 7G18
  20274937.588   106545513.77448     -1082.168    20274937.530    83022480.31448
      -843.250  
  22238111.739   116862056.81648     -2196.527    22238109.542    91061331.83747
     -1711.581  
  20997859.161   110344492.81048      -134.176    20997859.437    85982722.11147
      -104.555  
  23382661.157   122876726.41748      3918.277    23382662.937    95748127.38046
      3053.199  
  21871848.197   114937349.25949      2895.988    21871848.478    89561574.50946
      2256.608  
  24750198.909   130063177.83846      2120.898    24750203.252   101347938.36046
      1652.645  
  24828757.033   130475996.75746       833.414    24828757.670   101669624.50745
       649.409  
  23619791.924   124122853.13246      3289.847    23619793.129    96719110.77946
      2563.515  
 20 09 27 04 08 50.0000000  0  8G 5G 2G29G15G13G30G 7G18
  20275968.411   106550930.72248     -1084.644    20275968.340    83026701.30848
      -845.179  
  22240202.494   116873043.52848     -2198.233    22240200.211    91069892.90447
     -1712.913  
  20997988.567   110345172.06248      -137.702    20997988.618    85983251.40047
      -107.305  
  23378933.676   122857138.03048      3917.022    23378935.284    95732863.69846
      3052.223  
  21869093.708   114922874.60149      2893.719    21869094.036    89550295.56246
      2254.844  
  24748181.727   130052578.63445      2118.776    24748185.537   101339679.24845
      1650.991  
  24827965.246   130471836.63546       830.695    24827965.885   101666382.84344
       647.293  
  23616661.719   124106404.35647      3289.339    23616662.948    96706293.58745
      2563.121  
 20 09 27 04 08 55.0000000  0  8G 5G 2G29G15G13G30G 7G18
  20277001.704   106556360.36748     -1086.976    20277001.574    83030932.19848
      -846.995  
  22242294.969   116884039.40348     -2199.977    22242292.839    91078461.11647
     -1714.269  
  20998121.392   110345870.12648      -141.183    20998121.447    85983795.34447
      -110.016  
  23375207.161   122837555.56148      3916.137    23375208.902    95717604.63346
      3051.530  
  21866341.669   114908412.56849      2891.472    21866342.028    89539026.45446
      2253.094  
  24746166.215   130041989.64045      2117.098    24746170.585   101331428.10545
      1649.688  
  24827176.233   130467690.72046       828.093    24827176.981   101663152.25544
       645.266  
  23613532.359   124089959.27146      3288.687    23613533.475    96693479.20046
      2562.608  
 20 09 27 04 09  0.0000000  0  8G 5G 2G29G15G13G30G 7G18
  20278036.904   106561800.50548     -1089.187    20278036.775    83035171.26748
      -848.722  
  22244388.766   116895042.22548     -2201.465    22244386.444    91087034.73447
     -1715.429  
  20998257.260   110346584.77448      -144.698    20998257.456    85984352.21447
      -112.754  
  23371481.397   122817976.81848      3915.296    23371483.262    95702348.47846
      3050.878  
  21863591.548   114893960.99049      2889.308    21863591.971    89527765.49246
      2251.406  
  24744152.464   130031408.74545      2115.430    24744156.852   101323183.26744
      1648.382  
  24826389.768   130463556.79045       825.375    24826390.284   101659931.01944
       643.147  
  23610403.273   124073515.72147      3288.543    23610404.326    96680666.04746
      2562.496  
 20 09 27 04 09  5.0000000  0  8G 5G 2G29G15G13G30G 7G18
  20279074.187   106567251.52948     -1091.563    20279073.940    83039418.81748
      -850.569  
  22246483.885   116906052.39948     -2203.027    22246481.746    91095614.08347
     -1716.648  
  20998396.555   110347316.43248      -148.499    20998396.654    85984922.33447
      -115.719  
  23367756.597   122798402.23748      3914.163    23367758.312    95687095.55746
      3049.996  
  21860843.696   114879520.24549      2886.676    21860843.867    89516512.96847
      2249.354  
  24742140.302   130020836.35545      2112.788    24742145.024   101314945.07445
      1646.327  
  24825605.552   130459435.26745       822.526    24825606.009   101656719.45246
       640.925  
  23607274.735   124057074.04747      3287.785    23607275.422    96667854.33245
      2561.906  
 20 09 27 04 09 10.0000000  0  8G 5G 2G29G15G13G30G 7G18
  20280113.968   106572715.99048     -1094.065    20280113.800    83043676.83748
      -852.523  
  22248580.936   116917072.50748     -2204.902    22248578.779    91104201.17747
     -1718.109  
  20998539.484   110348067.62248      -152.089    20998539.501    85985507.67347
      -118.516  
  23364032.915   122778834.34448      3912.730    23364034.552    95671847.85146
      3048.879  
  21858098.151   114865092.93349      2884.327    21858098.451    89505270.91446
      2247.522  
  24740130.030   130010275.02344      2111.125    24740135.294   101306715.50445
      1645.034  
  24824824.021   130455328.67146       820.645    24824824.448   101653519.49545
       639.460  
  23604146.791   124040636.87147      3287.022    23604147.571    96655046.14846
      2561.312  
 20 09 27 04 09 15.0000000  0  8G 5G 2G29G15G13G30G 7G18
  20281156.025   106578191.13148     -1096.276    20281155.851    83047943.17748
      -854.245  
  22250679.283   116928099.80148     -2206.374    22250677.042    91112793.86847
     -1719.258  
  20998685.655   110348835.66148      -155.522    20998685.769    85986106.14747
      -121.191  
  23360310.010   122759270.44048      3912.234    23360311.848    95656603.24946
      3048.491  
  21855354.881   114850676.32949      2882.117    21855355.224    89494037.20446
      2245.801  
  24738121.312   129999722.01445      2109.753    24738127.209   101298492.39046
      1643.964  
  24824045.104   130451234.43445       816.938    24824045.373   101650329.18746
       636.569  
  23601019.431   124024201.45647      3286.859    23601020.039    96642239.33246
      2561.187  
 20 09 27 04 09 20.0000000  0  8G 5G 2G29G15G13G30G 7G18
  20282200.181   106583678.39648     -1098.870    20282199.852    83052218.96648
      -856.265  
  22252779.363   116939135.70048     -2208.101    22252777.224    91121393.26447
     -1720.602  
  20998835.234   110349621.98548      -159.277    20998835.233    85986718.86647
      -124.116  
  23356588.255   122739712.11148      3910.875    23356589.886    95641362.99946
      3047.434  
  21852613.695   114836271.86249      2879.741    21852613.971    89482812.94946
      2243.953  
  24736114.577   129989178.83445      2107.363    24736120.688   101290276.95946
      1642.104  
  24823268.481   130447153.74845       814.546    24823268.795   101647149.45145
       634.706  
  23597892.563   124007769.15447      3285.945    23597892.899    96629434.93745
      2560.473  
 20 09 27 04 09 25.0000000  0  8G 5G 2G29G15G13G30G 7G18
  20283246.613   106589177.02348     -1100.460    20283246.297    83056503.60848
      -857.503  
  22254880.945   116950179.46548     -2209.409    22254878.651    91129998.78647
     -1721.621  
  20998988.256   110350425.87048      -162.339    20998988.351    85987345.26747
      -126.499  
  23352867.259   122720158.51848      3910.058    23352869.076    95626126.43446
      3046.796  
  21849874.808   114821878.88349      2877.444    21849875.156    89471597.64646
      2242.160  
  24734109.946   129978644.67345      2106.245    24734116.449   101282068.52745
      1641.227  
  24822494.468   130443086.09645       812.503    24822494.784   101643979.85045
       633.116  
  23594766.080   123991339.40547      3285.773    23594766.622    96616632.54145
      2560.340  
 20 09 27 04 09 30.0000000  0  8G 5G 2G29G15G13G30G 7G18
  20284294.951   106594686.36148     -1103.038    20284294.688    83060796.59448
      -859.516  
  22256983.873   116961230.39748     -2210.874    22256981.534    91138609.89747
     -1722.761  
  20999144.512   110351246.56648      -165.941    20999144.396    85987984.77447
      -129.309  
  23349147.044   122700608.87948      3909.378    23349148.782    95610892.95346
      3046.266  
  21847138.007   114807496.61449      2875.207    21847138.304    89460390.69446
      2240.417  
  24732107.058   129968118.95745      2104.352    24732113.539   101273866.69646
      1639.749  
  24821722.545   130439030.67846       809.894    24821723.089   101640819.76245
       631.082  
  23591639.912   123974911.34247      3285.047    23591640.554    96603831.47546
      2559.772  
 20 09 27 04 09 35.0000000  0  8G 5G 2G29G15G13G30G 7G18
  20285345.578   106600207.37848     -1105.305    20285345.264    83065098.68448
      -861.281  
  22259088.331   116972289.52248     -2212.589    22259086.161    91147227.40047
     -1724.098  
  20999304.180   110352085.09148      -169.452    20999304.084    85988638.17047
      -132.043  
  23345427.969   122681064.35248      3908.336    23345429.674    95595663.45446
      3045.453  
  21844403.490   114793126.10149      2872.980    21844403.635    89449192.90046
      2238.684  
  24730106.059   129957602.63945      2102.249    24730112.488   101265672.19645
      1638.117  
  24820953.329   130434988.60746       807.374    24820954.186   101637670.10945
       629.121  
  23588514.259   123958486.11146      3284.753    23588515.014    96591032.59745
      2559.547  
 20 09 27 04 09 40.0000000  0  8G 5G 2G29G15G13G30G 7G18
  20286398.479   106605740.07048     -1108.003    20286398.062    83069409.87248
      -863.382  
  22261194.303   116983356.79348     -2214.418    22261192.222    91155851.24147
     -1725.522  
  20999467.104   110352941.45048      -173.229    20999466.959    85989305.46047
      -134.987  
  23341709.638   122661524.88648      3907.273    23341711.372    95580437.90846
      3044.624  
  21841671.046   114778767.35449      2870.406    21841671.426    89438004.27546
      2236.675  
  24728106.771   129947095.68445      2100.585    24728112.939   101257484.96945
      1636.820  
  24820186.548   130430959.77146       804.601    24820187.393   101634530.75045
       626.960  
  23585389.017   123942063.63946      3284.027    23585389.909    96578235.87746
      2558.979  
 20 09 27 04 09 45.0000000  0  8G 5G 2G29G15G13G30G 7G18
  20287453.492   106611284.72848     -1110.034    20287453.306    83073730.38748
      -864.964  
  22263301.997   116994432.54748     -2216.151    22263299.761    91164481.70047
     -1726.875  
  20999633.427   110353815.95648      -176.733    20999633.272    85989986.89047
      -137.718  
  23337992.456   122641990.80948      3906.124    23337994.275    95565216.55046
      3043.729  
  21838940.906   114764420.68349      2868.159    21838941.415    89426825.05646
      2234.925  
  24726109.316   129936598.51945      2098.534    24726115.469   101249305.38546
      1635.222  
  24819422.567   130426944.52245       801.770    24819423.312   101631401.99745
       624.754  
  23582264.517   123925644.28047      3283.425    23582265.447    96565441.60046
      2558.516  
 20 09 27 04 09 50.0000000  0  8G 5G 2G29G15G13G30G 7G18
  20288510.767   106616840.02848     -1112.098    20288510.481    83078059.18848
      -866.574  
  22265410.991   117005515.44948     -2217.331    22265408.749    91173117.71747
     -1727.793  
  20999803.177   110354707.27948      -180.019    20999803.007    85990681.42747
      -140.277  
  23334276.011   122622460.79148      3905.464    23334277.905    95549998.35446
      3043.214  
  21836212.850   114750084.77449      2866.155    21836213.339    89415654.23046
      2233.366  
  24724113.559   129926109.71345      2096.886    24724119.536   101241132.30946
      1633.938  
  24818660.863   130422941.64646       799.558    24818661.499   101628282.87545
       623.030  
  23579140.250   123909226.67447      3283.183    23579141.373    96552648.66845
      2558.319  
 20 09 27 04 09 55.0000000  0  8G 5G 2G29G15G13G30G 7G18
  20289570.155   106622407.08648     -1114.430    20289569.864    83082397.15248
      -868.390  
  22267521.516   117016606.58248     -2218.898    22267519.467    91181760.16147
     -1729.016  
  20999976.164   110355616.52048      -183.516    20999975.885    85991389.92748
      -143.004  
  23330560.516   122602935.94948      3904.582    23330562.506    95534784.19946
      3042.526  
  21833487.087   114735760.79249      2863.695    21833487.440    89404492.68847
      2231.448  
  24722119.600   129915630.47945      2095.026    24722125.249   101232966.69346
      1632.488  
  24817901.789   130418952.09746       796.905    24817902.550   101625174.13846
       620.961  
  23576016.773   123892812.00647      3282.664    23576017.859    96539858.02445
      2557.917  
 20 09 27 04 10  0.0000000  0  8G 5G 2G29G15G13G30G 7G18
  20290631.628   106627985.82048     -1116.913    20290631.462    83086744.21848
      -870.324  
  22269633.549   117027705.92048     -2220.651    22269631.379    91190408.99147
     -1730.382  
  21000152.564   110356543.66448      -187.184    21000152.459    85992112.37247
      -145.859  
  23326846.185   122583416.32048      3903.300    23326848.060    95519574.10046
      3041.531  
  21830763.596   114721448.69149      2861.233    21830764.001    89393340.41247
      2229.531  
  24720127.393   129905160.73946      2093.073    24720133.123   101224808.45846
      1630.965  
  24817144.978   130414975.90246       793.890    24817145.683   101622075.79845
       618.613  
  23572893.762   123876400.12747      3282.211    23572894.500    96527069.54644
      2557.563  
 20 09 27 04 10  5.0000000  0  8G 5G 2G29G15G13G30G 7G18
  20291695.379   106633575.68348     -1119.194    20291694.995    83091099.95948
      -872.101  
  22271747.118   117038812.89548     -2222.090    22271745.034    91199063.77647
     -1731.499  
  21000332.397   110357488.10048      -190.538    21000332.202    85992848.29548
      -148.477  
  23323132.592   122563901.32048      3902.538    23323134.344    95504367.61746
      3040.937  
  21828042.207   114707147.85349      2859.159    21828042.514    89382196.90746
      2227.913  
  24718136.917   129894699.93346      2091.273    24718142.590   101216657.21546
      1629.563  
  24816390.882   130411012.50845       791.272    24816391.558   101618987.44145
       616.573  
  23569771.165   123859990.58247      3281.754    23569771.626    96514282.86745
      2557.207  
 20 09 27 04 10 10.0000000  0  8G 5G 2G29G15G13G30G 7G18
  20292761.413   106639177.01048     -1121.477    20292760.983    83095464.62548
      -873.882  
  22273862.212   117049927.75848     -2223.855    22273860.159    91207724.70147
     -1732.879  
  21000515.471   110358450.22148      -194.418    21000515.349    85993598.00347
      -151.496  
  23319419.964   122544391.29748      3901.332    23319421.864    95489165.00646
      3039.995  
  21825323.094   114692858.75349      2856.465    21825323.482    89371062.55147
      2225.813  
  24716148.355   129884248.46946      2089.269    24716153.810   101208513.21347
      1627.999  
  24815639.194   130407062.16946       788.628    24815639.859   101615909.26646
       614.511  
  23566649.140   123843583.73147      3280.965    23566649.509    96501498.28945
      2556.594  
 20 09 27 04 10 15.0000000  0  8G 5G 2G29G15G13G30G 7G18
  20293829.546   106644790.62248     -1123.690    20293829.172    83099838.87148
      -875.605  
  22275979.027   117061051.48048     -2225.315    22275976.978    91216392.53547
     -1734.015  
  21000701.972   110359430.85348      -197.895    21000701.934    85994362.13047
      -154.206  
  23315708.478   122524887.05848      3900.367    23315710.103    95473966.90546
      3039.242  
  21822606.455   114678582.18749      2854.262    21822606.645    89359937.96347
      2224.097  
  24714161.660   129873807.16346      2087.097    24714166.992   101200377.15046
      1626.308  
  24814889.947   130403125.85146       785.991    24814890.573   101612841.99945
       612.457  
  23563527.847   123827180.35147      3280.585    23563527.936    96488716.43745
      2556.296  
 20 09 27 04 10 20.0000000  0  8G 5G 2G29G15G13G30G 7G18
  20294899.943   106650415.22148     -1126.198    20294899.552    83104221.67948
      -877.562  
  22278097.181   117072182.76348     -2227.102    22278095.265    91225066.25447
     -1735.405  
  21000891.914   110360428.66248      -201.452    21000891.703    85995139.64047
      -156.980  
  23311997.759   122505387.34848      3899.230    23311999.547    95458772.32746
      3038.359  
  21819891.732   114664316.88049      2851.523    21819892.248    89348822.15047
      2221.965  
  24712176.473   129863374.71646      2085.355    24712181.538   101192247.98346
      1624.948  
  24814143.391   130399202.20646       782.964    24814143.995   101609784.60945
       610.098  
  23560406.878   123810779.20547      3279.848    23560406.866    96475936.30245
      2555.722  
 20 09 27 04 10 25.0000000  0  8G 5G 2G29G15G13G30G 7G18
  20295972.437   106656051.46148     -1128.452    20295972.116    83108613.55548
      -879.316  
  22280217.044   117083322.19148     -2228.702    22280215.028    91233746.32647
     -1736.655  
  21001085.276   110361444.31548      -205.000    21001085.097    85995931.05847
      -159.741  
  23308287.992   122485892.79548      3898.422    23308289.743    95443581.76846
      3037.727  
  21817179.479   114650063.39249      2849.503    21817179.809    89337715.54247
      2220.390  
  24710193.211   129852951.81946      2083.405    24710198.371   101184126.24747
      1623.429  
  24813399.120   130395291.84546       780.652    24813399.720   101606737.58245
       608.296  
  23557286.181   123794380.86447      3279.418    23557286.444    96463158.38546
      2555.386  
 20 09 27 04 10 30.0000000  0  8G 5G 2G29G15G13G30G 7G18
  20297047.216   106661699.71748     -1130.980    20297046.882    83113014.79148
      -881.285  
  22282338.435   117094470.17148     -2230.543    22282336.447    91242433.06047
     -1738.089  
  21001282.064   110362478.29048      -208.473    21001281.688    85996736.75347
      -162.448  
  23304579.349   122466403.84048      3897.152    23304581.188    95428395.57546
      3036.737  
  21814469.499   114635822.22549      2847.077    21814469.792    89326618.53647
      2218.499  
  24708211.837   129842538.84846      2081.819    24708216.837   101176012.25847
      1622.195  
  24812657.676   130391395.25246       778.289    24812658.350   101603701.29645
       606.456  
  23554166.182   123777985.81347      3278.602    23554166.698    96450383.04845
      2554.750  
 20 09 27 04 10 35.0000000  0  8G 5G 2G29G15G13G30G 7G18
  20298124.299   106667359.67048     -1133.265    20298124.096    83117425.14548
      -883.066  
  22284461.334   117105626.36648     -2232.008    22284459.354    91251126.19547
     -1739.230  
  21001482.272   110363530.13648      -212.121    21001481.954    85997556.37248
      -165.292  
  23300871.842   122446920.16448      3896.331    23300873.576    95413213.49446
      3036.102  
  21811761.803   114621593.03449      2844.499    21811761.985    89315530.86447
      2216.492  
  24706232.349   129832135.51046      2079.688    24706236.996   101167905.76546
      1620.530  
  24811918.729   130387512.08946       775.316    24811919.441   101600675.42945
       604.137  
  23551046.757   123761593.65546      3278.297    23551047.255    96437609.94846
      2554.516  
 20 09 27 04 10 40.0000000  0  8G 5G 2G29G15G13G30G 7G18
  20299203.850   106673032.21548     -1135.535    20299203.498    83121845.30648
      -884.835  
  22286585.959   117116791.68848     -2233.809    22286583.966    91259826.43847
     -1740.633  
  21001685.905   110364600.76848      -215.577    21001685.612    85998390.62847
      -167.983  
  23297165.301   122427442.69548      3895.136    23297167.192    95398036.25046
      3035.167  
  21809056.380   114607376.71949      2842.233    21809056.881    89304453.22647
      2214.726  
  24704254.733   129821742.69146      2078.136    24704259.411   101159807.48046
      1619.323  
  24811182.486   130383643.23146       772.796    24811183.013   101597660.72345
       602.176  
  23547928.121   123745205.39147      3277.602    23547928.814    96424839.89346
      2553.973  
 20 09 27 04 10 45.0000000  0  8G 5G 2G29G15G13G30G 7G18
  20300285.113   106678714.60548     -1137.590    20300284.874    83126273.14148
      -886.438  
  22288711.896   117127963.37248     -2235.020    22288709.836    91268531.64547
     -1741.577  
  21001892.753   110365687.51248      -219.184    21001892.474    85999237.44447
      -170.797  
  23293459.528   122407968.69448      3894.375    23293461.313    95382861.70146
      3034.574  
  21806353.059   114593170.64049      2839.988    21806353.480    89293383.56647
      2212.976  
  24702278.603   129811357.71146      2076.065    24702283.323   101151715.29347
      1617.710  
  24810448.271   130379785.87545       770.035    24810449.233   101594655.01846
       600.027  
  23544809.771   123728818.25847      3277.198    23544810.622    96412070.70046
      2553.659  
 20 09 27 04 10 50.0000000  0  8G 5G 2G29G15G13G30G 7G18
  20301368.643   106684408.71748     -1140.059    20301368.428    83130710.11148
      -888.358  
  22290839.360   117139143.33548     -2236.793    22290837.403    91277243.30147
     -1742.957  
  21002103.029   110366792.20948      -222.733    21002102.736    86000098.24447
      -173.562  
  23289754.911   122388500.04748      3893.257    23289756.655    95367691.33846
      3033.702  
  21803652.019   114578976.64349      2837.554    21803652.499    89282323.31347
      2211.077  
  24700304.424   129800982.42546      2074.120    24700308.891   101143630.66847
      1616.195  
  24809716.951   130375942.01246       767.011    24809717.629   101591659.81446
       597.672  
  23541692.016   123712434.12847      3276.590    23541692.899    96399303.86246
      2553.183  
 20 09 27 04 10 55.0000000  0  8G 5G 2G29G15G13G30G 7G18
  20302454.471   106690114.12648     -1142.023    20302453.956    83135155.88648
      -889.890  
  22292968.363   117150331.16548     -2238.206    22292966.407    91285961.09247
     -1744.063  
  21002316.557   110367914.43148      -226.035    21002316.173    86000972.70347
      -176.132  
  23286051.012   122369036.42648      3892.387    23286052.711    95352524.87346
      3033.026  
  21800953.258   114564794.33749      2835.383    21800953.729    89271272.17447
      2209.387  
  24698331.840   129790616.46145      2072.304    24698336.354   101135553.30446
      1614.780  
  24808987.926   130372111.24146       765.062    24808988.656   101588674.79345
       596.148  
  23538574.701   123696052.62247      3276.077    23538575.870    96386539.05646
      2552.784  
 20 09 27 04 11  0.0000000  0  8G 5G 2G29G15G13G30G 7G18
  20303542.193   106695830.70448     -1144.520    20303541.915    83139610.36348
      -891.835  
  22295098.691   117161526.74148     -2239.999    22295096.653    91294684.90647
     -1745.456  
  21002533.521   110369054.08048      -229.703    21002533.018    86001860.73948
      -178.991  
  23282348.077   122349577.62448      3891.340    23282349.973    95337362.18546
      3032.211  
  21798256.601   114550623.59249      2832.878    21798257.166    89260230.04647
      2207.433  
  24696360.930   129780259.66445      2070.675    24696365.535   101127483.09646
      1613.512  
  24808261.381   130368293.43845       762.085    24808262.123   101585699.88746
       593.827  
  23535457.972   123679673.60147      3275.570    23535459.052    96373776.17645
      2552.391  
 20 09 27 04 11  5.0000000  0  8G 5G 2G29G15G13G30G 7G18
  20304632.384   106701559.35548     -1146.968    20304632.048    83144074.24748
      -893.745  
  22297230.727   117172730.91648     -2241.745    22297228.835    91303415.43047
     -1746.815  
  21002753.896   110370212.03648      -233.444    21002753.538    86002763.04447
      -181.909  
  23278646.275   122330124.64948      3889.956    23278648.219    95322204.02746
      3031.132  
  21795562.410   114536465.27149      2830.488    21795562.760    89249197.59147
      2205.570  
  24694391.838   129769912.98445      2068.633    24694396.409   101119420.76346
      1611.917  
  24807537.499   130364489.44846       759.020    24807538.260   101582735.76046
       591.441  
  23532341.778   123663297.98547      3274.801    23532342.639    96361015.95545
      2551.789  
 20 09 27 04 11 10.0000000  0  8G 5G 2G29G15G13G30G 7G18
  20305724.875   106707300.21548     -1149.207    20305724.391    83148547.64748
      -895.487  
  22299364.478   117183943.82248     -2243.351    22299362.534    91312152.75746
     -1748.070  
  21002977.680   110371388.43548      -237.004    21002977.238    86003679.71547
      -184.680  
  23274945.632   122310677.57448      3889.051    23274947.435    95307050.46546
      3030.425  
  21792870.501   114522319.56849      2828.035    21792870.811    89238174.97747
      2203.659  
  24692424.834   129759576.55945      2066.348    24692429.445   101111366.43445
      1610.136  
  24806816.289   130360699.49446       756.566    24806817.178   101579782.54845
       589.526  
  23529226.359   123646925.87747      3274.211    23529227.182    96348258.46146
      2551.327  
 20 09 27 04 11 15.0000000  0  8G 5G 2G29G15G13G30G 7G18
  20306819.282   106713051.67748     -1151.543    20306818.957    83153029.30448
      -897.309  
  22301499.554   117195163.87848     -2244.852    22301497.661    91320895.65047
     -1749.238  
  21003204.710   110372581.67148      -240.464    21003204.373    86004609.51247
      -187.378  
  23271245.733   122291234.84848      3887.930    23271247.661    95291900.29346
      3029.550  
  21790180.680   114508184.87349      2825.879    21790181.055    89227160.93647
      2201.979  
  24690459.374   129749248.81045      2064.167    24690463.878   101103318.86045
      1608.441  
  24806097.331   130356921.93746       754.004    24806098.244   101576838.97845
       587.530  
  23526111.273   123630555.70847      3273.754    23526111.774    96335502.48145
      2550.972  
 20 09 27 04 11 20.0000000  0  8G 5G 2G29G15G13G30G 7G18
  20307916.146   106718815.29449     -1154.023    20307915.698    83157520.43148
      -899.241  
  22303636.350   117206392.66248     -2246.636    22303634.517    91329645.34646
     -1750.628  
  21003435.354   110373793.37148      -244.253    21003434.935    86005553.68847
      -190.331  
  23267547.188   122271798.05048      3886.636    23267548.849    95276754.74246
      3028.543  
  21787493.355   114494062.82149      2823.039    21787493.765    89216156.74747
      2199.766  
  24688496.046   129738931.29145      2062.604    24688500.611   101095279.23346
      1607.222  
  24805381.248   130353158.42846       751.347    24805382.258   101573906.35345
       585.460  
  23522996.914   123614189.07947      3272.703    23522997.280    96322749.24145
      2550.156  
 20 09 27 04 11 25.0000000  0  8G 5G 2G29G15G13G30G 7G18
  20309015.110   106724590.29948     -1156.140    20309014.645    83162020.43648
      -900.891  
  22305774.639   117217629.41148     -2248.034    22305772.823    91338401.25647
     -1751.718  
  21003669.231   110375022.71848      -247.461    21003668.887    86006511.62247
      -192.828  
  23263849.416   122252366.38148      3886.211    23263851.248    95261613.18446
      3028.215  
  21784808.298   114479952.62849      2821.077    21784808.679    89205161.80147
      2198.237  
  24686534.415   129728623.26045      2060.754    24686538.984   101087247.01345
      1605.776  
  24804667.607   130349408.12246       749.078    24804668.694   101570984.05245
       583.695  
  23519882.873   123597825.18447      3272.780    23519883.339    96309998.17346
      2550.215  
 20 09 27 04 11 30.0000000  0  8G 5G 2G29G15G13G30G 7G18
  20310116.155   106730376.23549     -1158.651    20310115.528    83166528.96048
      -902.848  
  22307914.314   117228873.63848     -2249.784    22307912.364    91347162.97647
     -1753.082  
  21003906.512   110376269.26348      -251.093    21003906.036    86007482.95747
      -195.659  
  23260152.542   122232939.39148      3884.780    23260154.399    95246475.26846
      3027.098  
  21782125.335   114465853.84349      2818.413    21782125.772    89194175.74347
      2196.163  
  24684574.566   129718324.24545      2058.487    24684578.803   101079221.80446
      1604.011  
  24803956.270   130345670.58346       746.026    24803957.337   101568071.69646
       581.316  
  23516769.219   123581463.60047      3271.984    23516769.671    96297248.87945
      2549.594  
 20 09 27 04 11 35.0000000  0  8G 5G 2G29G15G13G30G 7G18
  20311219.499   106736174.18949     -1160.699    20311218.872    83171046.84548
      -904.445  
  22310055.661   117240126.42848     -2251.156    22310053.858    91355931.38147
     -1754.152  
  21004147.239   110377534.13448      -254.551    21004146.832    86008468.56947
      -198.354  
  23256456.820   122213518.24448      3883.753    23256458.513    95231341.92246
      3026.297  
  21779444.868   114451767.54749      2816.160    21779445.325    89183199.41847
      2194.406  
  24682616.599   129708035.43745      2056.996    24682620.837   101071204.57546
      1602.851  
  24803247.657   130341946.95346       742.612    24803248.910   101565170.14846
       578.656  
  23513656.342   123565105.41747      3271.434    23513656.923    96284502.25846
      2549.164  
 20 09 27 04 11 40.0000000  0  8G 5G 2G29G15G13G30G 7G18
  20312324.739   106741982.95348     -1162.828    20312324.404    83175573.15948
      -906.101  
  22312198.364   117251386.63048     -2252.590    22312196.549    91364705.56147
     -1755.270  
  21004391.187   110378816.12348      -257.898    21004390.801    86009467.51847
      -200.964  
  23252761.879   122194101.72848      3882.944    23252763.847    95216212.16446
      3025.668  
  21776766.462   114437692.61849      2814.059    21776766.827    89172231.94747
      2192.769  
  24680660.384   129697755.58245      2055.039    24680664.489   101063194.28045
      1601.323  
  24802541.494   130338235.95145       740.824    24802542.718   101562278.47346
       577.261  
  23510543.845   123548749.48047      3271.034    23510544.519    96271757.39246
      2548.855  
 20 09 27 04 11 45.0000000  0  8G 5G 2G29G15G13G30G 7G18
  20313432.244   106747802.80648     -1165.249    20313431.884    83180108.10548
      -907.987  
  22314342.569   117262654.50248     -2254.617    22314340.715    91373485.71647
     -1756.847  
  21004638.374   110380115.53448      -262.003    21004638.185    86010480.04847
      -204.159  
  23249068.060   122174690.20648      3881.628    23249069.891    95201086.31246
      3024.645  
  21774090.351   114423629.37349      2811.176    21774090.789    89161273.58247
      2190.522  
  24678706.129   129687485.05845      2052.640    24678709.984   101055191.28745
      1599.456  
  24801837.786   130334537.96946       737.827    24801838.879   101559396.96346
       574.934  
  23507432.003   123532396.10947      3270.258    23507432.659    96259014.50146
      2548.249  
 20 09 27 04 11 50.0000000  0  8G 5G 2G29G15G13G30G 7G18
  20314542.045   106753634.16249     -1167.438    20314541.562    83184652.01748
      -909.695  
  22316488.330   117273930.45648     -2255.844    22316486.578    91382272.16746
     -1757.805  
  21004888.996   110381432.77948      -265.262    21004888.749    86011506.47048
      -206.699  
  23245375.201   122155284.06648      3880.675    23245376.928    95185964.65046
      3023.897  
  21771416.540   114409578.21249      2808.979    21771416.905    89150324.63147
      2188.813  
  24676753.549   129677224.21245      2051.167    24676757.264   101047195.81546
      1598.308  
  24801136.750   130330853.43847       735.452    24801137.756   101556525.88945
       573.078  
  23504320.545   123516045.68947      3269.851    23504321.274    96246273.93146
      2547.933  
 20 09 27 04 11 55.0000000  0  8G 5G 2G29G15G13G30G 7G18
  20315653.739   106759476.87049     -1169.422    20315653.210    83189204.78248
      -911.242  
  22318635.588   117285214.37648     -2257.449    22318633.668    91391064.83247
     -1759.055  
  21005143.032   110382767.72148      -268.585    21005142.718    86012546.68347
      -209.289  
  23241683.295   122135883.22148      3879.723    23241685.190    95170847.10446
      3023.156  
  21768744.998   114395539.00649      2806.625    21768745.473    89139385.00047
      2186.977  
  24674802.672   129666972.97245      2049.233    24674806.516   101039207.86146
      1596.809  
  24800438.199   130327182.18547       733.190    24800439.298   101553665.13445
       571.312  
  23501209.864   123499698.10747      3269.198    23501210.547    96233535.55346
      2547.426  
 20 09 27 04 12  0.0000000  0  8G 5G 2G29G15G13G30G 7G18
  20316767.919   106765331.30349     -1172.132    20316767.287    83193766.67648
      -913.351  
  22320784.345   117296506.51448     -2259.202    22320782.481    91399863.89347
     -1760.421  
  21005400.495   110384120.69648      -272.441    21005400.120    86013600.94947
      -212.297  
  23237992.356   122116487.95748      3878.468    23237994.139    95155733.92746
      3022.179  
  21766075.744   114381512.10649      2804.065    21766075.986    89128454.95947
      2184.984  
  24672853.839   129656731.69145      2047.176    24672857.653   101031227.65646
      1595.198  
  24799742.136   130323524.50746       730.171    24799743.312   101550815.00045
       568.961  
  23498099.626   123483353.69847      3268.718    23498100.332    96220799.65046
      2547.050  
 20 09 27 04 12  5.0000000  0  8G 5G 2G29G15G13G30G 7G18
  20317883.983   106771196.94749     -1174.187    20317883.579    83198337.30248
      -914.953  
  22322934.635   117307806.49048     -2260.824    22322933.000    91408669.06546
     -1761.684  
  21005661.360   110385491.23748      -276.098    21005660.932    86014668.90047
      -215.145  
  23234302.541   122097097.87548      3877.479    23234304.358    95140624.76846
      3021.409  
  21763408.763   114367497.02749      2801.867    21763409.213    89117534.12547
      2183.269  
  24670906.695   129646499.85145      2045.136    24670910.655   101023254.80547
      1593.609  
  24799048.579   130319879.93147       728.012    24799049.746   101547975.08646
       567.277  
  23494989.867   123467011.95847      3268.047    23494990.604    96208065.83646
      2546.527  
 20 09 27 04 12 10.0000000  0  8G 5G 2G29G15G13G30G 7G18
  20319002.534   106777074.53449     -1176.647    20319002.062    83202917.24048
      -916.871  
  22325086.467   117319114.97448     -2262.214    22325084.741    91417480.86546
     -1762.770  
  21005925.676   110386880.01148      -279.562    21005925.421    86015751.06147
      -217.844  
  23230613.871   122077713.66248      3876.437    23230615.806    95125520.20146
      3020.598  
  21760744.056   114353494.52349      2799.382    21760744.620    89106623.09747
      2181.336  
  24668961.701   129636278.21145      2043.863    24668965.562   101015289.91246
      1592.620  
  24798357.879   130316249.30947       724.887    24798358.916   101545146.00445
       564.839  
  23491880.888   123450673.69647      3267.371    23491881.494    96195334.70346
      2546.000  
 20 09 27 04 12 15.0000000  0  8G 5G 2G29G15G13G30G 7G18
  20320122.967   106782962.63649     -1178.878    20320122.485    83207505.37348
      -918.608  
  22327239.831   117330430.57048     -2263.754    22327238.164    91426298.20946
     -1763.968  
  21006193.011   110388285.61548      -282.965    21006192.845    86016846.33747
      -220.495  
  23226925.951   122058333.91548      3875.238    23226927.994    95110419.10146
      3019.663  
  21758081.647   114339503.22249      2796.824    21758081.998    89095720.79047
      2179.339  
  24667018.142   129626065.42745      2041.574    24667022.059   101007331.93646
      1590.835  
  24797669.448   130312631.14146       722.008    24797670.252   101542326.63546
       562.602  
  23488772.181   123434337.42347      3266.792    23488772.861    96182605.15546
      2545.550  
 20 09 27 04 12 20.0000000  0  8G 5G 2G29G15G13G30G 7G18
  20321245.692   106788862.97049     -1181.094    20321245.372    83212103.03248
      -920.335  
  22329394.890   117341755.01448     -2265.555    22329393.093    91435122.44146
     -1765.370  
  21006463.969   110389709.81848      -286.473    21006463.915    86017956.10747
      -223.229  
  23223239.393   122038960.36248      3874.226    23223241.131    95095322.82846
      3018.875  
  21755421.513   114325524.80849      2794.558    21755422.064    89084828.52547
      2177.574  
  24665076.719   129615863.11946      2039.586    24665080.901   100999382.09446
      1589.284  
  24796983.657   130309027.06945       719.609    24796984.471   101539518.28646
       560.730  
  23485663.960   123418004.89447      3266.229    23485664.731    96169878.50645
      2545.113  
 20 09 27 04 12 25.0000000  0  8G 5G 2G29G15G13G30G 7G18
  20322370.702   106794774.74949     -1183.597    20322370.201    83216709.61248
      -922.285  
  22331551.293   117353087.45948     -2267.327    22331549.472    91443952.92147
     -1766.754  
  21006738.344   110391151.76448      -290.132    21006738.163    86019079.70047
      -226.081  
  23219553.774   122019592.21248      3872.965    23219555.498    95080230.77546
      3017.890  
  21752763.871   114311558.52649      2791.926    21752764.333    89073945.71947
      2175.522  
  24663137.081   129605670.59646      2037.629    24663141.140   100991439.87745
      1587.757  
  24796300.301   130305436.41446       716.921    24796301.179   101536720.41645
       558.641  
  23482556.466   123401675.30846      3265.340    23482557.300    96157154.15745
      2544.418  
 20 09 27 04 12 30.0000000  0  8G 5G 2G29G15G13G30G 7G18
  20323497.797   106800697.61349     -1185.445    20323497.230    83221324.82448
      -923.727  
  22333709.208   117364427.59748     -2268.597    22333707.518    91452789.38347
     -1767.741  
  21007016.161   110392611.17248      -293.726    21007015.809    86020216.89647
      -228.882  
  23215869.120   122000229.12848      3872.128    23215870.856    95065142.65646
      3017.237  
  21750108.494   114297604.04949      2789.706    21750109.047    89063072.10947
      2173.792  
  24661199.427   129595487.49746      2035.546    24661203.584   100983505.00246
      1586.137  
  24795619.475   130301858.90147       714.273    24795620.300   101533932.73645
       556.574  
  23479449.418   123385348.35147      3265.437    23479450.242    96144431.87045
      2544.492  
 20 09 27 04 12 35.0000000  0  8G 5G 2G29G15G13G30G 7G18
  20324627.001   106806631.52649     -1187.780    20324626.461    83225948.64848
      -925.546  
  22335868.645   117375775.41848     -2270.238    22335866.829    91461631.83647
     -1769.019  
  21007297.019   110394087.99648      -297.054    21007296.900    86021367.66748
      -231.473  
  23212185.410   121980871.13348      3871.223    23212187.200    95050058.51546
      3016.535  
  21747455.221   114283661.34749      2787.531    21747455.689    89052207.67647
      2172.097  
  24659263.469   129585313.81646      2033.902    24659267.500   100975577.46846
      1584.855  
  24794941.271   130298294.41647       711.796    24794942.091   101531155.17845
       554.640  
  23476342.954   123369024.02047      3264.660    23476343.893    96131711.60945
      2543.886  
 20 09 27 04 12 40.0000000  0  8G 5G 2G29G15G13G30G 7G18
  20325758.297   106812576.77848     -1189.984    20325757.887    83230581.30648
      -927.266  
  22338029.635   117387131.18448     -2271.641    22338027.866    91470480.48647
     -1770.113  
  21007581.487   110395582.51248      -300.421    21007581.419    86022532.22247
      -234.097  
  23208502.625   121961518.53248      3870.159    23208504.515    95034978.56746
      3015.706  
  21744804.240   114269730.75949      2784.895    21744804.788    89041352.68147
      2170.042  
  24657329.438   129575149.84846      2031.862    24657333.332   100967657.49846
      1583.265  
  24794265.599   130294743.29546       709.120    24794266.368   101528388.04946
       552.558  
  23473237.032   123352702.60547      3264.132    23473237.979    96118993.62846
      2543.476  
 20 09 27 04 12 45.0000000  0  8G 5G 2G29G15G13G30G 7G18
  20326891.865   106818533.21748     -1192.453    20326891.275    83235222.68648
      -929.188  
  22340191.938   117398494.78848     -2273.570    22340190.347    91479335.23346
     -1771.616  
  21007869.198   110397094.62848      -304.223    21007869.096    86023710.49447
      -237.058  
  23204821.001   121942171.18548      3868.879    23204822.796    95019902.73046
      3014.706  
  21742155.699   114255812.14249      2782.422    21742156.303    89030507.01347
      2168.117  
  24655397.347   129564995.49046      2029.730    24655401.175   100959745.01546
      1581.604  
  24793592.364   130291205.33046       706.168    24793593.085   101525631.22246
       550.257  
  23470131.691   123336383.98647      3263.233    23470132.619    96106277.82346
      2542.776  
 20 09 27 04 12 50.0000000  0  8G 5G 2G29G15G13G30G 7G18
  20328027.340   106824500.83249     -1194.617    20328026.858    83239872.77148
      -930.874  
  22342355.967   117409866.15348     -2275.023    22342354.283    91488196.03446
     -1772.749  
  21008160.336   110398624.29048      -307.422    21008160.189    86024902.44147
      -239.551  
  23201140.307   121922829.13148      3867.922    23201142.286    95004831.00146
      3013.960  
  21739509.266   114241905.51049      2780.344    21739509.786    89019670.68747
      2166.499  
  24653466.907   129554850.77146      2027.918    24653470.688   100951840.02646
      1580.191  
  24792921.632   130287680.63847       703.805    24792922.213   101522884.74146
       548.421  
  23467027.166   123320068.16147      3262.676    23467027.981    96093564.19346
      2542.340  
 20 09 27 04 12 55.0000000  0  8G 5G 2G29G15G13G30G 7G18
  20329165.121   106830479.38148     -1196.992    20329164.630    83244531.38148
      -932.722  
  22344521.306   117421245.08448     -2276.753    22344519.469    91497062.73247
     -1774.098  
  21008454.702   110400171.22648      -311.198    21008454.438    86026107.84047
      -242.496  
  23197460.578   121903492.08948      3866.766    23197462.547    94989763.17946
      3013.062  
  21736865.110   114228010.56949      2777.710    21736865.722    89008843.46947
      2164.444  
  24651538.416   129544715.32446      2026.047    24651541.896   100943942.28746
      1578.734  
  24792253.323   130284168.90147       700.784    24792254.029   101520148.29545
       546.059  
  23463922.830   123303754.85747      3262.253    23463923.625    96080852.53046
      2542.011  
 20 09 27 04 13  0.0000000  0  8G 5G 2G29G15G13G30G 7G18
  20330304.986   106836469.78749     -1199.327    20330304.603    83249199.22548
      -934.543  
  22346688.196   117432632.48348     -2278.429    22346686.553    91505936.01746
     -1775.401  
  21008752.513   110401736.41948      -315.164    21008752.376    86027327.47147
      -245.585  
  23193782.003   121884161.01648      3865.534    23193783.982    94974700.00846
      3012.101  
  21734223.420   114214128.33049      2775.152    21734224.076    88998026.14947
      2162.453  
  24649611.779   129534590.24646      2023.858    24649614.999   100936052.62146
      1577.030  
  24791587.898   130280671.07047       697.949    24791588.302   101517422.69246
       543.848  
  23460819.342   123287445.01647      3261.644    23460819.990    96068143.56946
      2541.539  
 20 09 27 04 13  5.0000000  0  8G 5G 2G29G15G13G30G 7G18
  20331447.112   106842471.82548     -1201.608    20331446.762    83253876.14148
      -936.319  
  22348856.783   117444028.14048     -2280.046    22348854.915    91514815.75246
     -1776.664  
  21009053.738   110403319.64848      -318.456    21009053.746    86028561.15547
      -248.152  
  23190104.386   121864835.72548      3864.488    23190106.405    94959641.35146
      3011.285  
  21731584.022   114200258.54049      2772.671    21731584.645    88987218.53047
      2160.519  
  24647687.007   129524475.22146      2021.620    24647690.122   100928170.75946
      1575.284  
  24790924.773   130277186.88746       695.426    24790925.293   101514707.75046
       541.887  
  23457716.178   123271138.43546      3260.940    23457717.095    96055437.14046
      2540.987  
 20 09 27 04 13 10.0000000  0  8G 5G 2G29G15G13G30G 7G18
  20332591.523   106848485.93648     -1203.805    20332591.132    83258562.45848
      -938.031  
  22351026.899   117455432.48648     -2281.550    22351025.232    91523702.24646
     -1777.835  
  21009358.572   110404921.31048      -321.918    21009358.532    86029809.20347
      -250.847  
  23186428.057   121845516.64148      3863.386    23186430.031    94944587.52546
      3010.429  
  21728947.095   114186401.64549      2770.394    21728947.655    88976420.96347
      2158.746  
  24645764.076   129514370.74545      2020.296    24645767.318   100920297.16747
      1574.257  
  24790264.505   130273716.90446       692.727    24790265.024   101512003.87046
       539.784  
  23454613.673   123254835.59446      3260.008    23454614.720    96042733.65346
      2540.261  
 20 09 27 04 13 15.0000000  0  8G 5G 2G29G15G13G30G 7G18
  20333738.228   106854511.18948     -1206.266    20333737.700    83263257.46348
      -939.948  
  22353198.525   117466844.61448     -2283.190    22353196.743    91532594.81346
     -1779.112  
  21009666.632   110406540.55248      -325.577    21009666.503    86031070.95148
      -253.698  
  23182752.707   121826202.89148      3862.160    23182754.665    94929537.85946
      3009.473  
  21726312.458   114172556.78749      2767.776    21726313.121    88965632.76747
      2156.706  
  24643842.911   129504275.92545      2018.167    24643846.432   100912431.08845
      1572.594  
  24789606.862   130270260.12646       690.374    24789607.371   101509310.29545
       537.952  
  23451511.709   123238535.50846      3259.703    23451513.039    96030032.28746
      2540.023  
 20 09 27 04 13 20.0000000  0  8G 5G 2G29G15G13G30G 7G18
  20334887.011   106860548.08749     -1208.479    20334886.469    83267961.54148
      -941.675  
  22355371.877   117478265.03548     -2285.008    22355369.954    91541493.84146
     -1780.527  
  21009978.135   110408177.85748      -329.229    21009978.125    86032346.77048
      -256.547  
  23179078.492   121806894.97848      3860.831    23179080.515    94914492.73746
      3008.437  
  21723680.297   114158724.46749      2765.246    21723681.034    88954854.34447
      2154.733  
  24641923.914   129494191.24445      2016.012    24641927.185   100904572.90246
      1570.914  
  24788951.661   130266817.14547       687.065    24788952.209   101506627.45345
       535.375  
  23448410.324   123222238.77647      3259.214    23448411.760    96017333.56846
      2539.645  
 20 09 27 04 13 25.0000000  0  8G 5G 2G29G15G13G30G 7G18
  20336037.906   106866596.30148     -1210.816    20336037.427    83272674.42948
      -943.495  
  22357546.540   117489693.40348     -2286.418    22357544.874    91550399.05847
     -1781.629  
  21010293.063   110409832.87548      -332.565    21010293.170    86033636.38848
      -259.144  
  23175405.384   121787592.57548      3860.085    23175407.339    94899451.91246
      3007.854  
  21721050.398   114144904.38049      2762.742    21721051.115    88944085.45347
      2152.780  
  24640006.561   129484116.36045      2014.397    24640010.189   100896722.37746
      1569.660  
  24788298.948   130263387.61447       684.335    24788299.686   101503955.07645
       533.245  
  23445309.795   123205945.04547      3258.468    23445311.219    96004637.15045
      2539.063  
 20 09 27 04 13 30.0000000  0  8G 5G 2G29G15G13G30G 7G18
  20337190.877   106872655.29548     -1212.953    20337190.347    83277395.72648
      -945.160  
  22359722.734   117501129.18948     -2287.742    22359721.008    91559310.05747
     -1782.659  
  21010611.418   110411505.06248      -336.219    21010611.376    86034939.39147
      -261.991  
  23171733.280   121768295.15948      3858.918    23171735.156    94884414.96946
      3006.945  
  21718422.610   114131095.98149      2760.445    21718423.399    88933325.67447
      2150.991  
  24638090.941   129474050.89745      2012.559    24638094.984   100888879.17945
      1568.222  
  24787648.720   130259970.89547       682.104    24787649.304   101501292.68345
       531.508  
  23442209.565   123189653.78947      3258.203    23442210.863    95991942.65046
      2538.855  
 20 09 27 04 13 35.0000000  0  8G 5G 2G29G15G13G30G 7G18
  20338345.951   106878725.09248     -1215.191    20338345.451    83282125.43448
      -946.905  
  22361900.244   117512572.45648     -2289.488    22361898.382    91568226.88146
     -1784.019  
  21010932.812   110413194.49748      -339.679    21010932.781    86036255.83448
      -264.687  
  23168061.920   121749002.78548      3857.886    23168063.970    94869381.94946
      3006.141  
  21715797.300   114117299.32149      2758.059    21715798.136    88922575.03947
      2149.133  
  24636177.313   129463994.78045      2009.940    24636181.443   100881043.26846
      1566.187  
  24787001.152   130256567.11946       679.390    24787001.674   101498640.40345
       529.390  
  23439110.085   123173365.06747      3257.387    23439111.280    95979250.15545
      2538.219  
 20 09 27 04 13 40.0000000  0  8G 5G 2G29G15G13G30G 7G18
  20339503.118   106884806.51649     -1217.448    20339502.745    83286864.20448
      -948.663  
  22364079.501   117524024.02948     -2291.094    22364077.725    91577150.17746
     -1785.269  
  21011257.823   110414902.03548      -343.387    21011257.829    86037586.38347
      -267.578  
  23164391.884   121729716.33448      3856.520    23164393.968    94854353.56446
      3005.078  
  21713174.269   114103515.29549      2755.452    21713175.065    88911834.25147
      2147.101  
  24634265.646   129453948.92845      2008.273    24634269.769   100873215.34446
      1564.886  
  24786356.072   130253177.14146       676.559    24786356.415   101495998.86345
       527.184  
  23436011.071   123157079.70347      3256.754    23436012.160    95966560.24645
      2537.727  
 20 09 27 04 13 45.0000000  0  8G 5G 2G29G15G13G30G 7G18
  20340662.569   106890899.19448     -1219.644    20340662.007    83291611.74748
      -950.374  
  22366260.104   117535483.48848     -2292.749    22366258.288    91586079.62446
     -1786.563  
  21011586.085   110416627.28548      -346.953    21011586.064    86038930.73147
      -270.355  
  23160722.819   121710435.45248      3855.621    23160724.947    94839329.50246
      3004.374  
  21710553.518   114089743.53049      2753.046    21710554.456    88901103.01247
      2145.226  
  24632355.857   129443912.98446      2006.039    24632360.045   100865395.12846
      1563.145  
  24785713.452   130249800.55347       674.487    24785713.889   101493367.76245
       525.570  
  23432912.833   123140797.38347      3256.234    23432913.543    95953872.70946
      2537.324  
 20 09 27 04 13 50.0000000  0  8G 5G 2G29G15G13G30G 7G18
  20341823.916   106897002.45349     -1221.726    20341823.479    83296367.53148
      -951.995  
  22368442.228   117546950.15748     -2294.238    22368440.330    91595014.69346
     -1787.723  
  21011917.560   110418369.53948      -350.293    21011917.695    86040288.32848
      -272.957  
  23157054.681   121691159.44548      3854.617    23157056.923    94824309.24846
      3003.594  
  21707935.048   114075983.31249      2750.772    21707935.747    88890380.77447
      2143.457  
  24630448.078   129433886.19446      2005.152    24630452.026   100857582.04645
      1562.453  
  24785073.311   130246436.74647       671.492    24785073.859   101490746.60545
       523.238  
  23429814.905   123124517.37747      3255.538    23429815.532    95941186.99546
      2536.780  
 20 09 27 04 13 55.0000000  0  8G 5G 2G29G15G13G30G 7G18
  20342987.374   106903116.84648     -1223.980    20342986.894    83301131.99248
      -953.753  
  22370625.685   117558424.61548     -2295.723    22370623.791    91603955.81946
     -1788.878  
  21012252.481   110420129.37348      -353.762    21012252.519    86041659.62748
      -275.659  
  23153387.507   121671888.88148      3853.586    23153389.866    94809293.23046
      3002.792  
  21705318.859   114062235.23949      2748.402    21705319.516    88879667.99947
      2141.608  
  24628541.973   129423869.20146      2002.148    24628545.713   100849776.60646
      1560.113  
  24784435.880   130243086.21247       668.718    24784436.298   101488135.80545
       521.078  
  23426717.531   123108240.25747      3255.074    23426718.229    95928503.52946
      2536.418  
 20 09 27 04 14  0.0000000  0  8G 5G 2G29G15G13G30G 7G18
  20344153.100   106909242.74448     -1226.316    20344152.759    83305905.42048
      -955.573  
  22372810.836   117569907.25648     -2297.257    22372808.988    91612903.33546
     -1790.074  
  21012590.831   110421907.13748      -357.386    21012590.748    86043044.89948
      -278.487  
  23149721.669   121652624.14648      3852.394    23149723.749    94794281.75046
      3001.863  
  21702704.980   114048499.68649      2745.891    21702705.714    88868964.97747
      2139.652  
  24626637.827   129413862.34446      2000.258    24626641.539   100841979.05346
      1558.640  
  24783800.875   130239749.36246       665.863    24783801.317   101485535.66545
       518.851  
  23423620.634   123091966.41946      3254.488    23423621.382    95915822.61346
      2535.960  
 20 09 27 04 14  5.0000000  0  8G 5G 2G29G15G13G30G 7G18
  20345321.125   106915380.19548     -1228.863    20345320.562    83310687.84748
      -957.558  
  22374997.511   117581398.06348     -2299.090    22374995.643    91621857.19546
     -1791.499  
  21012932.398   110423702.89248      -361.163    21012932.660    86044444.19047
      -281.430  
  23146056.785   121633365.29848      3850.992    23146058.870    94779274.87046
      3000.769  
  21700093.567   114034776.73849      2743.070    21700094.356    88858271.77947
      2137.452  
  24624735.530   129403865.71046      1998.187    24624739.063   100834189.47945
      1557.026  
  24783168.532   130236426.25147       662.655    24783169.045   101482946.23945
       516.352  
  23420524.186   123075695.88446      3253.715    23420525.338    95903144.29946
      2535.358  
 20 09 27 04 14 10.0000000  0  8G 5G 2G29G15G13G30G 7G18
  20346491.429   106921530.21549     -1231.047    20346491.078    83315480.06948
      -959.261  
  22377185.906   117592898.09148     -2300.477    22377184.018    91630818.25746
     -1792.582  
  21013277.776   110425517.64848      -364.675    21013277.980    86045858.28248
      -284.168  
  23142393.236   121614113.34448      3849.925    23142395.512    94764273.34446
      2999.937  
  21697484.820   114021067.40149      2740.729    21697485.688    88847589.18747
      2135.632  
  24622835.490   129393880.27546      1996.590    24622838.856   100826408.60546
      1555.781  
  24782538.830   130233117.86547       660.383    24782539.512   101480368.25346
       514.582  
  23417428.664   123059429.71446      3253.219    23417430.038    95890469.37446
      2534.973  
 20 09 27 04 14 15.0000000  0  8G 5G 2G29G15G13G30G 7G18
  20347663.638   106927690.90248     -1233.354    20347663.280    83320280.60648
      -961.058  
  22379375.636   117604405.51248     -2302.344    22379373.843    91639785.06946
     -1794.038  
  21013626.397   110427349.57248      -368.113    21013626.476    86047285.75347
      -286.843  
  23138730.633   121594866.48748      3848.905    23138732.836    94749275.79945
      2999.145  
  21694878.179   114007369.84749      2738.409    21694878.972    88836915.77847
      2133.824  
  24620937.102   129383904.33445      1994.195    24620940.526   100818635.13746
      1553.914  
  24781911.834   130229822.38747       657.679    24781912.282   101477800.34945
       512.472  
  23414333.785   123043166.04746      3252.387    23414335.234    95877796.42146
      2534.328  
 20 09 27 04 14 20.0000000  0  8G 5G 2G29G15G13G30G 7G18
  20348838.133   106933862.38348     -1235.464    20348837.688    83325089.54748
      -962.702  
  22381566.895   117615920.31248     -2303.913    22381564.899    91648757.64046
     -1795.261  
  21013978.260   110429198.74948      -371.519    21013978.400    86048726.66647
      -289.500  
  23135068.996   121575624.82848      3847.702    23135071.380    94734282.31046
      2998.206  
  21692273.984   113993684.18149      2735.977    21692274.702    88826251.63347
      2131.926  
  24619040.437   129373937.82445      1992.167    24619043.953   100810869.04946
      1552.335  
  24781287.131   130226539.92247       655.109    24781287.577   101475242.59745
       510.472  
  23411239.137   123026904.99947      3251.870    23411240.859    95865125.47446
      2533.922  
 20 09 27 04 14 25.0000000  0  8G 5G 2G29G15G13G30G 7G18
  20350014.536   106940044.76548     -1237.504    20350014.042    83329906.98748
      -964.292  
  22383759.489   117627442.72348     -2305.288    22383757.684    91657736.13446
     -1796.331  
  21014333.514   110431065.34248      -375.266    21014333.747    86050181.16048
      -292.417  
  23131408.501   121556388.48748      3846.698    23131410.649    94719292.94646
      2997.426  
  21689671.893   113980010.53949      2733.414    21689672.621    88815596.86047
      2129.929  
  24617145.637   129363980.95846      1990.190    24617149.019   100803110.45746
      1550.796  
  24780665.080   130223270.62047       652.691    24780665.613   101472695.07246
       508.586  
  23408145.358   123010646.70147      3251.406    23408146.929    95852456.66046
      2533.559  
 20 09 27 04 14 30.0000000  0  8G 5G 2G29G15G13G30G 7G18
  20351193.217   106946238.84048     -1239.902    20351192.856    83334733.53548
      -966.160  
  22385953.796   117638973.56848     -2306.851    22385951.900    91666721.20546
     -1797.550  
  21014692.220   110432950.16548      -378.753    21014692.264    86051649.84947
      -295.137  
  23127749.149   121537158.36748      3845.352    23127751.449    94704308.44946
      2996.374  
  21687072.280   113966349.79349      2730.940    21687073.251    88804952.12547
      2128.004  
  24615253.014   129354034.65945      1988.288    24615256.402   100795360.09846
      1549.313  
  24780045.676   130220015.31547       649.762    24780046.011   101470158.47145
       506.304  
  23405052.365   122994392.01147      3250.714    23405053.759    95839790.67546
      2533.019  
 20 09 27 04 14 35.0000000  0  8G 5G 2G29G15G13G30G 7G18
  20352373.972   106952443.74948     -1241.815    20352373.610    83339568.52648
      -967.652  
  22388149.426   117650511.93648     -2308.206    22388147.576    91675712.13346
     -1798.604  
  21015054.151   110434852.31148      -381.918    21015054.443    86053132.04048
      -297.601  
  23124090.766   121517933.55948      3844.547    23124093.181    94689328.07745
      2995.746  
  21684475.144   113952701.06049      2728.762    21684475.818    88794316.75747
      2126.304  
  24613361.997   129344097.95146      1986.766    24613365.447   100787617.20645
      1548.124  
  24779428.750   130216773.06847       647.258    24779429.198   101467632.06746
       504.354  
  23401959.777   122978140.03847      3250.515    23401961.009    95827126.78946
      2532.867  
 20 09 27 04 14 40.0000000  0  8G 5G 2G29G15G13G30G 7G18
  20353556.838   106958659.90548     -1244.594    20353556.574    83344412.28248
      -969.815  
  22390346.731   117662058.22748     -2310.164    22390344.770    91684709.24246
     -1800.132  
  21015419.498   110436772.19448      -385.883    21015419.777    86054628.05047
      -300.691  
  23120433.490   121498714.44748      3843.324    23120435.856    94674352.16046
      2994.792  
  21681880.102   113939064.71249      2725.879    21681881.069    88783691.03747
      2124.058  
  24611473.161   129334171.33246      1984.137    24611476.391   100779882.18046
      1546.077  
  24778814.254   130213544.36647       644.394    24778814.789   101465116.19546
       502.121  
  23398867.769   122961891.20647      3249.272    23398868.982    95814465.36146
      2531.897  
 20 09 27 04 14 45.0000000  0  8G 5G 2G29G15G13G30G 7G18
  20354741.986   106964887.43248     -1246.628    20354741.496    83349264.90248
      -971.402  
  22392545.402   117673612.59948     -2311.612    22392543.393    91693712.64246
     -1801.261  
  21015788.081   110438709.92448      -389.277    21015788.301    86056137.97247
      -303.336  
  23116777.345   121479501.24348      3842.038    23116779.507    94659380.83646
      2993.792  
  21679287.545   113925440.95249      2723.487    21679288.542    88773075.13547
      2122.195  
  24609586.094   129324254.88246      1982.315    24609589.399   100772155.07646
      1544.659  
  24778202.477   130210329.36647       641.659    24778202.802   101462610.99445
       499.991  
  23395776.296   122945645.62547      3248.957    23395777.413    95801806.46546
      2531.652  
 20 09 27 04 14 50.0000000  0  8G 5G 2G29G15G13G30G 7G18
  20355929.037   106971125.80448     -1248.839    20355928.611    83354125.97048
      -973.125  
  22394745.581   117685174.52448     -2313.367    22394743.499    91702721.92846
     -1802.629  
  21016160.119   110440664.99648      -392.878    21016160.484    86057661.40348
      -306.144  
  23113122.154   121460293.39848      3840.832    23113124.437    94644413.68346
      2992.852  
  21676697.443   113911829.24949      2721.035    21676698.178    88762468.62247
      2120.284  
  24607701.138   129314348.12146      1980.194    24607704.097   100764435.51646
      1543.008  
  24777593.189   130207127.46947       638.792    24777593.507   101460116.00045
       497.757  
  23392685.328   122929402.79046      3248.483    23392686.412    95789149.70846
      2531.285  
 20 09 27 04 14 55.0000000  0  8G 5G 2G29G15G13G30G 7G18
  20357118.388   106977375.41848     -1251.183    20357117.933    83358995.79848
      -974.952  
  22396947.300   117696744.35748     -2314.766    22396945.331    91711737.37346
     -1803.715  
  21016535.555   110442637.83248      -396.397    21016535.833    86059198.67647
      -308.886  
  23109468.114   121441091.35148      3839.706    23109470.526    94629451.06146
      2991.977  
  21674109.614   113898230.01949      2718.397    21674110.272    88751871.82847
      2118.230  
  24605817.872   129304451.43446      1978.284    24605820.774   100756723.81146
      1541.519  
  24776986.568   130203939.09347       636.034    24776986.918   101457631.55846
       495.608  
  23389595.035   122913163.13246      3247.707    23389596.126    95776495.44246
      2530.675  
 20 09 27 04 15  0.0000000  0  8G 5G 2G29G15G13G30G 7G18
  20358309.815   106983636.53549     -1252.995    20358309.452    83363874.58848
      -976.362  
  22399150.522   117708322.39948     -2316.124    22399148.610    91720759.21546
     -1804.776  
  21016914.435   110444628.67148      -399.620    21016914.615    86060749.97648
      -311.394  
  23105815.223   121421895.34248      3838.870    23105817.624    94614493.13246
      2991.323  
  21671524.081   113884643.55049      2716.266    21671524.793    88741284.97547
      2116.566  
  24603936.674   129294565.16846      1976.272    24603939.701   100749020.22746
      1539.948  
  24776382.390   130200764.52147       634.012    24776382.720   101455157.87446
       494.030  
  23386505.068   122896926.89946      3247.397    23386506.377    95763843.84146
      2530.437  
 20 09 27 04 15  5.0000000  0  8G 5G 2G29G15G13G30G 7G18
  20359503.324   106989908.65449     -1255.589    20359502.913    83368761.95248
      -978.386  
  22401355.283   117719908.08948     -2318.020    22401353.348    91729787.02746
     -1806.253  
  21017296.530   110446636.96648      -403.362    21017296.819    86062314.88148
      -314.313  
  23102163.295   121402704.86248      3837.655    23102165.722    94599539.51546
      2990.378  
  21668941.041   113871069.30149      2713.445    21668941.768    88730707.63847
      2114.370  
  24602057.216   129284688.73846      1973.741    24602060.310   100741324.30946
      1537.977  
  24775780.910   130197603.28547       630.796    24775781.277   101452694.56445
       491.526  
  23383415.898   122880693.60946      3246.199    23383417.404    95751194.54346
      2529.504  
 20 09 27 04 15 10.0000000  0  8G 5G 2G29G15G13G30G 7G18
  20360699.117   106996192.49248     -1257.898    20360698.817    83373658.44748
      -980.184  
  22403561.554   117731502.21548     -2319.613    22403559.534    91738821.39646
     -1807.491  
  21017682.252   110448663.54748      -407.133    21017682.678    86063894.03548
      -317.250  
  23098512.686   121383520.74848      3836.176    23098514.977    94584590.85846
      2989.226  
  21666360.474   113857508.07649      2711.000    21666361.164    88720140.46447
      2112.465  
  24600179.779   129274822.92746      1972.379    24600182.833   100733636.66646
      1536.913  
  24775182.047   130194456.14647       627.862    24775182.427   101450242.25145
       489.241  
  23380327.375   122864463.99946      3245.604    23380329.134    95738548.09546
      2529.039  
 20 09 27 04 15 15.0000000  0  8G 5G 2G29G15G13G30G 7G18
  20361897.019   107002487.07249     -1259.894    20361896.680    83378563.31148
      -981.738  
  22405769.155   117743103.79848     -2321.027    22405767.196    91747861.59446
     -1808.597  
  21018071.215   110450707.37448      -410.460    21018071.476    86065486.62647
      -319.843  
  23094863.044   121364341.96748      3835.309    23094865.500    94569646.36045
      2988.550  
  21663781.994   113843958.88949      2708.604    21663782.802    88709582.66147
      2110.598  
  24598304.238   129264966.83446      1969.940    24598307.349   100725956.59247
      1535.015  
  24774585.660   130191322.08247       625.719    24774586.006   101447800.13146
       487.569  
  23377239.658   122848237.12547      3245.070    23377241.125    95725903.80646
      2528.620  
 20 09 27 04 15 20.0000000  0  8G 5G 2G29G15G13G30G 7G18
  20363096.811   107008792.71148     -1262.176    20363096.498    83383476.80248
      -983.515  
  22407978.479   117754713.15548     -2322.641    22407976.292    91756907.84546
     -1809.851  
  21018463.423   110452768.78448      -413.996    21018463.673    86067092.92147
      -322.597  
  23091214.522   121345168.95048      3834.215    23091216.981    94554706.34846
      2987.695  
  21661206.180   113830422.11049      2706.159    21661206.863    88699034.52847
      2108.691  
  24596430.578   129255120.68246      1968.316    24596433.804   100718284.27046
      1533.749  
  24773991.800   130188201.41947       622.984    24773992.049   101445368.44646
       485.438  
  23374152.389   122832013.26047      3244.613    23374153.807    95713261.81945
      2528.265  
 20 09 27 04 15 25.0000000  0  8G 5G 2G29G15G13G30G 7G18
  20364298.907   107015109.86048     -1264.558    20364298.771    83388399.25248
      -985.375  
  22410189.138   117766330.74548     -2324.281    22410187.111    91765960.50146
     -1811.132  
  21018859.239   110454848.21848      -417.409    21018859.551    86068713.25647
      -325.258  
  23087567.339   121326002.06148      3833.042    23087569.708    94539771.12446
      2986.785  
  21658632.647   113816898.19649      2703.581    21658633.381    88688496.42347
      2106.683  
  24594558.876   129245284.97846      1966.354    24594562.173   100710620.09546
      1532.222  
  24773400.571   130185094.64447       620.112    24773400.880   101442947.58045
       483.202  
  23371065.676   122815792.93947      3243.960    23371067.328    95700622.60946
      2527.757  
 20 09 27 04 15 30.0000000  0  8G 5G 2G29G15G13G30G 7G18
  20365503.095   107021437.66448     -1266.605    20365502.980    83393330.00448
      -986.968  
  22412401.306   117777955.70848     -2325.645    22412399.153    91775018.90846
     -1812.195  
  21019258.103   110456944.85648      -421.124    21019258.329    86070346.99847
      -328.151  
  23083920.917   121306840.48648      3831.805    23083923.380    94524840.01746
      2985.819  
  21656061.385   113803386.28049      2701.179    21656062.067    88677967.66547
      2104.813  
  24592688.997   129235458.94846      1964.444    24592692.288   100702963.45146
      1530.733  
  24772811.820   130182000.89447       617.523    24772812.112   101440536.86146
       481.184  
  23367979.751   122799575.26647      3243.430    23367981.187    95687985.47146
      2527.344  
 20 09 27 04 15 35.0000000  0  8G 5G 2G29G15G13G30G 7G18
  20366709.366   107027776.91148     -1268.887    20366709.137    83398269.67548
      -988.746  
  22414615.022   117789588.85948     -2327.371    22414612.935    91784083.69846
     -1813.539  
  21019660.571   110459059.49648      -424.730    21019660.800    86071994.77147
      -330.961  
  23080275.835   121287685.04648      3830.644    23080278.024    94509913.71046
      2984.913  
  21653492.601   113789887.16649      2698.570    21653493.219    88667448.88147
      2102.777  
  24590821.196   129225643.36946      1962.090    24590824.349   100695314.95646
      1528.898  
  24772225.738   130178920.98447       614.909    24772225.999   101438136.92346
       479.147  
  23364894.426   122783361.11346      3242.293    23364895.892    95675351.04846
      2526.457  
 20 09 27 04 15 40.0000000  0  8G 5G 2G29G15G13G30G 7G18
  20367917.741   107034126.99149     -1271.215    20367917.518    83403217.79148
      -990.559  
  22416830.242   117801229.51348     -2328.836    22416828.182    91793154.32646
     -1814.679  
  21020066.283   110461191.52648      -428.301    21020066.695    86073656.09248
      -333.741  
  23076631.700   121268535.14348      3829.453    23076633.913    94494991.71546
      2983.984  
  21650926.098   113776400.32549      2696.226    21650926.798    88656939.66147
      2100.953  
  24588955.186   129215837.63546      1960.027    24588958.511   100687674.13046
      1527.288  
  24771642.303   130175854.32547       612.129    24771642.534   101435747.32345
       476.980  
  23361809.385   122767149.80346      3241.770    23361810.793    95662718.86646
      2526.050  
 20 09 27 04 15 45.0000000  0  8G 5G 2G29G15G13G30G 7G18
  20369128.390   107040488.31249     -1273.344    20369128.075    83408174.66548
      -992.218  
  22419046.995   117812878.19248     -2330.477    22419044.860    91802231.22046
     -1815.956  
  21020475.403   110463341.40448      -431.914    21020475.734    86075331.31947
      -336.559  
  23072988.711   121249391.19748      3828.218    23072991.029    94480074.37046
      2983.023  
  21648362.084   113762926.15049      2693.429    21648362.842    88646440.31447
      2098.773  
  24587091.223   129206042.23046      1957.762    24587094.393   100680041.34947
      1525.526  
  24771061.341   130172801.34647       609.202    24771061.532   101433368.37246
       474.699  
  23358725.036   122750941.84646      3241.094    23358726.630    95650089.29645
      2525.522  
 20 09 27 04 15 50.0000000  0  8G 5G 2G29G15G13G30G 7G18
  20370341.106   107046861.61048     -1275.983    20370340.820    83413140.87248
      -994.277  
  22421265.262   117824535.57648     -2332.491    22421263.032    91811314.88746
     -1817.530  
  21020887.946   110465509.77048      -435.628    21020888.215    86077020.95247
      -339.452  
  23069346.836   121230253.95448      3826.832    23069349.332    94465162.22946
      2981.944  
  21645800.541   113749465.33849      2690.851    21645801.305    88635951.37347
      2096.765  
  24585229.184   129196257.80246      1955.742    24585232.508   100672417.11746
      1523.952  
  24770483.060   130169762.71247       606.269    24770483.257   101431000.62346
       472.414  
  23355641.335   122734737.88746      3240.113    23355642.952    95637462.83646
      2524.761  
 20 09 27 04 15 55.0000000  0  8G 5G 2G29G15G13G30G 7G18
  20371555.937   107053245.53248     -1277.870    20371555.761    83418115.35348
      -995.746  
  22423485.050   117836200.29648     -2333.726    22423482.914    91820404.27846
     -1818.491  
  21021303.933   110467695.36048      -438.945    21021304.355    86078724.01048
      -342.039  
  23065706.299   121211122.11348      3825.925    23065708.656    94450254.30246
      2981.237  
  21643241.267   113736016.63949      2688.500    21643241.966    88625471.87047
      2094.934  
  24583369.249   129186483.06146      1953.973    24583372.282   100664800.42545
      1522.574  
  24769907.451   130166737.17647       603.762    24769907.645   101428643.05546
       470.460  
  23352558.255   122718536.62946      3239.895    23352560.055    95624838.51446
      2524.593  
 20 09 27 04 16  0.0000000  0  8G 5G 2G29G15G13G30G 7G18
  20372772.856   107059640.32648     -1280.160    20372772.666    83423098.31048
      -997.530  
  22425706.166   117847872.58948     -2335.425    22425704.030    91829499.56346
     -1819.816  
  21021723.159   110469898.34248      -442.452    21021723.416    86080440.61647
      -344.773  
  23062066.548   121191995.84648      3824.612    23062068.913    94435350.72346
      2980.214  
  21640684.481   113722580.22849      2686.000    21640685.059    88615001.94947
      2092.984  
  24581510.970   129176718.26646      1951.827    24581514.108   100657191.51445
      1520.902  
  24769334.117   130163724.91047       600.788    24769334.229   101426295.82645
       468.145  
  23349475.792   122702338.33446      3239.245    23349477.597    95612216.46046
      2524.086  
 20 09 27 04 16  5.0000000  0  8G 5G 2G29G15G13G30G 7G18
  20373991.870   107066046.75748     -1282.504    20373991.761    83428090.33148
      -999.354  
  22427928.955   117859553.27348     -2337.101    22427926.820    91838601.39146
     -1821.120  
  21022145.809   110472119.57248      -445.980    21022146.147    86082171.44347
      -347.520  
  23058428.336   121172876.00448      3823.414    23058430.660    94420452.15646
      2979.281  
  21638129.982   113709156.93849      2683.382    21638130.860    88604542.24647
      2090.944  
  24579654.895   129166964.21546      1949.651    24579657.865   100649590.94746
      1519.206  
  24768763.645   130160726.74847       598.312    24768763.734   101423959.58945
       466.214  
  23346394.020   122686143.79647      3238.672    23346396.005    95599597.35646
      2523.636  
 20 09 27 04 16 10.0000000  0  8G 5G 2G29G15G13G30G 7G18
  20375212.973   107072463.88548     -1284.711    20375212.838    83433090.68948
     -1001.077  
  22430153.121   117871241.37548     -2338.608    22430150.851    91847708.99146
     -1822.296  
  21022571.868   110474358.05848      -449.604    21022572.041    86083915.71947
      -350.344  
  23054790.851   121153761.67148      3822.167    23054793.147    94405557.86746
      2978.308  
  21635577.962   113695745.79448      2680.988    21635578.859    88594092.00947
      2089.078  
  24577800.489   129157219.96446      1947.894    24577803.829   100641998.01346
      1517.836  
  24768195.654   130157741.71747       595.468    24768195.663   101421633.58846
       463.999  
  23343313.054   122669952.05347      3237.813    23343314.841    95586980.41146
      2522.969  
 20 09 27 04 16 15.0000000  0  8G 5G 2G29G15G13G30G 7G18
  20376436.376   107078892.06548     -1286.848    20376436.103    83438099.66248
     -1002.741  
  22432378.826   117882937.28448     -2339.940    22432376.561    91856822.68346
     -1823.335  
  21023001.170   110476614.21148      -452.983    21023001.380    86085673.76047
      -352.977  
  23051154.715   121134653.27648      3821.215    23051157.090    94390668.22546
      2977.565  
  21633028.418   113682347.25549      2678.511    21633029.051    88583651.59747
      2087.148  
  24575948.204   129147485.92246      1945.460    24575951.500   100634413.03246
      1515.940  
  24767630.328   130154770.22147       593.180    24767630.361   101419318.14646
       462.215  
  23340232.531   122653763.54647      3237.207    23340234.201    95574365.98546
      2522.495  
 20 09 27 04 16 20.0000000  0  8G 5G 2G29G15G13G30G 7G18
  20377661.489   107085330.89049     -1288.840    20377661.311    83443116.93248
     -1004.293  
  22434605.854   117894640.57848     -2341.187    22434603.760    91865942.12846
     -1824.304  
  21023433.712   110478887.57848      -456.313    21023434.117    86087445.21548
      -355.569  
  23047519.500   121115550.37148      3820.104    23047521.776    94375782.84946
      2976.702  
  21630480.950   113668960.87649      2676.117    21630481.695    88573220.66147
      2085.280  
  24574097.788   129137761.67446      1943.905    24574100.862   100626835.69846
      1514.730  
  24767067.274   130151811.85247       590.522    24767067.213   101417012.93146
       460.144  
  23337152.591   122637577.82047      3237.117    23337154.288    95561753.72346
      2522.425  
 20 09 27 04 16 25.0000000  0  8G 5G 2G29G15G13G30G 7G18
  20378888.882   107091780.54349     -1291.348    20378888.723    83448142.63848
     -1006.249  
  22436834.417   117906351.47748     -2343.277    22436832.177    91875067.49846
     -1825.933  
  21023869.698   110481178.26448      -460.019    21023870.042    86089230.16347
      -358.461  
  23043885.464   121096453.16848      3818.515    23043887.652    94360901.90646
      2975.465  
  21627935.972   113655586.86549      2673.211    21627936.789    88562799.35547
      2083.019  
  24572249.277   129128047.43146      1941.664    24572252.463   100619266.15945
      1512.980  
  24766506.845   130148866.81247       587.499    24766507.038   101414718.10746
       457.789  
  23334073.314   122621395.04547      3236.163    23334074.810    95549143.77846
      2521.683  
 20 09 27 04 16 30.0000000  0  8G 5G 2G29G15G13G30G 7G18
  20380118.363   107098241.63448     -1293.488    20380118.311    83453177.25148
     -1007.917  
  22439064.471   117918070.58548     -2344.835    22439062.295    91884199.26946
     -1827.148  
  21024309.083   110483487.02548      -463.691    21024309.377    86091029.19747
      -361.320  
  23040252.590   121077362.25348      3817.577    23040254.767    94346025.87946
      2974.733  
  21625393.464   113642225.89249      2670.750    21625394.289    88552388.21047
      2081.102  
  24570402.685   129118343.83646      1939.324    24570405.709   100611704.91545
      1511.159  
  24765949.075   130145935.77347       584.776    24765949.227   101412434.18445
       455.667  
  23330994.309   122605215.95546      3235.324    23330996.072    95536536.70146
      2521.027  
 20 09 27 04 16 35.0000000  0  8G 5G 2G29G15G13G30G 7G18
  20381350.138   107104714.65248     -1295.769    20381350.109    83458221.16148
     -1009.695  
  22441296.242   117929798.36748     -2346.405    22441293.901    91893337.79146
     -1828.371  
  21024751.904   110485814.34948      -467.293    21024752.129    86092842.69047
      -364.128  
  23036621.057   121058278.20048      3816.284    23036623.361    94331155.19446
      2973.727  
  21622853.613   113628878.44849      2668.086    21622854.273    88541987.61247
      2079.022  
  24568558.371   129108651.37046      1937.414    24568561.363   100604152.34746
      1509.671  
  24765394.182   130143019.16247       582.124    24765394.191   101410161.49845
       453.601  
  23327916.168   122589040.93546      3234.589    23327917.971    95523932.80246
      2520.457  
 20 09 27 04 16 40.0000000  0  8G 5G 2G29G15G13G30G 7G18
  20382584.193   107111199.06349     -1297.722    20382583.868    83463273.94848
     -1011.214  
  22443529.533   117941534.29848     -2347.737    22443527.203    91902482.66646
     -1829.410  
  21025198.163   110488159.67648      -470.745    21025198.560    86094670.22148
      -366.816  
  23032990.612   121039200.45548      3815.289    23032992.921    94316289.42746
      2972.948  
  21620316.231   113615544.00849      2665.722    21620316.898    88531597.14447
      2077.183  
  24566715.932   129098969.50446      1935.500    24566718.995   100596608.03046
      1508.180  
  24764841.754   130140116.47947       579.391    24764841.784   101407899.66945
       451.469  
  23324838.752   122572869.50146      3234.026    23324840.579    95511331.70846
      2520.023  
 20 09 27 04 16 45.0000000  0  8G 5G 2G29G15G13G30G 7G18
  20383819.936   107117693.59249     -1300.022    20383819.804    83468334.62148
     -1013.008  
  22445764.178   117953277.12348     -2349.242    22445761.741    91911632.91246
     -1830.581  
  21025647.626   110490521.74348      -474.147    21025647.894    86096510.79247
      -369.469  
  23029361.145   121020127.79348      3813.925    23029363.422    94301427.61346
      2971.886  
  21617780.963   113602221.33549      2663.430    21617781.496    88521215.84547
      2075.398  
  24564875.338   129089297.02546      1933.645    24564878.423   100589071.03946
      1506.734  
  24764291.785   130137226.46547       576.698    24764291.816   101405647.70645
       449.371  
  23321761.830   122556700.42046      3233.394    23321763.645    95498732.42546
      2519.522  
 20 09 27 04 16 50.0000000  0  8G 5G 2G29G15G13G30G 7G18
  20385057.974   107124199.71648     -1302.233    20385057.955    83473404.32848
     -1014.729  
  22448000.337   117965028.31648     -2350.929    22447997.986    91920789.68046
     -1831.894  
  21026100.713   110492902.01348      -477.695    21026100.904    86098365.54547
      -372.233  
  23025732.977   121001061.64348      3812.741    23025735.197    94286570.88745
      2970.965  
  21615248.162   113588911.88049      2660.746    21615248.777    88510844.84547
      2073.304  
  24563036.725   129079635.42446      1931.395    24563039.737   100581542.52245
      1504.980  
  24763744.475   130134350.58047       573.871    24763744.567   101403406.75146
       447.168  
  23318685.717   122540535.14947      3232.714    23318687.547    95486136.10046
      2518.995  
 20 09 27 04 16 55.0000000  0  8G 5G 2G29G15G13G30G 7G18
  20386298.122   107130716.45149     -1304.550    20386298.056    83478482.30448
     -1016.534  
  22450237.813   117976786.82848     -2352.246    22450235.693    91929952.15646
     -1832.922  
  21026556.864   110495299.48048      -481.324    21026557.104    86100233.69947
      -375.063  
  23022105.985   120982001.10448      3811.207    23022108.211    94271718.51846
      2969.769  
  21612717.828   113575614.66549      2657.871    21612718.510    88500483.38847
      2071.066  
  24561200.012   129069983.58646      1929.758    24561203.028   100574021.59846
      1503.703  
  24763199.676   130131487.83147       571.218    24763199.980   101401176.03645
       445.102  
  23315610.099   122524372.72947      3232.203    23315611.914    95473542.02146
      2518.597  
 20 09 27 04 17  0.0000000  0  8G 5G 2G29G15G13G30G 7G18
  20387540.348   107137244.70748     -1306.827    20387540.350    83483569.25848
     -1018.312  
  22452477.013   117988553.71848     -2354.433    22452474.863    91939121.14946
     -1834.624  
  21027016.613   110497715.16448      -484.952    21027016.931    86102116.05147
      -377.891  
  23018480.133   120962947.06148      3810.137    23018482.418    94256871.22145
      2968.933  
  21610189.956   113562330.67049      2655.469    21610190.681    88490132.22746
      2069.191  
  24559365.391   129060342.68446      1927.151    24559368.525   100566509.21246
      1501.675  
  24762657.705   130128639.22647       568.237    24762657.824   101398956.34445
       442.781  
  23312535.422   122508214.13047      3231.206    23312536.779    95460950.88845
      2517.820  
 20 09 27 04 17  5.0000000  0  8G 5G 2G29G15G13G30G 7G18
  20388784.661   107143783.24049     -1308.477    20388784.607    83488664.22148
     -1019.594  
  22454717.555   118000327.56448     -2355.190    22454715.283    91948295.57646
     -1835.219  
  21027479.408   110500147.73148      -488.108    21027479.710    86104011.55647
      -380.347  
  23014855.238   120943898.32848      3809.335    23014857.543    94242028.05746
      2968.309  
  21607664.377   113549058.63149      2653.391    21607665.081    88479790.38047
      2067.573  
  24557532.699   129050711.35546      1925.430    24557535.697   100559004.27245
      1500.331  
  24762118.040   130125803.42247       565.977    24762118.153   101396746.64046
       441.016  
  23309461.213   122492058.05347      3231.172    23309462.509    95448361.73645
      2517.793  
 20 09 27 04 17 10.0000000  0  8G 5G 2G29G15G13G30G 7G18
  20390030.899   107150332.60949     -1311.113    20390030.812    83493767.62848
     -1021.647  
  22456959.607   118012109.00248     -2357.301    22456957.144    91957475.90546
     -1836.859  
  21027945.627   110502597.75848      -491.956    21027945.942    86105920.66447
      -383.348  
  23011231.481   120924855.45048      3807.878    23011233.704    94227189.44946
      2967.175  
  21605141.282   113535799.14549      2650.422    21605141.909    88469458.31947
      2065.261  
  24555701.899   129041090.12346      1922.921    24555704.892   100551507.21445
      1498.379  
  24761581.038   130122981.08147       563.101    24761581.188   101394547.41646
       438.776  
  23306387.489   122475905.08447      3230.102    23306388.722    95435775.00046
      2516.960  
 20 09 27 04 17 15.0000000  0  8G 5G 2G29G15G13G30G 7G18
  20391279.413   107156893.59449     -1313.059    20391279.440    83498880.08148
     -1023.163  
  22459202.979   118023898.84748     -2358.441    22459200.739    91966662.79946
     -1837.750  
  21028415.473   110505066.06648      -495.128    21028415.783    86107844.02148
      -385.815  
  23007609.053   120905819.27548      3806.703    23007611.335    94212356.07846
      2966.257  
  21602620.486   113522552.99349      2648.241    21602621.159    88459136.64147
      2063.562  
  24553873.026   129031479.89446      1921.094    24553875.990   100544018.69746
      1496.952  
  24761046.478   130120172.95247       560.500    24761046.839   101392359.25645
       436.750  
  23303314.463   122459756.00547      3229.840    23303315.880    95423191.32046
      2516.753  
 20 09 27 04 17 20.0000000  0  8G 5G 2G29G15G13G30G 7G18
  20392530.019   107163465.23249     -1315.550    20392529.797    83504000.83748
     -1025.108  
  22461448.050   118035696.17948     -2360.222    22461445.763    91975855.51546
     -1839.136  
  21028888.352   110507551.71848      -498.918    21028888.571    86109780.88847
      -388.769  
  23003987.580   120886788.83748      3805.395    23003989.957    94197527.17046
      2965.238  
  21600102.324   113509319.30649      2645.358    21600102.858    88448824.68547
      2061.316  
  24552046.175   129021879.72646      1919.272    24552049.277   100536538.05345
      1495.534  
  24760514.754   130117378.15747       557.336    24760514.926   101390181.50545
       434.284  
  23300241.706   122443609.93346      3228.832    23300243.300    95410609.96046
      2515.969  
 20 09 27 04 17 25.0000000  0  8G 5G 2G29G15G13G30G 7G18
  20393782.727   107170048.31849     -1317.656    20393782.608    83509130.51248
     -1026.750  
  22463694.474   118047501.74848     -2361.940    22463692.269    91985054.64846
     -1840.476  
  21029364.864   110510055.43148      -502.503    21029365.035    86111731.83347
      -391.566  
  23000367.450   120867764.92547      3804.222    23000369.795    94182703.33746
      2964.324  
  21597586.442   113496098.78849      2642.897    21597586.993    88438522.98247
      2059.397  
  24550221.438   129012290.35646      1916.723    24550224.323   100529065.82546
      1493.547  
  24759985.520   130114597.39247       554.738    24759985.718   101388014.67445
       432.262  
  23297169.853   122427467.61146      3228.023    23297171.648    95398031.56046
      2515.344  
 20 09 27 04 17 30.0000000  0  8G 5G 2G29G15G13G30G 7G18
  20395037.522   107176642.52849     -1319.964    20395037.361    83514268.85948
     -1028.547  
  22465942.604   118059315.27948     -2363.496    22465940.232    91994259.99346
     -1841.688  
  21029844.608   110512576.93948      -506.121    21029844.885    86113696.64648
      -394.382  
  22996748.638   120848747.25548      3803.108    22996750.843    94167884.39546
      2963.457  
  21595073.234   113482891.19649      2640.254    21595073.833    88428231.35646
      2057.336  
  24548398.584   129002711.53446      1914.749    24548401.540   100521601.80245
      1492.012  
  24759459.023   130111830.47147       551.914    24759459.207   101385858.63845
       430.059  
  23294098.614   122411328.77147      3227.352    23294100.425    95385455.85145
      2514.816  
 20 09 27 04 17 35.0000000  0  8G 5G 2G29G15G13G30G 7G18
  20396294.407   107183247.63149     -1322.280    20396294.300    83519415.68948
     -1030.352  
  22468192.073   118071136.47648     -2365.116    22468189.913    92003471.31046
     -1842.952  
  21030327.769   110515115.99948      -509.812    21030328.182    86115675.13448
      -397.257  
  22993130.779   120829735.58747      3801.647    22993133.117    94153070.10146
      2962.320  
  21592562.318   113469696.27849      2637.414    21592562.827    88417949.61046
      2055.124  
  24546577.842   128993143.03546      1912.511    24546580.729   100514145.82545
      1490.265  
  24758935.141   130109077.07847       549.191    24758935.322   101383713.13246
       427.937  
  23291028.149   122395193.17846      3226.234    23291029.857    95372882.67046
      2513.944  
 20 09 27 04 17 40.0000000  0  8G 5G 2G29G15G13G30G 7G18
  20397553.384   107189863.69149     -1324.159    20397553.447    83524571.05948
     -1031.815  
  22470443.076   118082965.39048     -2366.616    22470440.802    92012688.63746
     -1844.121  
  21030814.361   110517672.62148      -513.121    21030814.652    86117667.30548
      -399.836  
  22989514.059   120810729.97348      3800.648    22989516.343    94138260.54946
      2961.542  
  21590053.869   113456514.10149      2635.218    21590054.281    88407677.78347
      2053.414  
  24544758.780   128983584.83146      1910.612    24544761.813   100506697.88646
      1488.784  
  24758413.764   130106337.22747       546.671    24758413.889   101381578.17145
       425.976  
  23287958.152   122379060.83047      3226.530    23287960.027    95360312.01245
      2514.176  
 20 09 27 04 17 45.0000000  0  8G 5G 2G29G15G13G30G 7G18
  20398814.463   107196490.21049     -1326.457    20398814.308    83529734.57748
     -1033.604  
  22472695.377   118094801.56148     -2368.137    22472693.165    92021911.62446
     -1845.304  
  21031304.190   110520246.40548      -516.647    21031304.312    86119672.84947
      -402.585  
  22985898.456   120791729.97448      3799.277    22985900.779    94123455.35546
      2960.473  
  21587547.708   113443344.23149      2632.663    21587548.184    88397415.55046
      2051.422  
  24542941.861   128974036.60646      1908.675    24542944.905   100499257.70246
      1487.276  
  24757894.860   130103610.52247       544.055    24757894.892   101379453.46345
       423.934  
  23284888.969   122362931.38247      3225.340    23284890.525    95347743.60345
      2513.249  
 20 09 27 04 17 50.0000000  0  8G 5G 2G29G15G13G30G 7G18
  20400077.636   107203128.19649     -1328.570    20400077.605    83534907.03548
     -1035.254  
  22474949.381   118106646.02748     -2369.332    22474947.230    92031141.07846
     -1846.234  
  21031797.437   110522838.34348      -520.007    21031797.610    86121692.53847
      -405.203  
  22982284.211   120772736.64648      3798.081    22982286.510    94108655.37145
      2959.542  
  21585044.018   113430187.68849      2630.089    21585044.526    88387163.70546
      2049.418  
  24541127.035   128964499.31946      1906.512    24541130.227   100491826.05245
      1485.589  
  24757378.581   130100897.95747       541.477    24757378.622   101377339.77046
       421.925  
  23281820.414   122346805.76747      3224.917    23281821.945    95335178.18545
      2512.918  
 20 09 27 04 17 55.0000000  0  8G 5G 2G29G15G13G30G 7G18
  20401342.709   107209776.85649     -1330.851    20401342.627    83540087.80648
     -1037.030  
  22477204.714   118118498.00648     -2371.390    22477202.508    92040376.37846
     -1847.839  
  21032293.912   110525447.65048      -523.648    21032294.099    86123725.76547
      -408.039  
  22978671.114   120753749.22348      3796.776    22978673.147    94093859.97346
      2958.523  
  21582542.811   113417043.69249      2627.476    21582543.306    88376921.63047
      2047.382  
  24539314.084   128954972.19646      1904.253    24539317.274   100484402.31645
      1483.832  
  24756864.989   130098198.76747       538.543    24756865.100   101375236.51346
       419.641  
  23278752.639   122330683.25147      3224.012    23278753.867    95322615.16946
      2512.215  
 20 09 27 04 18  0.0000000  0  8G 5G 2G29G15G13G30G 7G18
  20402610.095   107216436.79349     -1332.867    20402610.077    83545277.36748
     -1038.602  
  22479461.568   118130358.07548     -2372.672    22479459.244    92049617.99046
     -1848.840  
  21032793.833   110528074.90748      -526.866    21032793.987    86125772.97447
      -410.551  
  22975059.132   120734768.29048      3795.691    22975061.311    94079069.63946
      2957.680  
  21580044.089   113403912.88248      2625.280    21580044.536    88366689.83247
      2045.672  
  24537503.023   128945455.88646      1902.460    24537506.520   100476987.01646
      1482.433  
  24756354.049   130095513.56747       536.004    24756354.185   101373144.15345
       417.664  
  23275685.406   122314564.45547      3223.772    23275686.577    95310055.06746
      2512.026  
 20 09 27 04 18  5.0000000  0  8G 5G 2G29G15G13G30G 7G18
  20403879.555   107223107.53949     -1335.430    20403879.485    83550475.34748
     -1040.597  
  22481719.776   118142225.62948     -2374.554    22481717.753    92058865.42846
     -1850.305  
  21033297.161   110530719.54048      -530.766    21033297.298    86127833.72947
      -413.585  
  22971448.311   120715793.26347      3794.340    22971450.402    94064283.91346
      2956.625  
  21577547.817   113390794.66549      2622.262    21577548.200    88356467.84946
      2043.316  
  24535694.050   128935949.76146      1900.133    24535697.395   100469579.64245
      1480.621  
  24755845.576   130092841.77547       532.819    24755845.736   101371062.23446
       415.180  
  23272618.684   122298448.75847      3222.733    23272619.768    95297497.37045
      2511.218  
 20 09 27 04 18 10.0000000  0  8G 5G 2G29G15G13G30G 7G18
  20405151.109   107229789.97449     -1337.680    20405151.079    83555682.43648
     -1042.352  
  22483979.715   118154101.69248     -2376.059    22483977.684    92068119.50046
     -1851.476  
  21033803.934   110533382.55648      -534.398    21033804.036    86129908.80047
      -416.417  
  22967838.784   120696825.19648      3792.750    22967840.918    94049503.61846
      2955.386  
  21575054.214   113377690.09949      2619.601    21575054.552    88346256.49746
      2041.245  
  24533887.159   128926454.88946      1898.026    24533890.743   100462181.04546
      1478.979  
  24755339.970   130090184.39247       529.952    24755339.956   101368991.55346
       412.949  
  23269552.854   122282337.21147      3221.957    23269553.744    95284942.95146
      2510.616  
 20 09 27 04 18 15.0000000  0  8G 5G 2G29G15G13G30G 7G18
  20406424.947   107236483.01049     -1339.625    20406424.644    83560897.78648
     -1043.867  
  22486241.158   118165985.21748     -2377.383    22486239.079    92077379.37646
     -1852.508  
  21034313.922   110536062.93348      -537.781    21034314.202    86131997.40847
      -419.054  
  22964230.401   120677863.04847      3791.687    22964232.461    94034727.90246
      2954.559  
  21572562.906   113364598.12849      2617.097    21572563.105    88336054.96847
      2039.293  
  24532082.406   128916970.22446      1895.995    24532085.756   100454790.39646
      1477.394  
  24754836.813   130087540.37947       527.491    24754836.853   101366931.27646
       411.030  
  23266487.342   122266228.74547      3221.340    23266488.510    95272390.89446
      2510.132  
 20 09 27 04 18 20.0000000  0  8G 5G 2G29G15G13G30G 7G18
  20407700.680   107243187.12549     -1342.030    20407700.394    83566121.76948
     -1045.741  
  22488503.932   118177876.64248     -2379.089    22488501.934    92086645.41946
     -1853.839  
  21034827.533   110538761.07248      -541.472    21034827.519    86134099.85347
      -421.929  
  22960623.170   120658907.23447      3790.394    22960625.477    94019957.15546
      2953.551  
  21570074.074   113351519.19249      2614.340    21570074.352    88325863.59647
      2037.144  
  24530279.507   128907496.23646      1893.305    24530282.954   100447408.06846
      1475.300  
  24754336.326   130084910.17647       524.472    24754336.238   101364881.77745
       408.676  
  23263422.544   122250123.83846      3220.293    23263423.953    95259841.64246
      2509.319  
 20 09 27 04 18 25.0000000  0  8G 5G 2G29G15G13G30G 7G18
  20408978.516   107249902.44749     -1344.089    20408978.330    83571354.48348
     -1047.348  
  22490768.437   118189776.10448     -2380.484    22490766.225    92095917.71846
     -1854.926  
  21035344.367   110541477.11848      -544.675    21035344.501    86136216.24747
      -424.425  
  22957017.252   120639958.00547      3789.254    22957019.444    94005191.52146
      2952.664  
  21567587.693   113338453.45649      2612.121    21567588.046    88315682.49747
      2035.414  
  24528478.477   128898032.98246      1891.531    24528482.097   100440034.10645
      1473.918  
  24753838.322   130082293.95747       522.105    24753838.538   101362843.15645
       406.832  
  23260358.502   122234022.62547      3220.233    23260360.154    95247295.27145
      2509.273  
 20 09 27 04 18 30.0000000  0  8G 5G 2G29G15G13G30G 7G18
  20410258.441   107256628.30949     -1346.207    20410258.249    83576595.41248
     -1048.996  
  22493034.070   118201682.95748     -2382.026    22493032.037    92105195.77946
     -1856.129  
  21035864.430   110544210.44048      -548.395    21035864.672    86138346.10447
      -427.324  
  22953412.320   120621014.61647      3788.276    22953414.647    93990430.44946
      2951.902  
  21565103.814   113325400.27049      2609.253    21565104.193    88305511.18946
      2033.184  
  24526679.561   128888579.95746      1889.379    24526683.215   100432668.11246
      1472.237  
  24753343.158   130079691.04047       519.159    24753343.053   101360814.91346
       404.539  
  23257295.138   122217924.50747      3219.309    23257296.759    95234751.27645
      2508.550  
 20 09 27 04 18 35.0000000  0  8G 5G 2G29G15G13G30G 7G18
  20411540.457   107263365.22449     -1348.391    20411540.104    83581844.95748
     -1050.694  
  22495301.420   118213597.68248     -2383.862    22495299.287    92114479.97746
     -1857.558  
  21036387.936   110546961.51748      -552.026    21036388.009    86140489.79847
      -430.155  
  22949808.735   120602077.62047      3786.835    22949811.037    93975674.36346
      2950.777  
  21562622.400   113312360.10249      2606.667    21562622.756    88295350.02546
      2031.167  
  24524882.774   128879137.59046      1887.659    24524886.356   100425310.43046
      1470.902  
  24752850.245   130077101.92547       516.445    24752850.514   101358797.42646
       402.422  
  23254232.420   122201829.91347      3218.633    23254234.074    95222210.02945
      2508.022  
 20 09 27 04 18 40.0000000  0  8G 5G 2G29G15G13G30G 7G18
  20412824.377   107270112.70949     -1350.727    20412824.168    83587102.73448
     -1052.515  
  22497570.100   118225519.79948     -2385.320    22497568.028    92123769.93646
     -1858.695  
  21036914.676   110549729.89748      -555.527    21036914.784    86142646.97847
      -432.882  
  22946206.279   120583146.58448      3785.589    22946208.465    93960922.90045
      2949.809  
  21560143.270   113299332.56049      2604.022    21560143.506    88285198.69347
      2029.105  
  24523087.889   128869705.46646      1885.305    24523091.475   100417960.72446
      1469.065  
  24752360.205   130074526.18347       513.602    24752360.359   101356790.35445
       400.206  
  23251170.530   122185738.47847      3217.910    23251171.823    95209671.24745
      2507.461  
 20 09 27 04 18 45.0000000  0  8G 5G 2G29G15G13G30G 7G18
  20414110.397   107276870.91449     -1352.741    20414110.173    83592368.86648
     -1054.089  
  22499840.294   118237449.49948     -2386.816    22499838.235    92133065.80346
     -1859.859  
  21037444.838   110552515.73148      -558.922    21037444.948    86144817.75847
      -435.526  
  22942604.996   120564221.65347      3784.495    22942607.327    93946176.21746
      2948.953  
  21557666.626   113286317.80249      2601.577    21557666.957    88275057.32546
      2027.198  
  24521294.996   128860283.71846      1883.202    24521298.781   100410619.09746
      1467.430  
  24751872.442   130071963.97247       511.073    24751872.688   101354793.82845
       398.237  
  23248109.208   122169650.27747      3217.312    23248110.141    95197134.98245
      2506.991  
 20 09 27 04 18 50.0000000  0  8G 5G 2G29G15G13G30G 7G18
  20415398.703   107283640.13349     -1354.710    20415398.380    83597643.57848
     -1055.621  
  22502111.999   118249387.01848     -2387.848    22502109.890    92142367.75546
     -1860.663  
  21037978.427   110555319.28748      -562.281    21037978.539    86147002.34647
      -438.144  
  22939005.012   120545303.14247      3783.253    22939007.162    93931434.51846
      2947.987  
  21555192.643   113273316.12249      2599.277    21555192.843    88264926.14946
      2025.405  
  24519504.157   128850872.67146      1881.156    24519507.757   100403285.81246
      1465.832  
  24751387.547   130069415.57947       508.582    24751387.913   101352808.06745
       396.293  
  23245048.424   122153565.65747      3216.863    23245049.364    95184601.48945
      2506.644  
 20 09 27 04 18 55.0000000  0  8G 5G 2G29G15G13G30G 7G18
  20416688.904   107290420.33949     -1357.270    20416688.557    83602926.85548
     -1057.616  
  22504385.052   118261332.42948     -2390.000    22504383.023    92151675.85846
     -1862.339  
  21038515.254   110558140.55448      -566.124    21038515.293    86149200.73547
      -441.141  
  22935406.169   120526391.05947      3781.745    22935408.213    93916697.83246
      2946.813  
  21552720.923   113260327.48749      2596.366    21552721.188    88254805.13546
      2023.140  
  24517715.424   128841472.31646      1878.897    24517718.875   100395960.85546
      1464.073  
  24750905.155   130066880.96947       505.695    24750905.616   101350833.04745
       394.046  
  23241988.281   122137484.55647      3216.042    23241989.120    95172070.76846
      2506.004  
 20 09 27 04 19  0.0000000  0  8G 5G 2G29G15G13G30G 7G18
  20417981.186   107297211.32949     -1359.288    20417980.922    83608218.52948
     -1059.190  
  22506659.613   118273285.45448     -2391.312    22506657.614    92160989.89546
     -1863.362  
  21039055.502   110560979.35748      -569.620    21039055.483    86151412.78447
      -443.863  
  22931808.500   120507485.21147      3780.167    22931810.767    93901966.01546
      2945.581  
  21550251.681   113247351.78449      2593.745    21550251.965    88244694.20346
      2021.098  
  24515928.604   128832082.45146      1876.683    24515932.202   100388644.07246
      1462.348  
  24750425.417   130064359.99047       502.839    24750425.757   101348868.63645
       391.820  
  23238928.701   122121406.85847      3215.019    23238929.626    95159542.68646
      2505.206  
 20 09 27 04 19  5.0000000  0  8G 5G 2G29G15G13G30G 7G18
  20419275.556   107304013.60049     -1361.621    20419275.488    83613519.00048
     -1061.008  
  22508935.738   118285246.57248     -2393.145    22508933.936    92170310.24046
     -1864.793  
  21039599.184   110563836.14248      -573.238    21039599.080    86153638.85047
      -446.683  
  22928212.134   120488586.06048      3779.094    22928214.304    93887239.41446
      2944.746  
  21547785.120   113234389.44949      2591.034    21547785.208    88234593.68346
      2018.984  
  24514143.785   128822703.56946      1874.480    24514147.208   100381335.85345
      1460.632  
  24749948.537   130061853.09347       499.996    24749948.803   101346915.21346
       389.605  
  23235869.840   122105332.96646      3214.199    23235870.939    95147017.59046
      2504.565  
 20 09 27 04 19 10.0000000  0  8G 5G 2G29G15G13G30G 7G18
  20420572.221   107310827.18749     -1363.882    20420571.986    83618828.28448
     -1062.770  
  22511213.343   118297215.90448     -2394.460    22511211.499    92179636.98246
     -1865.816  
  21040146.281   110566711.00148      -576.695    21040146.108    86155878.99347
      -449.375  
  22924616.905   120469693.69147      3777.992    22924619.275    93872518.09146
      2943.886  
  21545321.024   113221440.59949      2588.504    21545321.154    88224503.67146
      2017.011  
  24512361.083   128813335.78546      1872.456    24512364.725   100374036.28646
      1459.055  
  24749474.128   130059360.36947       497.301    24749474.308   101344972.83145
       387.503  
  23232811.890   122089263.04747      3213.648    23232812.985    95134495.59546
      2504.137  
 20 09 27 04 19 15.0000000  0  8G 5G 2G29G15G13G30G 7G18
  20421870.793   107317651.25849     -1366.034    20421870.464    83624145.74248
     -1064.445  
  22513492.479   118309192.53248     -2396.085    22513490.705    92188969.41746
     -1867.082  
  21040696.626   110569603.08548      -580.272    21040696.545    86158132.56447
      -452.163  
  22921023.025   120450807.31748      3776.488    22921025.190    93857801.44246
      2942.714  
  21542859.372   113208504.37349      2585.918    21542859.512    88214423.50147
      2014.995  
  24510580.499   128803978.22246      1870.426    24510583.901   100366744.67445
      1457.473  
  24749002.197   130056880.98447       494.437    24749002.530   101343040.85245
       385.272  
  23229754.376   122073196.20547      3212.816    23229755.587    95121975.99645
      2503.487  
 20 09 27 04 19 20.0000000  0  8G 5G 2G29G15G13G30G 7G18
  20423171.436   107324486.21649     -1368.184    20423171.120    83629471.68148
     -1066.121  
  22515772.938   118321176.92448     -2397.519    22515771.143    92198307.89946
     -1868.199  
  21041250.199   110572512.81648      -583.801    21041250.172    86160399.88647
      -454.913  
  22917430.281   120431927.35147      3775.465    22917432.353    93843089.78446
      2941.917  
  21540400.215   113195581.23049      2583.269    21540400.311    88204353.51546
      2012.934  
  24508801.752   128794631.34346      1868.257    24508805.295   100359461.39145
      1455.781  
  24748533.099   130054415.35747       491.522    24748533.389   101341119.58046
       383.003  
  23226697.483   122057132.90147      3212.254    23226699.109    95109459.13846
      2503.051  
 20 09 27 04 19 25.0000000  0  8G 5G 2G29G15G13G30G 7G18
  20424474.022   107331331.69349     -1370.163    20424473.748    83634805.81648
     -1067.663  
  22518054.912   118333168.71548     -2399.293    22518053.286    92207652.14346
     -1869.581  
  21041807.196   110575439.85748      -587.203    21041807.199    86162680.69647
      -457.562  
  22913838.677   120413053.46848      3774.015    22913840.686    93828382.88246
      2940.788  
  21537943.352   113182670.82849      2580.655    21537943.529    88194293.46746
      2010.898  
  24507024.930   128785294.79946      1866.422    24507028.636   100352186.17646
      1454.352  
  24748066.473   130051963.15847       489.097    24748066.690   101339208.77645
       381.112  
  23223641.406   122041072.79747      3211.456    23223642.845    95096944.77646
      2502.430  
 20 09 27 04 19 30.0000000  0  8G 5G 2G29G15G13G30G 7G18
  20425778.679   107338187.99349     -1372.284    20425778.557    83640148.38848
     -1069.316  
  22520338.408   118345168.19048     -2400.511    22520336.701    92217002.37746
     -1870.530  
  21042367.622   110578384.47948      -590.569    21042367.641    86164975.20647
      -460.187  
  22910248.233   120394185.93148      3773.097    22910250.280    93813680.89346
      2940.074  
  21535489.157   113169773.41649      2578.296    21535489.211    88184243.53747
      2009.059  
  24505250.251   128775968.92146      1864.241    24505254.034   100344919.25945
      1452.651  
  24747602.355   130049524.66947       486.281    24747602.653   101337308.65446
       378.917  
  23220586.132   122025016.16447      3210.913    23220587.490    95084433.10945
      2502.008  
 20 09 27 04 19 35.0000000  0  8G 5G 2G29G15G13G30G 7G18
  20427085.420   107345054.27749     -1374.453    20427085.083    83645498.73648
     -1071.003  
  22522623.060   118357174.52548     -2402.304    22522621.283    92226357.95246
     -1871.929  
  21042931.107   110581345.85948      -594.238    21042931.042    86167282.76947
      -463.046  
  22906658.901   120375323.96048      3771.598    22906661.121    93798983.26446
      2938.901  
  21533037.215   113156888.21749      2575.625    21533037.331    88174203.12446
      2006.977  
  24503477.446   128766652.86546      1862.022    24503481.287   100337660.00346
      1450.926  
  24747140.893   130047099.04247       483.695    24747141.115   101335418.54646
       376.902  
  23217531.236   122008962.20147      3210.292    23217532.408    95071923.52946
      2501.523  
 20 09 27 04 19 40.0000000  0  8G 5G 2G29G15G13G30G 7G18
  20428394.243   107351932.78349     -1376.805    20428394.042    83650858.61048
     -1072.839  
  22524909.427   118369189.96748     -2403.866    22524907.837    92235720.63046
     -1873.145  
  21043498.373   110584326.20948      -597.906    21043498.328    86169605.11747
      -465.902  
  22903071.102   120356469.76447      3770.159    22903073.174    93784291.68746
      2937.784  
  21530587.934   113144017.44049      2572.866    21530587.912    88164173.94546
      2004.828  
  24501706.988   128757348.85446      1859.858    24501710.723   100330410.12046
      1449.238  
  24746682.092   130044688.55847       480.555    24746682.448   101333540.25846
       374.452  
  23214477.277   121992913.13147      3209.464    23214478.250    95059417.76146
      2500.879  
 20 09 27 04 19 45.0000000  0  8G 5G 2G29G15G13G30G 7G18
  20429705.174   107358821.80049     -1378.777    20429704.970    83656226.67348
     -1074.375  
  22527197.310   118381212.77548     -2405.210    22527195.866    92245089.04346
     -1874.194  
  21044068.704   110587323.85048      -601.121    21044068.561    86171940.93847
      -468.409  
  22899484.432   120337621.71447      3769.238    22899486.435    93769604.90446
      2937.065  
  21528141.136   113131159.42949      2570.363    21528141.154    88154154.72247
      2002.878  
  24499938.650   128748055.27346      1857.597    24499942.112   100323168.35845
      1447.476  
  24746225.985   130042291.48147       478.102    24746226.214   101331672.39846
       372.543  
  23211423.862   121976867.29547      3208.914    23211424.836    95046914.51045
      2500.449  
 20 09 27 04 19 50.0000000  0  8G 5G 2G29G15G13G30G 7G18
  20431018.018   107365720.87349     -1380.977    20431017.843    83661602.57448
     -1076.090  
  22529486.524   118393242.52248     -2406.680    22529484.859    92254462.86646
     -1875.339  
  21044642.452   110590338.31949      -604.698    21044642.211    86174289.87647
      -471.199  
  22895898.902   120318779.31347      3767.703    22895900.974    93754922.50946
      2935.871  
  21525696.632   113118313.75749      2567.781    21525696.827    88144145.11146
      2000.866  
  24498171.963   128738771.58246      1855.684    24498175.470   100315934.31646
      1445.983  
  24745772.344   130039907.39847       475.374    24745772.486   101329814.67746
       370.418  
  23208370.947   121960824.21247      3208.391    23208371.840    95034413.41045
      2500.042  
 20 09 27 04 19 55.0000000  0  8G 5G 2G29G15G13G30G 7G18
  20432333.339   107372632.15149     -1383.308    20432332.939    83666987.98448
     -1077.906  
  22531777.464   118405281.36648     -2408.523    22531775.810    92263843.77146
     -1876.772  
  21045219.614   110593371.79548      -608.434    21045219.529    86176653.61847
      -474.104  
  22892314.706   120299944.77047      3766.257    22892316.911    93740246.24546
      2934.742  
  21523254.963   113105482.60249      2564.836    21523254.972    88134146.81146
      1998.570  
  24496407.783   128729500.06346      1853.163    24496411.158   100308709.75546
      1444.019  
  24745321.539   130037538.46347       472.238    24745321.649   101327968.76246
       367.976  
  23205318.972   121944786.06847      3207.141    23205319.878    95021916.16646
      2499.066  
 20 09 27 04 20  0.0000000  0  8G 5G 2G29G15G13G30G 7G18
  20433650.375   107379553.53349     -1385.089    20433650.194    83672381.26648
     -1079.293  
  22534069.737   118417327.18848     -2409.612    22534068.212    92273230.11846
     -1877.624  
  21045800.191   110596422.15449      -611.581    21045800.008    86179030.51847
      -476.563  
  22888731.856   120281116.01548      3765.315    22888733.846    93725574.50946
      2934.007  
  21520815.593   113092663.91249      2562.565    21520815.825    88124158.22447
      1996.801  
  24494645.290   128720238.57246      1851.151    24494648.999   100301493.00646
      1442.452  
  24744873.189   130035182.61647       470.030    24744873.527   101326133.02845
       366.254  
  23202267.378   121928750.80447      3206.816    23202268.455    95009421.16246
      2498.816  
 20 09 27 04 20  5.0000000  0  8G 5G 2G29G15G13G30G 7G18
  20434969.482   107386485.98849     -1387.520    20434969.419    83677783.18148
     -1081.187  
  22536363.336   118429380.94448     -2411.441    22536361.857    92282622.64946
     -1879.047  
  21046384.030   110599490.34649      -615.496    21046383.904    86181421.31747
      -479.609  
  22885149.951   120262293.97947      3763.707    22885152.033    93710907.98646
      2932.753  
  21518378.883   113079858.56849      2559.621    21518379.109    88114180.03146
      1994.508  
  24492885.107   128710988.02946      1849.077    24492888.474   100294284.79645
      1440.835  
  24744427.526   130032840.76547       466.952    24744427.826   101324308.20645
       363.855  
  23199216.757   121912719.34147      3205.882    23199217.794    94996929.12246
      2498.086  
 20 09 27 04 20 10.0000000  0  8G 5G 2G29G15G13G30G 7G18
  20436290.713   107393428.82349     -1389.629    20436290.605    83683193.18348
     -1082.831  
  22538658.467   118441441.93948     -2412.992    22538656.987    92292020.82246
     -1880.257  
  21046971.081   110602575.66049      -618.793    21046970.989    86183825.45847
      -482.179  
  22881569.400   120243477.96048      3762.512    22881571.618    93696246.16345
      2931.824  
  21515944.472   113067065.90249      2557.214    21515944.579    88104211.72447
      1992.632  
  24491126.646   128701747.84946      1846.780    24491130.184   100287084.64446
      1439.046  
  24743984.529   130030512.20847       464.354    24743984.547   101322493.74145
       361.831  
  23196166.555   121896690.98347      3205.401    23196167.584    94984439.48946
      2497.714  
 20 09 27 04 20 15.0000000  0  8G 5G 2G29G15G13G30G 7G18
  20437614.021   107400382.57449     -1391.792    20437613.753    83688611.69448
     -1084.516  
  22540955.100   118453510.79848     -2414.520    22540953.811    92301425.11846
     -1881.445  
  21047561.582   110605678.70249      -622.332    21047561.484    86186243.40647
      -484.937  
  22877990.174   120224668.62847      3761.167    22877992.183    93681589.53846
      2930.777  
  21513512.716   113054286.56549      2554.609    21513512.730    88094253.80247
      1990.602  
  24489370.401   128692518.53046      1845.034    24489373.833   100279892.99046
      1437.687  
  24743543.990   130028197.59747       461.500    24743544.266   101320690.14546
       359.605  
  23193117.313   121880666.35447      3204.582    23193118.130    94971952.76846
      2497.074  
 20 09 27 04 20 20.0000000  0  8G 5G 2G29G15G13G30G 7G18
  20438939.416   107407347.38349     -1394.187    20438939.082    83694038.81748
     -1086.383  
  22543253.297   118465587.59048     -2416.082    22543251.854    92310835.59546
     -1882.663  
  21048155.497   110608799.62348      -626.058    21048155.390    86188675.29047
      -487.840  
  22874412.262   120205866.07448      3759.769    22874414.288    93666938.21846
      2929.687  
  21511083.431   113041520.61749      2551.784    21511083.566    88084306.31547
      1988.402  
  24487616.248   128683300.29846      1842.546    24487619.700   100272709.95246
      1435.746  
  24743106.298   130025897.01147       458.859    24743106.404   101318897.48546
       357.550  
  23190068.689   121864645.60347      3203.777    23190069.688    94959469.06346
      2496.445  
 20 09 27 04 20 25.0000000  0  8G 5G 2G29G15G13G30G 7G18
  20440266.714   107414322.75849     -1396.402    20440266.604    83699474.17248
     -1088.108  
  22545552.807   118477671.84448     -2417.749    22545551.334    92320251.89546
     -1883.965  
  21048752.639   110611937.87549      -629.457    21048752.465    86191120.68247
      -490.488  
  22870835.309   120187069.83947      3758.660    22870837.346    93652291.80146
      2928.823  
  21508656.619   113028767.63349      2549.215    21508656.631    88074368.92247
      1986.397  
  24485864.012   128674092.61146      1840.448    24485867.804   100265535.13746
      1434.112  
  24742670.876   130023609.97747       456.132    24742671.213   101317115.38746
       355.426  
  23187020.776   121848628.21447      3202.898    23187021.452    94946987.98346
      2495.761  
 20 09 27 04 20 30.0000000  0  8G 5G 2G29G15G13G30G 7G18
  20441596.299   107421309.33849     -1398.624    20441596.083    83704918.26348
     -1089.840  
  22547854.021   118489764.21748     -2419.480    22547852.548    92329674.51446
     -1885.312  
  21049353.414   110615094.15349      -633.324    21049353.200    86193580.12047
      -493.503  
  22867259.882   120168280.56448      3757.023    22867261.825    93637650.82545
      2927.546  
  21506232.472   113016028.27949      2546.414    21506232.613    88064442.15847
      1984.214  
  24484114.084   128664896.18046      1838.163    24484117.757   100258369.08446
      1432.331  
  24742238.500   130021337.20247       452.737    24742238.702   101315344.39246
       352.781  
  23183973.406   121832614.86147      3201.922    23183974.452    94934510.05745
      2495.000  
 20 09 27 04 20 35.0000000  0  8G 5G 2G29G15G13G30G 7G18
  20442927.779   107428306.49949     -1400.577    20442927.514    83710370.59448
     -1091.363  
  22550156.600   118501864.06648     -2420.753    22550155.002    92339102.96146
     -1886.305  
  21049957.229   110618267.82049      -636.473    21049957.119    86196053.10047
      -495.957  
  22863685.610   120149497.66848      3755.840    22863687.552    93623014.80946
      2926.625  
  21503810.624   113003301.91449      2543.750    21503810.782    88054525.51147
      1982.141  
  24482366.055   128655710.37746      1836.132    24482369.736   100251211.32145
      1430.750  
  24741808.606   130019078.03047       450.285    24741808.619   101313583.99046
       350.866  
  23180926.817   121816604.89947      3201.597    23180927.692    94922034.77346
      2494.749  
 20 09 27 04 20 40.0000000  0  8G 5G 2G29G15G13G30G 7G18
  20444261.353   107435314.38349     -1402.753    20444261.146    83715831.28248
     -1093.058  
  22552460.479   118513971.56348     -2422.254    22552459.126    92348537.36646
     -1887.472  
  21050564.647   110621459.01148      -640.054    21050564.215    86198539.74547
      -498.745  
  22860112.664   120130721.30548      3754.508    22860114.493    93608383.88346
      2925.585  
  21501391.422   112990588.73649      2541.229    21501391.622    88044619.14347
      1980.176  
  24480620.117   128646535.35246      1833.977    24480623.573   100244061.95445
      1429.069  
  24741381.233   130016832.57747       447.890    24741381.439   101311834.29346
       349.003  
  23177880.954   121800598.56547      3200.812    23177881.895    94909562.30745
      2494.137  
 20 09 27 04 20 45.0000000  0  8G 5G 2G29G15G13G30G 7G18
  20445596.820   107442332.43549     -1404.844    20445596.493    83721299.89648
     -1094.687  
  22554765.879   118526086.14948     -2423.984    22554764.499    92357977.29646
     -1888.820  
  21051175.101   110624667.18749      -643.535    21051174.747    86201039.61547
      -501.461  
  22856540.642   120111950.91848      3753.176    22856542.700    93593757.61546
      2924.551  
  21498974.688   112977888.21349      2538.586    21498974.687    88034722.63446
      1978.116  
  24478876.053   128637370.60646      1831.601    24478879.632   100236920.58546
      1427.218  
  24740956.494   130014600.33847       444.741    24740956.536   101310094.88545
       346.551  
  23174835.683   121784595.24347      3200.133    23174836.546    94897092.20445
      2493.605  
 20 09 27 04 20 50.0000000  0  8G 5G 2G29G15G13G30G 7G18
  20446934.374   107449361.98649     -1407.163    20446934.257    83726777.47148
     -1096.495  
  22557072.814   118538209.08148     -2425.265    22557071.314    92367423.72646
     -1889.820  
  21051788.997   110627893.67149      -647.151    21051788.704    86203553.76147
      -504.277  
  22852970.151   120093187.86148      3751.973    22852972.311    93579137.06046
      2923.612  
  21496560.442   112965201.67149      2535.918    21496560.686    88024837.01847
      1976.034  
  24477134.294   128628217.44746      1829.531    24477137.914   100229788.25946
      1425.605  
  24740534.402   130012382.63747       442.089    24740534.544   101308366.80445
       344.479  
  23171791.201   121768596.31947      3199.168    23171791.881    94884625.49745
      2492.854  
 20 09 27 04 20 55.0000000  0  8G 5G 2G29G15G13G30G 7G18
  20448274.054   107456401.76949     -1409.082    20448273.990    83732263.01648
     -1097.988  
  22559381.093   118550339.16648     -2426.703    22559379.577    92376875.73846
     -1890.940  
  21052406.311   110631137.23749      -650.414    21052406.063    86206081.21147
      -506.820  
  22849400.841   120074430.88848      3750.698    22849402.935    93564521.25346
      2922.621  
  21494148.632   112952527.83349      2533.554    21494148.843    88014961.29947
      1974.194  
  24475394.480   128619074.60046      1827.594    24475397.965   100222663.95945
      1424.098  
  24740114.996   130010178.20647       439.766    24740115.220   101306649.05645
       342.672  
  23168747.272   121752600.48847      3198.996    23168747.975    94872161.21145
      2492.723  
 20 09 27 04 21  0.0000000  0  8G 5G 2G29G15G13G30G 7G18
  20449615.824   107463452.44549     -1411.266    20449615.674    83737757.05048
     -1099.691  
  22561690.865   118562477.10348     -2428.245    22561689.339    92386333.85946
     -1892.145  
  21053026.869   110634398.51449      -654.055    21053026.594    86208622.46247
      -509.656  
  22845832.825   120055680.68248      3749.386    22845834.774    93549910.69946
      2921.598  
  21491739.532   112939867.46049      2530.659    21491739.731    88005096.07647
      1971.941  
  24473656.765   128609942.78346      1824.987    24473660.400   100215548.26646
      1422.066  
  24739698.070   130007987.74647       436.859    24739698.370   101304942.21946
       340.406  
  23165704.115   121736608.46847      3197.905    23165704.535    94859699.89545
      2491.870  
 20 09 27 04 21  5.0000000  0  8G 5G 2G29G15G13G30G 7G18
  20450959.662   107470514.36149     -1413.473    20450959.337    83743259.84548
     -1101.410  
  22564002.190   118574623.13448     -2429.938    22564000.825    92395798.29046
     -1893.460  
  21053650.826   110637677.83449      -657.671    21053650.559    86211177.77747
      -512.476  
  22842266.166   120036937.57248      3748.058    22842268.090    93535305.69246
      2920.563  
  21489332.904   112927220.82449      2527.991    21489333.042    87995241.55647
      1969.859  
  24471921.294   128600822.32246      1822.968    24471924.840   100208441.40946
      1420.492  
  24739283.975   130005811.69547       433.804    24739284.167   101303246.59645
       338.026  
  23162661.723   121720620.58647      3197.210    23162662.155    94847241.79746
      2491.328  
 20 09 27 04 21 10.0000000  0  8G 5G 2G29G15G13G30G 7G18
  20452305.621   107477587.17049     -1415.656    20452305.415    83748771.12348
     -1103.113  
  22566314.832   118586776.99448     -2431.515    22566313.466    92405268.82346
     -1894.691  
  21054278.231   110640974.90148      -661.188    21054277.923    86213746.91547
      -515.214  
  22838700.825   120018201.29848      3746.546    22838702.843    93520706.00846
      2919.383  
  21486928.920   112914587.64749      2525.261    21486929.037    87985397.52647
      1967.734  
  24470187.723   128591712.93846      1820.789    24470191.423   100201343.19946
      1418.793  
  24738872.534   130003649.61947       431.019    24738872.692   101301561.85945
       335.854  
  23159620.099   121704636.53047      3196.507    23159620.609    94834786.70445
      2490.781  
 20 09 27 04 21 15.0000000  0  8G 5G 2G29G15G13G30G 7G18
  20453653.462   107484670.15349     -1417.691    20453653.208    83754290.33048
     -1104.699  
  22568629.210   118598938.00448     -2433.007    22568627.590    92414744.93346
     -1895.852  
  21054909.062   110644289.00448      -664.656    21054908.691    86216329.33447
      -517.918  
  22835136.656   119999471.15248      3745.293    22835138.586    93506111.09346
      2918.405  
  21484527.416   112901967.21949      2522.570    21484527.449    87975563.42447
      1965.637  
  24468456.251   128582613.96046      1818.261    24468459.999   100194253.08846
      1416.823  
  24738463.596   130001500.82547       428.234    24738463.903   101299887.47045
       333.688  
  23156579.038   121688655.67447      3195.734    23156579.789    94822334.08946
      2490.180  
 20 09 27 04 21 20.0000000  0  8G 5G 2G29G15G13G30G 7G18
  20455003.420   107491764.10849     -1419.913    20455003.203    83759818.08248
     -1106.429  
  22570944.717   118611106.79748     -2434.488    22570943.470    92424227.10446
     -1897.007  
  21055542.922   110647620.77349      -668.035    21055542.652    86218925.51747
      -520.551  
  22831573.598   119980747.84048      3743.905    22831575.561    93491521.50846
      2917.328  
  21482128.397   112889360.26249      2520.050    21482128.328    87965739.82947
      1963.672  
  24466727.049   128573526.06646      1816.558    24466730.509   100187171.61345
      1415.495  
  24738057.349   129999365.94847       425.684    24738057.528   101298223.93145
       331.698  
  23153538.735   121672678.61747      3195.121    23153539.452    94809884.44845
      2489.702  
 20 09 27 04 21 25.0000000  0  8G 5G 2G29G15G13G30G 7G18
  20456355.059   107498867.83149     -1422.120    20456354.920    83765353.44948
     -1108.147  
  22573261.749   118623282.31748     -2435.968    22573260.316    92433714.51546
     -1898.160  
  21056180.218   110650969.18949      -671.585    21056179.811    86221534.66847
      -523.315  
  22828011.884   119962030.28348      3742.715    22828013.744    93476936.40345
      2916.398  
  21479731.641   112876765.69349      2517.394    21479731.660    87955925.87747
      1961.601  
  24464999.550   128564448.15446      1814.332    24465002.996   100180097.92345
      1413.762  
  24737653.548   129997243.99447       422.796    24737653.878   101296570.46046
       329.449  
  23150498.971   121656704.33348      3194.473    23150499.643    94797436.96945
      2489.194  
 20 09 27 04 21 30.0000000  0  8G 5G 2G29G15G13G30G 7G18
  20457709.184   107505983.61649     -1424.301    20457709.061    83770898.21448
     -1109.847  
  22575580.278   118635466.89548     -2437.813    22575578.878    92443208.98046
     -1899.598  
  21056820.923   110654336.52249      -675.233    21056820.615    86224158.56447
      -526.159  
  22824451.491   119943320.79048      3741.094    22824453.379    93462357.58446
      2915.137  
  21477337.757   112864185.87049      2514.444    21477337.907    87946123.42147
      1959.304  
  24463274.359   128555382.56046      1811.922    24463277.861   100173033.81845
      1411.883  
  24737252.782   129995137.23447       419.851    24737252.839   101294928.83346
       327.152  
  23147460.174   121640735.12847      3193.296    23147460.999    94784993.44746
      2488.281  
 20 09 27 04 21 35.0000000  0  8G 5G 2G29G15G13G30G 7G18
  20459065.211   107513109.89949     -1426.113    20459065.163    83776451.16248
     -1111.262  
  22577900.372   118647658.91648     -2439.113    22577899.100    92452709.24746
     -1900.609  
  21057465.070   110657721.19449      -678.562    21057464.604    86226795.96547
      -528.754  
  22820892.449   119924617.80648      3740.315    22820894.223    93447783.84045
      2914.526  
  21474946.531   112851619.17549      2512.094    21474946.598    87936331.19147
      1957.473  
  24461551.241   128546327.70046      1810.015    24461554.888   100165978.09345
      1410.398  
  24736854.494   129993044.09147       417.229    24736854.549   101293297.81045
       325.112  
  23144421.959   121624769.41748      3192.941    23144422.748    94772552.63245
      2488.003  
 20 09 27 04 21 40.0000000  0  8G 5G 2G29G15G13G30G 7G18
  20460423.337   107520246.30849     -1428.565    20460422.970    83782011.99648
     -1113.171  
  22580221.785   118659857.99448     -2440.800    22580220.560    92462215.01746
     -1901.925  
  21058112.257   110661122.90549      -682.332    21058112.005    86229446.64947
      -531.690  
  22817334.714   119905921.03148      3738.516    22817336.310    93433214.93845
      2913.124  
  21472557.578   112839065.29749      2509.190    21472557.485    87926548.95447
      1955.211  
  24459830.196   128537283.26646      1807.898    24459833.741   100158930.50445
      1408.749  
  24736458.678   129990964.24947       414.266    24736458.958   101291677.14945
       322.800  
  23141384.341   121608806.88048      3191.882    23141385.169    94760114.28345
      2487.179  
 20 09 27 04 21 45.0000000  0  8G 5G 2G29G15G13G30G 7G18
  20461783.365   107527393.42749     -1430.504    20461783.204    83787581.17948
     -1114.679  
  22582544.694   118672064.77448     -2442.063    22582543.239    92471726.78346
     -1902.909  
  21058763.068   110664542.19249      -685.512    21058762.817    86232111.02447
      -534.168  
  22813778.137   119887231.03348      3737.234    22813779.868    93418651.30846
      2912.129  
  21470171.111   112826524.79949      2506.593    21470171.337    87916777.13847
      1953.188  
  24458111.024   128528249.89346      1805.218    24458114.747   100151891.51145
      1406.660  
  24736065.530   129988898.27647       411.852    24736065.763   101290067.29945
       320.921  
  23138347.677   121592848.10448      3191.401    23138348.018    94747678.87845
      2486.804  
 20 09 27 04 21 50.0000000  0  8G 5G 2G29G15G13G30G 7G18
  20463145.497   107534551.57549     -1432.523    20463145.178    83793158.95248
     -1116.254  
  22584869.156   118684279.53048     -2443.664    22584867.645    92481244.77246
     -1904.156  
  21059417.126   110667979.35049      -689.097    21059416.818    86234789.32947
      -536.961  
  22810222.895   119868548.08048      3736.038    22810224.644    93404093.16746
      2911.194  
  21467787.498   112813998.01449      2504.172    21467787.600    87907016.00947
      1951.301  
  24456394.217   128519227.82546      1803.065    24456398.018   100144861.32445
      1404.984  
  24735675.089   129986846.49347       409.086    24735675.292   101288468.51045
       318.765  
  23135311.574   121576893.39648      3190.840    23135311.869    94735246.63445
      2486.367  
 20 09 27 04 21 55.0000000  0  8G 5G 2G29G15G13G30G 7G18
  20464509.714   107541720.14549     -1434.789    20464509.341    83798744.84548
     -1118.020  
  22587194.918   118696501.64948     -2445.210    22587193.526    92490768.49346
     -1905.363  
  21060074.418   110671433.84949      -692.629    21060074.247    86237481.14147
      -539.715  
  22806668.788   119849871.68448      3734.691    22806670.623    93389540.13945
      2910.144  
  21465406.160   112801484.40849      2501.284    21465406.324    87897265.14547
      1949.051  
  24454679.486   128510216.47746      1801.284    24454683.092   100137839.51746
      1403.594  
  24735287.257   129984808.36147       406.180    24735287.448   101286880.35445
       316.500  
  23132276.216   121560942.20348      3189.754    23132276.534    94722817.13345
      2485.520  
 20 09 27 04 22  0.0000000  0  8G 5G 2G29G15G13G30G 7G18
  20465875.828   107548899.65349     -1436.809    20465875.700    83804339.26548
     -1119.594  
  22589522.224   118708731.69148     -2446.617    22589520.854    92500298.38646
     -1906.456  
  21060735.319   110674906.18749      -696.059    21060734.850    86240186.85647
      -542.386  
  22803116.196   119831202.37248      3733.269    22803117.814    93374992.63745
      2909.039  
  21463027.498   112788984.48349      2498.737    21463027.486    87887524.95147
      1947.065  
  24452966.821   128501216.45646      1799.218    24452970.401   100130826.52445
      1401.984  
  24734902.097   129982784.36247       403.621    24734902.322   101285303.20445
       314.508  
  23129241.595   121544995.03848      3189.055    23129241.755    94710390.78345
      2484.973  
 20 09 27 04 22  5.0000000  0  8G 5G 2G29G15G13G30G 7G18
  20467244.027   107556089.14849     -1439.062    20467243.754    83809941.46648
     -1121.351  
  22591850.853   118720968.69148     -2448.366    22591849.355    92509833.70746
     -1907.820  
  21061399.247   110678395.37349      -699.577    21061398.874    86242905.70447
      -545.129  
  22799564.751   119812539.12248      3732.051    22799566.278    93360449.84646
      2908.090  
  21460651.292   112776497.27949      2495.871    21460651.303    87877794.65947
      1944.832  
  24451256.093   128492226.76946      1797.187    24451259.680   100123821.56246
      1400.401  
  24734519.413   129980773.59447       400.605    24734519.595   101283736.37545
       312.155  
  23126207.368   121529050.93948      3188.452    23126207.764    94697966.81546
      2484.503  
 20 09 27 04 22 10.0000000  0  8G 5G 2G29G15G13G30G 7G18
  20468614.131   107563289.75049     -1441.288    20468614.028    83815552.32348
     -1123.085  
  22594181.010   118733213.74548     -2449.866    22594179.628    92519375.28846
     -1908.992  
  21062066.630   110681902.58949      -703.280    21062066.304    86245638.59647
      -548.015  
  22796014.639   119793883.15748      3730.527    22796016.205    93345912.73445
      2906.902  
  21458277.557   112764023.96849      2493.207    21458277.811    87868075.19947
      1942.753  
  24449547.651   128483248.62747      1794.387    24449551.197   100116825.61145
      1398.218  
  24734139.592   129978777.15247       397.773    24734139.685   101282180.70845
       309.948  
  23123174.268   121513111.08048      3187.570    23123174.725    94685546.15346
      2483.816  
 20 09 27 04 22 15.0000000  0  8G 5G 2G29G15G13G30G 7G18
  20469986.532   107570501.20749     -1443.390    20469986.245    83821171.63748
     -1124.723  
  22596512.692   118745466.59948     -2451.229    22596511.109    92528922.96846
     -1910.055  
  21062737.427   110685427.52449      -706.819    21062737.144    86248385.29247
      -550.773  
  22792465.846   119775234.18648      3729.288    22792467.610    93331381.08146
      2905.937  
  21455906.675   112751564.27649      2490.491    21455906.772    87858366.35047
      1940.640  
  24447841.273   128474281.67347      1792.074    24447844.876   100109838.38645
      1396.418  
  24733762.239   129976794.77347       395.035    24733762.643   101280636.00045
       307.816  
  23120141.754   121497175.17648      3186.894    23120142.170    94673128.56646
      2483.292  
 20 09 27 04 22 20.0000000  0  8G 5G 2G29G15G13G30G 7G18
  20471360.838   107577723.23049     -1445.457    20471360.672    83826799.18348
     -1126.332  
  22598845.720   118757726.96548     -2453.074    22598844.307    92538476.49346
     -1911.488  
  21063411.456   110688969.88449      -710.332    21063411.156    86251145.57147
      -553.507  
  22788918.181   119756591.95448      3727.547    22788919.967    93316854.66946
      2904.577  
  21453538.075   112739117.91649      2487.772    21453538.157    87848667.89147
      1938.523  
  24446137.030   128465325.66446      1790.203    24446140.510   100102859.66945
      1394.960  
  24733387.720   129974826.16447       392.097    24733387.996   101279102.01146
       305.527  
  23117109.845   121481242.94648      3186.026    23117110.384    94660713.84645
      2482.616  
 20 09 27 04 22 25.0000000  0  8G 5G 2G29G15G13G30G 7G18
  20472737.048   107584955.95049     -1447.792    20472737.043    83832435.06848
     -1128.151  
  22601180.249   118769994.93248     -2454.512    22601178.684    92548035.94046
     -1912.608  
  21064088.910   110692529.83749      -713.890    21064088.607    86253919.55747
      -556.281  
  22785372.045   119737956.57348      3726.438    22785373.759    93302333.60345
      2903.714  
  21451172.321   112726685.07549      2485.000    21451172.251    87838979.96347
      1936.358  
  24444434.887   128456380.80946      1787.456    24444438.265   100095889.66645
      1392.820  
  24733015.683   129972871.47047       389.429    24733015.857   101277578.88245
       303.449  
  23114078.885   121465314.55048      3185.237    23114079.536    94648302.12445
      2482.000  
 20 09 27 04 22 30.0000000  0  8G 5G 2G29G15G13G30G 7G18
  20474115.522   107592199.38349     -1449.757    20474115.362    83838079.30448
     -1129.684  
  22603516.284   118782270.59748     -2455.879    22603514.801    92557601.38546
     -1913.676  
  21064769.775   110696107.39849      -717.305    21064769.471    86256707.26747
      -558.941  
  22781827.237   119719328.10948      3724.979    22781828.769    93287817.92945
      2902.578  
  21448808.850   112714265.76349      2482.483    21448809.012    87829302.58347
      1934.397  
  24442734.980   128447447.01846      1785.694    24442738.336   100088928.27046
      1391.449  
  24732646.304   129970930.74647       386.629    24732646.626   101276066.59845
       301.266  
  23111048.494   121449389.99248      3184.542    23111049.071    94635893.37745
      2481.456  
 20 09 27 04 22 35.0000000  0  8G 5G 2G29G15G13G30G 7G18
  20475495.922   107599453.21049     -1451.987    20475495.643    83843731.63548
     -1131.422  
  22605853.653   118794553.43048     -2457.284    22605852.137    92567172.41446
     -1914.769  
  21065453.879   110699702.07849      -720.758    21065453.529    86259508.30947
      -561.632  
  22778283.600   119700706.07748      3723.608    22778285.298    93273307.25846
      2901.512  
  21446448.045   112701859.49449      2479.831    21446448.255    87819635.36347
      1932.331  
  24441036.895   128438523.92647      1783.706    24441040.370   100081975.22545
      1389.898  
  24732279.613   129969003.48947       383.887    24732279.853   101274564.85045
       299.128  
  23108018.842   121433468.81148      3183.824    23108019.389    94623487.27146
      2480.897  
 20 09 27 04 22 40.0000000  0  8G 5G 2G29G15G13G30G 7G18
  20476878.236   107606717.94649     -1454.085    20476878.137    83849392.46948
     -1133.058  
  22608192.541   118806844.18448     -2459.218    22608190.942    92576749.62046
     -1916.276  
  21066141.229   110703314.56549      -724.382    21066141.016    86262323.23447
      -564.457  
  22774741.274   119682091.21448      3722.313    22774743.017    93258802.17946
      2900.500  
  21444089.915   112689467.00349      2476.961    21444089.928    87809978.87847
      1930.097  
  24439341.185   128429612.22347      1781.051    24439344.559   100075031.04045
      1387.828  
  24731915.578   129967090.50747       381.222    24731915.970   101273074.21746
       297.054  
  23104989.945   121417551.75748      3182.812    23104990.418    94611084.36146
      2480.108  
 20 09 27 04 22 45.0000000  0  8G 5G 2G29G15G13G30G 7G18
  20478262.816   107613993.74349     -1456.210    20478262.569    83855061.92448
     -1134.714  
  22610532.990   118819143.01648     -2460.293    22610531.469    92586333.12246
     -1917.113  
  21066832.175   110706945.07049      -727.812    21066831.885    86265152.19547
      -567.129  
  22771200.314   119663483.68548      3720.906    22771201.993    93244302.80945
      2899.401  
  21441734.237   112677088.48549      2474.499    21441734.519    87800333.27847
      1928.179  
  24437647.583   128420712.13047      1778.979    24437650.664   100068095.91645
      1386.215  
  24731554.193   129965191.85247       378.491    24731554.538   101271594.74245
       294.925  
  23101961.777   121401638.96948      3182.215    23101962.166    94598684.80045
      2479.644  
 20 09 27 04 22 50.0000000  0  8G 5G 2G29G15G13G30G 7G18
  20479649.293   107621279.57249     -1458.281    20479649.201    83860739.19848
     -1136.327  
  22612874.567   118831448.95748     -2462.417    22612873.232    92595922.15646
     -1918.770  
  21067526.164   110710592.54149      -731.253    21067525.938    86267994.38147
      -569.813  
  22767660.651   119644882.50948      3719.754    22767662.409    93229808.39746
      2898.508  
  21439381.070   112664722.91749      2471.671    21439381.317    87790697.77747
      1925.976  
  24435955.898   128411822.63847      1776.542    24435959.295   100061169.04446
      1384.316  
  24731195.489   129963306.50847       375.590    24731195.792   101270125.64446
       292.663  
  23098934.379   121385729.47748      3181.469    23098934.683    94586287.79345
      2479.062  
 20 09 27 04 22 55.0000000  0  8G 5G 2G29G15G13G30G 7G18
  20481037.875   107628576.68649     -1460.397    20481037.795    83866425.25948
     -1137.976  
  22615218.056   118843763.13948     -2463.487    22615216.443    92605517.62146
     -1919.605  
  21068223.771   110714258.24148      -734.887    21068223.413    86270850.76847
      -572.641  
  22764122.332   119626288.98748      3717.968    22764124.048    93215319.93345
      2897.117  
  21437030.742   112652371.57749      2468.995    21437031.056    87781073.35447
      1923.891  
  24434266.476   128402944.95047      1774.370    24434269.952   100054251.37145
      1382.625  
  24730839.439   129961435.76647       372.840    24730839.763   101268667.92145
       290.520  
  23095907.741   121369824.51448      3180.688    23095908.170    94573894.32446
      2478.452  
 20 09 27 04 23  0.0000000  0  8G 5G 2G29G15G13G30G 7G18
  20482428.562   107635884.45049     -1462.429    20482428.324    83872119.61848
     -1139.558  
  22617562.878   118856085.04148     -2464.952    22617561.319    92615119.08946
     -1920.746  
  21068924.600   110717941.52448      -738.230    21068924.317    86273720.85547
      -575.246  
  22760585.548   119607702.46348      3717.026    22760587.183    93200836.93845
      2896.383  
  21434682.868   112640033.88749      2466.347    21434683.227    87771459.57447
      1921.823  
  24432579.355   128394078.47547      1772.358    24432582.722   100047342.44845
      1381.055  
  24730486.252   129959579.03447       370.172    24730486.638   101267221.12145
       288.441  
  23092881.858   121353923.51648      3180.015    23092882.175    94561503.94345
      2477.930  
 20 09 27 04 23  5.0000000  0  8G 5G 2G29G15G13G30G 7G18
  20483820.936   107643201.45649     -1464.495    20483820.811    83877821.18148
     -1141.168  
  22619908.818   118868413.19748     -2466.289    22619907.190    92624725.44446
     -1921.784  
  21069628.471   110721640.98648      -741.585    21069628.377    86276603.55047
      -577.863  
  22757049.714   119589121.56548      3715.422    22757051.464    93186358.32345
      2895.128  
  21432337.504   112627708.41749      2463.699    21432337.845    87761855.31347
      1919.761  
  24430893.948   128385221.87947      1770.332    24430897.449   100040441.19145
      1379.476  
  24730135.148   129957734.84647       367.663    24730135.684   101265784.08645
       286.487  
  23089856.588   121338025.02348      3179.219    23089856.900    94549115.51245
      2477.309  
 20 09 27 04 23 10.0000000  0  8G 5G 2G29G15G13G30G 7G18
  20485215.409   107650529.74249     -1466.796    20485215.245    83883531.53048
     -1142.961  
  22622256.288   118880749.60848     -2468.128    22622254.775    92634338.22646
     -1923.218  
  21070335.977   110725358.64248      -745.476    21070335.884    86279500.42247
      -580.895  
  22753515.380   119570548.29448      3713.905    22753516.963    93171885.66146
      2893.948  
  21429994.777   112615397.17649      2460.733    21429995.125    87752262.14347
      1917.452  
  24429210.977   128376377.12247      1767.694    24429214.224   100033549.19945
      1377.422  
  24729787.090   129955905.28847       364.344    24729787.455   101264358.45745
       283.901  
  23086832.078   121322131.08548      3178.112    23086832.355    94536730.63145
      2476.448  
 20 09 27 04 23 15.0000000  0  8G 5G 2G29G15G13G30G 7G18
  20486612.170   107657869.08549     -1468.784    20486611.875    83889250.49848
     -1144.512  
  22624605.484   118893094.12248     -2469.578    22624603.863    92643957.31646
     -1924.352  
  21071046.917   110729094.28648      -748.718    21071046.791    86282411.31247
      -583.422  
  22749982.409   119551982.49848      3712.530    22749983.964    93157418.80846
      2892.879  
  21427654.541   112603099.99749      2458.176    21427654.860    87742679.92747
      1915.456  
  24427530.131   128367544.06047      1765.680    24427533.259   100026666.30546
      1375.852  
  24729441.671   129954090.13247       361.827    24729442.118   101262944.05145
       281.941  
  23083808.352   121306241.51448      3177.616    23083808.832    94524349.15346
      2476.062  
 20 09 27 04 23 20.0000000  0  8G 5G 2G29G15G13G30G 7G18
  20488010.655   107665218.76749     -1470.972    20488010.473    83894977.52248
     -1146.214  
  22626955.823   118905445.98848     -2471.175    22626954.367    92653582.14646
     -1925.594  
  21071761.056   110732847.20348      -752.351    21071760.863    86285335.66147
      -586.250  
  22746450.759   119533423.42948      3711.003    22746452.466    93142957.19945
      2891.688  
  21425317.159   112590816.16149      2455.332    21425317.507    87733108.11047
      1913.241  
  24425851.179   128358721.92147      1763.309    24425854.278   100019791.90545
      1374.003  
  24729098.746   129952288.67147       359.027    24729099.297   101261540.31746
       279.758  
  23080785.369   121290355.57148      3176.797    23080785.734    94511970.50746
      2475.422  
 20 09 27 04 23 25.0000000  0  8G 5G 2G29G15G13G30G 7G18
  20489411.222   107672578.92149     -1472.977    20489411.017    83900712.70448
     -1147.777  
  22629307.860   118917805.30948     -2472.499    22629306.120    92663212.77646
     -1926.624  
  21072478.444   110736617.47648      -755.710    21072478.359    86288273.53347
      -588.867  
  22742920.431   119514871.21248      3709.948    22742921.931    93128500.93346
      2890.867  
  21422982.068   112578545.79549      2452.714    21422982.382    87723546.78747
      1911.202  
  24424174.512   128349910.88047      1761.234    24424177.778   100012926.16845
      1372.386  
  24728758.490   129950500.99147       356.296    24728759.105   101260147.31945
       277.628  
  23077763.116   121274473.39548      3176.058    23077763.367    94499594.79646
      2474.847  
