     2              OBSERVATION DATA    M                   RINEX VERSION / TYPE
LEICA GEO OFFICE 7.0                    26-9-20 23:55       PGM / RUN BY / DATE
                                                            OBSERVER / AGENCY
PROS                                                        MARKER NAME
PROS                                                        MARKER NUMBER
196020              LEICA GX1230+ GNSS  7.50                REC # / TYPE / VERS
                    LEIAX1203+GNSS                          ANT # / TYPE
 -1165499.7986  3792392.2971  4978660.0963                  APPROX POSITION XYZ
        2.0030        0.0000        0.0000                  ANTENNA: DELTA H/E/N
L1PhaOff:   0.0585  L2PhaOff:   0.0555                      COMMENT
     1     1                                                WAVELENGTH FACT L1/2
     6    C1    L1    D1    P2    L2    D2                  # / TYPES OF OBSERV
  2020     9    26     6    18   20.000000                  TIME OF FIRST OBS
  2020     9    26     8    51   15.000000                  TIME OF LAST OBS
    18                                                      LEAP SECONDS
    25                                                      # OF SATELLITES
          C1    L1    D1    P2    L2    D2                  COMMENT
   G 1     0     0     0     0     0     0                  PRN / # OF OBS
   G 2     0     0     0     0     0     0                  PRN / # OF OBS
   G 3     0     0     0     0     0     0                  PRN / # OF OBS
   G 4     0     0     0     0     0     0                  PRN / # OF OBS
   G 5   321   306   321   284   274   284                  PRN / # OF OBS
   G 6     0     0     0     0     0     0                  PRN / # OF OBS
   G 7     0     0     0     0     0     0                  PRN / # OF OBS
   G 8   397   365   397   349   329   349                  PRN / # OF OBS
   G 9     0     0     0     0     0     0                  PRN / # OF OBS
   G10  1642  1611  1642  1610  1594  1610                  PRN / # OF OBS
   G11    22    22    22     9     9     9                  PRN / # OF OBS
   G12     0     0     0     0     0     0                  PRN / # OF OBS
   G13  1167  1106  1167  1102  1067  1102                  PRN / # OF OBS
   G14     0     0     0     0     0     0                  PRN / # OF OBS
   G15  1636  1542  1636  1537  1491  1537                  PRN / # OF OBS
   G16     0     0     0     0     0     0                  PRN / # OF OBS
   G17     0     0     0     0     0     0                  PRN / # OF OBS
   G18  1820  1804  1820  1815  1804  1815                  PRN / # OF OBS
   G19     0     0     0     0     0     0                  PRN / # OF OBS
   G20  1836  1835  1836  1836  1835  1836                  PRN / # OF OBS
   G21   895   845   895   855   825   855                  PRN / # OF OBS
   G22     0     0     0     0     0     0                  PRN / # OF OBS
   G23     0     0     0     0     0     0                  PRN / # OF OBS
   G24  1806  1785  1806  1790  1778  1790                  PRN / # OF OBS
   G25     0     0     0     0     0     0                  PRN / # OF OBS
   G26     0     0     0     0     0     0                  PRN / # OF OBS
   G27  1068   984  1068  1004   950  1004                  PRN / # OF OBS
   G28     0     0     0     0     0     0                  PRN / # OF OBS
   G29    40    35    40    36    32    36                  PRN / # OF OBS
   G30   161   159   161   160   159   160                  PRN / # OF OBS
   G31     0     0     0     0     0     0                  PRN / # OF OBS
   G32   469   386   469   389   338   389                  PRN / # OF OBS
   R 1  1787  1772  1787  1753  1704  1753                  PRN / # OF OBS
   R 2   502   458   502   456   337   456                  PRN / # OF OBS
   R 3     0     0     0     0     0     0                  PRN / # OF OBS
   R 4     0     0     0     0     0     0                  PRN / # OF OBS
   R 5     0     0     0     0     0     0                  PRN / # OF OBS
   R 6     0     0     0     0     0     0                  PRN / # OF OBS
   R 7   821   765   821   693   442   693                  PRN / # OF OBS
   R 8  1734  1673  1734  1656  1491  1656                  PRN / # OF OBS
   R 9     0     0     0     0     0     0                  PRN / # OF OBS
   R10  1061   994  1060     0     1     1                  PRN / # OF OBS
   R11   718   696   718   706   669   706                  PRN / # OF OBS
   R12     0     0     0     0     0     0                  PRN / # OF OBS
   R13     0     0     0     0     0     0                  PRN / # OF OBS
   R14     0     0     0     0     0     0                  PRN / # OF OBS
   R15     0     0     0     0     0     0                  PRN / # OF OBS
   R16   169   168   169   156   132   156                  PRN / # OF OBS
   R17  1216  1115  1216  1070   785  1070                  PRN / # OF OBS
   R18   202   185   202   179   130   179                  PRN / # OF OBS
   R19     0     0     0     0     0     0                  PRN / # OF OBS
   R20     0     0     0     0     0     0                  PRN / # OF OBS
   R21     0     0     0     0     0     0                  PRN / # OF OBS
   R22     0     0     0     0     0     0                  PRN / # OF OBS
   R23  1289  1241  1289  1247  1131  1247                  PRN / # OF OBS
   R24  1706  1631  1706  1626  1454  1626                  PRN / # OF OBS
                                                            END OF HEADER
 20  9 26  6 18 20.0000000  0 12G20G30G27G24G18G15G 5R 1R24R23R 7R 8
  21804548.060   114583672.53848      -506.884    21804544.660    89285965.63547
      -506.884  
  24464351.880   128561033.64547       381.852    24464350.340   100177421.66044
       381.852  
  24271077.000   127545379.20005      -339.005           0.000           0.00000
         0.000  
  24034708.100   126303240.61546      -724.215    24034703.940    98418115.41243
      -724.215  
  20388113.000   107140257.48849       -99.172    20388109.380    83485898.05148
       -99.174  
  20007559.540   105140435.54849       -50.923    20007555.220    81927593.81149
       -50.924  
  23642614.260   124242785.38246       616.430    23642611.680    96812539.65243
       616.429  
  21712387.520   116065156.76305      -591.541    21712393.560    90272910.78604
      -591.541  
  21231146.320   113532478.43908      -530.783    21231149.380    88303054.85707
      -530.784  
  19566504.120   104667604.33308        49.308    19566508.440    81408155.96506
        49.307  
  20559462.460   110056415.35306       489.779    20559465.800    85599445.83406
       489.780  
  19439136.040   104095692.87008      -129.612    19439135.280    80963313.01807
      -129.614  
 20  9 26  6 18 25.0000000  0 11G20G30G27G18G15G 5R 1R24R23R 7R 8
  21802014.880   114570360.35948      -506.730    21802011.400    89275592.51647
      -506.731  
  24466262.880   128571076.00747       382.325    24466261.280   100185246.92545
       382.323  
  24269384.580   127536485.43146      -338.287    24269385.720    99379068.33542
      -338.287  
  20387619.080   107137662.19248       -98.605    20387615.600    83483875.74048
       -98.605  
  20007306.720   105139107.02549       -50.394    20007302.540    81926558.62949
       -50.395  
  23645697.660   124258989.01846       616.604    23645695.760    96825165.95241
       616.598  
  21709431.020   116049352.53004      -591.368    21709436.420    90260618.58704
      -591.367  
  21228494.220   113518295.80008      -530.295    21228497.140    88292023.94707
      -530.297  
  19566753.300   104668937.31508        50.151    19566757.580    81409192.70606
        50.151  
  20561912.660   110069530.33407       490.068    20561915.560    85609646.47605
       490.063  
  19438489.720   104092231.97107      -129.143    19438488.860    80960621.21307
      -129.144  
 20  9 26  6 18 30.0000000  0 12G20G13G30G27G24G18G15G 5R24R23R 7R 8
  21799481.720   114557048.23248      -506.832    21799478.140    89265219.46346
      -506.833  
  20993989.960           0.00000       337.346           0.000           0.00000
         0.000  
  24468175.100   128581124.97248       382.420    24468173.560   100193077.25745
       382.420  
  24267693.900   127527600.46945      -338.115    24267695.340    99372145.02342
      -338.117  
  24027467.240           0.00040      -724.319    24027473.300           0.00040
      -724.319  
  20387126.940   107135076.28948       -98.400    20387123.460    83481860.74948
       -98.400  
  20007055.820   105137788.64949       -50.136    20007051.820    81925531.29949
       -50.136  
  23648780.620   124275189.99645       616.432    23648779.100    96837795.01243
       616.437  
  21225844.140   113504123.84608      -530.015    21225846.820    88281001.31107
      -530.016  
  19567005.840   104670288.00108        50.696    19567009.880    81410243.29306
        50.695  
  20564363.080   110082647.30007       489.983    20564365.760    85619848.47605
       489.985  
  19437844.840   104088778.80408      -128.952    19437844.080    80957935.40507
      -128.953  
 20  9 26  6 18 35.0000000  0 13G20G13G30G27G24G18G15G 5R 1R24R23R 7
                                R 8
  21796948.300   114543735.44648      -506.228    21796944.480    89254845.83145
      -506.228  
  20995677.140   110333023.37506       338.060           0.000           0.00000
         0.000  
  24470088.520   128591179.94447       383.276    24470087.080   100200912.35345
       383.275  
  24266004.820   127518723.55146      -337.248    24266006.080    99365227.95843
      -337.250  
  24023844.940           0.00040      -724.112    24023839.680           0.00040
      -724.112  
  20386636.460   107132499.08848       -97.435    20386633.200    83479852.53648
       -97.436  
  20006806.700   105136479.54149       -49.172    20006802.680    81924511.25049
       -49.173  
  23651862.560   124291387.30006       616.828           0.000           0.00000
         0.000  
  21703518.840   116017745.19305      -590.730    21703524.340    90236048.56104
      -590.733  
  21223195.800   113489961.63608      -529.021    21223198.260    88269986.27207
      -529.021  
  19567261.500   104671655.56108        51.919    19567265.500    81411306.91806
        51.920  
  20566813.760   110095765.82707       490.562    20566816.360    85630051.87205
       490.559  
  19437201.340   104085332.46507      -128.208    19437200.640    80955254.94207
      -128.209  
 20  9 26  6 18 40.0000000  0 12G20G30G27G24G18G15G 5R 1R24R23R 7R 8
  21794418.000   114530438.46448      -506.293    21794414.160    89244484.57747
      -506.295  
  24472006.100   128601257.18947       383.439    24472004.800   100208764.76846
       383.438  
  24264320.000   127509871.21246      -336.940    24264322.740    99358330.06843
      -336.943  
  24020223.360   126227127.15247      -724.335    24020224.940    98358795.74742
      -724.347  
  20386150.740   107129946.97248       -97.181    20386147.600    83477863.91748
       -97.183  
  20006562.500   105135196.21749       -48.911    20006558.460    81923511.25549
       -48.911  
  23654946.680   124307597.54745       616.660    23654947.500    96863029.48543
       616.660  
  21700566.000   116001960.85204      -590.863    21700571.420    90223771.87003
      -590.862  
  21220552.380   113475825.81708      -528.782    21220554.640    88258991.75607
      -528.783  
  19567523.440   104673056.65708        52.452    19567527.420    81412396.66706
        52.451  
  20569267.620   110108902.55106       490.532    20569270.260    85640269.25606
       490.535  
  19436562.040   104081909.70408      -127.942    19436561.520    80952592.80307
      -127.943  
 20  9 26  6 18 45.0000000  0 12G20G30G27G24G18G15G 5R 1R24R23R 7R 8
  21791881.160   114517107.54248      -507.544    21791877.300    89234096.84446
      -507.545  
  24473918.500   128611307.10348       382.350    24473917.340   100216595.79045
       382.353  
  24262630.420   127500993.59445      -337.807    24262634.320    99351412.39142
      -337.804  
  24016597.300   126208068.33145      -725.716    24016597.200    98343944.63041
      -725.718  
  20385660.420   107127370.38648       -98.155    20385657.280    83475856.17848
       -98.154  
  20006313.760   105133888.94049       -49.750    20006309.760    81922492.61249
       -49.751  
  23658024.300   124323770.67306       615.322           0.000           0.00000
         0.000  
  21697608.580           0.00000      -592.094           0.000           0.00000
         0.000  
  21217904.440   113461666.00908      -529.590    21217906.700    88247978.59907
      -529.592  
  19567782.160   104674440.65008        51.910    19567786.140    81413473.16505
        51.909  
  20571715.560   110122006.49107       489.308           0.000           0.00000
         0.000  
  19435917.860   104078460.06407      -128.872    19435917.600    80949909.76407
      -128.873  
 20  9 26  6 18 50.0000000  0 12G20G30G27G24G18G15G 5R 1R24R23R 7R 8
  21789349.740   114503804.55248      -505.452    21789345.800    89223730.89747
      -505.453  
  24475837.400   128621391.45548       384.780    24475836.400   100224453.82546
       384.777  
  24260947.940   127492152.66544      -335.644    24260952.560    99344523.47144
      -335.647  
  24012976.040   126189033.81545      -723.600    24012970.220    98329107.56043
      -723.600  
  20385177.180   107124831.02748       -95.604    20385174.060    83473877.45648
       -95.604  
  20006072.240   105132619.58449       -47.262    20006068.260    81921503.50949
       -47.263  
  23661106.700   124339968.92647       617.321    23661104.460    96888256.95843
       617.321  
  21694655.440   115970351.57805      -589.790    21694657.800    90199175.78604
      -589.790  
  21215263.840   113447545.21608      -527.080    21215265.880    88236995.74107
      -527.080  
  19568049.520   104675870.73708        54.646    19568053.520    81414585.42506
        54.647  
  20574169.260   110135141.08507       491.654    20574173.000           0.00000
       491.654  
  19435280.360   104075046.29407      -126.515    19435280.200    80947254.62407
      -126.516  
 20  9 26  6 18 55.0000000  0 11G20G30G27G18G15G 5R 1R24R23R 7R 8
  21786823.440   114490528.41148      -505.105    21786819.280    89213385.81646
      -505.104  
  24477762.720   128631509.13847       385.370    24477761.940   100232337.69946
       385.370  
  24259272.240   127483347.35646      -334.767    24259276.340    99337662.14944
      -334.766  
  20384700.840   107122327.76748       -94.891    20384697.720    83471926.86048
       -94.891  
  20005837.680   105131386.92349       -46.528    20005833.660    81920542.99448
       -46.529  
  23664193.720   124356190.92647       617.529    23664191.180    96900897.58643
       617.527  
  21691706.480   115954593.07404      -589.398    21691710.280           0.00000
      -589.398  
  21212630.280   113433462.04208      -526.399    21212632.340    88226042.16407
      -526.399  
  19568325.220   104677345.55608        55.659    19568329.220    81415732.46606
        55.661  
  20576628.480   110148305.09404       492.013    20576632.200    85670909.70506
       492.011  
  19434649.360   104071667.51508      -125.852    19434649.260    80944626.66207
      -125.851  
 20  9 26  6 19  0.0000000  0 12G20G13G30G27G18G15G 5R 1R24R23R 7R 8
  21784300.460   114477270.00748      -504.629    21784296.340    89203054.59847
      -504.630  
  21004161.680           0.00000       341.330           0.000           0.00000
         0.000  
  24479692.620   128641651.18647       386.236    24479691.800   100240240.56746
       386.238  
  24257601.820   127474568.67745      -333.790    24257605.420    99330821.76143
      -333.794  
  20384229.700   107119851.79748       -94.009    20384226.660    83469997.57048
       -94.010  
  20005608.440   105130182.20149       -45.547    20005604.440    81919604.26248
       -45.548  
  23667283.460   124372427.88247       617.949    23667283.560    96913549.66145
       617.953  
  21688760.900   115938854.41005      -588.589    21688762.560           0.00010
      -588.589  
  21210002.020   113419407.51208      -525.372    21210004.020    88215110.85907
      -525.371  
  19568607.580   104678856.14708        56.865    19568611.820    81416907.42406
        56.863  
  20579091.300   110161488.93307       492.573           0.000           0.00000
         0.000  
  19434023.160   104068314.34207      -124.962    19434023.200    80942018.70306
      -124.965  
 20  9 26  6 19  5.0000000  0 12G20G13G30G27G18G15G 5R 1R24R23R 7R 8
  21781777.580   114464012.13848      -504.803    21781773.480    89192723.80646
      -504.803  
  21005866.760   110386590.89444       341.482    21005862.500    86015520.18444
       341.482  
  24481623.820   128651800.09747       386.235    24481623.320   100248148.78846
       386.236  
  24255933.420   127465799.02946      -333.855    24255935.520    99323988.31744
      -333.857  
  20383760.400   107117385.56448       -93.792    20383757.300    83468075.84648
       -93.793  
  20005381.140   105128987.72648       -45.436    20005377.120    81918673.50548
       -45.436  
  23670372.740   124388662.09547       617.639    23670373.920    96926199.58343
       617.645  
  21685817.420   115923117.58604      -588.978    21685822.800    90162432.23904
      -588.979  
  21207375.880   113405364.04308      -525.173    21207377.900    88204188.20607
      -525.174  
  19568893.300   104680384.47308        57.323    19568897.640    81418096.13406
        57.322  
  20581554.720   110174675.39906       492.445    20581554.880    85691412.88305
       492.446  
  19433398.400   104064969.12807      -124.963    19433398.480    80939416.84106
      -124.962  
 20  9 26  6 19 10.0000000  0 12G20G13G30G27G18G15G 5R 1R24R23R 7R 8
  21779253.500   114450747.88548      -504.681    21779249.140    89182388.05946
      -504.683  
  21007576.140           0.00000       341.839           0.000           0.00000
         0.000  
  24483555.040   128661949.10747       386.517    24483554.760   100256057.13546
       386.516  
  24254265.020   127457031.86745      -333.200    24254266.160    99317156.74944
      -333.203  
  20383291.720   107114922.27448       -93.394    20383288.520    83466156.40548
       -93.395  
  20005154.500   105127796.79349       -45.006    20005150.480    81917745.50548
       -45.005  
  23673460.340   124404886.88047       617.639    23673458.560    96938842.33243
       617.637  
  21682873.840   115907375.84105      -588.776    21682878.700    90150188.74304
      -588.778  
  21204750.380   113391324.38407      -524.750    21204752.220    88193268.46707
      -524.749  
  19569181.100   104681923.85708        58.025    19569185.500    81419293.42206
        58.025  
  20584017.260   110187857.27607       492.767           0.000           0.00000
         0.000  
  19432773.840   104061624.91607      -124.625    19432773.960    80936815.80207
      -124.626  
 20  9 26  6 19 15.0000000  0 12G20G13G30G27G18G15G 5R 1R24R23R 7R 8
  21776730.580   114437489.57548      -504.350    21776726.120    89172056.90646
      -504.351  
  21009286.280   110404540.25646       342.443    21009283.360    86029512.25545
       342.443  
  24485488.600   128672110.32847       386.972    24485488.400   100263975.00646
       386.971  
  24252599.480   127448279.31745      -332.517    24252600.960    99310336.56844
      -332.519  
  20382825.920   107112474.19748       -92.776    20382822.660    83464248.81548
       -92.776  
  20004930.840   105126621.61048       -44.318    20004926.880    81916829.80048
       -44.319  
  23676548.400   124421114.71647       617.814    23676544.180    96951487.39543
       617.812  
  21679930.980   115891641.47205      -588.426    21679934.460    90137950.93004
      -588.429  
  21202127.980   113377301.35908      -523.998    21202129.580    88182361.69306
      -524.000  
  19569473.280   104683486.69508        59.009    19569477.580    81420508.96906
        59.009  
  20586481.380   110201047.24806       493.165    20586490.560    85711932.19304
       493.165  
  19432151.680   104058294.07807      -124.034    19432151.860    80934225.16907
      -124.035  
 20  9 26  6 19 20.0000000  0 14G20G13G30G27G24G18G29G15G 5R 1R24R23
                                R 7R 8
  21774209.100   114424239.28147      -504.005    21774204.760    89161732.02446
      -504.006  
  21010998.720   110413543.15447       343.126    21010994.220    86036523.26444
       343.126  
  24487425.060   128682286.25747       387.702    24487424.820   100271904.29846
       387.702  
  24250937.320   127439543.56146      -332.023    24250939.340    99303529.43444
      -332.023  
  23991276.920   126075014.73506      -722.940           0.000           0.00000
         0.000  
  20382363.440   107110043.67849       -92.046    20382360.160    83462354.90648
       -92.047  
  24475668.980   128620507.18006       708.607           0.000           0.00000
         0.000  
  20004710.680   105125464.55649       -43.559    20004706.720    81915928.17749
       -43.560  
  23679637.020   124437347.55705       618.014           0.000           0.00000
         0.000  
  21676988.800   115875916.98805      -588.011    21676988.620    90125720.78203
      -588.011  
  21199509.120   113363297.18308      -523.283    21199510.740    88171469.56007
      -523.283  
  19569770.280   104685075.26208        59.983    19569774.640    81421744.54506
        59.983  
  20588947.140   110214247.16005       493.515    20588948.500           0.00000
       493.511  
  19431532.640   104054979.45807      -123.351    19431532.920    80931647.09907
      -123.350  
 20  9 26  6 19 25.0000000  0 14G20G13G30G27G24G18G29G15G 5R 1R24R23
                                R 7R 8
  21771689.760   114410999.89248      -503.948    21771685.220    89151415.62846
      -503.949  
  21012714.960   110422564.42146       343.586    21012713.260    86043552.97845
       343.582  
  24489364.840   128692479.40247       387.952    24489364.560   100279847.01446
       387.952  
  24249278.740   127430827.48145      -331.682    24249281.080    99296737.70044
      -331.680  
  23987659.580   126056019.21605      -723.004           0.000           0.00000
         0.000  
  20381904.780   107107633.27248       -91.626    20381901.460    83460476.63348
       -91.625  
  24479209.980   128639126.07344       708.315    24479212.200   100238280.97053
       708.315  
  20004494.440   105124328.22849       -43.107    20004490.420    81915042.74348
       -43.108  
  23682727.600   124453588.17106       617.950           0.000           0.00000
         0.000  
  21674050.120   115860205.00705      -587.892    21674051.420           0.00000
      -587.896  
  21196894.300   113349314.51208      -522.830    21196896.000    88160594.16407
      -522.830  
  19570072.580   104686692.41708        60.692    19570076.840    81423002.28005
        60.693  
  20591415.520   110227460.13406       493.625           0.000           0.00000
         0.000  
  19430917.000   104051682.94808      -123.024    19430917.360    80929083.15707
      -123.025  
 20  9 26  6 19 30.0000000  0 14G20G13G30G27G24G18G29G15G 5R 1R24R23
                                R 7R 8
  21769171.460   114397766.47348      -503.667    21769166.920    89141103.83946
      -503.666  
  21014434.540   110431598.94947       343.951    21014432.540    86050592.77545
       343.951  
  24491306.920   128702684.96847       388.554    24491306.700   100287799.41946
       388.554  
  24247623.080   127422126.16946      -330.948    24247625.420    99289957.49843
      -330.949  
  23984048.380   126037026.18946      -723.000    23984046.420    98210626.21543
      -723.000  
  20381449.000   107105238.25048       -90.965    20381445.800    83458610.42948
       -90.966  
  24482754.680   128657746.81045       708.700    24482751.640   100252779.06644
       708.701  
  20004281.200   105123207.82849       -42.459    20004277.180    81914169.69448
       -42.459  
  23685818.520   124469831.82246       618.166    23685824.740    96989425.77542
       618.166  
  21671112.220   115844500.64305      -587.434    21671112.100    90101288.94202
      -587.437  
  21194282.540   113335348.60708      -522.135    21194284.320    88149731.77307
      -522.135  
  19570379.280   104688333.06308        61.688    19570383.520    81424278.36306
        61.688  
  20593885.180   110240681.04106       493.917    20593886.920           0.00000
       493.917  
  19430303.940   104048400.34507      -122.472    19430304.460    80926530.04007
      -122.473  
 20  9 26  6 19 35.0000000  0 14G20G13G30G27G24G18G29G15G 5R 1R24R23
                                R 7R 8
  21766653.960   114384537.27348      -503.321    21766649.400    89130795.38046
      -503.321  
  21016156.480   110440645.16147       344.663    21016153.700    86057641.72944
       344.666  
  24493251.060   128712901.11748       389.148    24493250.780   100295760.03446
       389.149  
  24245969.680   127413437.78046      -330.256    24245972.080    99283187.36344
      -330.258  
  23980434.920   126018034.07046      -722.625    23980434.500    98195870.23753
      -722.621  
  20380995.740   107102856.68648       -90.228    20380992.600    83456754.64548
       -90.228  
  24486297.780   128676367.20145       708.763    24486297.500   100267288.51642
       708.762  
  20004070.700   105122101.44949       -41.694    20004066.660    81913307.58949
       -41.695  
  23688909.780   124486076.65846       618.275    23688912.480    97002084.15041
       618.277  
  21668175.020   115828802.08704      -587.162    21668179.140           0.00000
      -587.162  
  21191673.600   113321397.42508      -521.353    21191675.240    88138880.86607
      -521.354  
  19570690.020   104689995.40108        62.738    19570694.300    81425571.31505
        62.737  
  20596356.220   110253908.21307       494.386    20596357.460    85753045.40707
       494.386  
  19429693.040   104045129.17207      -121.850    19429693.740    80923985.78407
      -121.850  
 20  9 26  6 19 40.0000000  0 14G20G13G30G27G24G18G29G15G 5R 1R24R23
                                R 7R 8
  21764138.720   114371319.87948      -502.855    21764134.220    89120496.12846
      -502.856  
  21017882.000   110449710.32947       345.366    21017879.780    86064705.56645
       345.364  
  24495198.640   128723135.36947       389.831    24495198.340   100303734.77045
       389.831  
  24244320.420   127404769.94045      -329.613    24244322.540    99276433.17443
      -329.611  
  23976822.300   125999050.10246      -722.410    23976812.220    98181066.49941
      -722.410  
  20380546.600   107100496.19848       -89.487    20380543.480    83454915.34448
       -89.489  
  24489842.120   128694994.94846       708.942    24489843.040   100281803.39843
       708.947  
  20003864.300   105121016.74149       -40.934    20003860.240    81912462.37649
       -40.935  
  23692002.800   124502330.01546       618.744    23692006.320    97014796.99543
       618.747  
  21665240.800   115813117.07705      -586.585    21665246.020    90076880.53104
      -586.587  
  21189068.860   113307468.81108      -520.504    21189070.380    88128047.52807
      -520.505  
  19571006.280   104691687.31208        63.745    19571010.440    81426887.23606
        63.745  
  20598829.800   110267149.35006       494.991    20598829.280    85763343.97503
       494.994  
  19429085.840   104041877.70708      -121.140    19429086.660    80921456.88008
      -121.140  
 20  9 26  6 19 45.0000000  0 13G20G13G30G27G24G18G29G15G 5R24R23R 7
                                R 8
  21761622.980   114358099.61548      -504.688    21761618.400    89110194.64946
      -504.688  
  21019608.160   110458780.42046       343.927    21019604.920    86071773.16544
       343.927  
  24497146.920   128733373.12948       388.112    24497146.400   100311712.27245
       388.112  
  24242672.180   127396107.99246      -331.060    24242674.400    99269683.50644
      -331.056  
  23973209.100   125980059.75445      -724.270    23973202.900    98166269.00642
      -724.272  
  20380098.720   107098142.31848       -91.006    20380095.640    83453081.16048
       -91.006  
  24493385.620   128713615.46245       706.943    24493385.500   100296312.91644
       706.945  
  20003659.220   105119939.08649       -42.399    20003655.120    81911622.64349
       -42.399  
  23695094.720   124518577.50707       616.661           0.000           0.00000
         0.000  
  21186465.540   113293547.93208      -521.992    21186467.020    88117220.21407
      -521.993  
  19571325.340   104693393.76908        62.520    19571329.340    81428214.47305
        62.520  
  20601303.200   110280389.20905       493.144           0.000           0.00000
         0.000  
  19428479.460   104038630.71508      -122.693    19428480.360    80918931.42507
      -122.692  
 20  9 26  6 19 50.0000000  0 13G20G13G30G27G24G18G29G15G 5R24R23R 7
                                R 8
  21759103.300   114344858.52648      -503.744    21759098.720    89099876.93146
      -503.745  
  21021332.300   110467829.74606       345.031           0.000           0.00000
         0.000  
  24499092.440   128743596.44148       389.426    24499091.640   100319678.46046
       389.426  
  24241021.500   127387434.01546      -329.706    24241023.640    99262924.71644
      -329.710  
  23969589.960   125961045.28344      -723.614    23969590.260    98151479.34444
      -723.607  
  20379648.560   107095776.86348       -89.665    20379645.580    83451237.92248
       -89.665  
  24496923.980   128732210.67644       707.807    24496924.980   100310802.62444
       707.808  
  20003452.060   105118850.35649       -41.060    20003447.980    81910774.31848
       -41.061  
  23698182.160   124534801.05846       617.472    23698184.140    97040094.18843
       617.472  
  21183860.240   113279616.31307      -520.661    21183861.800    88106384.47907
      -520.661  
  19571643.600   104695096.16808        64.188    19571647.480    81429538.57405
        64.188  
  20603772.980           0.00000       494.085    20603773.760           0.00000
       494.085  
  19427870.600   104035369.93308      -121.453    19427871.460    80916395.29907
      -121.455  
 20  9 26  6 19 55.0000000  0 15G20G13G30G27G24G18G29G10G15G 5R 1R24
                                R23R 7R 8
  21756590.220   114331652.05448      -500.772    21756585.640    89089586.21945
      -500.774  
  21023062.780   110476928.30447       348.327    21023061.560    86085994.79245
       348.326  
  24501045.800   128753860.79447       392.627    24501044.680   100327676.69545
       392.626  
  24239379.260   127378803.57845      -326.367    24239381.160    99256199.67443
      -326.366  
  23965977.640   125942061.95646      -720.661    23965980.260    98136667.38843
      -720.661  
  20379206.860   107093455.52048       -86.313    20379203.920    83449429.09748
       -86.314  
  24500468.140   128750836.27746       710.566    24500470.340   100325316.16743
       710.564  
  24974582.580   131242317.62306      -615.306           0.000           0.00000
         0.000  
  20003253.400   105117806.32749       -37.696    20003249.280    81909960.75749
       -37.696  
  23701275.420   124551056.26245       620.339    23701281.760    97052769.67844
       620.339  
  21656437.180   115766067.15004      -584.353    21656443.140    90040298.88702
      -584.354  
  21181263.560   113265730.85608      -517.264    21181265.240    88095584.71207
      -517.265  
  19571971.760   104696851.61808        67.823    19571975.500    81430903.95305
        67.821  
  20606249.740   110306866.06205       497.216    20606248.500           0.00000
       497.213  
  19427269.660   104032152.02808      -118.182    19427270.500    80913892.47507
      -118.182  
 20  9 26  6 20  0.0000000  0 14G20G13G30G27G24G18G29G15G 5R 1R24R23
                                R 7R 8
  21754085.360   114318488.92148      -501.482    21754080.620    89079329.17946
      -501.481  
  21024804.060   110486077.43446       347.866    21024801.220    86093124.00644
       347.867  
  24503008.460   128764174.60347       392.096    24503007.240   100335713.43746
       392.095  
  24237746.920   127370224.89045      -326.775    24237748.220    99249514.96143
      -326.777  
  23962372.920   125923118.48645      -721.435    23962373.040    98121906.18143
      -721.431  
  20378775.200   107091186.64548       -86.671    20378772.280    83447661.17648
       -86.672  
  24504020.180   128769500.49445       709.451    24504021.620   100339859.67843
       709.453  
  20003064.820   105116815.25649       -38.014    20003060.720    81909188.52949
       -38.016  
  23704376.340   124567351.49147       619.623    23704383.020    97065467.17943
       619.626  
  21653514.080   115750443.20503      -585.122           0.000           0.00000
         0.000  
  21178677.000   113251899.89208      -517.551    21178678.700    88084827.31407
      -517.551  
  19572311.460   104698668.35108        67.758    19572315.100    81432316.95505
        67.758  
  20608735.000   110320169.76506       496.673    20608733.780           0.00000
       496.670  
  19426678.360   104028985.57408      -118.599    19426679.220    80911429.69407
      -118.599  
 20  9 26  6 20  5.0000000  0 14G20G13G30G27G24G18G10G15G 5R 1R24R23
                                R 7R 8
  21751576.900   114305306.70448      -501.919    21751572.140    89069057.29746
      -501.918  
  21026542.500   110495214.80847       347.630    21026539.260    86100244.01246
       347.629  
  24504968.720   128774475.70747       391.967    24504967.220   100343740.24744
       391.967  
  24236112.540   127361636.22346      -326.848    24236114.140    99242822.51844
      -326.849  
  23958760.860           0.00000      -722.232           0.000           0.00000
         0.000  
  20378341.660   107088908.18048       -86.726    20378338.700    83445885.69148
       -86.724  
  24968422.400           0.00000      -616.812           0.000           0.00000
         0.000  
  20002874.520   105115815.04249       -38.057    20002870.420    81908409.14149
       -38.058  
  23707473.080   124583624.63646       618.968    23707479.000    97078163.09043
       618.990  
  21650588.000   115734801.50205      -585.370    21650593.340           0.00000
      -585.370  
  21176088.900   113238060.29508      -517.625    21176090.740    88074063.12307
      -517.623  
  19572650.760   104700483.10709        67.983    19572654.260    81433728.43605
        67.983  
  20611216.880   110333455.58906       496.385           0.000           0.00000
         0.000  
  19426084.820   104025807.16708      -118.695    19426085.720    80908957.61107
      -118.696  
 20  9 26  6 20 10.0000000  0 14G20G13G30G27G24G18G29G15G 5R 1R24R23
                                R 7R 8
  21749060.940   114292085.27148      -502.118    21749056.240    89058754.93546
      -502.119  
  21028274.080   110504320.07746       347.836    21028272.200    86107339.00845
       347.834  
  24506922.720   128784743.90547       391.968    24506920.980   100351741.45645
       391.967  
  24234472.300   127353017.01944      -326.926    24234473.280    99236106.19444
      -326.923  
  23955143.260   125885164.65045      -722.435    23955147.740    98092327.40343
      -722.435  
  20377902.360   107086599.68548       -86.562    20377899.440    83444086.89048
       -86.563  
  24511105.380   128806734.30546       708.789    24511110.020   100368903.15644
       708.789  
  20002678.620   105114785.42849       -37.886    20002674.520    81907606.85249
       -37.886  
  23710561.840   124599855.42545       618.723    23710560.700    97090771.77442
       618.723  
  21647653.280           0.00000      -585.563           0.000           0.00000
         0.000  
  21173495.320   113224191.33408      -517.396    21173497.260    88063276.16808
      -517.396  
  19572985.780   104702275.42308        68.431    19572989.240    81435122.44305
        68.431  
  20613691.800   110346703.30905       495.914    20613690.840           0.00000
       495.914  
  19425485.240   104022596.15708      -118.720    19425486.100    80906460.15407
      -118.720  
 20  9 26  6 20 15.0000000  0 15G20G13G30G27G24G18G29G10G15G 5R 1R24
                                R23R 7R 8
  21746558.300   114278933.60947      -500.186    21746553.580    89048506.89744
      -500.186  
  21030021.380   110513502.62946       349.913    21030019.680    86114494.27644
       349.911  
  24508891.260   128795088.16648       394.149    24508889.340   100359801.91745
       394.149  
  24232847.100   127344476.32345      -324.527    24232848.560    99229451.20044
      -324.529  
  23951537.960   125866194.41604      -720.301           0.000           0.00000
         0.000  
  20377478.200   107084370.37548       -84.335    20377475.220    83442349.80948
       -84.336  
  24514658.200   128825396.54146       710.625    24514659.800   100383445.02444
       710.627  
  24962251.520   131177504.07305      -615.439           0.000           0.00000
         0.000  
  20002497.860   105113835.42049       -35.616    20002493.780    81906866.58049
       -35.616  
  23713663.160   124616152.84847       620.547    23713660.920    97103471.07941
       620.548  
  21644734.520   115703512.59604      -583.614    21644741.560           0.00000
      -583.614  
  21170916.960   113210404.06208      -515.128    21170919.060    88052552.74407
      -515.128  
  19573337.420   104704156.20308        70.963    19573340.720    81436585.26105
        70.965  
  20616180.160   110360023.79906       498.019    20616179.620    85835580.50305
       498.018  
  19424900.300   104019463.66708      -116.524    19424901.100    80904023.76007
      -116.523  
 20  9 26  6 20 20.0000000  0 14G20G13G30G27G24G18G29G15G 5R 1R24R23
                                R 7R 8
  21744052.760   114265767.00848      -501.710    21744048.120    89038247.23646
      -501.710  
  21031767.220   110522677.49547       348.634    21031764.560    86121643.60645
       348.633  
  24510858.060   128805423.61547       392.869    24510856.100   100367855.52645
       392.868  
  24231216.620   127335922.44944      -325.743    24231227.120    99222814.39542
      -325.743  
  23947934.420   125847234.69745      -722.294    23947929.920    98062776.52643
      -722.294  
  20377052.860   107082135.34848       -85.494    20377049.860    83440608.20148
       -85.494  
  24518205.860   128844039.18146       708.861    24518208.960   100397971.77943
       708.861  
  20002316.060   105112880.18149       -36.771    20002312.000    81906122.23448
       -36.771  
  23716761.220   124632431.98607       618.838           0.000           0.00000
         0.000  
  21641814.280   115687891.22205      -585.049    21641819.000    89979486.26504
      -585.048  
  21168337.940   113196612.19608      -516.291    21168339.920    88041825.78907
      -516.293  
  19573689.360   104706039.07708        70.106    19573692.580    81438049.70105
        70.106  
  20618666.140   110373330.65506       496.647    20618667.920    85845930.25704
       496.646  
  19424313.860   104016323.22408      -117.761    19424314.700    80901581.19607
      -117.761  
 20  9 26  6 20 25.0000000  0 14G20G13G30G27G24G18G29G15G 5R 1R24R23
                                R 7R 8
  21741545.960   114252593.62448      -501.022    21741541.280    89027982.25647
      -501.022  
  21033513.840   110531852.81647       349.709    21033510.320    86128793.08845
       349.712  
  24512824.780   128815758.60147       393.811    24512822.800   100375908.77445
       393.811  
  24229594.200   127327377.67504      -324.626           0.000           0.00000
         0.000  
  23944323.080   125828263.57545      -721.850    23944325.620    98047994.05744
      -721.851  
  20376628.080   107079902.89648       -84.419    20376625.100    83438868.65048
       -84.419  
  24521751.160   128862670.50244       709.519    24521751.100   100412489.69943
       709.518  
  20002134.860   105111928.05049       -35.695    20002130.800    81905380.34449
       -35.697  
  23719857.360   124648701.25007       619.548           0.000           0.00000
         0.000  
  21638890.640   115672264.48205      -584.267    21638898.200    89967332.19003
      -584.268  
  21165759.480   113182824.05907      -515.031    21165761.520    88031101.66707
      -515.030  
  19574043.340   104707932.37708        71.487    19574046.420    81439522.33005
        71.485  
  20621151.220   110386632.49606       497.287           0.000           0.00000
         0.000  
  19423727.560   104013183.41608      -116.773    19423728.420    80899139.14407
      -116.774  
 20  9 26  6 20 30.0000000  0 13G20G13G30G27G24G18G15G 5R 1R24R23R 7
                                R 8
  21739041.820   114239434.15148      -500.746    21739036.960    89017728.13346
      -500.747  
  21035264.200   110541049.19147       350.128    21035259.920    86135959.16045
       350.126  
  24514795.340   128826113.72247       394.214    24514793.340   100383977.68845
       394.216  
  24227972.240           0.00040      -323.963    24227965.100           0.00040
      -323.963  
  23940714.700           0.00000      -721.574           0.000           0.00000
         0.000  
  20376207.700   107077693.72948       -83.840    20376204.660    83437147.22848
       -83.840  
  20001958.180   105110999.62449       -35.112    20001954.120    81904656.91049
       -35.113  
  23722955.540   124664981.30807       619.703           0.000           0.00000
         0.000  
  21635971.040   115656653.28305      -583.966    21635977.000    89955190.08204
      -583.966  
  21163185.720   113169060.78108      -514.570    21163187.720    88020396.87607
      -514.570  
  19574403.220   104709857.31908        72.397    19574406.320    81441019.50406
        72.397  
  20623639.260   110399950.33905       497.750    20623635.940           0.00000
       497.750  
  19423145.280   104010065.17808      -116.227    19423146.120    80896713.82007
      -116.226  
 20  9 26  6 20 35.0000000  0 13G20G13G30G24G18G29G15G 5R 1R24R23R 7
                                R 8
  21736537.020   114226271.42047      -500.344    21736532.040    89007471.48044
      -500.345  
  21037015.320   110550249.62847       350.850    21037010.920    86143128.32245
       350.849  
  24516766.440   128836471.79448       394.889    24516764.360   100392048.89045
       394.891  
  23937105.680   125790334.47645      -721.425    23937104.880    98018432.53344
      -721.427  
  20375788.500   107075490.54848       -83.147    20375785.380    83435430.46148
       -83.147  
  24528842.940   128899955.03946       709.571    24528843.220   100441522.06044
       709.571  
  20001782.760   105110077.73949       -34.350    20001778.680    81903938.52349
       -34.350  
  23726052.460   124681254.77407       619.825           0.000           0.00000
         0.000  
  21633050.640   115641040.46804      -583.490    21633055.620           0.00000
      -583.490  
  21160613.360   113155304.89808      -513.748    21160615.340    88009697.90107
      -513.750  
  19574765.640   104711796.23608        73.344    19574768.840    81442527.56106
        73.344  
  20626127.080   110413266.45306       497.981    20626128.040    85876980.45404
       497.981  
  19422563.780   104006951.01508      -115.642    19422564.620    80894291.72307
      -115.643  
 20  9 26  6 20 40.0000000  0 14G20G13G30G27G24G18G29G15G 5R16R24R23
                                R 7R 8
  21734032.260   114213108.44447      -501.813    21734027.220    88997214.58746
      -501.813  
  21038767.460   110559456.95548       349.731    21038763.000    86150302.79245
       349.734  
  24518738.720   128846835.73847       393.524    24518736.500   100400124.67445
       393.525  
  24224734.200           0.00000      -324.652           0.000           0.00000
         0.000  
  23933496.300   125771363.90146      -722.857    23933499.180    98003650.11544
      -722.851  
  20375371.000   107073296.39448       -84.317    20375367.780    83433720.70848
       -84.316  
  24532387.340           0.00050       707.765    24532388.500           0.00050
       707.765  
  20001609.120   105109165.28649       -35.564    20001605.020    81903227.55649
       -35.565  
  23729148.700   124697524.72947       618.074    23729147.640    97166889.64541
       618.074  
  22649376.320   120988901.40704       155.386           0.000           0.00000
         0.000  
  21158042.900   113141559.46108      -514.835    21158044.860    87999006.97907
      -514.834  
  19575131.260   104713752.22708        72.521    19575134.580    81444048.87806
        72.521  
  20628614.960   110426583.66208       496.589    20628614.820           0.00000
       496.584  
  19421983.600   104003843.88308      -116.866    19421984.380    80891875.06907
      -116.867  
 20  9 26  6 20 45.0000000  0 12G20G13G30G24G18G15G 5R16R24R23R 7R 8
  21731529.060   114199953.76147      -498.761    21731524.040    88986964.18446
      -498.761  
  21040522.640   110568679.77147       353.012    21040517.680    86157489.42945
       353.013  
  24520713.640   128857214.16847       397.013    24520711.440   100408211.73545
       397.015  
  23929887.660   125752398.06845      -719.838    23929888.140    97988871.82745
      -719.848  
  20374956.840   107071119.94048       -80.764    20374953.580    83432024.78848
       -80.765  
  20001438.960   105108270.96349       -31.958    20001434.760    81902530.67249
       -31.958  
  23732245.800   124713800.07047       621.253    23732244.060    97179571.71942
       621.253  
  22650159.480   120993087.53005       158.905    22650165.340           0.00000
       158.906  
  21155476.120   113127833.21908      -511.287    21155478.040    87988331.03608
      -511.288  
  19575501.700   104715734.08008        76.340    19575505.200    81445590.36906
        76.338  
  20631104.680   110439911.45607       499.942    20631104.600           0.00000
       499.942  
  19421406.360   104000752.50808      -113.411    19421407.040    80889470.65308
      -113.410  
 20  9 26  6 20 50.0000000  0 14G20G13G30G24G18G29G10G15G 5R16R24R23
                                R 7R 8
  21729030.040   114186821.42748      -499.860    21729025.100    88976731.21446
      -499.859  
  21042283.400   110577932.08047       352.315    21042278.600    86164699.05845
       352.316  
  24522694.100   128867621.00348       396.116    24522691.720   100416320.98545
       396.116  
  23926282.120   125733451.47346      -721.288    23926282.380    97974108.13245
      -721.286  
  20374548.640   107068975.10048       -81.546    20374545.420    83430353.49748
       -81.546  
  24539485.280   128955839.75144       709.229    24539481.080   100485094.33943
       709.228  
  24940659.360   131064053.37506      -616.764           0.000           0.00000
         0.000  
  20001274.860   105107408.77449       -32.725    20001270.640    81901858.83149
       -32.726  
  23735346.520   124730094.51107       620.052           0.000           0.00000
         0.000  
  22650950.560   120997311.80505       158.324    22650952.680    94109032.03805
       158.327  
  21152915.540   113114140.42508      -512.033    21152917.380    87977681.10107
      -512.034  
  19575879.640   104717756.08008        75.892    19575883.200    81447162.97905
        75.893  
  20633599.160   110453263.32406       498.817           0.000           0.00000
         0.000  
  19420834.780   103997691.30208      -114.293    19420835.360    80887089.72207
      -114.294  
 20  9 26  6 20 55.0000000  0 14G20G13G30G27G24G18G15G 5R16R 1R24R23
                                R 7R 8
  21726531.620   114173692.03348      -498.854    21726526.640    88966500.49945
      -498.854  
  21044045.900   110587194.39047       353.257    21044041.100    86171916.40745
       353.258  
  24524676.200   128878037.02747       397.395    24524673.880   100424437.36346
       397.396  
  24219900.740   127276430.70204      -320.277           0.000           0.00000
         0.000  
  23922676.640   125714504.13645      -720.420    23922678.900    97959367.87844
      -720.420  
  20374142.820   107066842.43848       -80.146    20374139.540    83428691.66648
       -80.146  
  20001113.220   105106559.23049       -31.335    20001108.920    81901196.85649
       -31.335  
  23738447.140   124746388.45506       620.800           0.000           0.00000
         0.000  
  22651744.280   121001554.35105       159.889    22651747.680    94112331.80604
       159.889  
  21621382.540           0.00000      -581.784           0.000           0.00000
         0.000  
  21150357.540   113100461.31208      -510.568    21150359.260    87967041.75808
      -510.567  
  19576261.400   104719798.39308        77.561    19576265.020    81448751.48306
        77.560  
  20636094.380   110466620.05706       499.888    20636093.980           0.00000
       499.889  
  19420265.120   103994640.43708      -112.989    19420265.520    80884716.84007
      -112.990  
 20  9 26  6 21  0.0000000  0 11G20G13G30G24G18G15G 5R16R24R23R 8
  21724040.420   114160600.69748      -497.656    21724035.480    88956299.49046
      -497.657  
  21045816.980   110596502.14947       355.007    21045812.120    86179169.21445
       355.008  
  24526666.780   128888497.18648       398.791    24526664.500   100432588.13245
       398.790  
  23919076.880   125695591.77545      -719.137    23919078.500    97944631.16344
      -719.140  
  20373746.080   107064757.26148       -78.573    20373742.700    83427066.86348
       -78.573  
  20000960.720   105105757.51149       -29.705    20000956.240    81900572.15349
       -29.705  
  23741554.500   124762717.41946       622.169    23741561.940    97217717.84143
       622.169  
  22652548.680   121005851.11305       161.855    22652552.200    94115673.74805
       161.854  
  21147808.740   113086831.72307      -509.031    21147810.440    87956440.97707
      -509.032  
  19576653.680   104721896.79009        79.377    19576657.360    81450383.53905
        79.378  
  19419704.060   103991635.62208      -111.453    19419704.340    80882379.74507
      -111.452  
 20  9 26  6 21  5.0000000  0 12G20G13G30G24G18G15G 5R16R24R23R 7R 8
  21721543.800   114147480.67647      -500.666    21721538.860    88946076.11246
      -500.666  
  21047584.000   110605788.18847       352.359    21047578.080    86186405.04643
       352.361  
  24528653.040   128898934.85147       396.143    24528650.640   100440721.36345
       396.143  
  23915472.320   125676647.40945      -722.222    23915473.080    97929869.21044
      -722.220  
  20373345.540   107062652.66948       -81.100    20373342.160    83425426.91348
       -81.100  
  20000804.580   105104936.86949       -32.291    20000800.000    81899932.69949
       -32.292  
  23744655.600   124779014.19906       618.876           0.000           0.00000
         0.000  
  22653349.780   121010134.23604       159.551    22653355.080    94119005.02304
       159.552  
  21145256.400   113073183.75407      -511.347    21145258.140    87945825.88007
      -511.346  
  19577043.680   104723983.25708        77.109    19577047.320    81452006.31806
        77.110  
  20641093.220   110493374.15608       498.327    20641094.660           0.00000
       498.327  
  19419138.880   103988609.05008      -114.124    19419139.020    80880025.78207
      -114.124  
 20  9 26  6 21 10.0000000  0 13G20G13G30G24G18G10G15G 5R16R24R23R 7
                                R 8
  21719044.480   114134346.91046      -499.173    21719039.680    88935842.00646
      -499.173  
  21049349.580   110615067.58546       354.016    21049343.880    86193635.85744
       354.010  
  24530637.960   128909364.79047       397.741    24530635.480   100448848.59944
       397.741  
  23911864.300   125657686.03345      -720.996    23911864.360    97915094.20244
      -720.998  
  20372944.180   107060543.58748       -79.350    20372940.780    83423783.53048
       -79.353  
  24928331.760   130999268.30704      -616.826           0.000           0.00000
         0.000  
  20000647.660   105104112.20949       -30.462    20000643.000    81899290.09949
       -30.462  
  23747753.580   124795294.00747       620.286    23747758.300    97243062.34843
       620.286  
  22654151.820   121014418.58205       161.457    22654157.860    94122337.33804
       161.456  
  21142703.540   113059532.46108      -509.631    21142705.300    87935208.18908
      -509.630  
  19577434.360   104726072.98908        79.194    19577438.060    81453631.75706
        79.191  
  20643592.980   110506731.08806       499.846    20643591.500    85949696.60905
       499.846  
  19418572.480   103985575.71508      -112.410    19418572.520    80877666.48507
      -112.409  
 20  9 26  6 21 15.0000000  0 15G20G13G30G27G24G18G10G15G 5R16R 1R24
                                R23R 7R 8
  21716548.440   114121230.35047      -499.089    21716543.740    88925621.32846
      -499.089  
  21051119.920   110624371.30447       354.292    21051114.000    86200885.40644
       354.294  
  24532627.220   128919818.08347       398.000    24532624.680   100456994.03445
       398.000  
  24213500.480           0.00000      -319.471           0.000           0.00000
         0.000  
  23908258.700   125638738.39845      -721.077    23908258.940    97900329.84645
      -721.081  
  20372547.920   107058461.06148       -79.008    20372544.440    83422160.75247
       -79.007  
  24925243.100   130983058.58804      -617.001           0.000           0.00000
         0.000  
  20000495.920   105103314.48449       -30.090    20000491.080    81898668.47948
       -30.090  
  23750854.280   124811587.77806       620.221           0.000           0.00000
         0.000  
  22654959.720   121018735.95304       162.001    22654966.880    94125695.29804
       162.002  
  21609741.560           0.00000      -581.861           0.000           0.00000
         0.000  
  21140155.980   113045909.62508      -509.261    21140157.820    87924612.68707
      -509.261  
  19577831.440   104728197.68809        79.853    19577835.320    81455284.28806
        79.852  
  20646092.640   110520106.85903       499.884    20646089.400    85960100.05605
       499.879  
  19418010.720   103982567.22408      -112.161    19418010.680    80875326.55607
      -112.161  
 20  9 26  6 21 20.0000000  0 12G20G30G24G18G29G15G 5R16R24R23R 7R 8
  21714060.220   114108155.03648      -499.154    21714055.660    88915432.75046
      -499.153  
  24534625.520   128930318.50348       398.134    24534622.880   100465176.17345
       398.132  
  23904660.280   125619828.74945      -721.234    23904660.540    97885595.14544
      -721.238  
  20372161.240   107056428.99748       -78.717    20372157.700    83420577.32948
       -78.717  
  24560780.400   129067777.83744       709.201    24560779.220   100572281.92543
       709.201  
  20000353.840   105102567.53949       -29.764    20000348.900    81898086.48949
       -29.766  
  23753961.960   124827919.39006       620.063           0.000           0.00000
         0.000  
  22655778.120   121023110.51905       162.514    22655784.700    94129097.65704
       162.515  
  21137618.320   113032339.40606      -508.564    21137619.960    87914058.05107
      -508.563  
  19578239.720   104730381.57708        80.424    19578243.620    81456982.87006
        80.424  
  20648600.020   110533526.41105       500.153    20648597.460    85970537.45605
       500.152  
  19417458.140   103979608.05708      -111.924    19417458.040    80873024.99707
      -111.924  
 20  9 26  6 21 25.0000000  0 12G20G13G30G24G18G15G 5R16R24R23R 7R 8
  21711566.800   114095052.00747      -499.473    21711562.280    88905222.59546
      -499.473  
  21054676.020   110643058.61846       354.567    21054669.800    86215349.82845
       354.567  
  24536619.720   128940797.37247       398.135    24536616.940   100473341.53645
       398.134  
  23901055.940   125600887.88643      -721.652    23901055.840    97870835.93442
      -721.650  
  20371771.000   107054378.57948       -78.666    20371767.440    83418979.60748
       -78.666  
  20000208.360   105101802.76649       -29.710    20000203.360    81897490.55648
       -29.710  
  23757063.860   124844219.87208       619.608           0.000           0.00000
         0.000  
  22656594.660   121027472.45005       162.714    22656601.580    94132490.32604
       162.714  
  21135077.360   113018751.75907      -508.900    21135079.040    87903489.89007
      -508.900  
  19578645.920   104732554.63109        80.804    19578649.880    81458673.00706
        80.804  
  20651100.920   110546918.75305       499.798    20651102.280           0.00000
       499.798  
  19416901.660   103976627.87508      -111.935    19416901.520    80870707.08507
      -111.935  
 20  9 26  6 21 30.0000000  0 11G20G13G30G27G18G15G 5R16R24R23R 8
  21709077.700   114081971.95847      -496.554    21709073.320    88895030.39446
      -496.556  
  21056457.020   110652420.28547       357.684    21056451.320    86222644.64644
       357.685  
  24538619.360   128951305.31547       401.188    24538616.520   100481529.50245
       401.189  
  24208725.360           0.00040      -315.963    24208730.120           0.00040
      -315.963  
  20371386.940   107052360.56748       -75.367    20371383.380    83417407.11347
       -75.367  
  20000069.080   105101070.72149       -26.423    20000064.040    81896920.12748
       -26.422  
  23760169.620   124860540.17507       622.347           0.000           0.00000
         0.000  
  22657418.620   121031873.17205       166.377    22657424.840    94135913.09304
       166.377  
  21132542.860   113005198.39708      -505.498    21132544.600    87892948.43607
      -505.499  
  19579059.740   104734768.44708        84.304    19579063.780    81460394.85706
        84.303  
  19416350.920   103973678.55308      -108.795    19416350.760    80868413.19808
      -108.796  
 20  9 26  6 21 35.0000000  0 13G20G13G30G24G18G29G15G 5R16R24R23R 7
                                R 8
  21706589.280   114068895.82547      -496.020    21706585.100    88884841.22646
      -496.021  
  21058240.900   110661792.44946       358.445    21058235.580    86229947.62744
       358.444  
  24540620.880   128961823.10847       402.006    24540617.840   100489725.17345
       402.008  
  23893855.220           0.00040      -718.509    23893857.000           0.00040
      -718.509  
  20371005.320   107050355.53748       -74.494    20371001.860    83415844.76148
       -74.494  
  24571430.120           0.00010       711.868           0.000           0.00000
         0.000  
  19999932.360   105100352.06649       -25.515    19999927.280    81896360.13448
       -25.515  
  23763275.540   124876860.98647       622.800    23763286.500    97306687.92243
       622.800  
  22658245.740   121036293.04005       167.394           0.000           0.00000
         0.000  
  21130011.140   112991659.86907      -504.512    21130012.900    87882418.42007
      -504.510  
  19579477.520   104737003.38708        85.488    19579481.620    81462133.15906
        85.488  
  20656113.960   110573796.19507       503.128    20656115.160           0.00000
       503.128  
  19415802.280   103970740.48808      -107.973    19415802.120    80866128.01108
      -107.973  
 20  9 26  6 21 40.0000000  0 14G20G13G30G24G18G29G10G15G 5R16R24R23
                                R 7R 8
  21704107.200   114055853.08447      -496.937    21704103.240    88874678.04546
      -496.937  
  21060032.260   110671205.32946       357.799    21060026.380    86237282.37944
       357.797  
  24542629.940   128972380.26747       401.330    24542626.720   100497951.54145
       401.330  
  23890260.880   125544161.92746      -719.581    23890259.420    97826609.29145
      -719.584  
  20370631.860   107048393.25948       -75.111    20370628.440    83414315.72647
       -75.111  
  24574987.380   129142426.70344       710.664    24574996.940   100630466.89944
       710.664  
  24909849.480           0.00000      -615.811           0.000           0.00000
         0.000  
  19999803.840   105099676.53649       -26.133    19999798.740    81895833.74149
       -26.133  
  23766387.040   124893211.88707       621.680           0.000           0.00000
         0.000  
  22659082.720   121040762.24705       167.027    22659089.220           0.00000
       167.027  
  21127487.760   112978166.06207      -504.966    21127489.520    87871923.25707
      -504.967  
  19579904.920   104739289.54709        85.228    19579909.080    81463911.29607
        85.227  
  20658629.540   110587254.95005       502.402    20658629.620    86012313.23205
       502.405  
  19415261.300   103967843.44408      -108.643    19415261.140    80863874.76708
      -108.643  
 20  9 26  6 21 45.0000000  0 12G20G13G30G24G18G15G 5R16R24R23R 7R 8
  21701621.500   114042790.85347      -497.220    21701617.620    88864499.68946
      -497.219  
  21061820.880   110680605.53946       357.835    21061815.660    86244607.27445
       357.831  
  24544636.480   128982924.05748       401.346    24544633.120   100506167.44845
       401.348  
  23886660.540   125525248.75846      -719.901    23886660.900    97811871.79144
      -719.902  
  20370256.520   107046420.82948       -75.000    20370253.100    83412778.75948
       -75.000  
  19999673.480   105098991.25149       -25.984    19999668.340    81895299.76748
       -25.984  
  23769494.100   124909540.07346       621.273    23769501.600    97332124.15942
       621.273  
  22659918.640   121045227.11505       167.380    22659924.280    94146287.47103
       167.378  
  21124962.580   112964663.17208      -504.884    21124964.400    87861421.04307
      -504.886  
  19580331.900   104741573.30808        85.647    19580336.140    81465687.55607
        85.647  
  20661139.680   110600695.26604       502.025    20661137.860    86022765.90304
       502.025  
  19414718.020   103964933.99508      -108.627    19414717.860    80861611.85208
      -108.627  
 20  9 26  6 21 50.0000000  0 13G20G13G30G24G18G29G15G 5R16R 1R24R23
                                R 8
  21699136.540   114029732.41547      -496.633    21699132.660    88854324.30646
      -496.634  
  21063611.400   110690016.71347       358.614    21063607.460    86251940.48244
       358.620  
  24546644.840   128993477.57648       402.111    24546641.300   100514390.93544
       402.112  
  23883060.260   125506336.18746      -719.563    23883062.460    97797134.64545
      -719.559  
  20369883.560   107044461.52148       -74.019    20369880.220    83411252.02748
       -74.019  
  24582095.800   129179772.59646       710.607    24582089.300   100659573.51443
       710.607  
  19999545.680   105098319.37149       -25.019    19999540.580    81894776.26549
       -25.021  
  23772601.220   124925868.59847       621.674    23772605.680    97344847.76142
       621.669  
  22660758.400   121049711.02304       168.480           0.000           0.00000
         0.000  
  21589442.300           0.00000      -578.878    21589442.600           0.00000
      -578.878  
  21122440.180   112951175.20107      -503.875    21122442.080    87850930.31207
      -503.873  
  19580762.740   104743878.12908        86.862    19580767.020    81467480.12406
        86.865  
  19414176.800   103962035.58108      -107.755    19414176.680    80859357.58808
      -107.758  
 20  9 26  6 21 55.0000000  0 13G20G13G30G24G18G29G15G 5R16R 1R24R23
                                R 8
  21696653.040   114016681.04347      -496.739    21696649.120    88844154.50246
      -496.741  
  21065404.800   110699441.80147       358.845    21065401.200    86259284.76045
       358.844  
  24548655.600   129004044.09446       402.250    24548652.020   100522624.60445
       402.249  
  23879462.480   125487427.43445      -719.727    23879464.980    97782400.57944
      -719.727  
  20369513.760   107042518.49048       -73.821    20369510.420    83409737.96248
       -73.821  
  24585645.600   129198440.24245       710.316    24585640.680   100674119.78944
       710.315  
  19999421.020   105097664.27049       -24.772    19999415.980    81894265.77649
       -24.771  
  23775709.240   124942200.88807       621.509           0.000           0.00000
         0.000  
  22661602.300   121054217.62005       169.017    22661604.420           0.00000
       169.017  
  21586544.320   115392477.59404      -579.056           0.000           0.00000
         0.000  
  21119921.000   112937705.18207      -503.650    21119923.100    87840453.68407
      -503.651  
  19581198.180   104746207.43908        87.372    19581202.480    81469291.85206
        87.371  
  19413638.260   103959151.60008      -107.616    19413638.160    80857114.48207
      -107.616  
 20  9 26  6 22  0.0000000  0 15G20G13G30G24G18G29G10G15G 5R16R 1R24
                                R23R 7R 8
  21694170.200   114003633.53947      -496.392    21694166.240    88833987.56546
      -496.392  
  21067200.400   110708877.81147       359.518    21067196.620    86266637.45045
       359.520  
  24550668.040   129014620.31345       402.785    24550664.320   100530865.80944
       402.785  
  23875864.600   125468519.17046      -719.446    23875865.460    97767666.87145
      -719.446  
  20369146.500   107040588.61248       -73.033    20369143.160    83408234.18048
       -73.034  
  24589197.020   129217106.59144       710.355    24589189.180   100688664.93441
       710.354  
  24897526.520           0.00000      -616.085           0.000           0.00000
         0.000  
  19999298.940   105097022.62549       -24.008    19999293.940    81893765.80349
       -24.009  
  23778817.120   124958533.54406       621.782           0.000           0.00000
         0.000  
  22662449.540   121058743.41104       169.922    22662455.560    94156803.09804
       169.923  
  21583651.240   115377007.06704      -578.490    21583652.020           0.00000
      -578.490  
  21117404.760   112924250.01008      -502.870    21117406.880    87829988.59407
      -502.872  
  19581637.620   104748557.90108        88.422    19581641.900    81471120.00707
        88.421  
  20668679.220   110641035.53403       503.198    20668672.420    86054122.45303
       503.197  
  19413101.860   103956278.95608      -106.910    19413101.740    80854880.17607
      -106.909  
 20  9 26  6 22  5.0000000  0 14G20G13G30G18G29G10G15G 5R16R 1R24R23
                                R 7R 8
  21691688.920   113990593.96748      -496.285    21691684.920    88823826.85747
      -496.285  
  21068998.700   110718328.51447       359.810    21068995.060    86274001.70644
       359.811  
  24552683.180   129025210.50245       403.086    24552679.440   100539117.88844
       403.087  
  20368782.520   107038676.00848       -72.682    20368779.180    83406743.85348
       -72.682  
  24592749.280   129235775.86647       710.310    24592744.780   100703212.41742
       710.312  
  24894445.600   130821203.71905      -616.161           0.000           0.00000
         0.000  
  19999180.180   105096398.58749       -23.629    19999175.260    81893279.52649
       -23.629  
  23781926.340           0.00040       621.654    23781921.980           0.00040
       621.654  
  22663301.360   121063292.48704       170.621    22663306.700    94160341.29103
       170.619  
  21580759.060   115361546.10906      -578.454    21580768.020    89725641.05904
      -578.457  
  21114892.140   112910813.82706      -502.328    21114894.180    87819538.21907
      -502.328  
  19582081.780   104750933.76408        89.103    19582085.980    81472967.89006
        89.104  
  20671192.440           0.00000       503.242    20671190.740           0.00000
       503.242  
  19412568.260   103953421.45608      -106.660    19412568.200    80852657.71507
      -106.662  
 20  9 26  6 22 10.0000000  0 14G20G13G30G24G18G29G15G 5R16R 1R24R23
                                R 7R 8
  21689208.500   113977559.22547      -495.901    21689204.520    88813669.90147
      -495.900  
  21070799.000   110727791.03847       360.478    21070795.320    86281375.03144
       360.479  
  24554700.280   129035811.42546       403.768    24554696.640   100547378.33945
       403.768  
  23868669.820   125430731.73446      -719.293    23868669.280    97738209.11244
      -719.293  
  20368421.240   107036777.45048       -71.862    20368417.880    83405264.45648
       -71.862  
  24596302.440   129254445.03146       710.629    24596298.900   100717759.81142
       710.626  
  19999064.180   105095788.99049       -22.814    19999059.320    81892804.52349
       -22.814  
  23785036.140   124991209.37547       621.965    23785030.580    97395743.78544
       621.965  
  22664156.840   121067861.82904       171.603    22664158.600    94163895.25104
       171.603  
  21577868.880   115346091.51205      -578.014    21577875.060    89713620.78803
      -578.013  
  21112382.380   112897393.37607      -501.499    21112384.420    87809100.03407
      -501.497  
  19582530.020   104753331.61508        90.178    19582534.140    81474832.87506
        90.179  
  20673708.880   110667987.96703       503.820    20673711.080           0.00000
       503.820  
  19412036.980   103950576.22208      -105.928    19412036.900    80850444.75507
      -105.928  
 20  9 26  6 22 15.0000000  0 13G20G13G30G24G18G29G15G 5R 1R24R23R 7
                                R 8
  21686729.620   113964532.35247      -495.719    21686725.600    88803519.10547
      -495.719  
  21072602.580   110737268.23747       360.900    21072598.780    86288759.86844
       360.900  
  24556719.980   129046425.95246       404.213    24556716.540   100555649.45145
       404.212  
  23865074.080   125411834.51144      -719.104    23865074.720    97723483.98744
      -719.104  
  20368063.280   107034896.11948       -71.365    20368059.840    83403798.48947
       -71.365  
  24599855.380   129273117.00545       710.678    24599851.580   100732281.22843
       710.684  
  19998951.520   105095196.83149       -22.273    19998946.680    81892343.10149
       -22.273  
  23788145.760   125007552.44646       622.034    23788139.800    97408478.74244
       622.031  
  21574980.580   115330646.34706      -577.762    21574984.700    89701607.88004
      -577.763  
  21109876.140   112883991.81706      -500.994    21109878.120    87798676.69107
      -500.996  
  19582983.000   104755754.87008        91.012    19582987.080    81476717.61506
        91.013  
  20676226.700           0.00000       503.964    20676228.180           0.00000
       503.964  
  19411508.520   103947746.01308      -105.479    19411508.440    80848243.48207
      -105.479  
 20  9 26  6 22 20.0000000  0 12G20G13G30G24G18G29G15G 5R 1R24R23R 8
  21684251.780   113951510.56848      -495.305    21684247.680    88793372.26547
      -495.305  
  21074408.120   110746757.52547       361.586    21074403.900    86296154.22344
       361.582  
  24558741.860   129057051.69546       404.774    24558738.480   100563929.21345
       404.775  
  23861477.600   125392939.21746      -718.917    23861478.700    97708760.45445
      -718.920  
  20367708.080   107033029.18349       -70.609    20367704.540    83402343.74148
       -70.609  
  24603408.980   129291789.34245       710.798    24603403.900   100746831.03544
       710.808  
  19998841.640   105094619.51849       -21.508    19998836.880    81891893.23849
       -21.508  
  23791256.020   125023897.14947       622.248    23791253.700    97421214.87644
       622.247  
  21572093.200   115315208.03305      -577.318    21572096.160    89689600.36204
      -577.319  
  21107372.880   112870606.64307      -500.147    21107374.900    87788265.95507
      -500.146  
  19583440.140   104758200.43808        92.037    19583444.160    81478619.72506
        92.037  
  19410982.400   103944928.45508      -104.860    19410982.280    80846052.06007
      -104.860  
 20  9 26  6 22 25.0000000  0 11G20G13G30G24G18G15G 5R 1R24R23R 8
  21681775.620   113938497.75848      -495.364    21681771.400    88783232.45146
      -495.366  
  21076216.760   110756262.55246       361.800    21076212.700    86303560.71143
       361.800  
  24560766.520   129067692.06944       405.095    24560763.280   100572220.49243
       405.092  
  23857882.700   125374049.69244      -719.143    23857884.760    97694041.31844
      -719.141  
  20367356.340   107031180.43549       -70.277    20367352.740    83400903.16048
       -70.276  
  19998735.300   105094060.68549       -21.186    19998730.580    81891457.78049
       -21.185  
  23794367.160   125040247.56646       622.181    23794365.080    97433955.41843
       622.182  
  21569207.620   115299780.15006      -577.328    21569210.240    89677600.90704
      -577.329  
  21104873.340   112857241.15407      -499.778    21104875.440    87777870.63606
      -499.780  
  19583902.220   104760672.35808        92.647    19583906.240    81480542.35306
        92.646  
  19410459.300   103942127.09408      -104.580    19410459.060    80843873.22207
      -104.580  
 20  9 26  6 22 30.0000000  0 13G20G13G30G18G29G10G15G 5R 1R24R23R 7
                                R 8
  21679298.820   113925481.95247      -495.893    21679294.560    88773090.20247
      -495.892  
  21078026.020   110765771.40546       361.522    21078022.080    86310970.23344
       361.523  
  24562791.560   129078335.35345       404.615    24562788.580   100580513.97445
       404.615  
  20367005.820   107029337.94649       -70.468    20367002.120    83399467.45448
       -70.468  
  24610519.720           0.00040       709.791    24610506.140           0.00050
       709.791  
  24879046.940           0.00000      -616.935           0.000           0.00000
         0.000  
  19998630.180   105093508.47049       -21.342    19998625.540    81891027.49549
       -21.342  
  23797476.860   125056591.20545       621.391    23797474.000    97446690.72744
       621.393  
  21566321.260           0.00000      -577.747    21566324.700    89665615.10904
      -577.747  
  21102375.420   112843883.73308      -499.870    21102377.440    87767481.52707
      -499.870  
  19584366.940   104763158.48208        92.765    19584370.980    81482476.01806
        92.765  
  20683791.860   110721955.04805       503.967    20683794.900           0.00010
       503.967  
  19409936.980   103939329.89908      -104.854    19409936.640    80841697.61507
      -104.854  
 20  9 26  6 22 35.0000000  0 14G20G13G30G24G18G29G10G15G 5R 1R24R23
                                R 7R 8
  21676823.920   113912476.23947      -493.958    21676819.680    88762955.91646
      -493.959  
  21079838.480   110775297.21645       363.743    21079834.700    86318392.90844
       363.745  
  24564819.760   129088994.48045       406.910    24564817.020   100588819.78444
       406.907  
  23850692.660   125336251.94345      -717.837    23850696.720    97664615.70845
      -717.837  
  20366658.880   107027514.74648       -68.158    20366655.160    83398046.78147
       -68.158  
  24614068.660   129347816.85645       711.529    24614061.780   100790458.08143
       711.533  
  24875966.260   130724098.20146      -615.084    24875971.240   101862900.64544
      -615.084  
  19998528.800   105092975.87249       -19.060    19998524.240    81890612.49649
       -19.061  
  23800588.040   125072941.79847       623.229    23800585.760    97459431.47245
       623.229  
  21563437.160   115268926.91106      -575.798    21563440.760    89653623.62504
      -575.800  
  21099881.460   112830547.44507      -497.529    21099883.440    87757108.81807
      -497.528  
  19584836.700   104765671.83308        95.347    19584840.800    81484430.80806
        95.348  
  20686315.760           0.00000       505.924    20686321.720           0.00000
       505.924  
  19409417.960   103936550.13408      -102.661    19409417.460    80839535.61107
      -102.662  
 20  9 26  6 22 40.0000000  0 12G20G13G30G24G18G29G15G 5R 1R24R23R 8
  21674352.440   113899488.67647      -494.401    21674348.220    88752835.72147
      -494.399  
  21081655.540   110784848.10947       363.595    21081651.760    86325835.19943
       363.592  
  24566852.800   129099677.69445       406.552    24566850.080   100597144.46245
       406.551  
  23847102.540   125317377.90845      -718.360    23847104.360    97649908.74744
      -718.363  
  20366317.240   107025719.10348       -68.185    20366313.460    83396647.56247
       -68.185  
  24617623.660   129366502.95305       711.037           0.000           0.00000
         0.000  
  19998432.720   105092471.09449       -19.113    19998428.180    81890219.14649
       -19.112  
  23803701.820   125089307.01446       622.662    23803700.100    97472183.62745
       622.660  
  21560556.700   115253529.21705      -576.117    21560559.940    89641647.61804
      -576.116  
  21097393.140   112817240.70807      -497.604    21097394.980    87746759.22607
      -497.606  
  19585313.300   104768221.16608        95.578    19585317.440    81486413.64306
        95.578  
  19408903.740   103933796.17408      -102.780    19408903.100    80837393.59707
      -102.779  
 20  9 26  6 22 45.0000000  0 11G20G13G24G18G15G 5R 1R24R23R 7R 8
  21671883.600   113886514.99447      -493.065    21671879.460    88742726.33447
      -493.064  
  21083477.080   110794419.68347       365.087    21083472.680    86333293.54244
       365.089  
  23843512.580   125298503.56555      -717.281    23843512.720    97635198.04655
      -717.281  
  20365979.960   107023946.53248       -66.602    20365976.160    83395266.36348
       -66.603  
  19998341.100   105091989.70949       -17.465    19998336.600    81889844.04948
       -17.465  
  23806818.220   125105682.60846       623.819    23806817.020    97484943.77345
       623.821  
  21557679.540   115238146.89506      -574.777    21557683.420    89629680.66303
      -574.778  
  21094909.420   112803958.99907      -495.818    21094911.240    87736428.97507
      -495.819  
  19585795.720   104770801.59308        97.445    19585799.840    81488420.67306
        97.444  
  20691375.480   110762535.99804       506.857    20691378.440    86148654.06505
       506.857  
  19408393.460   103931063.38008      -101.248    19408392.760    80835268.13007
      -101.248  
 20  9 26  6 22 50.0000000  0 13G20G13G30G24G18G29G15G 5R 1R24R23R 7
                                R 8
  21669413.780   113873536.06647      -494.567    21669409.700    88732612.88647
      -494.567  
  21085298.620   110803992.80545       363.789    21085294.440    86340753.06244
       363.790  
  24570928.520   129121108.94544       407.145    24570927.900   100613845.57043
       407.145  
  23839919.720   125279631.79745      -718.940    23839922.380    97620492.73945
      -718.940  
  20365643.380   107022177.97448       -67.797    20365639.640    83393888.26348
       -67.797  
  24624741.680   129403866.87805       710.325           0.000           0.00000
         0.000  
  19998250.320   105091512.71549       -18.604    19998245.860    81889472.37549
       -18.605  
  23809933.140   125122049.41647       622.196    23809931.600    97497697.15044
       622.197  
  21554801.160   115222760.82305      -576.244    21554805.600    89617713.65504
      -576.243  
  21092426.680   112790683.03607      -496.973    21092428.600    87726103.23507
      -496.973  
  19586280.420   104773393.98008        96.624    19586284.460    81490436.96006
        96.625  
  20693905.580   110776078.90105       505.449    20693908.680           0.00000
       505.449  
  19407883.500   103928332.50308      -102.479    19407882.800    80833144.10407
      -102.479  
 20  9 26  6 22 55.0000000  0 13G20G13G30G24G18G29G15G 5R 1R24R23R 7
                                R 8
  21666941.320   113860543.94247      -494.534    21666937.420    88722489.19847
      -494.536  
  21087119.060   110813559.27646       364.115    21087114.820    86348207.61944
       364.110  
  24572965.440   129131804.93945       407.179    24572959.880   100622180.22144
       407.173  
  23836326.040   125260743.74445      -718.974    23836330.880    97605774.80345
      -718.974  
  20365306.060   107020405.45649       -67.326    20365302.360    83392507.10248
       -67.327  
  24628287.400   129422532.65945       710.233    24628288.580   100848734.80844
       710.233  
  19998158.860   105091031.97449       -18.149    19998154.380    81889097.77649
       -18.149  
  23813045.120   125138399.42947       622.201    23813042.820    97510437.43944
       622.201  
  21551920.440   115207362.61605      -576.151    21551926.240    89605737.31604
      -576.153  
  21089943.520   112777404.41607      -496.443    21089945.480    87715775.46007
      -496.445  
  19586765.780   104775990.01108        97.357    19586769.700    81492456.07006
        97.357  
  20696433.140   110789610.33705       505.494           0.000           0.00000
         0.000  
  19407372.360   103925595.13108      -102.108    19407371.640    80831015.05107
      -102.108  
 20  9 26  6 23  0.0000000  0 12G20G30G24G18G29G15G 5R 1R24R23R 7R 8
  21664470.380   113847559.31447      -493.676    21664466.560    88712371.28947
      -493.675  
  24575002.680   129142513.96944       408.149    24574997.360   100630524.86644
       408.147  
  23832733.500   125241859.85845      -718.258    23832735.820    97591060.12344
      -718.260  
  20364971.920   107018649.68048       -66.155    20364968.240    83391138.94147
       -66.155  
  24631839.600           0.00040       710.890    24631844.000           0.00040
       710.890  
  19998070.620   105090568.24949       -16.979    19998066.120    81888736.43148
       -16.979  
  23816157.460   125154753.46547       622.783    23816155.560    97523180.86145
       622.782  
  21549041.180   115191973.50204      -575.269    21549047.100    89593768.03705
      -575.271  
  21087463.900   112764144.47707      -495.202    21087465.860    87705462.19707
      -495.203  
  19587255.800   104778610.99309        98.809    19587259.640    81494494.61805
        98.809  
  20698957.920   110803149.68605       506.367    20698962.880    86180238.78905
       506.367  
  19406864.000   103922872.68008      -101.054    19406863.260    80828897.58907
      -101.054  
 20  9 26  6 23  5.0000000  0 15G20G13G30G27G24G18G29G15G 5R16R 1R24
                                R23R 7R 8
  21662007.860   113834619.26047      -492.255    21662004.100    88702288.14445
      -492.255  
  21090774.560           0.00040       367.020    21090773.440           0.00040
       367.020  
  24577053.000           0.00040       410.063    24577048.740           0.00040
       410.063  
  24179124.420           0.00040      -304.974    24179124.220           0.00040
      -304.974  
  23829147.800   125223017.61146      -716.903    23829148.680    97576377.87945
      -716.904  
  20364648.100   107016947.79549       -64.262    20364644.380    83389812.79748
       -64.261  
  24635401.520   129459912.21744       712.075    24635406.180   100877868.63443
       712.069  
  19997992.660   105090158.68249       -15.071    19997988.200    81888417.26649
       -15.071  
  23819277.600   125171148.49547       624.200    23819275.660    97535956.17544
       624.202  
  22673840.720   121119582.03205       181.445    22673841.220    94204124.77205
       181.447  
  21546171.180   115176631.45605      -573.608    21546174.980    89581835.35904
      -573.607  
  21084994.860   112750941.02208      -493.375    21084996.780    87695192.84206
      -493.375  
  19587757.460   104781294.41608       100.964    19587761.260    81496581.71806
       100.964  
  20701499.300   110816735.75805       508.040    20701500.700    86190805.72605
       508.042  
  19406365.440   103920202.70208       -99.273    19406364.640    80826820.90707
       -99.273  
 20  9 26  6 23 10.0000000  0 14G20G13G30G27G24G18G15G 5R16R 1R24R23
                                R 7R 8
  21659543.280   113821667.40248      -493.121    21659539.340    88692195.75347
      -493.121  
  21092606.240   110842390.33447       366.212    21092604.920    86370681.41344
       366.211  
  24579096.320   129164029.98146       409.159    24579091.360   100647279.21245
       409.160  
  24177594.880   127054114.85644      -305.798    24177593.000    99003216.65543
      -305.798  
  23825559.420   125204160.30245      -717.879    23825560.040    97561683.88745
      -717.880  
  20364323.700   107015243.27148       -64.944    20364320.040    83388484.58248
       -64.944  
  19997914.300   105089746.80549       -15.729    19997909.840    81888096.32749
       -15.729  
  23822394.580   125187528.35148       623.068    23822392.360    97548719.68744
       623.068  
  22674745.540   121124417.99304       181.107    22674746.020    94207886.12104
       181.105  
  21543298.900   115161278.54304      -574.608    21543302.600    89569894.11105
      -574.606  
  21082525.660   112737736.57106      -493.806    21082527.500    87684922.66707
      -493.803  
  19588260.060   104783982.76508       100.590    19588263.840    81498672.63906
       100.590  
  20704037.400           0.00000       507.043    20704034.980           0.00000
       507.043  
  19405865.920   103917527.79008      -100.012    19405865.160    80824740.42108
      -100.011  
 20  9 26  6 23 15.0000000  0 13G20G30G24G18G29G15G 5R16R 1R24R23R 7
                                R 8
  21657076.160   113808702.61548      -493.604    21657072.240    88682093.37747
      -493.606  
  24581142.240   129174776.31345       409.014    24581135.740   100655652.98445
       409.013  
  23821968.060   125185286.90347      -718.502    23821969.260    97546977.37845
      -718.503  
  20363998.660   107013535.20649       -65.006    20363995.040    83387153.65148
       -65.007  
  24642510.340   129497283.97844       710.379    24642519.160   100906978.33043
       710.379  
  19997835.320   105089331.62349       -15.789    19997830.860    81887772.83749
       -15.790  
  23825508.740   125203891.72847       622.507    23825506.060    97561470.43545
       622.505  
  22675651.020   121129256.15504       181.206    22675650.900    94211649.12904
       181.205  
  21540424.620   115145914.06904      -574.995    21540429.200    89557944.07905
      -574.999  
  21080056.040   112724529.97807      -493.926    21080057.820    87674650.91607
      -493.928  
  19588763.520   104786675.35009       100.815    19588767.200    81500766.90606
       100.815  
  20706571.360   110843897.14105       506.521    20706565.900           0.00000
       506.521  
  19405365.240   103914846.98208      -100.145    19405364.600    80822655.37808
      -100.146  
 20  9 26  6 23 20.0000000  0 15G20G13G30G27G24G18G29G15G 5R16R 1R24
                                R23R 7R 8
  21654610.260   113795744.20748      -492.332    21654606.380    88671995.90447
      -492.332  
  21096270.600   110861649.28845       367.602    21096264.520    86385674.15444
       367.602  
  24583188.400   129185534.50345       410.443    24583182.840   100664036.03845
       410.441  
  24174538.260   127038053.54145      -304.337    24174539.860    98990693.70444
      -304.339  
  23818376.980   125166416.76146      -717.344    23818378.080    97532273.36645
      -717.344  
  20363676.580   107011842.68348       -63.386    20363672.980    83385834.81848
       -63.386  
  24646064.760   129515957.33145       711.474    24646068.980   100921529.03644
       711.470  
  19997759.360   105088932.23549       -14.155    19997754.840    81887461.62849
       -14.155  
  23828623.420   125220257.86847       623.661    23828620.680    97574223.23345
       623.661  
  22676560.600   121134115.67005       183.036    22676561.360    94215428.71905
       183.037  
  21537551.780   115130557.60404      -573.709    21537555.960    89546000.16704
      -573.710  
  21077589.600   112711340.86307      -492.254    21077591.440    87664392.74907
      -492.255  
  19589271.340   104789391.48909       102.710    19589274.940    81502879.43805
       102.710  
  20709106.840   110857467.89607       507.912    20709100.960    86222465.28104
       507.911  
  19404867.120   103912179.62308       -98.637    19404866.540    80820580.77507
       -98.638  
 20  9 26  6 23 25.0000000  0 14G20G13G30G27G24G18G29G15G 5R16R24R23
                                R 7R 8
  21652150.180   113782817.01448      -491.801    21652146.440    88661922.73647
      -491.800  
  21098110.600   110871320.98945       368.440    21098106.780    86393210.61044
       368.438  
  24585243.100   129196329.64146       411.187    24585237.700   100672447.79345
       411.188  
  24173019.720   127030072.07245      -303.364    24173019.180    98984474.33742
      -303.361  
  23814791.020   125147574.77146      -717.015    23814792.640    97517591.31644
      -717.015  
  20363362.220   107010190.61048       -62.529    20363358.600    83384547.47048
       -62.528  
  24649621.680   129534656.54246       711.726    24649626.200   100936099.86443
       711.726  
  19997691.100   105088573.50549       -13.306    19997686.580    81887182.11349
       -13.307  
  23831743.360   125236651.67447       624.020    23831740.520    97586997.59445
       624.021  
  22677479.380   121139022.14304       184.126    22677480.060    94219244.83505
       184.128  
  21075131.240   112698194.52707      -491.333    21075133.060    87654167.85907
      -491.334  
  19589788.280   104792156.52408       103.865    19589791.800    81505029.99506
       103.865  
  20711648.420   110871071.73805       508.472    20711645.220    86233046.08305
       508.472  
  19404376.260   103909551.14108       -97.874    19404375.700    80818536.39408
       -97.873  
 20  9 26  6 23 30.0000000  0 14G20G13G30G27G24G18G29G15G 5R16R24R23
                                R 7R 8
  21649690.360   113769891.76847      -491.966    21649686.900    88651851.15546
      -491.968  
  21099954.060   110881001.47447       368.521    21099944.640    86400753.74743
       368.521  
  24587299.080   129207132.33445       410.983    24587292.920   100680865.46945
       410.984  
  24171503.840   127022101.42946      -303.266    24171503.180    98978263.42944
      -303.266  
  23811205.460   125128731.70446      -717.289    23811206.900    97502908.41945
      -717.290  
  20363049.980   107008549.84348       -62.357    20363046.400    83383268.94948
       -62.357  
  24653179.720   129553352.57844       711.437    24653186.460   100950667.94443
       711.441  
  19997625.020   105088226.34249       -13.100    19997620.540    81886911.60449
       -13.100  
  23834862.960   125253044.02447       623.740    23834859.520    97599770.82645
       623.741  
  22678401.280   121143945.88605       184.629    22678402.260    94223074.41905
       184.629  
  21072675.200   112685061.42406      -490.966    21072677.160    87643953.24205
      -490.968  
  19590308.800   104794940.73008       104.350    19590312.300    81507195.53006
       104.349  
  20714190.320   110884678.35803       508.438           0.000           0.00000
         0.000  
  19403887.120   103906931.81008       -97.781    19403886.600    80816499.12908
       -97.781  
 20  9 26  6 23 35.0000000  0 15G20G13G30G27G24G18G29G15G 5R16R 1R24
                                R23R 7R 8
  21647230.960   113756968.42047      -491.748    21647227.720    88641781.08046
      -491.751  
  21101797.960   110890690.45947       368.940    21101788.800    86408303.65244
       368.939  
  24589356.680   129217942.79346       411.613    24589350.240   100689289.18945
       411.613  
  24169989.600   127014141.47445      -302.692    24169986.780    98972060.86145
      -302.691  
  23807619.560   125109887.31746      -717.209    23807620.820    97488224.51845
      -717.211  
  20362739.900   107006920.18649       -61.758    20362736.300    83381999.09047
       -61.759  
  24656737.460   129572044.60843       710.692    24656742.940   100965233.45341
       710.684  
  19997561.080   105087890.49049       -12.501    19997556.680    81886649.90349
       -12.501  
  23837982.020   125269434.46147       623.797    23837978.160    97612542.59545
       623.798  
  22679326.300   121148886.38605       185.280    22679326.640    94226917.02005
       185.281  
  21528953.640   115084596.13105      -572.843    21528957.680    89510256.89104
      -572.843  
  21070221.420   112671941.03706      -490.535    21070223.520    87633748.46506
      -490.535  
  19590832.840   104797743.94808       105.252    19590836.300    81509375.82105
       105.251  
  20716727.000           0.00000       508.403    20716731.680           0.00000
       508.403  
  19403399.620   103904321.44408       -97.279    19403399.180    80814468.86508
       -97.280  
 20  9 26  6 23 40.0000000  0 14G20G30G27G24G18G29G15G 5R16R 1R24R23
                                R 7R 8
  21644772.360   113744048.71846      -491.612    21644769.180    88631713.75846
      -491.612  
  24591415.760   129228762.11244       412.145    24591408.900   100697719.77244
       412.145  
  24168477.500   127006193.83846      -302.196    24168475.940    98965867.99445
      -302.199  
  23804033.660   125091043.46746      -717.046    23804035.160    97473540.99045
      -717.046  
  20362432.200   107005303.23848       -61.214    20362428.600    83380739.10247
       -61.214  
  24660295.220           0.00040       711.228    24660296.520           0.00040
       711.227  
  19997499.660   105087567.66349       -11.979    19997495.280    81886398.33549
       -11.978  
  23841101.080   125285824.85147       623.849    23841096.960    97625314.29945
       623.850  
  22680253.720   121153845.67604       186.064    22680255.320    94230774.26705
       186.063  
  21526089.240   115069284.44505      -572.719    21526093.200    89498347.77903
      -572.718  
  21067770.540   112658835.58306      -489.884    21067772.700    87623555.29506
      -489.883  
  19591360.720   104800567.80108       106.030    19591364.160    81511572.12406
       106.030  
  20719272.460           0.00000       508.963    20719271.980           0.00000
       508.962  
  19402914.180   103901721.76908       -96.831    19402913.720    80812446.88508
       -96.831  
 20  9 26  6 23 45.0000000  0 14G20G13G30G27G24G18G15G 5R16R 1R24R23
                                R 7R 8
  21642315.440   113731137.94747      -491.485    21642312.320    88621653.38246
      -491.484  
  21105493.060   110910106.46145       369.808    21105482.820    86423469.39444
       369.808  
  24593476.700   129239596.40645       412.490    24593470.540   100706162.13245
       412.489  
  24166968.820   126998264.25746      -301.626    24166967.400    98959689.15144
      -301.630  
  23800448.960   125072205.60747      -716.984    23800450.060    97458862.18845
      -716.987  
  20362128.000   107003704.64548       -60.666    20362124.400    83379493.46248
       -60.666  
  19997441.740   105087263.33849       -11.389    19997437.380    81886161.20149
       -11.389  
  23844221.280   125302220.86947       623.970    23844216.940    97638090.46644
       623.969  
  22681186.060   121158829.05004       186.882    22681188.640    94234650.24906
       186.880  
  21523226.840   115053983.68004      -572.202    21523230.900    89486447.15104
      -572.201  
  21065323.460   112645750.47106      -489.275    21065325.740    87613378.03307
      -489.278  
  19591893.460   104803417.91108       106.884    19591896.920    81513788.87405
       106.885  
  20721818.900   110925511.19806       509.062    20721819.400    86275388.08505
       509.064  
  19402431.740   103899138.50408       -96.349    19402431.380    80810437.67208
       -96.349  
 20  9 26  6 23 50.0000000  0 14G20G13G30G27G24G18G15G 5R16R 1R24R23
                                R 7R 8
  21639859.100   113718230.05647      -491.087    21639856.080    88611595.25047
      -491.085  
  21107342.180   110919830.56646       370.254    21107337.140    86431046.72844
       370.255  
  24595539.540   129250438.78445       412.888    24595533.420   100714610.73144
       412.888  
  24165462.440   126990346.06246      -301.052    24165460.840    98953519.11444
      -301.054  
  23796864.360   125053367.31747      -716.855    23796865.220    97444182.95544
      -716.855  
  20361826.140   107002118.01649       -60.027    20361822.480    83378257.11948
       -60.027  
  19997386.180   105086971.19849       -10.745    19997381.840    81885933.58849
       -10.746  
  23847341.280   125318615.83148       624.074    23847336.780    97650865.67145
       624.076  
  22682122.300   121163830.59904       187.740    22682124.820    94238540.34105
       187.740  
  21520365.100   115038687.27204      -572.025    21520369.920    89474549.94304
      -572.023  
  21062879.000   112632679.21907      -488.437    21062881.320    87603211.41008
      -488.434  
  19592429.960   104806287.92608       107.811    19592433.420    81516021.13905
       107.810  
  20724363.820   110939140.16206       509.468    20724368.220           0.00000
       509.468  
  19401951.180   103896565.06008       -95.803    19401950.860    80808436.08608
       -95.802  
 20  9 26  6 23 55.0000000  0 15G20G13G30G27G24G18G29G15G 5R16R 1R24
                                R23R 7R 8
  21637404.660   113705331.81948      -490.644    21637401.640    88601544.69647
      -490.645  
  21109197.280   110929567.82645       370.802    21109190.380    86438595.54444
       370.802  
  24597605.340   129261296.75145       413.628    24597599.820   100723071.52545
       413.627  
  24163959.420   126982446.65045      -300.349    24163957.160    98947363.68044
      -300.347  
  23793280.940   125034535.83146      -716.563    23793281.380    97429509.13445
      -716.566  
  20361527.900   107000550.43449       -59.293    20361524.160    83377035.64147
       -59.293  
  24670968.100   129646824.52044       711.616    24670966.040   101023449.93943
       711.616  
  19997334.260   105086698.33549        -9.987    19997329.940    81885720.96449
        -9.987  
  23850462.520   125335016.98947       624.419    23850457.800    97663645.85346
       624.418  
  22683063.160   121168856.95004       188.947    22683065.660    94242449.69605
       188.949  
  21517505.320   115023402.14005      -571.606    21517510.940           0.00000
      -571.607  
  21060438.320   112619628.97707      -487.656    21060440.880    87593061.28907
      -487.658  
  19592971.540   104809185.07208       108.845    19592975.000    81518274.45506
       108.846  
  20726910.580   110952779.98705       509.726    20726914.900    86296610.13306
       509.722  
  19401473.780   103894008.53808       -95.099    19401473.520    80806447.70508
       -95.100  
 20  9 26  6 24  0.0000000  0 14G20G13G30G27G24G18G15G 5R16R 1R24R23
                                R 7R 8
  21634951.180   113692439.07547      -490.479    21634948.260    88591498.39647
      -490.479  
  21111052.460   110939320.60745       371.351    21111047.700    86446195.02044
       371.352  
  24599672.820   129272165.54445       413.954    24599668.480   100731540.64345
       413.955  
  24162459.340   126974561.52746      -299.815    24162457.120    98941219.53245
      -299.818  
  23789698.000   125015706.64847      -716.516    23789698.180    97414837.04744
      -716.517  
  20361232.480   106998997.46649       -58.770    20361228.660    83375825.55048
       -58.771  
  19997285.140   105086440.26649        -9.472    19997280.840    81885519.89149
        -9.472  
  23853584.040   125351419.94147       624.471    23853579.300    97676427.31845
       624.472  
  22684007.800   121173903.63304       189.425    22684009.860    94246374.92905
       189.424  
  21514646.940   115008123.84805      -571.467    21514655.200           0.00000
      -571.467  
  21058000.920   112606595.29106      -487.091    21058003.520    87582923.95407
      -487.090  
  19593517.300   104812104.73208       109.663    19593520.820    81520545.36106
       109.661  
  20729459.140   110966426.29004       510.057    20729466.820    86307223.95606
       510.055  
  19400998.720   103891464.64008       -94.726    19400998.520    80804469.10708
       -94.726  
 20  9 26  6 24  5.0000000  0 14G20G13G30G27G24G18G10G15G 5R16R 1R24
                                R23R 8
  21632498.920   113679552.56147      -490.246    21632496.060    88581457.01147
      -490.248  
  21112910.440   110949085.75045       371.861    21112905.900    86453804.17744
       371.861  
  24601743.100   129283046.23446       414.403    24601738.820   100740019.12544
       414.404  
  24160961.940   126966691.48946      -299.162    24160959.620    98935086.96344
      -299.160  
  23786115.760   124996880.73347      -716.354    23786115.400    97400167.53045
      -716.355  
  20360940.040   106997460.07949       -58.146    20360936.100    83374627.60048
       -58.146  
  24820569.900   130432986.30204      -615.239           0.000           0.00000
         0.000  
  19997239.040   105086197.95149        -8.866    19997234.760    81885331.07849
        -8.866  
  23856706.140   125367825.58948       624.529    23856701.200    97689210.98345
       624.528  
  22684956.280   121178971.87204       190.230    22684958.780    94250316.87405
       190.230  
  21511790.200   114992853.63605      -571.098    21511796.680    89438891.55203
      -571.095  
  21055566.820   112593579.29506      -486.474    21055569.500    87572800.39107
      -486.474  
  19594067.500   104815047.93908       110.543    19594071.020    81522834.50606
       110.544  
  19400526.120   103888934.12108       -94.186    19400526.000    80802500.93708
       -94.186  
 20  9 26  6 24 10.0000000  0 15G20G13G30G27G24G18G10G15G 5R16R 1R24
                                R23R 7R 8
  21630047.680   113666671.13248      -490.210    21630044.800    88571419.46847
      -490.208  
  21114770.680   110958862.68047       372.199    21114763.560    86461422.69844
       372.196  
  24603815.540   129293937.53446       414.629    24603811.420   100748505.85944
       414.629  
  24159467.320   126958835.39246      -298.758    24159464.520    98928965.38543
      -298.759  
  23782533.840   124978056.71847      -716.438    23782533.420    97385499.49245
      -716.439  
  20360650.260   106995936.96548       -57.772    20360646.240    83373440.73048
       -57.771  
  24817493.440   130416820.56245      -615.369    24817490.980   101623485.55442
      -615.369  
  19997195.680   105085970.13749        -8.468    19997191.400    81885153.55549
        -8.467  
  23859828.360   125384232.56348       624.396    23859823.140    97701995.62545
       624.396  
  22685908.680   121184060.27905       190.811    22685911.340    94254274.53205
       190.812  
  21508934.700   114977590.03305      -570.979           0.000           0.00000
         0.000  
  21053135.680   112580579.56207      -485.972    21053138.560    87562689.54407
      -485.975  
  19594621.820   104818013.28108       111.175    19594625.360    81525140.81906
       111.177  
  20734562.760   110993737.16506       510.370    20734564.360    86328471.95703
       510.369  
  19400055.800   103886415.87308       -93.887    19400055.740    80800542.33308
       -93.888  
 20  9 26  6 24 15.0000000  0 13G20G30G27G24G18G15G 5R16R 1R24R23R 7
                                R 8
  21627598.120   113653798.43748      -489.672    21627595.240    88561388.85347
      -489.672  
  24605890.800   129304842.91346       415.393    24605886.680   100757003.55845
       415.391  
  24157975.560   126950996.77946      -298.026    24157972.780    98922857.33445
      -298.025  
  23778953.000   124959238.35247      -716.071    23778952.600    97370835.74245
      -716.067  
  20360363.880   106994431.72049       -56.925    20360359.780    83372267.80248
       -56.925  
  19997155.740   105085760.35949        -7.581    19997151.500    81884990.07549
        -7.581  
  23862951.420   125400644.58847       624.790    23862946.220    97714784.17745
       624.791  
  22686865.680   121189172.43906       192.056    22686868.720    94258250.63504
       192.056  
  21506080.980   114962336.44104      -570.287    21506082.960    89415152.97003
      -570.287  
  21050708.360   112567599.66607      -485.051    21050711.260    87552594.05107
      -485.052  
  19595181.000   104821004.45008       112.374    19595184.560    81527467.32706
       112.374  
  20737117.140   111007407.16605       510.883    20737120.620           0.00000
       510.883  
  19399588.400   103883913.30808       -93.143    19399588.400    80798595.86608
       -93.142  
 20  9 26  6 24 20.0000000  0 13G20G13G30G27G24G18G15G 5R16R 1R24R23
                                R 8
  21625150.220   113640934.38048      -489.702    21625147.300    88551364.91947
      -489.703  
  21118501.080   110978469.11845       373.473    21118494.100    86476718.87645
       373.473  
  24607968.400   129315762.49045       415.646    24607964.560   100765512.31245
       415.646  
  24156487.320   126943175.83646      -297.467    24156484.020    98916763.13745
      -297.469  
  23775373.160   124940425.75046      -715.962    23775372.780    97356176.71845
      -715.966  
  20360080.900   106992944.41448       -56.422    20360076.760    83371108.88248
       -56.422  
  19997119.240   105085568.66849        -7.144    19997115.020    81884840.71849
        -7.144  
  23866075.400   125417061.56148       624.746    23866070.280    97727576.65546
       624.745  
  22687826.920   121194308.34004       192.561    22687830.280    94262245.23803
       192.560  
  21503229.280   114947093.10305      -570.311    21503234.140           0.00000
      -570.311  
  21048284.900   112554640.01307      -484.405    21048287.740    87542514.30406
      -484.404  
  19595744.980   104824021.45708       113.102    19595748.560    81529813.89206
       113.101  
  19399124.020   103881426.68608       -92.764    19399124.020    80796661.82308
       -92.764  
 20  9 26  6 24 25.0000000  0 13G20G13G30G27G24G18G15G 5R16R 1R24R23
                                R 8
  21622701.840   113628067.91747      -489.374    21622698.880    88541339.06947
      -489.373  
  21120367.220   110988280.26947       373.880    21120364.680    86484363.92545
       373.879  
  24610046.760   129326685.27146       416.153    24610043.300   100774023.50245
       416.154  
  24155000.160   126935361.20946      -296.914    24154996.900    98910673.78945
      -296.916  
  23771792.220   124921607.74446      -715.932    23771792.260    97341513.28345
      -715.931  
  20359799.200   106991463.87849       -55.881    20359795.020    83369955.21848
       -55.882  
  19997084.100   105085383.98049        -6.557    19997079.880    81884696.83049
        -6.558  
  23869198.320   125433472.46447       624.711    23869193.120    97740364.34145
       624.711  
  22688790.860   121199457.01105       193.287    22688794.120    94266249.76604
       193.287  
  21500377.480   114931848.66706      -570.095    21500378.000    89391438.28703
      -570.094  
  21045863.000   112541688.89707      -483.843    21045865.800    87532441.16207
      -483.841  
  19596311.720   104827053.09108       113.972    19596315.280    81532171.87305
       113.970  
  19398660.480   103878944.59808       -92.317    19398660.480    80794731.28908
       -92.316  
 20  9 26  6 24 30.0000000  0 14G20G13G30G27G24G18G15G 5R16R 1R24R23
                                R 7R 8
  21620255.120   113615209.96548      -489.241    21620252.100    88531319.91447
      -489.242  
  21122237.480   110998106.50847       374.167    21122234.280    86492020.74645
       374.167  
  24612127.900   129337621.95346       416.473    24612123.740   100782545.69844
       416.470  
  24153516.340   126927563.88545      -296.366    24153512.720    98904597.91344
      -296.365  
  23768212.300   124902795.13046      -715.888    23768212.360    97326854.13244
      -715.888  
  20359520.880   106990001.07149       -55.326    20359516.680    83368815.37648
       -55.326  
  19997052.340   105085217.11449        -5.978    19997048.120    81884566.78249
        -5.977  
  23872322.100   125449888.22847       624.898    23872316.780    97753155.87046
       624.897  
  22689758.900   121204629.10105       194.141    22689762.600    94270272.47305
       194.142  
  21497527.620   114916614.46806      -569.741    21497529.020    89379589.43602
      -569.738  
  21043444.840   112528757.51307      -483.262    21043447.600    87522383.50807
      -483.264  
  19596883.240   104830110.30208       114.795    19596886.780    81534549.63606
       114.796  
  20744780.380   111048454.77104       511.542    20744786.000    86371028.53205
       511.542  
  19398199.780   103876478.04108       -91.794    19398199.880    80792812.89808
       -91.795  
 20  9 26  6 24 35.0000000  0 14G20G13G30G27G24G18G15G 5R16R 1R24R23
                                R 7R 8
  21617810.600   113602363.49548      -488.587    21617807.420    88521309.70446
      -488.587  
  21124112.200   111007950.62646       375.119    21124108.280    86499691.42145
       375.120  
  24614211.920   129348575.54945       417.262    24614207.900   100791080.93744
       417.262  
  24152036.380   126919787.03746      -295.507    24152032.220    98898538.02544
      -295.506  
  23764634.040   124883991.05547      -715.457    23764634.040    97312201.59646
      -715.458  
  20359246.480   106988558.97449       -54.403    20359242.240    83367691.67048
       -54.403  
  19997024.560   105085071.16949        -5.050    19997020.340    81884453.06649
        -5.050  
  23875447.360   125466311.83747       625.334    23875442.140    97765953.47046
       625.334  
  22690732.180   121209827.77905       195.184    22690735.960    94274315.92104
       195.183  
  21494680.320   114901393.40907      -569.119    21494681.140    89367750.88604
      -569.120  
  21041030.940   112515849.16606      -482.265    21041033.680    87512343.70506
      -482.266  
  19597460.080   104833196.21608       116.002    19597463.680    81536949.81006
       116.002  
  20747342.400   111062155.23105       512.246    20747347.420    86381684.45606
       512.246  
  19397742.580   103874030.40708       -90.979    19397742.800    80790909.15508
       -90.977  
 20  9 26  6 24 40.0000000  0 14G20G13G30G27G24G18G15G 5R16R 1R24R23
                                R 7R 8
  21615367.380   113589524.29248      -488.554    21615364.120    88511305.10847
      -488.555  
  21125988.020   111017808.46647       375.415    21125984.300    86507372.93044
       375.415  
  24616298.360   129359541.88346       417.608    24616295.000   100799626.10845
       417.608  
  24150559.640   126912026.20346      -295.134    24150555.220    98892490.67045
      -295.136  
  23761056.560   124865191.12147      -715.479    23761056.480    97297552.38745
      -715.481  
  20358975.220   106987133.34049       -53.986    20358970.960    83366580.78748
       -53.986  
  19996999.920   105084941.80849        -4.647    19996995.700    81884352.28849
        -4.648  
  23878573.300   125482738.94446       625.199    23878568.220    97778753.79245
       625.200  
  22691709.760   121215048.67105       195.742    22691713.460    94278376.56504
       195.743  
  21491834.640   114886180.99807      -569.070    21491834.800    89355919.07603
      -569.073  
  21038620.600   112502959.42307      -481.759    21038623.240    87502318.29307
      -481.758  
  19598041.540   104836306.55508       116.699    19598045.140    81539368.98306
       116.698  
  20749902.840   111075863.90306       512.285    20749907.540    86392346.83105
       512.283  
  19397288.080   103871596.91208       -90.655    19397288.360    80789016.43608
       -90.654  
 20  9 26  6 24 45.0000000  0 14G20G13G30G27G24G18G15G 5R16R 1R24R23
                                R 7R 8
  21612925.180   113576690.35848      -488.251    21612921.880    88501304.63447
      -488.251  
  21127865.800   111027678.00146       375.942    21127862.000    86515063.43345
       375.943  
  24618386.880   129370518.83044       417.916    24618384.140   100808179.58144
       417.917  
  24149085.660   126904279.51447      -294.490    24149080.860    98886454.28843
      -294.490  
  23757479.460   124846393.42847      -715.320    23757479.540    97282904.85045
      -715.322  
  20358706.700   106985722.15049       -53.383    20358702.420    83365481.14848
       -53.382  
  19996978.080   105084827.04149        -4.030    19996973.840    81884262.83749
        -4.029  
  23881699.320   125499167.51547       625.291    23881694.560    97791555.27445
       625.291  
  22692691.060   121220289.92105       196.688    22692694.720    94282453.12405
       196.689  
  21488990.280   114870975.49407      -568.718    21488990.680    89344092.56803
      -568.718  
  21036213.300   112490086.14407      -481.047    21036215.900    87492305.79707
      -481.049  
  19598627.100   104839439.26408       117.602    19598630.760    81541805.51206
       117.602  
  20752465.840   111089578.70306       512.579    20752469.620    86403013.89605
       512.579  
  19396835.900   103869175.76608       -90.147    19396836.240    80787133.32908
       -90.147  
 20  9 26  6 24 50.0000000  0 14G20G13G30G27G24G18G15G 5R16R 1R24R23
                                R 7R 8
  21610484.740   113563865.48348      -488.013    21610481.360    88491311.25247
      -488.014  
  21129746.740   111037562.88345       376.384    21129742.020    86522765.98444
       376.383  
  24620478.340   129381510.31046       418.432    24620475.760   100816744.40944
       418.431  
  24147615.020   126896550.79947      -293.922    24147610.020    98880431.85644
      -293.922  
  23753903.640   124827601.78147      -715.124    23753903.780    97268261.98845
      -715.124  
  20358441.680   106984329.32248       -52.686    20358437.340    83364395.80948
       -52.684  
  19996959.760   105084730.74549        -3.360    19996955.500    81884187.79149
        -3.359  
  23884826.540   125515601.46147       625.535    23884821.920    97804360.94646
       625.535  
  22693676.740   121225555.28405       197.538    22693680.480    94286548.42105
       197.537  
  21486147.820   114855780.47505      -568.353    21486149.680    89332274.26404
      -568.355  
  21033809.880   112477233.33307      -480.407    21033812.260    87482309.18106
      -480.407  
  19599217.580   104842598.10808       118.501    19599221.260    81544262.34706
       118.503  
  20755031.120   111103303.94807       512.952    20755033.440           0.00000
       512.958  
  19396386.780   103866770.76508       -89.601    19396387.120    80785262.79508
       -89.602  
 20  9 26  6 24 55.0000000  0 14G20G13G30G27G24G18G15G 5R16R 1R24R23
                                R 7R 8
  21608044.760   113551043.14747      -487.915    21608041.340    88481319.76747
      -487.914  
  21131629.040   111047456.84547       376.682    21131624.840    86530475.51645
       376.684  
  24622571.300   129392509.69045       418.770    24622568.780   100825315.29444
       418.770  
  24146146.540   126888833.45146      -293.420    24146141.800    98874418.42243
      -293.422  
  23750327.760   124808809.81947      -715.241    23750327.980    97253618.98945
      -715.245  
  20358178.800   106982948.12549       -52.299    20358174.480    83363319.57448
       -52.300  
  19996943.740   105084646.27049        -2.965    19996939.420    81884121.98749
        -2.965  
  23887953.460   125532034.16447       625.374    23887949.140    97817165.64445
       625.375  
  22694665.780   121230837.99805       198.155    22694669.280    94290657.17105
       198.154  
  21483306.080   114840589.81006      -568.216    21483308.560    89320459.24404
      -568.214  
  21031409.000   112464394.47307      -479.982    21031411.320    87472323.37806
      -479.982  
  19599811.720   104845776.62908       119.251    19599815.480    81546734.60106
       119.249  
  20757596.480   111117032.41007       513.063           0.000           0.00000
         0.000  
  19395939.440   103864375.49908       -89.265    19395939.860    80783399.78208
       -89.264  
 20  9 26  6 25  0.0000000  0 14G20G13G30G27G24G18G15G 5R16R 1R24R23
                                R 7R 8
  21605605.960   113538227.03248      -487.679    21605602.500    88471333.20746
      -487.679  
  21133513.880   111057363.31546       377.178    21133509.820    86538194.88244
       377.177  
  24624666.340   129403520.62145       419.291    24624664.360   100833895.24444
       419.292  
  24144680.840   126881131.19846      -292.835    24144676.040    98868416.60343
      -292.834  
  23746752.440   124790020.97547      -715.047    23746752.640    97238978.32545
      -715.048  
  20357918.920   106981582.38148       -51.698    20357914.600    83362255.36048
       -51.698  
  19996930.660   105084577.33549        -2.315    19996926.240    81884068.27949
        -2.315  
  23891080.700   125548469.22747       625.549    23891076.660    97829972.19546
       625.548  
  22695658.800   121236142.00604       199.010    22695662.300    94294782.49804
       199.010  
  21480465.760   114825406.55206      -568.004    21480469.360    89308650.04104
      -568.004  
  21029011.440   112451573.13707      -479.229    21029013.600    87462351.26107
      -479.229  
  19600410.220   104848978.28908       120.165    19600414.000    81549224.75706
       120.165  
  20760163.180   111130768.06907       513.374    20760156.980           0.00000
       513.374  
  19395494.520   103861993.20308       -88.719    19395495.020    80781546.87208
       -88.718  
 20  9 26  6 25  5.0000000  0 14G20G13G30G27G24G18G15G 5R16R 1R24R23
                                R 7R 8
  21603168.740   113525419.58947      -487.229    21603165.300    88461353.42247
      -487.229  
  21135401.740   111067284.70946       377.750    21135397.420    86545925.80643
       377.752  
  24626764.620   129414545.52845       419.895    24626762.280   100842486.20843
       419.891  
  24143218.400   126873446.48647      -292.174    24143212.880    98862428.45644
      -292.170  
  23743178.180   124771237.94447      -714.744    23743178.280    97224342.16645
      -714.742  
  20357662.400   106980234.55148       -50.935    20357658.100    83361205.09748
       -50.935  
  19996921.000   105084526.36449        -1.563    19996916.520    81884028.53749
        -1.563  
  23894209.140   125564909.20747       625.723    23894205.100    97842782.55646
       625.722  
  22696655.940   121241469.69205       199.926    22696659.460    94298926.25404
       199.927  
  21477627.440   114810233.72506      -567.495    21477631.280    89296849.00404
      -567.496  
  21026617.400   112438771.77306      -478.313    21026619.600           0.00010
      -478.319  
  19601013.420   104852205.76708       121.160    19601017.380    81551735.00406
       121.159  
  20762731.460   111144513.50007       513.822    20762730.780    86445727.81704
       513.824  
  19395052.540   103859626.73308       -88.070    19395053.140    80779706.31608
       -88.071  
 20  9 26  6 25 10.0000000  0 14G20G13G30G27G24G18G15G 5R16R 1R24R23
                                R 7R 8
  21600733.000   113512619.64748      -487.132    21600729.520    88451379.42946
      -487.134  
  21137292.420   111077220.08744       378.520    21137287.600    86553667.66644
       378.520  
  24628864.960   129425583.44944       420.333    24628862.260   100851087.09344
       420.337  
  24141759.240   126865778.20546      -291.504    24141753.740    98856453.28944
      -291.505  
  23739604.920   124752459.54047      -714.712    23739605.060    97209709.65846
      -714.713  
  20357409.120   106978903.42449       -50.377    20357404.780    83360167.83748
       -50.377  
  19996914.520   105084492.34049        -1.035    19996910.040    81884002.02549
        -1.034  
  23897338.160   125581352.95347       625.911    23897334.300    97855595.89846
       625.910  
  22697657.480   121246819.99005       200.772    22697660.560    94303087.57804
       200.772  
  21474790.740   114795069.91406      -567.274    21474793.620    89285054.89303
      -567.273  
  21024227.040   112425989.56505      -477.511    21024229.260    87442446.04006
      -477.514  
  19601621.400   104855458.03407       121.962    19601625.380    81554264.54906
       121.963  
  20765301.080   111158267.36206       513.973    20765300.420    86456425.25305
       513.976  
  19394613.320   103857275.01608       -87.625    19394613.980    80777877.19308
       -87.625  
 20  9 26  6 25 15.0000000  0 13G20G30G27G24G18G15G 5R16R 1R24R23R 7
                                R 8
  21598299.000   113499828.96648      -486.646    21598295.480    88441412.70447
      -486.646  
  24630968.820   129436614.78746       420.850    24630965.660   100859719.32244
       420.850  
  24140303.360   126858127.83247      -290.854    24140297.560    98850491.91644
      -290.855  
  23736032.760   124733687.31846      -714.324    23736032.780    97195081.97746
      -714.326  
  20357159.280   106977590.66448       -49.646    20357154.960    83359144.89848
       -49.646  
  19996911.560   105084476.69049        -0.233    19996907.040    81883989.81449
        -0.233  
  23900468.220   125597802.12647       626.119    23900464.400    97868413.44344
       626.118  
  22698663.600   121252194.37705       201.675    22698666.420    94307267.64904
       201.674  
  21471955.900   114779916.76206      -566.765    21471960.560           0.00000
      -566.765  
  21021840.560   112413227.60105      -477.096    21021841.780           0.00010
      -477.096  
  19602234.160   104858736.32308       123.064    19602238.240    81556814.29606
       123.063  
  20767872.420           0.00000       514.551    20767872.240           0.00000
       514.560  
  19394177.180   103854939.45308       -86.914    19394177.840    80776060.62408
       -86.913  
 20  9 26  6 25 20.0000000  0 13G20G13G30G27G24G18G15G 5R16R 1R24R23
                                R 8
  21595865.640   113487041.32448      -486.817    21595862.040    88431448.22747
      -486.814  
  21141082.660   111097128.97847       379.106    21141073.800    86569182.64645
       379.106  
  24633075.740   129447675.43145       420.760    24633070.040   100868337.99744
       420.759  
  24138849.920   126850489.45946      -290.784    24138843.920    98844539.91943
      -290.785  
  23732460.580   124714915.27346      -714.717    23732460.700    97180454.44246
      -714.718  
  20356911.780   106976290.13249       -49.412    20356907.480    83358131.52548
       -49.413  
  19996910.960   105084473.43249        -0.048    19996906.400    81883987.29849
        -0.049  
  23903598.220   125614250.40047       625.829    23903594.460    97881230.20246
       625.830  
  22699672.880   121257586.62205       202.016    22699675.760    94311461.62504
       202.016  
  21469122.120   114764768.23407      -566.825    21469125.840    89261490.85903
      -566.822  
  21019456.800   112400480.42906      -476.681    21019457.600           0.00000
      -476.681  
  19602850.740   104862034.85908       123.527    19602854.880    81559379.83406
       123.528  
  19393742.920   103852614.13908       -86.856    19393743.600    80774252.05508
       -86.857  
 20  9 26  6 25 25.0000000  0 14G20G13G30G27G24G18G15G 5R16R 1R24R23
                                R 7R 8
  21593432.220   113474253.59448      -486.686    21593428.600    88421483.79547
      -486.685  
  21142978.060   111107095.36547       379.249    21142970.700    86576948.65245
       379.248  
  24635180.320   129458741.52444       421.318    24635178.280   100876960.96143
       421.318  
  24137398.060   126842859.98147      -290.105    24137391.800    98838594.86944
      -290.105  
  23728887.800   124696140.32646      -714.501    23728888.040    97165824.61246
      -714.501  
  20356666.100   106974998.78849       -48.950    20356661.740    83357125.28447
       -48.951  
  19996912.120   105084479.46849         0.413    19996907.560    81883991.99249
         0.412  
  23906727.500   125630694.94147       625.770    23906723.740    97894044.16345
       625.769  
  22700685.020   121262993.65505       202.735    22700688.000    94315667.12304
       202.734  
  21466288.400   114749621.07906      -566.679    21466291.720           0.00010
      -566.679  
  21017075.180   112387744.20506      -476.089           0.000           0.00000
         0.000  
  19603470.480   104865350.24808       124.309    19603474.680    81561958.47606
       124.309  
  20773017.040   111199584.95804       514.604    20773015.040    86488560.10605
       514.604  
  19393309.840   103850295.49708       -86.448    19393310.580    80772448.64808
       -86.447  
 20  9 26  6 25 30.0000000  0 14G20G13G30G27G24G18G15G 5R16R 1R24R23
                                R 7R 8
  21591000.800   113461476.43547      -486.163    21590997.200    88411527.58647
      -486.164  
  21144877.660   111117078.46446       380.219    21144872.520    86584727.84645
       380.212  
  24637287.880   129469823.23845       422.035    24637285.340   100885595.95044
       422.038  
  24135949.800   126835249.76246      -289.195    24135943.240    98832664.76943
      -289.193  
  23725316.440   124677372.77146      -714.083    23725316.620    97151200.59445
      -714.085  
  20356424.140   106973727.14649       -48.003    20356419.780    83356134.38148
       -48.003  
  19996917.020   105084505.20749         1.319    19996912.420    81884012.05148
         1.319  
  23909857.940   125647146.07646       626.172    23909854.280    97906863.20746
       626.172  
  22701701.900   121268426.08604       203.863    22701704.760    94319892.29104
       203.867  
  21463456.960   114734486.07505      -566.063    21463458.600    89237941.07703
      -566.063  
  21014697.680   112375030.17105      -475.071           0.000           0.00000
         0.000  
  19604095.420   104868693.15908       125.521    19604099.620    81564558.47106
       125.521  
  20775591.460           0.00000       515.026    20775587.240           0.00000
       515.027  
  19392880.040   103847994.36108       -85.611    19392880.820    80770658.88808
       -85.611  
 20  9 26  6 25 35.0000000  0 14G20G13G30G27G24G18G15G 5R16R 1R24R23
                                R 7R 8
  21588571.480   113448710.45147      -485.684    21588567.880    88401580.01347
      -485.683  
  21146782.600   111127079.07747       380.888    21146776.660    86592520.49745
       380.888  
  24639399.960   129480921.54745       422.585    24639396.080   100894243.99044
       422.586  
  24134505.300   126827659.70947      -288.512    24134498.720    98826750.54443
      -288.514  
  23721746.720   124658613.51947      -713.870    23721746.660    97136583.01145
      -713.873  
  20356186.000   106972475.88248       -47.264    20356181.700    83355159.36348
       -47.264  
  19996925.840   105084551.39949         2.114    19996921.160    81884048.05748
         2.113  
  23912989.720   125663604.50146       626.446    23912986.360    97919687.98646
       626.447  
  22702723.580   121273884.93305       204.853    22702726.660    94324138.05404
       204.854  
  21460627.700   114719363.74504      -565.509    21460633.600    89226179.26704
      -565.508  
  21012324.120   112362338.65007      -474.299    21012327.100    87392935.69206
      -474.299  
  19604725.720   104872064.34208       126.528    19604729.860    81567180.56606
       126.526  
  20778167.940   111227159.25805       515.508    20778161.940    86509989.01403
       515.513  
  19392453.700   103845711.49308       -84.973    19392454.520    80768883.33908
       -84.974  
 20  9 26  6 25 40.0000000  0 14G20G13G30G27G24G18G15G 5R16R 1R24R23
                                R 7R 8
  21586143.740   113435952.87846      -485.435    21586140.200    88391639.09446
      -485.436  
  21148688.140   111137094.38247       381.513    21148682.920    86600324.57545
       381.514  
  24641514.620   129492033.33346       423.130    24641512.380   100902902.51244
       423.132  
  24133064.240   126820086.96746      -287.932    24133057.200    98820849.61842
      -287.930  
  23718178.020   124639859.87446      -713.683    23718177.880    97121969.84345
      -713.685  
  20355951.260   106971242.21648       -46.656    20355946.980    83354198.06248
       -46.656  
  19996938.020   105084615.34749         2.749    19996933.300    81884097.88149
         2.749  
  23916122.480   125680067.64446       626.649    23916119.160    97932516.36446
       626.650  
  22703749.680   121279366.85805       205.677    22703752.800    94328401.82804
       205.675  
  21457800.540   114704251.50004      -565.191    21457808.260    89214425.30905
      -565.190  
  21009954.480   112349667.20304      -473.747    21009954.720    87383080.16806
      -473.745  
  19605360.820   104875461.08108       127.451    19605364.860    81569822.43006
       127.452  
  20780745.720   111240960.84306       515.775    20780740.040           0.00000
       515.776  
  19392030.220   103843444.22608       -84.420    19392031.140    80767119.91308
       -84.421  
 20  9 26  6 25 45.0000000  0 14G20G13G30G27G24G18G15G 5R16R 1R24R23
                                R 7R 8
  21583716.980   113423199.97348      -485.294    21583713.340    88381701.77447
      -485.292  
  21150596.260   111147120.41145       381.911    21150591.940    86608137.06544
       381.910  
  24643631.660   129503155.08446       423.487    24643627.820   100911568.89444
       423.485  
  24131625.900   126812527.63247      -287.444    24131618.380    98814959.30543
      -287.446  
  23714609.620   124621107.80846      -713.637    23714609.400    97107357.79244
      -713.635  
  20355719.120   106970022.34848       -46.168    20355714.860    83353247.50048
       -46.167  
  19996952.800   105084693.15349         3.215    19996948.080    81884158.52748
         3.214  
  23919255.260   125696531.39746       626.592    23919252.060    97945345.28346
       626.591  
  22704779.360   121284868.30105       206.330    22704782.640    94332680.72704
       206.328  
  21454974.620   114689145.39705      -565.062    21454983.180    89202676.15704
      -565.061  
  21007588.020   112337011.72006      -473.063           0.000           0.00000
         0.000  
  19605999.900   104878879.34308       128.174    19606003.940    81572481.06406
       128.175  
  20783324.900   111254767.81807       515.984           0.000           0.00000
         0.000  
  19391608.880   103841188.35008       -84.034    19391609.880    80765365.33308
       -84.033  
 20  9 26  6 25 50.0000000  0 14G20G13G30G27G24G18G15G 5R16R 1R24R23
                                R 7R 8
  21581291.120   113410451.49747      -485.115    21581287.360    88371767.88947
      -485.116  
  21152506.120   111157157.06447       382.272    21152501.140    86615957.81545
       382.272  
  24645750.400   129514286.51645       423.867    24645746.600   100920242.59144
       423.873  
  24130189.860   126804981.66946      -286.836    24130182.660    98809079.28544
      -286.836  
  23711041.420   124602357.21445      -713.690    23711041.200    97092746.90445
      -713.688  
  20355489.580   106968816.09449       -45.648    20355485.340    83352307.58648
       -45.649  
  19996970.200   105084784.62049         3.771    19996965.460    81884229.77749
         3.771  
  23922388.320   125712995.83546       626.644    23922385.020    97958174.70145
       626.645  
  22705812.840   121290388.98105       207.088    22705816.160    94336974.57105
       207.089  
  21452149.760   114674045.15805      -564.780    21452157.660    89190931.40805
      -564.777  
  21005224.540   112324372.15206      -472.381    21005228.680           0.00000
      -472.381  
  19606642.940   104882318.90508       129.022    19606647.000    81575156.30406
       129.022  
  20785905.160   111268580.13906       515.961    20785900.040           0.00000
       515.961  
  19391189.700   103838943.97608       -83.588    19391190.760    80763619.70408
       -83.588  
 20  9 26  6 25 55.0000000  0 14G20G13G30G27G24G18G15G 5R16R 1R24R23
                                R 7R 8
  21578866.300   113397708.60648      -484.938    21578862.420    88361838.38346
      -484.937  
  21154418.180   111167205.55647       382.624    21154413.240    86623787.77244
       382.625  
  24647871.040   129525428.62345       424.250    24647867.700   100928924.83045
       424.250  
  24128756.440   126797449.86445      -286.367    24128749.160    98803210.33944
      -286.368  
  23707473.760   124583609.42546      -713.453    23707473.520    97078138.33645
      -713.457  
  20355262.780   106967624.55248       -45.151    20355258.620    83351379.09348
       -45.150  
  19996990.420   105084890.81349         4.248    19996985.640    81884312.53649
         4.248  
  23925521.640   125729461.85846       626.707    23925518.340    97971005.36545
       626.707  
  22706850.120   121295930.01705       207.775    22706853.480    94341284.23905
       207.776  
  21449326.120   114658951.99904      -564.474    21449333.640           0.00000
      -564.474  
  21002864.360   112311749.56507      -471.839           0.000           0.00000
         0.000  
  19607290.200   104885781.03708       129.796    19607294.280    81577849.06506
       129.795  
  20788486.740   111282398.63607       516.345    20788484.280    86552965.06605
       516.348  
  19390772.800   103836711.91308       -83.169    19390773.900    80761883.65508
       -83.169  
 20  9 26  6 26  0.0000000  0 14G20G13G30G27G24G18G15G 5R16R 1R24R23
                                R 7R 8
  21576443.260   113384975.33448      -484.500    21576439.360    88351916.34747
      -484.501  
  21156333.280   111177269.84048       383.268    21156328.440    86631630.15145
       383.267  
  24649994.020   129536585.63645       424.881    24649991.160   100937618.61344
       424.880  
  24127326.620   126789937.04146      -285.607    24127319.380    98797356.22344
      -285.608  
  23703907.420   124564868.64246      -713.233    23703907.080    97063535.12244
      -713.234  
  20355039.600   106966451.91448       -44.315    20355035.480    83350465.35348
       -44.315  
  19997014.240   105085015.94149         5.069    19997009.420    81884410.03249
         5.069  
  23928655.960   125745933.79146       627.059    23928652.960    97983840.64145
       627.059  
  22707892.040   121301495.61405       208.796    22707895.480    94345613.09105
       208.794  
  21446504.340   114643870.10605      -563.953    21446513.440    89167464.96305
      -563.954  
  21000507.880   112299148.20905      -470.818    21000510.140    87343790.71805
      -470.818  
  19607942.440   104889269.90808       130.892    19607946.540    81580562.60806
       130.893  
  20791070.160   111296227.70107       516.833    20791068.200    86563720.93605
       516.836  
  19390359.120   103834496.78308       -82.464    19390360.240    80760160.78008
       -82.464  
 20  9 26  6 26  5.0000000  0 15G20G13G30G27G24G18G10G15G 5R16R 1R24
                                R23R 7R 8
  21574021.560   113372249.24648      -484.163    21574017.680    88341999.88047
      -484.161  
  21158251.080   111187347.42747       383.849    21158245.520    86639482.77946
       383.850  
  24652119.260   129547754.86545       425.311    24652116.800   100946321.88145
       425.310  
  24125899.760   126782440.03746      -284.948    24125892.760    98791514.47545
      -284.951  
  23700341.780   124546131.99245      -712.989    23700341.400    97048935.12545
      -712.988  
  20354819.460   106965295.58648       -43.653    20354815.460    83349564.31648
       -43.653  
  24746800.540   130045304.24344      -614.227    24746804.500   101334025.56744
      -614.227  
  19997041.180   105085157.42849         5.725    19997036.340    81884520.29749
         5.725  
  23931790.780   125762408.79245       626.942    23931788.040    97996678.27144
       626.943  
  22708938.180   121307083.17205       209.630    22708941.640    94349958.98605
       209.630  
  21443684.380   114628796.79305      -563.758    21443693.040    89155741.28905
      -563.757  
  20998155.120   112286565.48205      -470.299    20998156.900    87334004.08606
      -470.295  
  19608599.240   104892783.01008       131.807    19608603.320    81583295.04406
       131.807  
  20793654.840   111310064.76907       517.196    20793654.560    86574483.15605
       517.195  
  19389948.100   103832295.61208       -81.917    19389949.180    80758448.76308
       -81.917  
 20  9 26  6 26 10.0000000  0 15G20G13G30G27G24G18G10G15G 5R16R 1R24
                                R23R 7R 8
  21571601.380   113359530.93947      -483.822    21571597.460    88332089.56347
      -483.824  
  21160171.420   111197438.87948       384.331    21160165.820    86647346.24845
       384.331  
  24654247.120   129558937.21244       425.831    24654244.780   100955035.44244
       425.831  
  24124476.200   126774959.71047      -284.356    24124469.480    98785685.61045
      -284.356  
  23696776.940   124527400.22346      -712.759    23696776.840    97034338.96046
      -712.759  
  20354602.560   106964156.20748       -43.011    20354598.700    83348676.48748
       -43.011  
  24743730.780   130029168.76945      -614.004    24743728.980   101321452.44942
      -614.007  
  19997071.360   105085315.88549         6.361    19997066.480    81884643.74849
         6.362  
  23934926.360   125778887.95544       627.313    23934923.940    98009519.19844
       627.312  
  22709988.440   121312693.52306       210.564    22709991.960    94354322.56705
       210.564  
  21440866.080   114613732.84504      -563.386    21440874.780    89144024.85805
      -563.386  
  20995805.860   112274002.08005      -469.572    20995807.680    87324232.58006
      -469.572  
  19609260.600   104896320.74108       132.752    19609264.660    81586046.58806
       132.752  
  20796241.260   111323910.32907       517.509    20796241.900    86585251.85305
       517.510  
  19389539.840   103830109.21108       -81.338    19389540.880    80756748.23908
       -81.339  
 20  9 26  6 26 15.0000000  0 14G20G13G30G27G24G18G15G 5R16R 1R24R23
                                R 7R 8
  21569182.240   113346818.51647      -483.713    21569178.340    88322183.81147
      -483.715  
  21162094.040   111207542.38347       384.719    21162088.260    86655219.10744
       384.718  
  24656377.220   129570130.47244       426.136    24656375.040   100963757.48744
       426.135  
  24123055.560   126767494.19147      -283.858    24123049.080    98779868.27944
      -283.855  
  23693212.780   124508671.55345      -712.641    23693212.880    97019745.28945
      -712.646  
  20354388.540   106963031.96949       -42.566    20354384.800    83347800.45548
       -42.566  
  19997104.400   105085489.51249         6.825    19997099.520    81884779.05648
         6.825  
  23938062.460   125795368.91844       627.211    23938060.120    98022361.50744
       627.211  
  22711042.760   121318324.32806       211.162    22711046.160    94358702.06105
       211.162  
  21438049.180   114598676.26605      -563.160    21438058.700    89132314.32104
      -563.165  
  20993461.780           0.00000      -468.934           0.000           0.00000
         0.000  
  19609926.260   104899881.41808       133.492    19609930.320    81588816.00606
       133.492  
  20798829.020   111337762.69407       517.653    20798829.580    86596026.00106
       517.652  
  19389133.960   103827935.65708       -81.036    19389134.980    80755057.71308
       -81.037  
 20  9 26  6 26 20.0000000  0 13G20G13G30G27G24G18G15R16R 1R24R23R 7
                                R 8
  21566764.900   113334114.86048      -483.378    21566760.880    88312284.81047
      -483.377  
  21164019.340   111217660.62346       385.295    21164013.700    86663103.43544
       385.298  
  24658508.200   129581355.52545       426.750    24658506.080   100972460.16345
       426.750  
  24121638.080   126760046.24246      -283.241    24121632.020    98774064.66245
      -283.239  
  23689649.900   124489948.75246      -712.543    23689650.240    97005156.01445
      -712.542  
  20354177.940   106961925.52449       -41.771    20354174.260    83346938.28448
       -41.771  
  19997140.840   105085681.03449         7.576    19997135.940    81884928.26849
         7.578  
  22712101.400   121323978.73106       212.078    22712104.820    94363099.92806
       212.079  
  21435234.420   114583630.02805      -562.838    21435243.580    89120611.64104
      -562.837  
  20991118.660   112248947.17204      -468.454           0.000           0.00000
         0.000  
  19610596.720   104903467.92508       134.520    19610600.800    81591605.46506
       134.521  
  20801418.580   111351624.30005       517.848    20801419.280           0.00000
       517.848  
  19388730.940   103825777.81908       -80.407    19388732.000    80753379.38108
       -80.408  
 20  9 26  6 26 25.0000000  0 14G20G13G30G27G24G18G15G 5R16R 1R24R23
                                R 7R 8
  21564348.240   113321414.99748      -483.771    21564344.140    88302388.83247
      -483.771  
  21165946.580   111227788.90347       385.288    21165941.040    86670995.60544
       385.289  
  24660644.180   129592553.48044       426.578    24660646.240   100981208.98144
       426.578  
  24120223.080   126752610.95046      -283.218    24120217.440    98768271.03345
      -283.221  
  23686087.140   124471226.93445      -713.019    23686087.520    96990567.63245
      -713.019  
  20353969.780   106960832.05948       -41.833    20353966.180    83346086.23148
       -41.833  
  19997179.720   105085885.47949         7.563    19997174.840    81885087.58149
         7.563  
  23944334.560   125828332.25643       626.910    23944333.400    98048033.48043
       626.910  
  22713163.540   121329651.70706       212.314    22713166.860    94367512.23005
       212.314  
  21432420.680   114568588.92105      -563.130    21432428.860    89108912.93804
      -563.129  
  20988778.180   112236436.85704      -468.229    20988778.940    87295000.89606
      -468.229  
  19611270.960   104907074.84108       134.815    19611275.120    81594410.90406
       134.813  
  20804007.860           0.00000       517.651    20804008.500           0.00000
       517.651  
  19388329.940   103823630.55407       -80.441    19388331.020    80751709.29008
       -80.441  
 20  9 26  6 26 30.0000000  0 15G20G13G30G27G24G18G10G15G 5R16R 1R24
                                R23R 7R 8
  21561931.540   113308715.29548      -482.911    21561927.400    88292492.92547
      -482.909  
  21167875.080   111237923.17347       386.135    21167868.920    86678892.44745
       386.135  
  24662775.000   129603774.67343       427.565    24662778.220   100989952.67944
       427.566  
  24118809.780   126745184.66547      -282.057    24118804.180    98762484.32245
      -282.058  
  23682523.860   124452502.38145      -712.283    23682524.300    96975977.12445
      -712.285  
  20353763.460   106959747.82948       -40.688    20353759.860    83345241.38148
       -40.688  
  24731451.920           0.00000      -613.931           0.000           0.00000
         0.000  
  19997220.380   105086099.15149         8.714    19997215.520    81885254.10448
         8.713  
  23947470.760   125844813.97344       627.876    23947468.660    98060876.30744
       627.881  
  22714228.400   121335339.40706       213.656    22714231.680    94371936.03005
       213.655  
  21429607.280   114553549.59005      -562.156    21429615.540    89097215.62205
      -562.154  
  20986440.600           0.00000      -466.893    20986444.660           0.00000
      -466.893  
  19611948.380   104910698.64308       136.209    19611952.580    81597229.40906
       136.209  
  20806596.860   111379350.23207       518.509    20806599.300    86628387.23806
       518.509  
  19387930.160   103821490.21407       -79.443    19387931.340    80750044.55608
       -79.443  
 20  9 26  6 26 35.0000000  0 15G20G13G30G27G24G18G10G15G 5R16R 1R24
                                R23R 7R 8
  21559517.980   113296032.20648      -482.447    21559513.880    88282610.02147
      -482.447  
  21169807.860   111248080.19248       386.920    21169801.460    86686806.99445
       386.921  
  24664915.620   129615017.71945       428.223    24664917.540   100998713.45943
       428.223  
  24117401.500   126737783.92347      -281.197    24117396.080    98756717.47244
      -281.196  
  23678963.180   124433791.65646      -711.911    23678963.740    96961397.31445
      -711.911  
  20353562.020   106958689.37848       -39.871    20353558.460    83344416.62248
       -39.872  
  24728382.120   129948529.37806      -613.741           0.000           0.00000
         0.000  
  19997265.920   105086338.62349         9.537    19997261.120    81885440.70548
         9.537  
  23950607.400   125861308.43344       628.012    23950607.720    98073729.07044
       628.015  
  22715299.200   121341058.55006       214.592    22715302.360    94376384.22605
       214.593  
  21426796.980   114538528.30805      -561.708    21426806.040    89085532.46105
      -561.710  
  20984103.400   112211458.54204      -466.058    20984110.440    87275585.33506
      -466.057  
  19612632.100   104914356.30608       137.313    19612636.360    81600074.25306
       137.313  
  20809190.320   111393234.41407       518.989    20809191.420    86639186.02606
       518.989  
  19387534.800   103819373.45107       -78.700    19387536.060    80748398.20408
       -78.701  
 20  9 26  6 26 40.0000000  0 15G20G13G30G27G24G18G10G15G 5R16R 1R24
                                R23R 7R 8
  21557105.440   113283355.06447      -482.430    21557101.500    88272731.72047
      -482.429  
  21171743.080   111258249.16948       387.178    21171736.440    86694730.89045
       387.178  
  24667055.440   129626271.55844       428.519    24667059.340   101007482.68744
       428.518  
  24115996.060   126730397.93947      -280.871    24115990.840    98750962.18545
      -280.872  
  23675403.180   124415084.01446      -711.997    23675403.820    96946819.94945
      -711.996  
  20353363.480   106957646.04648       -39.479    20353359.940    83343603.63048
       -39.479  
  24725313.780   129932401.47945      -613.972    24725308.460   101246005.91341
      -613.972  
  19997314.320   105086593.21949         9.887    19997309.600    81885639.07949
         9.887  
  23953749.880           0.00000       627.798           0.000           0.00000
         0.000  
  22716373.880   121346798.42706       215.341    22716376.960    94380848.58306
       215.341  
  21423988.200   114523514.50404      -561.702    21423997.100    89073855.03905
      -561.703  
  20981775.140   112199005.49205      -465.486    20981782.440    87265899.56806
      -465.482  
  19613320.080   104918036.73608       137.966    19613324.420    81602936.79306
       137.967  
  20811785.540   111407125.29907       519.025    20811787.700    86649990.05406
       519.025  
  19387141.880   103817269.57207       -78.439    19387143.180    80746761.85608
       -78.439  
 20  9 26  6 26 45.0000000  0 13G20G13G30G27G24G18G10G15G 5R16R23R 7
                                R 8
  21554693.700   113270682.28845      -482.165    21554689.960    88262856.87145
      -482.167  
  21173680.200   111268428.53048       387.650    21173673.540    86702662.86045
       387.650  
  24669199.000   129637534.91843       428.735    24669201.700   101016259.35341
       428.735  
  24114593.200   126723025.41847      -280.258    24114588.160    98745217.39844
      -280.259  
  23671843.240   124396378.01344      -711.854    23671844.160    96932243.84944
      -711.854  
  20353167.500   106956616.35648       -38.866    20353164.040    83342801.28847
       -38.866  
  24722243.500   129916272.65944      -613.641    24722232.280   101233437.95642
      -613.638  
  19997365.300   105086861.44648        10.542    19997360.640    81885848.09848
        10.542  
  23956886.620   125894299.78046       627.946    23956886.040    98099438.16745
       627.946  
  22717452.060   121352557.33706       216.052    22717455.160    94385327.73305
       216.052  
  19614012.140   104921738.60808       138.877    19614016.500    81605816.00206
       138.878  
  20814382.060   111421021.34207       519.318    20814383.760    86660798.12606
       519.317  
  19386751.000   103815177.08407       -77.875    19386752.420    80745134.33108
       -77.873  
 20  9 26  6 26 50.0000000  0 14G20G13G27G24G18G10G15G 5R16R 1R24R23
                                R 7R 8
  21552282.340   113258011.32347      -482.090    21552278.720    88252983.42746
      -482.092  
  21175618.580   111278615.76848       387.929    21175612.140    86710600.96844
       387.928  
  24113192.160   126715663.39046      -279.814    24113187.480    98739480.76745
      -279.816  
  23668283.260   124377671.19945      -711.828    23668284.460    96917667.13245
      -711.829  
  20352973.620   106955597.61548       -38.481    20352970.200    83342007.47447
       -38.481  
  24719170.840   129900139.71044      -613.880    24719164.020   101220876.25443
      -613.880  
  19997418.320   105087140.50249        10.898    19997413.740    81886065.55248
        10.898  
  23960027.480   125910794.50645       627.722    23960026.260    98112291.19845
       627.720  
  22718533.180   121358332.73905       216.712    22718536.460    94389819.74405
       216.711  
  21418373.800   114493482.13604      -561.179    21418382.460    89050522.08404
      -561.179  
  20977131.940   112174126.31805      -464.403    20977132.380    87246542.10805
      -464.403  
  19614707.600   104925458.97108       139.537    19614711.980    81608709.60506
       139.537  
  20816978.700   111434919.67307       519.471    20816981.120    86671607.92506
       519.472  
  19386361.760   103813093.16007       -77.577    19386363.260    80743513.50008
       -77.576  
 20  9 26  6 26 55.0000000  0 13G20G13G27G24G18G10G15G 5R16R 1R23R 7
                                R 8
  21549873.280   113245351.24948      -481.733    21549869.580    88243118.40747
      -481.731  
  21177560.280   111288819.71347       388.571    21177553.840    86718552.12445
       388.571  
  24111794.940   126708321.10447      -279.183    24111790.580    98733759.52046
      -279.184  
  23664724.920   124358972.24346      -711.600    23664726.120    96903096.54845
      -711.602  
  20352783.460   106954598.64148       -37.742    20352780.080    83341229.03448
       -37.741  
  24716101.380   129884012.23545      -613.729    24716101.860   101208306.03043
      -613.729  
  19997475.200   105087439.39849        11.654    19997470.600    81886298.43648
        11.655  
  23963167.940   125927295.86645       627.931    23963165.080    98125149.45845
       627.928  
  22719619.060   121364133.56405       217.536    22719622.360    94394331.49405
       217.536  
  21415569.240   114478489.76005      -560.754    21415577.000    89038861.29704
      -560.752  
  19615408.280   104929206.96808       140.562    19615412.660    81611624.76806
       140.560  
  20819577.540   111448829.36006       519.797    20819579.020    86682426.56406
       519.797  
  19385975.920   103811027.01507       -76.954    19385977.460    80741906.49008
       -76.954  
 20  9 26  6 27  0.0000000  0 13G20G13G30G27G24G18G10G15R16R 1R23R 7
                                R 8
  21547464.980   113232695.43448      -481.406    21547461.220    88233256.68047
      -481.404  
  21179503.780   111299034.00147       389.228    21179497.760    86726511.24646
       389.229  
  24675645.080   129671388.30845       430.161    24675641.040   101042651.01144
       430.161  
  24110400.280   126700992.03747      -278.496    24110396.160    98728048.49545
      -278.495  
  23661166.840   124340274.78245      -711.412    23661168.060    96888527.11645
      -711.413  
  20352595.880   106953613.23748       -37.043    20352592.560    83340461.17548
       -37.042  
  24713032.880   129867883.29446      -613.751    24713030.820   101195738.11442
      -613.753  
  19997534.660   105087751.77349        12.311    19997530.040    81886541.84548
        12.311  
  22720708.620   121369953.48806       218.389    22720711.920    94398858.13705
       218.389  
  21412765.680   114463503.20205      -560.461    21412772.840    89027205.08405
      -560.460  
  19616112.840   104932976.12408       141.486    19616117.280    81614556.33406
       141.485  
  20822176.540   111462743.93306       520.178    20822178.220    86693249.02406
       520.178  
  19385592.100   103808971.94207       -76.348    19385593.720    80740308.10308
       -76.348  
 20  9 26  6 27  5.0000000  0 14G20G13G27G24G18G10G15G 5R16R 1R24R23
                                R 7R 8
  21545058.780   113220050.99447      -481.204    21545055.060    88223403.91947
      -481.206  
  21181450.720   111309265.54548       389.618    21181445.060    86734483.87546
       389.618  
  24109009.420   126693683.24246      -277.920    24109005.600    98722353.34245
      -277.920  
  23657610.480   124321586.03647      -711.253    23657611.700    96873964.45045
      -711.252  
  20352412.280   106952648.30849       -36.448    20352408.920    83339709.27448
       -36.448  
  24709965.260   129851760.25146      -613.624    24709966.420   101183174.71043
      -613.624  
  19997598.000   105088084.60649        12.937    19997593.400    81886801.22249
        12.936  
  23969449.800           0.00040       628.173    23969447.240           0.00040
       628.173  
  22721803.080   121375799.48805       219.229    22721806.360    94403404.96205
       219.231  
  21409964.500   114448529.64306      -560.123    21409971.700    89015559.07304
      -560.127  
  20970186.320           0.00000      -462.031           0.000           0.00000
         0.000  
  19616822.760   104936773.69808       142.371    19616827.180    81617509.97406
       142.372  
  20824778.340   111476670.59708       520.425    20824778.820    86704080.82004
       520.426  
  19385211.700   103806935.00008       -75.853    19385213.400    80738723.85308
       -75.854  
 20  9 26  6 27 10.0000000  0 15G20G13G30G27G24G18G10G15G 5R16R 1R24
                                R23R 7R 8
  21542652.760   113207407.71748      -481.220    21542649.080    88213552.03547
      -481.220  
  21183399.040   111319504.27547       389.797    21183393.720    86742462.12945
       389.796  
  24679951.460   129694030.82145       430.947    24679949.400   101060266.42344
       430.947  
  24107620.480   126686384.50047      -277.613    24107616.880    98716666.02145
      -277.614  
  23654053.720   124302895.82547      -711.304    23654055.060    96859400.78346
      -711.308  
  20352230.640   106951693.75949       -36.169    20352227.240    83338965.44948
       -36.168  
  24706896.380   129835632.77346      -613.878    24706897.480   101170607.88343
      -613.882  
  19997663.300   105088427.75449        13.229    19997658.720    81887068.57949
        13.229  
  23972592.520   125976800.30545       628.393    23972586.180    98163734.43544
       628.395  
  22722900.440   121381661.20405       219.742    22722903.600    94407964.07005
       219.743  
  21407164.080   114433558.63605      -560.098    21407170.620    89003915.06304
      -560.101  
  20967872.640   112124642.28605      -461.704    20967874.340           0.00010
      -461.704  
  19617535.960   104940589.15008       142.946    19617540.440    81620477.57106
       142.946  
  20827380.760   111490598.87907       520.341    20827381.180           0.00000
       520.335  
  19384832.820   103804906.23307       -75.663    19384834.560    80737145.90208
       -75.662  
 20  9 26  6 27 15.0000000  0 13G20G13G30G27G24G18G15R16R 1R24R23R 7
                                R 8
  21540248.560   113194773.52248      -480.688    21540244.840    88203707.16347
      -480.687  
  21185350.200   111329757.89747       390.570    21185344.980    86750452.01245
       390.569  
  24682107.760   129705362.31546       431.531    24682108.040   101069096.29443
       431.527  
  24106234.840   126679103.58047      -276.741    24106231.460    98710992.62646
      -276.742  
  23650498.300   124284211.62046      -710.933    23650499.440    96844841.59546
      -710.934  
  20352052.420   106950757.30248       -35.267    20352049.020    83338235.75248
       -35.267  
  19997732.060   105088788.99149        14.100    19997727.480    81887350.07149
        14.100  
  22724002.120   121387546.67004       220.764    22724005.360    94412541.65005
       220.766  
  21404365.400   114418598.27106      -559.485    21404373.940           0.00000
      -559.485  
  20965566.980   112112313.47404      -460.623    20965569.660    87198468.95106
      -460.623  
  19618254.020   104944430.40508       144.159    19618258.480    81623465.20906
       144.159  
  20829984.600   111504536.93006       520.949    20829984.800    86725751.70305
       520.951  
  19384456.800   103802893.15807       -74.898    19384458.660    80735580.18908
       -74.899  
 20  9 26  6 27 20.0000000  0 15G20G13G30G27G24G18G10G15G 5R16R 1R24
                                R23R 7R 8
  21537845.620   113182145.72748      -480.570    21537841.840    88193867.31247
      -480.570  
  21187303.740   111340023.73247       390.862    21187298.440    86758451.32945
       390.862  
  24684266.500   129716705.30145       431.632    24684263.960   101077934.88043
       431.635  
  24104852.160   126671838.06547      -276.260    24104849.040    98705331.16545
      -276.259  
  23646943.480   124265531.10945      -710.918    23646944.700    96830285.44945
      -710.923  
  20351877.160   106949836.32348       -34.797    20351873.760    83337518.10648
       -34.798  
  24700761.560   129803377.39445      -613.649    24700762.580   101145493.08043
      -613.649  
  19997803.740   105089165.60949        14.504    19997799.140    81887643.55148
        14.504  
  23978878.460   126009828.76644       628.373    23978872.400    98189468.83043
       628.373  
  22725107.700   121393453.02404       221.325    22725111.000    94417135.46305
       221.325  
  21401568.400   114403645.64206      -559.376    21401572.000    88980631.32405
      -559.374  
  20963263.360   112100002.37605      -460.144           0.000           0.00000
         0.000  
  19618976.460   104948294.85108       144.783    19618980.880    81626470.88106
       144.784  
  20832589.860   111518481.64506       521.009           0.000           0.00000
         0.000  
  19384083.340   103800893.28308       -74.525    19384085.200    80734024.74208
       -74.525  
 20  9 26  6 27 25.0000000  0 15G20G13G30G27G24G18G10G15G 5R16R 1R24
                                R23R 7R 8
  21535444.300   113169526.63948      -479.988    21535440.440    88184034.27947
      -479.987  
  21189260.040   111350304.24848       391.681    21189254.820    86766462.08146
       391.683  
  24686427.780   129728061.96145       432.646    24686422.120   101086784.31944
       432.645  
  24103472.780   126664590.04946      -275.407    24103469.880    98699683.38545
      -275.409  
  23643389.780   124246856.68445      -710.489    23643391.120    96815733.86746
      -710.487  
  20351705.320   106948933.23449       -33.900    20351701.860    83336814.41948
       -33.901  
  24697694.400   129787257.06345      -613.406    24697692.200   101132931.85144
      -613.416  
  19997878.860   105089560.06249        15.448    19997874.200    81887950.90349
        15.449  
  23982017.720   126026368.05745       628.641    23982016.300    98202356.09844
       628.641  
  22726217.600   121399382.55704       222.659    22726221.060    94421747.39905
       222.657  
  21398773.180   114388703.17305      -558.699    21398779.460    88969009.35304
      -558.697  
  20960965.860   112087711.61605      -459.163    20960967.380    87179323.15505
      -459.163  
  19619703.680   104952184.95108       146.013    19619708.060    81629496.49706
       146.012  
  20835196.780   111532435.79007       521.583    20835196.180    86747450.77705
       521.587  
  19383712.860   103798908.98107       -73.695    19383714.600    80732481.37708
       -73.695  
 20  9 26  6 27 30.0000000  0 13G20G13G27G24G18G10G15G 5R 1R24R23R 7
                                R 8
  21533044.660   113156915.83648      -479.791    21533040.660    88174207.63346
      -479.790  
  21191218.960   111360598.86548       392.163    21191213.920    86774483.86344
       392.163  
  24102096.860   126657359.20746      -274.844    24102094.000    98694048.96145
      -274.845  
  23639837.180   124228187.76045      -710.399    23639838.400    96801186.79545
      -710.404  
  20351536.760   106948047.52449       -33.298    20351533.320    83336124.25448
       -33.298  
  24694625.980   129771139.65145      -613.301    24694626.240   101120372.86544
      -613.304  
  19997957.220   105089971.90249        16.035    19997952.540    81888271.78548
        16.036  
  23985163.700   126042890.28046       628.951    23985160.440    98215230.56845
       628.950  
  21395980.020   114373770.79005      -558.414    21395983.940    88957395.38104
      -558.416  
  20958671.540   112075441.07807      -458.494    20958671.140           0.00000
      -458.488  
  19620435.600   104956100.21008       146.921    19620440.000    81632541.73506
       146.920  
  20837805.200   111546398.69307       521.827    20837804.900    86758310.85405
       521.825  
  19383345.120   103796939.78708       -73.199    19383346.860    80730949.74208
       -73.198  
 20  9 26  6 27 35.0000000  0 13G20G13G30G27G24G18G10G15G 5R24R23R 7
                                R 8
  21530646.060   113144310.82747      -479.783    21530642.000    88164385.60547
      -479.783  
  21193180.180   111370905.17447       392.495    21193175.280    86782514.79345
       392.493  
  24690752.940   129750802.25244       433.131    24690751.220   101104508.61744
       433.131  
  24100723.600   126650143.10846      -274.532    24100720.860    98688426.03545
      -274.532  
  23636285.040   124209522.05844      -710.274    23636286.220    96786641.98645
      -710.272  
  20351371.020   106947176.77348       -32.892    20351367.600    83335445.74247
       -32.892  
  24691558.860   129755022.35045      -613.544    24691559.000   101107813.93344
      -613.547  
  19998038.400   105090398.47249        16.467    19998033.680    81888604.21349
        16.466  
  23988308.300   126059414.22446       628.707    23988303.840    98228106.43044
       628.707  
  20956380.660   112063187.95906      -457.491    20956381.580           0.00000
      -457.490  
  19621171.720   104960037.94308       147.611    19621176.120    81635604.38006
       147.612  
  20840415.060   111560367.91408       522.058    20840414.620    86769175.79806
       522.058  
  19382979.780   103794983.35208       -72.847    19382981.520    80729428.08308
       -72.846  
 20  9 26  6 27 40.0000000  0 13G20G13G30G27G24G18G15G 5R 1R24R23R 7
                                R 8
  21528248.540   113131711.73248      -479.430    21528244.480    88154568.14747
      -479.431  
  21195143.620   111381223.10848       392.824    21195138.700    86790554.73345
       392.825  
  24692922.840   129762193.48245       433.576    24692925.220   101113384.90444
       433.577  
  24099353.120   126642941.82346      -273.860    24099350.560    98682814.62346
      -273.859  
  23632733.620   124190859.42546      -710.272    23632734.860    96772099.69745
      -710.271  
  20351208.160   106946320.95949       -32.400    20351204.700    83334778.85848
       -32.399  
  19998122.420   105090839.98749        16.987    19998117.700    81888948.25748
        16.986  
  23991452.480   126075940.03946       628.839    23991449.500    98240983.70445
       628.837  
  21390397.520   114343931.52304      -558.011    21390404.000           0.00000
      -558.011  
  20954092.520   112050952.09905      -457.459    20954093.220    87150741.44504
      -457.465  
  19621911.980   104963998.17908       148.455    19621916.460    81638684.55206
       148.455  
  20843025.780   111574343.46407       522.235    20843025.580    86780045.68607
       522.235  
  19382616.760   103793039.19008       -72.487    19382618.460    80727915.98408
       -72.488  
 20  9 26  6 27 45.0000000  0 12G20G13G27G18G10G15G 5R 1R24R23R 7R 8
  21525851.960   113119116.77648      -479.124    21525847.700    88144753.84847
      -479.123  
  21197109.000   111391551.11348       393.394    21197104.200    86798602.50246
       393.394  
  24097985.240   126635753.56346      -273.185    24097982.700    98677213.37545
      -273.185  
  20351047.840   106945478.53249       -31.669    20351044.380    83334122.42748
       -31.669  
  24685423.160   129722782.79145      -613.302    24685419.840   101082666.28342
      -613.302  
  19998208.980   105091294.77849        17.720    19998204.200    81889302.61448
        17.720  
  23994597.420   126092465.77045       629.104    23994594.220    98253860.82845
       629.104  
  21387609.300   114329031.32305      -557.653    21387611.940           0.00000
      -557.653  
  20951808.160   112038726.45806      -456.451    20951809.740           0.00000
      -456.451  
  19622656.200   104967979.67508       149.405    19622660.820    81641781.30806
       149.403  
  20845637.060   111588323.67806       522.470    20845637.440    86790919.19905
       522.467  
  19382255.820   103791106.23908       -71.814    19382257.460    80726412.55908
       -71.814  
 20  9 26  6 27 50.0000000  0 13G20G13G27G24G18G10G15G 5R 1R24R23R 7
                                R 8
  21523456.500   113106528.35448      -478.770    21523452.240    88134944.76647
      -478.771  
  21199076.660   111401891.23148       393.915    21199071.840    86806659.74745
       393.914  
  24096620.220   126628580.66846      -272.575    24096617.800    98671624.09245
      -272.572  
  23625632.520   124153536.74245      -709.814    23625632.660    96743009.24145
      -709.814  
  20350890.480   106944651.60749       -30.977    20350886.980    83333478.06848
       -30.977  
  24682357.480   129706678.16545      -613.134    24682361.260   101070168.96641
      -613.134  
  19998298.460   105091764.92549        18.388    19998293.680    81889668.99149
        18.387  
  23997743.720   126108994.00247       629.323    23997740.080    98266739.92746
       629.324  
  21384821.400   114314126.98303      -557.160    21384824.000    88910995.30004
      -557.163  
  20949527.440   112026524.57104      -455.881    20949526.920    87131751.91105
      -455.882  
  19623404.760   104971984.08908       150.414    19623409.400    81644895.82706
       150.414  
  20848249.860   111602310.65907       522.881    20848250.180    86801797.89705
       522.882  
  19381897.340   103789186.31908       -71.243    19381898.920    80724919.31908
       -71.244  
 20  9 26  6 27 55.0000000  0 12G20G13G27G24G18G10G15G 5R24R23R 7R 8
  21521063.060   113093950.30348      -478.638    21521058.700    88125143.60247
      -478.636  
  21201047.480   111412247.71348       394.413    21201042.580    86814729.74946
       394.412  
  24095258.840   126621427.02546      -272.102    24095256.580    98666049.81745
      -272.102  
  23622082.140   124134886.82845      -709.966    23622084.180    96728476.90845
      -709.967  
  20350736.840   106943844.29248       -30.438    20350733.360    83332848.97548
       -30.438  
  24679291.480   129690547.36944      -613.129    24679294.300   101057566.70444
      -613.129  
  19998391.680   105092254.60049        18.861    19998386.820    81890050.52549
        18.862  
  24000890.440   126125528.42746       629.181    24000886.640    98279623.95046
       629.180  
  20947249.380   112014345.31307      -455.124    20947249.360    87122277.24704
      -455.126  
  19624158.420   104976015.89708       151.127    19624163.160    81648031.68805
       151.127  
  20850864.760   111616308.59206       522.966    20850864.800    86812685.26405
       522.964  
  19381542.140   103787283.78707       -70.864    19381543.620    80723439.56108
       -70.864  
 20  9 26  6 28  0.0000000  0 12G20G13G27G24G18G10G15G 5R24R23R 7R 8
  21518671.040   113081379.56748      -478.354    21518666.620    88115348.26647
      -478.354  
  21203020.640   111422617.11748       394.877    21203015.800    86822809.80046
       394.876  
  24093900.740   126614289.72045      -271.216    24093898.440    98660488.34244
      -271.219  
  23618534.140   124116241.66845      -709.473    23618535.560    96713948.16944
      -709.473  
  20350586.320   106943053.33849       -29.770    20350582.860    83332232.67448
       -29.771  
  24676228.080   129674436.33146      -613.101    24676225.080   101045012.60444
      -613.097  
  19998487.940   105092760.52349        19.540    19998483.100    81890444.75948
        19.540  
  24004037.640   126142066.16846       629.409    24004033.820    98292510.46645
       629.411  
  20944974.260   112002184.90307      -454.489    20944977.740           0.00000
      -454.489  
  19624916.620   104980071.83608       152.039    19624921.400    81651186.28506
       152.040  
  20853481.000   111630314.52205       523.480    20853481.020    86823578.71106
       523.483  
  19381189.540   103785395.35407       -70.261    19381190.940    80721970.76708
       -70.260  
 20  9 26  6 28  5.0000000  0 13G20G13G30G27G18G10G15G 5R 1R24R23R 7
                                R 8
  21516280.420   113068816.45747      -478.152    21516275.960    88105558.84546
      -478.152  
  21204996.400   111432999.89848       395.303    21204991.640    86830900.25246
       395.304  
  24703793.360   129819309.06444       436.051    24703791.180   101157910.83544
       436.051  
  24092545.680   126607168.71646      -270.813    24092543.400    98654939.47145
      -270.813  
  20350439.020   106942279.01748       -29.292    20350435.540    83331629.31148
       -29.292  
  24673159.880           0.00040      -613.207    24673155.340           0.00040
      -613.207  
  19998587.360   105093282.99249        20.065    19998582.520    81890851.89648
        20.064  
  24007185.220   126158607.20446       629.447    24007181.420    98305399.57945
       629.447  
  21376468.140   114269494.43604      -556.233    21376471.440           0.00000
      -556.233  
  20942703.460   111990043.68506      -453.991    20942706.340    87103384.85406
      -453.992  
  19625679.340   104984151.95408       152.829    19625684.120    81654359.73506
       152.828  
  20856098.660   111644328.06506       523.563    20856099.100    86834478.16607
       523.563  
  19380839.560   103783521.08507       -69.844    19380840.940    80720513.00707
       -69.845  
 20  9 26  6 28 10.0000000  0 14G20G13G30G27G24G18G10G15G 5R 1R24R23
                                R 7R 8
  21513888.340   113056245.60048      -477.990    21513883.820    88095763.32547
      -477.990  
  21206971.720   111443380.59548       395.568    21206966.940    86838989.13047
       395.568  
  24705973.100           0.00000       436.198           0.000           0.00000
         0.000  
  24091190.740   126600048.91046      -270.537    24091188.660    98649391.58645
      -270.537  
  23611436.840           0.00040      -709.462    23611439.060           0.00040
      -709.462  
  20350291.960   106941506.04349       -28.853    20350288.480    83331026.97748
       -28.854  
  24670092.920   129642200.51745      -613.273    24670090.980   101019880.88141
      -613.271  
  19998687.000   105093806.69149        20.497    19998682.160    81891259.96049
        20.497  
  24010330.780   126175136.35946       629.347    24010326.780    98318279.43146
       629.348  
  21373685.820           0.00000      -556.327    21373688.300           0.00000
      -556.327  
  20940433.720   111977906.11707      -453.392    20940436.420    87093944.64605
      -453.395  
  19626443.740   104988240.92808       153.569    19626448.520    81657540.03506
       153.569  
  20858714.980   111658334.11005       523.777    20858715.620    86845371.76406
       523.779  
  19380489.400   103781645.53307       -69.566    19380490.680    80719054.24508
       -69.565  
 20  9 26  6 28 15.0000000  0 11G20G13G27G24G18G15G 5R24R23R 7R 8
  21511500.920   113043699.27447      -477.440    21511496.340    88085986.95547
      -477.438  
  21208952.840   111453791.60148       396.452    21208948.040    86847101.61646
       396.451  
  24089842.100   126592962.58646      -269.455    24089840.220    98643869.73345
      -269.455  
  23607894.280   124060327.11144      -708.986    23607893.480    96670379.65345
      -708.988  
  20350151.300   106940766.74948       -27.891    20350147.840    83330450.89648
       -27.891  
  19998793.060   105094363.93749        21.446    19998788.200    81891694.17449
        21.447  
  24013480.120   126191685.90546       629.844    24013476.160    98331175.17445
       629.844  
  20938171.260   111965805.22907      -452.252    20938174.220    87084532.83406
      -452.253  
  19627215.860   104992371.41208       154.794    19627220.640    81660752.63206
       154.794  
  20861335.960   111672365.47305       524.410    20861336.540    86856285.04205
       524.408  
  19380145.100   103779801.66507       -68.642    19380146.340    80717620.14508
       -68.642  
 20  9 26  6 28 20.0000000  0 14G20G13G30G27G18G10G15G 5R16R 1R24R23
                                R 7R 8
  21509113.880   113031154.57947      -477.079    21509109.140    88076211.88146
      -477.080  
  21210935.380   111464209.83247       396.960    21210930.520    86855219.71645
       396.958  
  24710338.300   129853703.66655       437.416    24710341.600   101184717.40254
       437.416  
  24088495.560   126585886.68647      -268.768    24088493.760    98638356.11045
      -268.771  
  20350012.660   106940038.16248       -27.272    20350009.220    83329883.19848
       -27.273  
  24663961.260   129609982.16845      -612.683    24663960.080   100994815.16843
      -612.682  
  19998901.060   105094931.70749        22.093    19998896.280    81892136.60048
        22.092  
  24016629.020   126208232.79546       630.014    24016625.040    98344068.84443
       630.015  
  22738690.820   121466002.60703       231.251    22738693.700           0.00010
       231.251  
  21368129.640   114224894.73704      -554.765           0.000           0.00000
         0.000  
  20935910.660   111953717.77208      -451.629    20935914.440    87075131.37005
      -451.625  
  19627991.380   104996520.15408       155.763    19627996.180    81663979.40005
       155.764  
  20863957.480   111686398.55505       524.499    20863957.960    86867199.69204
       524.499  
  19379802.380   103777965.95908       -68.137    19379803.500    80716192.36607
       -68.136  
 20  9 26  6 28 25.0000000  0 15G20G13G30G27G24G18G10G15G 5R16R 1R24
                                R23R 7R 8
  21506726.760   113018610.23147      -477.371    21506722.080    88066437.09547
      -477.372  
  21212919.040   111474634.18547       396.896    21212913.980    86863342.57946
       396.897  
  24712529.120   129865192.61644       437.448    24712528.680   101193669.91644
       437.444  
  24087150.800   126578820.22446      -268.697    24087149.120    98632849.71545
      -268.695  
  23600803.180           0.00050      -708.961    23600803.680           0.00050
      -708.961  
  20349875.840   106939319.02148       -27.137    20349872.360    83329322.81648
       -27.136  
  24660897.980   129593860.24245      -613.480    24660893.340   100982208.60944
      -613.480  
  19999010.860   105095508.82549        22.200    19999006.120    81892586.27749
        22.201  
  24019776.840   126224776.00245       629.501    24019772.280    98356959.67544
       629.501  
  22739845.560   121472179.11605       231.696    22739849.180           0.00000
       231.696  
  21365354.140   114210066.73004      -555.572           0.000           0.00000
         0.000  
  20933652.560   111941642.23608      -451.409    20933655.520           0.00000
      -451.411  
  19628770.080   105000685.78908       156.168    19628774.880    81667219.31905
       156.169  
  20866579.240   111700432.47108       524.345    20866580.880           0.00000
       524.345  
  19379460.940   103776137.16507       -68.204    19379461.960    80714769.95608
       -68.205  
 20  9 26  6 28 30.0000000  0 15G20G13G30G27G24G18G10G15G 5R16R 1R24
                                R23R 7R 8
  21504343.200   113006083.85648      -476.335    21504338.380    88056676.27146
      -476.335  
  21214907.060   111485082.24247       398.078    21214902.240    86871483.97747
       398.076  
  24714719.980   129876704.12045       438.665    24714719.780   101202639.94144
       438.663  
  24085811.080   126571780.45545      -267.371    24085809.600    98627364.17445
      -267.371  
  23597260.800   124004439.70946      -708.212    23597260.440    96626838.02946
      -708.213  
  20349744.140   106938626.91148       -25.757    20349740.700    83328783.51048
       -25.757  
  24657833.640   129577759.51545      -612.667    24657830.440   100969662.70544
      -612.667  
  19999125.760   105096112.80049        23.563    19999121.080    81893056.92449
        23.563  
  24022927.340   126241332.84547       630.479    24022922.620    98369861.08045
       630.479  
  22741007.560   121478390.12104       233.178    22741014.520           0.00000
       233.173  
  21362577.760           0.00000      -554.428    21362581.100           0.00000
      -554.428  
  20931400.000   111929596.63307      -449.845    20931402.600    87056370.54305
      -449.845  
  19629555.340   105004886.32808       157.722    19629560.080    81670486.44506
       157.721  
  20869204.320   111714484.76207       525.391    20869206.040    86889048.50007
       525.392  
  19379124.200   103774333.57007       -66.889    19379125.080    80713367.23307
       -66.892  
 20  9 26  6 28 35.0000000  0 15G20G13G30G27G24G18G10G15G 5R16R 1R24
                                R23R 7R 8
  21501961.000   112993564.85648      -476.562    21501956.120    88046921.17348
      -476.561  
  21216897.400   111495543.21047       398.167    21216892.900    86879635.36246
       398.167  
  24716913.320   129888227.62545       438.605    24716912.140   101211619.26843
       438.605  
  24084474.440   126564756.91445      -267.229    24084473.200    98621891.29545
      -267.229  
  23593718.740   123985827.78745      -708.470    23593718.480    96612335.24245
      -708.470  
  20349615.560   106937951.20648       -25.609    20349612.140    83328256.99548
       -25.609  
  24654768.800   129561660.69546      -612.937    24654769.340   100957118.13944
      -612.935  
  19999243.740   105096733.01749        23.704    19999239.160    81893540.21349
        23.704  
  24026078.600   126257892.65747       630.100    24026074.000    98382764.84545
       630.099  
  22742173.720   121484622.81304       233.608    22742180.880    94488060.14103
       233.609  
  21359803.600   114180396.94405      -554.607    21359809.620    88806986.49204
      -554.606  
  20929151.200   111917570.13107      -449.658    20929153.460    87047016.60105
      -449.659  
  19630345.120   105009110.85108       158.162    19630349.780    81673772.14406
       158.164  
  20871830.880   111728544.60607       525.183    20871832.620    86899983.91807
       525.183  
  19378789.960   103772543.71207       -66.822    19378790.760    80711975.09808
       -66.821  
 20  9 26  6 28 40.0000000  0 15G20G13G30G27G24G18G10G15G 5R16R 1R24
                                R23R 7R 8
  21499578.380   112981043.61248      -476.445    21499573.420    88037164.34347
      -476.445  
  21218888.320   111506007.44947       398.433    21218884.200    86887789.33745
       398.432  
  24719108.100   129899753.72544       438.814    24719105.460   101220600.62144
       438.817  
  24083139.060   126557740.12045      -266.834    24083138.120    98616423.61045
      -266.831  
  23590176.760   123967210.87545      -708.563    23590175.960    96597828.57645
      -708.563  
  20349488.280   106937282.40048       -25.224    20349484.880    83327735.83748
       -25.223  
  24651704.140   129545553.86146      -613.032    24651705.180   100944567.36844
      -613.033  
  19999363.000   105097359.93549        24.091    19999358.480    81894028.72049
        24.091  
  24029228.880   126274446.08246       629.991    24029224.160    98395663.65845
       629.990  
  22743342.300   121490867.56904       234.097    22743348.780    94492917.15501
       234.097  
  21357030.160   114165574.50405      -554.509    21357036.020    88795458.03703
      -554.512  
  20926904.080   111905553.02507      -449.194    20926906.340    87037669.96405
      -449.195  
  19631137.580   105013349.61409       158.844    19631142.080    81677068.96506
       158.844  
  20874456.940   111742602.59807       525.343    20874459.020    86910917.95707
       525.342  
  19378456.520   103770757.97907       -66.496    19378457.180    80710586.19907
       -66.497  
 20  9 26  6 28 45.0000000  0 15G20G13G30G27G24G18G10G15G 5R16R 1R24
                                R23R 7R 8
  21497197.240   112968530.33548      -475.969    21497192.300    88027413.76248
      -475.970  
  21220882.100   111516485.29347       399.075    21220878.020    86895953.87946
       399.076  
  24721302.300   129911292.29345       439.584    24721300.620   101229591.69244
       439.584  
  24081806.840   126550740.12446      -266.002    24081806.160    98610969.02745
      -266.000  
  23586635.940   123948599.52146      -708.120    23586633.340    96583326.24345
      -708.121  
  20349364.220   106936630.55248       -24.363    20349360.860    83327227.90848
       -24.364  
  24648639.000   129529449.48546      -612.685    24648639.560   100932018.45044
      -612.683  
  19999485.460   105098003.68549        24.939    19999481.000    81894530.32948
        24.939  
  24032379.760   126291003.16446       630.279    24032374.660    98408565.28745
       630.277  
  22744515.660   121497134.65404       235.112           0.000           0.00000
         0.000  
  21354258.960   114150761.46104      -554.024    21354264.420    88783943.64004
      -554.023  
  20924660.840   111893555.69607      -448.192    20924663.020    87028338.70405
      -448.192  
  19631934.600   105017613.09608       160.000    19631939.060    81680385.01306
       159.999  
  20877084.500   111756668.48306       525.837    20877087.380    86921858.02207
       525.837  
  19378125.780   103768987.06107       -65.795    19378126.440    80709208.80808
       -65.794  
 20  9 26  6 28 50.0000000  0 15G20G13G30G27G24G18G10G15G 5R16R 1R24
                                R23R 7R 8
  21494817.800   112956026.42448      -475.734    21494812.920    88017670.46747
      -475.734  
  21222878.820   111526978.15647       399.669    21222874.720    86904130.16345
       399.669  
  24723499.800   129922844.97945       439.988    24723499.160   101238593.75244
       439.992  
  24080478.100   126543758.39945      -265.479    24080477.740    98605528.81045
      -265.481  
  23583096.160   123929994.78245      -707.990    23583092.940    96568829.06945
      -707.991  
  20349243.680   106935997.18448       -23.754    20349240.360    83326734.35848
       -23.753  
  24645575.120   129513348.67447      -612.727    24645574.080   100919472.40443
      -612.727  
  19999611.400   105098665.75449        25.527    19999606.980    81895046.22548
        25.528  
  24035531.300   126307565.30746       630.404    24035526.400    98421470.83045
       630.404  
  22745693.100   121503425.66304       235.871           0.000           0.00000
         0.000  
  21351489.760   114135959.28806      -553.637    21351495.180    88772430.92404
      -553.636  
  20922421.400   111881579.50507      -447.522    20922423.740    87019023.90805
      -447.523  
  19632736.480   105021902.59708       160.834    19632740.960    81683721.29206
       160.834  
  20879714.080   111770744.22607       526.098    20879717.260    86932805.82807
       526.099  
  19377798.100   103767232.35207       -65.206    19377798.760    80707844.04208
       -65.206  
 20  9 26  6 28 55.0000000  0 15G20G13G30G27G24G18G10G15G 5R16R 1R24
                                R23R 7R 8
  21492439.980   112943531.09347      -475.485    21492435.220    88007933.84047
      -475.486  
  21224878.160   111537485.06148       400.016    21224874.040    86912317.34546
       400.016  
  24725700.140   129934410.73246       440.315    24725699.820   101247606.03945
       440.313  
  24079152.780   126536794.18245      -264.911    24079152.500    98600102.13745
      -264.911  
  23579556.960   123911395.88246      -707.894    23579553.520    96554336.42546
      -707.895  
  20349126.500   106935381.42549       -23.173    20349123.200    83326254.55848
       -23.173  
  24642511.640   129497250.76345      -612.997    24642511.580   100906928.58444
      -612.999  
  19999740.600   105099345.18549        26.082    19999736.260    81895575.65248
        26.082  
  24038683.800   126324131.68045       630.265    24038679.020    98434379.69745
       630.267  
  22746875.540   121509739.48904       236.658           0.000           0.00000
         0.000  
  21348722.660   114121167.28606      -553.299    21348728.140    88760925.93105
      -553.297  
  20920185.620   111869623.72406      -446.839    20920188.000    87009724.94005
      -446.839  
  19633543.040   105026217.31508       161.682    19633547.540    81687077.18006
       161.682  
  20882345.200   111784828.87606       526.406    20882348.720    86943760.54907
       526.406  
  19377473.200   103765492.66408       -64.777    19377473.860    80706490.92008
       -64.776  
 20  9 26  6 29  0.0000000  0 15G20G13G30G27G24G18G10G15G 5R16R 1R24
                                R23R 7R 8
  21490063.180   112931040.69948      -475.169    21490058.460    87998201.09347
      -475.169  
  21226879.580   111548002.56847       400.664    21226875.260    86920512.77445
       400.664  
  24727902.840   129945986.10646       440.741    24727903.400   101256625.80944
       440.741  
  24077830.100   126529843.66744      -264.188    24077829.860    98594686.13743
      -264.188  
  23576018.620   123892799.51846      -707.451    23576015.360    96539845.81144
      -707.454  
  20349011.980   106934779.68448       -22.502    20349008.700    83325785.66148
       -22.503  
  24639448.340   129481152.02845      -612.720    24639448.760   100894384.18244
      -612.725  
  19999872.460   105100038.46649        26.733    19999868.180    81896115.88748
        26.732  
  24041836.400   126340698.97346       630.672    24041831.880    98447289.23244
       630.675  
  22748061.520   121516072.73804       237.636    22748067.680           0.00000
       237.634  
  21345956.400   114106381.44105      -552.739    21345960.900           0.00000
      -552.739  
  20917953.340           0.00000      -446.011    20917955.680           0.00000
      -446.011  
  19634353.640   105030553.53008       162.613    19634358.200    81690449.81206
       162.613  
  20884977.260   111798918.51006       526.674    20884979.840    86954719.19907
       526.671  
  19377150.560   103763764.58507       -64.182    19377151.140    80705146.89507
       -64.184  
 20  9 26  6 29  5.0000000  0 15G20G13G30G27G24G18G10G15G 5R16R 1R24
                                R23R 7R 8
  21487687.860   112918558.38948      -475.023    21487683.200    87988474.62147
      -475.024  
  21228883.560   111558533.74847       400.979    21228879.240    86928718.87646
       400.982  
  24730107.520   129957574.03547       441.135    24730107.120   101265655.25943
       441.140  
  24076510.640   126522910.18145      -263.639    24076510.440    98589283.43545
      -263.640  
  23572480.560   123874208.32244      -707.544    23572478.040    96525359.18344
      -707.546  
  20348900.700   106934195.09848       -22.010    20348897.440    83325330.13748
       -22.010  
  24636385.220   129465055.89147      -612.515    24636384.600   100881841.63644
      -612.512  
  20000007.560   105100748.69049        27.294    20000003.320    81896669.31048
        27.294  
  24044989.760   126357269.77447       630.612    24044985.260    98460201.53245
       630.612  
  22749251.500   121522428.22505       238.241           0.000           0.00000
         0.000  
  21343192.820   114091605.20004      -552.667           0.000           0.00000
         0.000  
  20915724.240   111845780.87407      -445.545    20915724.720    86991163.88805
      -445.546  
  19635168.880   105034914.50308       163.414    19635173.460    81693841.66106
       163.415  
  20887611.000   111813016.41207       526.705    20887613.520    86965684.18206
       526.706  
  19376830.560   103762051.25907       -63.758    19376831.100    80703814.28707
       -63.756  
 20  9 26  6 29 10.0000000  0 15G20G13G30G27G24G18G10G15G 5R16R 1R24
                                R23R 7R 8
  21485312.420   112906075.32348      -474.870    21485307.820    87978747.51548
      -474.869  
  21230888.280   111569069.54047       401.342    21230884.140    86936928.55746
       401.340  
  24732313.440   129969165.79746       441.507    24732312.760   101274687.88544
       441.506  
  24075192.780   126515984.75445      -263.204    24075192.520    98583886.99045
      -263.203  
  23568939.900           0.00040      -707.502    23568940.280           0.00040
      -707.502  
  20348790.980   106933618.68449       -21.500    20348787.760    83324880.98348
       -21.500  
  24633321.120   129448953.20445      -612.735    24633320.920   100869294.21845
      -612.739  
  20000144.140   105101466.86949        27.746    20000139.960    81897228.91248
        27.747  
  24048142.200   126373835.51947       630.646    24048137.800    98473109.94844
       630.645  
  22750443.880   121528797.10404       238.998    22750448.540           0.00000
       239.002  
  21340429.140   114076829.58705      -552.488    21340434.440           0.00000
      -552.488  
  20913498.020   111833872.75707      -444.905    20913495.640    86981901.95003
      -444.903  
  19635987.020   105039291.12108       164.180    19635991.660    81697245.68306
       164.180  
  20890244.700   111827113.80006       526.918    20890246.420    86976648.86906
       526.917  
  19376511.720   103760343.54807       -63.402    19376512.140    80702486.06308
       -63.403  
 20  9 26  6 29 15.0000000  0 14G20G13G30G27G24G18G10G15G 5R16R 1R24
                                R23R 8
  21482941.420   112893615.29548      -473.922    21482936.840    87969038.40947
      -473.922  
  21232898.540   111579633.88347       402.346    21232894.560    86945160.53746
       402.346  
  24734524.780   129980785.06946       442.561    24734525.160   101283741.83344
       442.561  
  24073880.860   126509091.35145      -261.874    24073880.620    98578515.49544
      -261.873  
  23565404.080   123837039.35145      -706.530    23565404.680    96496394.13545
      -706.530  
  20348687.420   106933074.48049       -20.255    20348684.200    83324456.91648
       -20.255  
  24630260.240   129432867.94245      -611.979    24630260.280   100856760.22845
      -611.981  
  20000286.840   105102217.02349        29.030    20000282.680    81897813.45649
        29.030  
  24051298.220   126390420.11746       631.463    24051293.560    98486032.95445
       631.466  
  22751643.360   121535203.65405       240.310    22751651.620    94527390.43502
       240.312  
  21337669.640   114062078.68705      -551.559    21337673.080    88714945.26904
      -551.561  
  20911278.240   111821999.83907      -443.572    20911276.060    86972667.51104
      -443.574  
  19636812.580   105043707.79708       165.730    19636817.320    81700680.89606
       165.731  
  19376198.480   103758665.81408       -62.235    19376198.820    80701181.16508
       -62.235  
 20  9 26  6 29 20.0000000  0 14G20G13G30G27G24G18G15G 5R16R 1R24R23
                                R 7R 8
  21480571.740   112881162.29848      -473.983    21480567.140    87959334.76048
      -473.982  
  21234911.160   111590210.61647       402.582    21234907.220    86953402.15846
       402.582  
  24736737.840   129992415.93145       442.685    24736738.860   101292804.80645
       442.688  
  24072572.160   126502213.84445      -261.594    24072571.760    98573156.47243
      -261.595  
  23561870.540   123818469.79545      -706.917    23561871.920    96481924.40144
      -706.920  
  20348586.860   106932546.20749       -20.019    20348583.700    83324045.26948
       -20.019  
  20000432.540   105102982.94149        29.218    20000428.440    81898410.27548
        29.218  
  24054454.560   126407007.23446       631.270    24054449.960    98498957.96045
       631.271  
  22752847.020   121541631.33005       240.751    22752855.760           0.00000
       240.751  
  21334911.980   114047336.09805      -551.580    21334914.420    88703478.88004
      -551.583  
  20909061.840   111810145.76606      -443.149    20909060.300    86963447.62005
      -443.149  
  19637642.540   105048147.74508       166.285    19637647.340    81704134.19706
       166.284  
  20895521.800   111855362.49706       527.688    20895523.880    86998624.05007
       527.688  
  19375887.820   103757001.77507       -62.085    19375888.020    80699886.91708
       -62.084  
 20  9 26  6 29 25.0000000  0 15G20G13G30G27G24G18G10G15G 5R16R 1R24
                                R23R 7R 8
  21478199.320   112868694.89548      -474.237    21478194.720    87949619.95647
      -474.239  
  21236922.080   111600778.64848       402.491    21236918.200    86961636.97746
       402.492  
  24738949.500   130004037.08546       442.671    24738949.840   101301860.26044
       442.671  
  24071262.340   126495330.72545      -261.569    24071261.700    98567792.93545
      -261.570  
  23558337.800   123799904.47246      -707.209    23558337.040    96467453.57945
      -707.209  
  20348485.320   106932012.78549       -19.880    20348482.180    83323629.59448
       -19.880  
  24624136.960   129400701.99145      -612.870    24624136.400   100831707.70045
      -612.870  
  20000577.180   105103743.52149        29.332    20000573.140    81899002.93349
        29.332  
  24057607.500   126423575.79146       630.779    24057602.960    98511868.53046
       630.779  
  22754050.400   121548058.73705       241.179    22754058.380    94537405.86701
       241.180  
  21332151.860   114032580.46704      -551.935           0.000           0.00000
         0.000  
  20906844.680   111798288.80207      -443.026    20906841.760    86954225.61604
      -443.027  
  19638472.920   105052589.87908       166.618    19638477.760    81707589.19606
       166.618  
  20898158.340   111869475.92807       527.563    20898160.140    87009601.22206
       527.561  
  19375575.580   103755329.54607       -62.104    19375575.680    80698586.32508
       -62.105  
 20  9 26  6 29 30.0000000  0 14G20G13G30G27G24G18G10G15G 5R16R24R23
                                R 7R 8
  21475831.420   112856250.92148      -473.411    21475826.720    87939923.32247
      -473.410  
  21238938.600   111611375.47647       403.581    21238934.620    86969894.25745
       403.580  
  24741166.160   130015685.88047       443.583    24741166.440   101310937.29343
       443.582  
  24069958.560   126488480.06946      -260.343    24069957.920    98562454.79045
      -260.342  
  23554801.220   123781339.20645      -706.224    23554801.780    96452987.09145
      -706.224  
  20348389.960   106931511.69648       -18.716    20348386.820    83323239.14248
       -18.716  
  24621075.620   129384615.88347      -612.119    24621073.980   100819173.07345
      -612.118  
  20000727.980   105104536.20649        30.539    20000723.980    81899620.62048
        30.539  
  24060764.120   126440163.48146       631.409    24060759.200    98524793.95444
       631.412  
  22755260.840   121554524.03305       242.591    22755266.780           0.00000
       242.590  
  20904633.840   111786467.45207      -441.720    20904631.920    86945031.15205
      -441.718  
  19639310.740   105057072.06808       168.053    19639315.740    81711075.30206
       168.054  
  20900799.280   111883613.20706       528.406    20900801.120    87020596.80407
       528.407  
  19375269.040   103753687.69007       -60.997    19375269.020    80697309.29508
       -60.996  
 20  9 26  6 29 35.0000000  0 14G20G13G30G27G24G18G10G15G 5R16R24R23
                                R 7R 8
  21473464.680   112843812.76248      -473.433    21473459.800    87930231.23847
      -473.432  
  21240957.260   111621983.59647       403.791    21240953.180    86978160.32845
       403.791  
  24743384.840   130027345.05646       443.731    24743385.040   101320022.29844
       443.733  
  24068657.780   126481644.00646      -260.062    24068656.920    98557127.98244
      -260.063  
  23551270.600   123762777.12346      -706.521    23551269.180    96438523.13245
      -706.522  
  20348297.420   106931025.47648       -18.381    20348294.280    83322860.26948
       -18.382  
  24618014.860   129368529.80447      -612.397    24618013.200   100806638.48345
      -612.397  
  20000881.580   105105343.51449        30.839    20000877.600    81900249.69548
        30.839  
  24063920.960   126456752.61146       631.265    24063915.840    98537720.52044
       631.265  
  22756474.760   121561009.35004       243.105    22756481.560    94547461.53203
       243.104  
  20902426.820   111774663.88607      -441.331    20902424.840    86935850.65405
      -441.332  
  19640152.800   105061576.65208       168.672    19640157.900    81714578.86506
       168.672  
  20903441.200   111897756.24406       528.368    20903443.000    87031596.99107
       528.366  
  19374964.740   103752058.06807       -60.778    19374964.680    80696041.80907
       -60.778  
 20  9 26  6 29 40.0000000  0 14G20G13G30G27G24G18G10G15G 5R16R24R23
                                R 7R 8
  21471097.660   112831373.40748      -473.322    21471092.680    87920538.20947
      -473.321  
  21242976.700   111632595.90447       404.113    21242972.520    86986429.61845
       404.114  
  24745604.420   130039007.51547       444.005    24745605.140   101329109.98143
       444.003  
  24067358.520   126474815.70546      -259.658    24067357.400    98551807.26343
      -259.659  
  23547738.480   123744211.21246      -706.562    23547736.620    96424056.27645
      -706.563  
  20348206.360   106930547.07448       -17.937    20348203.260    83322487.50048
       -17.938  
  24614952.240   129352436.93647      -612.494    24614951.900   100794098.57945
      -612.493  
  20001036.640   105106158.42049        31.254    20001032.620    81900884.68548
        31.254  
  24067076.720   126473335.99247       631.094    24067071.280    98550642.67045
       631.092  
  22757691.100   121567507.54904       243.709    22757693.440    94552515.73103
       243.707  
  20900221.480   111762870.73006      -440.778    20900219.400    86926678.13105
      -440.776  
  19640997.680   105066096.42908       169.388    19641002.920    81718094.24307
       169.389  
  20906082.960   111911898.12905       528.419    20906084.940    87042596.27507
       528.417  
  19374661.460   103750433.74908       -60.460    19374661.280    80694778.43207
       -60.459  
 20  9 26  6 29 45.0000000  0 15G20G13G30G27G24G18G10G15G 5R16R 1R24
                                R23R 7R 8
  21468732.280   112818942.84748      -473.029    21468727.240    87910852.08547
      -473.030  
  21244998.800   111643222.37447       404.607    21244994.580    86994710.04745
       404.605  
  24747826.440   130050683.27147       444.528    24747827.340   101338207.91544
       444.530  
  24066062.360   126468005.07146      -258.955    24066061.300    98546500.29245
      -258.955  
  23544206.700   123725651.64046      -706.334    23544203.800    96409594.31645
      -706.334  
  20348118.720   106930086.54948       -17.270    20348115.640    83322128.64348
       -17.270  
  24611890.360   129336346.99046      -612.404    24611889.620   100781561.03945
      -612.408  
  20001195.020   105106990.89749        31.966    20001191.040    81901533.36648
        31.966  
  24070233.160   126489923.97146       631.359    24070227.640    98563568.34345
       631.362  
  22758911.900   121574028.79004       244.498    22758920.760    94557585.72804
       244.498  
  21321135.440   113973688.33104      -550.392    21321134.880           0.00000
      -550.392  
  20898020.080   111751098.26706      -439.894    20898018.820    86917521.89306
      -439.896  
  19641847.300   105070641.57708       170.342    19641852.640    81721629.37507
       170.341  
  20908726.240   111926049.14105       528.785    20908728.320    87053602.55306
       528.786  
  19374361.000   103748824.69307       -59.875    19374360.800    80693526.99508
       -59.877  
 20  9 26  6 29 50.0000000  0 15G20G13G30G27G24G18G10G15G 5R16R 1R24
                                R23R 7R 8
  21466368.640   112806521.61148      -472.547    21466363.560    87901173.21347
      -472.547  
  21247023.740   111653863.48946       405.228    21247019.460    87003001.71345
       405.232  
  24750050.840   130062372.62147       445.076    24750052.440   101347316.55344
       445.075  
  24064769.700   126461212.61046      -258.136    24064768.580    98541207.46243
      -258.138  
  23540676.180   123707098.70346      -705.970    23540675.760    96395137.42845
      -705.970  
  20348034.580   106929644.28549       -16.465    20348031.500    83321784.03748
       -16.466  
  24608829.660   129320260.88547      -612.159    24608828.260   100769026.40545
      -612.159  
  20001356.880   105107841.37449        32.724    20001352.880    81902196.09249
        32.724  
  24073390.620   126506516.76447       631.612    24073385.380    98576497.82345
       631.611  
  22760136.980   121580573.63704       245.430    22760141.860    94562676.24704
       245.427  
  21318385.680           0.00010      -549.832    21318386.980           0.00010
      -549.832  
  20895822.320   111739347.18307      -439.075    20895821.560    86908382.08404
      -439.072  
  19642701.800   105075212.59207       171.443    19642707.240    81725184.58607
       171.443  
  20911371.400   111940209.26706       529.310    20911373.460    87064615.93506
       529.312  
  19374063.520   103747231.63107       -59.197    19374063.300    80692287.93108
       -59.195  
 20  9 26  6 29 55.0000000  0 14G20G13G30G27G24G18G10G15G 5R16R24R23
                                R 7R 8
  21464006.760   112794109.99548      -472.287    21464001.680    87891501.80147
      -472.287  
  21249051.440   111664519.70046       405.884    21249047.220    87011305.25645
       405.884  
  24752278.020   130074076.11947       445.580    24752280.520   101356436.23343
       445.579  
  24063480.680   126454438.70645      -257.664    24063479.360    98535929.08845
      -257.665  
  23537147.100   123688552.97945      -705.921    23537145.860    96380686.25245
      -705.923  
  20347954.020   106929220.74049       -15.855    20347950.900    83321453.98948
       -15.854  
  24605769.580   129304178.60546      -612.183    24605767.460   100756494.81245
      -612.185  
  20001522.260   105108710.32149        33.313    20001518.220    81902873.16448
        33.313  
  24076549.040   126523114.89646       631.702    24076543.760    98589431.38545
       631.705  
  22761366.620   121587142.21703       246.229    22761370.520    94567785.10302
       246.229  
  20893628.620   111727617.57406      -438.341    20893629.600           0.00010
      -438.341  
  19643561.140   105079809.71408       172.283    19643566.700    81728760.12906
       172.283  
  20914018.340   111954379.12506       529.458    20914020.360    87075637.03707
       529.455  
  19373769.120   103745654.79807       -58.684    19373768.820    80691061.50508
       -58.684  
 20  9 26  6 30  0.0000000  0 14G20G13G30G27G24G18G10G15G 5R16R24R23
                                R 7R 8
  21461645.680   112781702.60448      -472.123    21461640.620    87881833.71447
      -472.123  
  21251081.060   111675185.31547       406.155    21251076.860    87019616.15645
       406.155  
  24754506.840   130085788.15847       445.901    24754509.380   101365562.44944
       445.900  
  24062194.060   126447677.94046      -257.011    24062192.600    98530661.01045
      -257.012  
  23533618.480   123670009.11846      -705.663    23533617.200    96366236.56746
      -705.665  
  20347875.980   106928810.39549       -15.383    20347872.820    83321134.23448
       -15.383  
  24602708.540   129288094.92347      -612.141    24602706.380   100743962.04045
      -612.141  
  20001690.100   105109592.20049        33.788    20001686.020    81903560.36748
        33.788  
  24079707.340   126539712.64546       631.614    24079702.320    98602364.67745
       631.614  
  22762599.700   121593729.13604       246.973    22762606.100           0.00000
       246.973  
  20891437.900   111715904.13607      -437.847    20891438.480    86890153.66305
      -437.847  
  19644424.440   105084427.54908       173.071    19644429.980    81732351.78506
       173.072  
  20916665.760   111968553.34006       529.560    20916666.640           0.00000
       529.560  
  19373476.600   103744088.47607       -58.365    19373476.340    80689843.27308
       -58.366  
 20  9 26  6 30  5.0000000  0 14G20G13G30G27G24G18G10G15G 5R 1R24R23
                                R 7R 8
  21459286.060   112769302.98348      -471.812    21459281.060    87872171.68848
      -471.812  
  21253113.160   111685864.16747       406.725    21253108.880    87027937.31545
       406.725  
  24756737.920   130097512.37646       446.340    24756740.460   101374698.10344
       446.345  
  24060910.660   126440933.81145      -256.384    24060909.020    98525405.82243
      -256.384  
  23530090.860   123651470.52746      -705.535    23530089.700    96351790.86545
      -705.534  
  20347801.160   106928416.85349       -14.750    20347797.960    83320827.61349
       -14.751  
  24599648.060   129272013.27246      -612.110    24599646.920   100731430.88744
      -612.110  
  20001861.100   105110490.60049        34.435    20001857.000    81904260.38949
        34.436  
  24082866.460   126556313.83846       631.787    24082861.540    98615300.67245
       631.788  
  21310145.200   113914930.35304      -549.348    21310144.980    88600509.64903
      -549.348  
  20889250.860           0.00000      -437.116           0.000           0.00000
         0.000  
  19645292.320   105089069.63508       173.905    19645297.760    81735962.31106
       173.904  
  20919315.040   111982735.48105       529.854           0.000           0.00000
         0.000  
  19373186.840   103742536.70407       -57.771    19373186.560    80688636.31908
       -57.771  
 20  9 26  6 30 10.0000000  0 13G20G13G30G27G24G18G10G15G 5R24R23R 7
                                R 8
  21456926.700   112756905.03248      -471.773    21456921.780    87862510.94747
      -471.773  
  21255146.520   111696550.01446       406.955    21255142.360    87036263.98344
       406.954  
  24758970.020   130109242.63746       446.658    24758972.420   101383838.61343
       446.657  
  24059629.380   126434200.24546      -256.018    24059627.460    98520158.83243
      -256.018  
  23526561.940           0.00000      -705.579           0.000           0.00000
         0.000  
  20347728.360   106928033.99249       -14.312    20347725.100    83320529.25348
       -14.311  
  24596587.180   129255927.65346      -612.116    24596585.580   100718896.63245
      -612.114  
  20002034.080   105111399.41949        34.872    20002029.940    81904968.58249
        34.872  
  24086025.020   126572912.40146       631.754    24086020.400    98628234.63945
       631.752  
  20887065.260           0.00000      -436.510    20887066.800           0.00000
      -436.510  
  19646163.540   105093729.73508       174.667    19646168.860    81739586.81806
       174.667  
  20921962.640           0.00000       530.001    20921966.560           0.00000
       530.001  
  19372898.540   103740992.71607       -57.452    19372898.240    80687435.44508
       -57.452  
 20  9 26  6 30 15.0000000  0 13G20G13G30G27G24G18G10G15G 5R24R23R 7
                                R 8
  21454570.700   112744524.51648      -470.795    21454565.840    87852863.80047
      -470.796  
  21257184.180   111707258.50446       408.005    21257180.080    87044608.18644
       408.007  
  24761206.340   130120994.65246       447.824    24761208.500   101392996.10341
       447.819  
  24058353.040   126427492.89446      -254.830    24058351.000    98514932.37443
      -254.828  
  23523035.860   123614402.22446      -704.661    23523038.260    96322909.62845
      -704.661  
  20347660.560   106927677.53349       -13.000    20347657.280    83320251.50948
       -13.001  
  24593528.320   129239853.68747      -611.472    24593526.600   100706371.47444
      -611.472  
  20002212.000   105112334.34049        36.157    20002207.860    81905697.10448
        36.156  
  24089186.120   126589523.96747       632.465    24089181.680    98641178.65445
       632.468  
  20884885.580   111680864.75205      -435.217    20884889.620           0.00000
      -435.217  
  19647041.180   105098424.11608       176.277    19647046.380    81743237.99306
       176.276  
  20924612.500           0.00000       530.957    20924618.200           0.00000
       530.957  
  19372614.800   103739473.06007       -56.227    19372614.460    80686253.45908
       -56.226  
 20  9 26  6 30 20.0000000  0 13G20G13G30G27G24G18G10G15G 5R24R23R 7
                                R 8
  21452215.920   112732149.83749      -471.000    21452210.960    87843221.17547
      -470.999  
  21259223.900   111717978.16247       407.995    21259220.000    87052961.18044
       407.992  
  24763444.660   130132756.89346       447.708    24763447.240   101402161.51643
       447.705  
  24057079.380   126420800.43346      -254.596    24057077.280    98509717.47344
      -254.596  
  23519512.940   123595881.00146      -705.049    23519512.220    96308477.53345
      -705.050  
  20347595.600   106927335.96949       -12.850    20347592.280    83319985.32848
       -12.850  
  24590469.480   129223779.71144      -611.827    24590467.420   100693846.36044
      -611.832  
  20002392.720   105113283.87349        36.283    20002388.540    81906436.98148
        36.283  
  24092347.500   126606136.91846       632.181    24092343.220    98654123.84145
       632.180  
  20882710.320   111669232.05706      -434.877    20882712.000    86853867.82805
      -434.879  
  19647922.980   105103140.48808       176.613    19647928.040    81746906.27206
       176.613  
  20927270.180   112025292.28705       530.763    20927274.140    87130809.83907
       530.764  
  19372333.240   103737965.62907       -56.240    19372333.020    80685081.07808
       -56.241  
 20  9 26  6 30 25.0000000  0 13G20G13G30G27G24G18G10G15G 5R24R23R 7
                                R 8
  21449861.920   112719779.20549      -470.584    21449856.820    87833581.74247
      -470.584  
  21261265.540   111728707.04447       408.650    21261261.720    87061321.31444
       408.651  
  24765684.480   130144527.30046       448.304    24765687.280   101411333.22143
       448.303  
  24055808.380   126414120.72847      -253.799    24055806.140    98504512.54544
      -253.801  
  23515988.640   123577361.36347      -704.688    23515989.080    96294046.64645
      -704.688  
  20347533.080   106927007.32749       -12.125    20347529.720    83319729.24748
       -12.125  
  24587411.240   129207704.37047      -611.681    24587408.500   100681320.14945
      -611.679  
  20002575.840   105114246.01449        37.006    20002571.620    81907186.71849
        37.005  
  24095508.780   126622749.27347       632.412    24095504.400    98667068.52545
       632.412  
  20880541.140           0.00000      -433.987    20880541.020           0.00000
      -433.987  
  19648808.640   105107877.30508       177.638    19648813.500    81750590.44906
       177.639  
  20929925.920   112039503.18205       531.139    20929929.600    87141862.72707
       531.139  
  19372053.620   103736468.76407       -55.571    19372053.520    80683916.79908
       -55.569  
 20  9 26  6 30 30.0000000  0 13G20G13G30G27G24G18G10G15G 5R24R23R 7
                                R 8
  21447508.780   112707413.01648      -470.623    21447503.560    87823945.75746
      -470.624  
  21263309.040   111739445.69647       408.788    21263305.300    87069689.05745
       408.788  
  24767925.880   130156306.57546       448.437    24767929.280   101420511.83844
       448.440  
  24054539.880   126407454.44545      -253.501    24054537.580    98499318.00644
      -253.498  
  23512465.100   123558843.92147      -704.829    23512464.020    96279617.52445
      -704.830  
  20347473.100   106926692.20049       -11.815    20347469.720    83319483.67448
       -11.814  
  24584352.160   129191627.41444      -611.991    24584349.800   100668792.61644
      -611.992  
  20002761.480   105115221.36549        37.297    20002757.200    81907946.72848
        37.297  
  24098669.980   126639361.60447       632.218    24098665.620    98680013.18245
       632.218  
  20878369.440   111646026.53307      -433.732    20878371.100    86835798.73306
      -433.731  
  19649698.160   105112635.10508       178.179    19649702.880    81754290.97406
       178.179  
  20932580.420   112053718.51705       531.043    20932585.120    87152919.12007
       531.042  
  19371775.920   103734982.51807       -55.407    19371776.020    80682760.86108
       -55.408  
 20  9 26  6 30 35.0000000  0 14G20G13G30G27G24G18G10G15G 5R 1R24R23
                                R 7R 8
  21445157.300   112695055.55648      -470.057    21445151.940    87814316.54047
      -470.056  
  21265355.320   111750198.24047       409.639    21265351.420    87078067.66145
       409.641  
  24770169.880   130168098.79346       449.183    24770172.860   101429700.56543
       449.184  
  24053274.600   126400805.72546      -252.645    24053272.340    98494137.21843
      -252.645  
  23508942.580   123540332.65947      -704.308    23508942.400    96265193.09345
      -704.306  
  20347416.500   106926394.76049       -10.887    20347413.080    83319251.91548
       -10.887  
  24581293.680   129175553.84547      -611.603    24581291.200   100656267.78045
      -611.601  
  20002950.440   105116214.06549        38.230    20002946.120    81908720.26849
        38.229  
  24101832.020   126655978.16046       632.633    24101827.860    98692961.15845
       632.633  
  21293709.280   113827064.38205      -546.899           0.000           0.00000
         0.000  
  20876205.240   111634446.87706      -432.616    20876206.880    86826792.32106
      -432.615  
  19650592.300   105117417.94208       179.400    19650596.960    81758010.93806
       179.401  
  20935237.640   112067942.40904       531.812    20935242.560    87163982.14107
       531.811  
  19371501.160   103733511.50706       -54.606    19371501.340    80681616.69508
       -54.604  
 20  9 26  6 30 40.0000000  0 12G20G13G30G27G24G18G10G15G 5R23R 7R 8
  21442806.960   112682704.33148      -469.912    21442801.500    87804692.24646
      -469.913  
  21267403.580   111760962.05847       409.920    21267399.700    87086455.09043
       409.918  
  24772415.740   130179901.51346       449.462    24772418.700   101438897.53543
       449.462  
  24052012.320   126394172.15446      -252.013    24052009.940    98488968.18544
      -252.015  
  23505420.720   123521825.06046      -704.161    23505421.420    96250771.62645
      -704.162  
  20347362.820   106926112.48949       -10.407    20347359.340    83319031.97548
       -10.407  
  24578234.980   129159480.61846      -611.673    24578232.460   100643743.18944
      -611.672  
  20003142.200   105117221.61049        38.682    20003137.860    81909505.35449
        38.682  
  24104994.380   126672596.35147       632.734    24104990.240    98705910.35745
       632.735  
  19651490.660   105122223.41808       180.170    19651495.260    81761748.54706
       180.170  
  20937896.240   112082172.36307       531.678    20937900.320    87175049.81607
       531.679  
  19371228.760   103732053.43306       -54.205    19371229.080    80680482.64408
       -54.204  
 20  9 26  6 30 45.0000000  0 13G20G13G30G27G24G18G10G15G 5R24R23R 7
                                R 8
  21440457.620   112670358.29348      -469.913    21440452.100    87795071.94647
      -469.913  
  21269453.880   111771736.35747       409.998    21269450.000    87094850.63445
       409.999  
  24774663.220   130191713.57746       449.538    24774666.080   101448101.65441
       449.538  
  24050752.820   126387552.52847      -251.776    24050750.240    98483809.98845
      -251.774  
  23501899.080   123503320.22547      -704.308    23501898.980    96236352.31745
      -704.309  
  20347311.800   106925844.35049       -10.076    20347308.300    83318823.03848
       -10.076  
  24575175.740   129143406.72345      -612.051    24575173.260   100631218.04345
      -612.052  
  20003336.620   105118242.92649        39.009    20003332.220    81910301.18748
        39.009  
  24108156.860   126689215.10647       632.234    24108152.780    98718860.05745
       632.233  
  20871883.160   111611337.84006      -431.583           0.000           0.00000
         0.000  
  19652393.060   105127050.38207       180.711    19652397.600    81765502.83206
       180.711  
  20940555.940   112096407.42406       531.818    20940559.240    87186121.51807
       531.820  
  19370958.560   103730606.59407       -53.951    19370958.900    80679357.33508
       -53.952  
 20  9 26  6 30 50.0000000  0 13G20G13G30G27G24G18G10G15G 5R24R23R 7
                                R 8
  21438109.460   112658018.58448      -469.416    21438103.880    87785456.58647
      -469.418  
  21271506.440   111782522.29947       410.819    21271502.460    87103255.29345
       410.818  
  24776913.060   130203536.19345       450.228    24776915.500   101457314.08242
       450.223  
  24049496.160   126380948.19647      -251.054    24049493.480    98478663.76444
      -251.055  
  23498378.460   123484819.25347      -703.932    23498378.360    96221935.93646
      -703.932  
  20347263.740   106925591.64649        -9.225    20347260.180    83318626.10649
        -9.225  
  24572116.800   129127333.60145      -611.628    24572114.680   100618693.57145
      -611.629  
  20003533.900   105119279.30049        39.800    20003529.460    81911108.74149
        39.800  
  24111319.640   126705835.92947       632.739    24111315.700    98731811.34145
       632.737  
  20869726.220           0.00000      -430.604           0.000           0.00000
         0.000  
  19653299.700   105131900.20908       181.845    19653304.240    81769274.92806
       181.846  
  20943216.160           0.00000       532.477    20943219.520           0.00000
       532.477  
  19370690.800   103729172.85807       -53.300    19370691.180    80678242.24508
       -53.302  
 20  9 26  6 30 55.0000000  0 13G20G13G30G27G24G18G15G 5R16R24R23R 7
                                R 8
  21435763.400   112645689.88248      -468.827    21435757.760    87775849.78547
      -468.827  
  21273561.960   111793324.28047       411.560    21273558.060    87111672.38545
       411.562  
  24779165.660   130215374.17746       450.972    24779167.580   101466538.54341
       450.970  
  24048243.220   126374363.88647      -250.003    24048240.540    98473533.15343
      -250.001  
  23494859.440   123466327.04346      -703.375    23494860.120    96207526.49345
      -703.377  
  20347219.480   106925358.90349        -8.315    20347215.860    83318444.75448
        -8.315  
  20003734.940   105120335.35049        40.751    20003730.460    81911931.64949
        40.750  
  24114483.780   126722463.05647       633.105    24114479.460    98744767.54445
       633.105  
  22776428.020   121667587.96904       255.903    22776430.700    94630356.03704
       255.901  
  20867577.640   111588335.00006      -429.663    20867577.620    86790908.59005
      -429.663  
  19654211.380   105136777.39608       183.029    19654215.980    81773068.28707
       183.029  
  20945879.280   112124927.26306       532.939    20945881.720    87208290.40407
       532.941  
  19370426.260   103727756.34905       -52.383    19370426.640    80677140.45608
       -52.380  
 20  9 26  6 31  0.0000000  0 14G20G13G30G27G24G18G10G15G 5R16R24R23
                                R 7R 8
  21433419.740   112633373.91848      -468.733    21433414.060    87766252.92446
      -468.733  
  21275620.960   111804144.36945       411.782    21275617.160    87120103.66745
       411.782  
  24781421.580   130227229.02046       451.313    24781422.960   101475775.98444
       451.315  
  24046994.440   126367801.15946      -249.594    24046991.800    98468419.31344
      -249.593  
  23491342.340   123447845.01346      -703.493    23491342.780    96193124.94645
      -703.495  
  20347179.380   106925147.89849        -7.827    20347175.660    83318280.32848
        -7.826  
  24566000.300           0.00040      -611.340    24566002.280           0.00040
      -611.340  
  20003940.020   105121412.77449        41.209    20003935.520    81912771.17649
        41.210  
  24117649.460   126739098.44647       633.078    24117644.920    98757730.12045
       633.079  
  22777710.440   121674435.21405       256.590    22777712.620    94635681.64203
       256.589  
  20865431.060   111576856.99405      -428.943    20865432.080    86781981.09605
      -428.940  
  19655128.520   105141683.80508       183.730    19655133.200    81776884.38706
       183.730  
  20948544.380   112139192.11607       533.011    20948546.080    87219385.32307
       533.008  
  19370165.340   103726359.35207       -52.147    19370165.780    80676053.91208
       -52.147  
 20  9 26  6 31  5.0000000  0 13G20G13G30G27G24G18G15G 5R16R24R23R 7
                                R 8
  21431076.460   112621060.34248      -468.546    21431070.800    87756657.93646
      -468.547  
  21277681.460   111814971.76847       412.261    21277677.540    87128540.58945
       412.260  
  24783678.800   130239090.44147       451.678    24783679.760   101485018.68143
       451.679  
  24045747.760   126361249.64346      -249.116    24045745.140    98463314.24044
      -249.116  
  23487825.260   123429363.00347      -703.269    23487825.620    96178723.36346
      -703.268  
  20347141.400   106924948.24949        -7.317    20347137.640    83318124.74948
        -7.317  
  20004147.180   105122501.22149        41.720    20004142.680    81913619.32449
        41.719  
  24120814.640   126755731.65046       633.044    24120810.340    98770691.13445
       633.043  
  22778995.220   121681298.78305       257.262    22778998.480    94641019.97604
       257.261  
  20863285.460           0.00000      -428.404    20863288.160           0.00000
      -428.404  
  19656049.040   105146608.90007       184.568    19656053.840    81780715.02306
       184.567  
  20951210.080   112153459.44306       533.189    20951211.340    87230482.08507
       533.190  
  19369906.060   103724970.96407       -51.599    19369906.540    80674974.12208
       -51.602  
 20  9 26  6 31 10.0000000  0 12G20G13G30G27G24G18G15G 5R16R23R 7R 8
  21428733.420   112608747.68748      -468.182    21428727.760    87747063.67547
      -468.182  
  21279743.100   111825805.19147       412.814    21279739.040    87136982.19345
       412.815  
  24785936.960   130250956.93447       452.072    24785937.680   101494265.32143
       452.070  
  24044502.980   126354707.95247      -248.394    24044500.300    98458216.83244
      -248.393  
  23484307.820   123410879.51946      -703.043    23484308.060    96164320.68845
      -703.043  
  20347105.300   106924758.42149        -6.660    20347101.500    83317976.83948
        -6.661  
  20004356.160   105123599.13149        42.347    20004351.660    81914474.84949
        42.347  
  24123979.220   126772361.20047       633.187    24123974.840    98783649.17845
       633.188  
  22780283.320   121688177.02005       258.168    22780286.120    94646369.73504
       258.167  
  19656972.960   105151551.12608       185.471    19656977.680    81784558.99107
       185.471  
  20953875.660   112167727.20605       533.346    20953876.700    87241579.27606
       533.345  
  19369648.140   103723589.67807       -51.050    19369648.600    80673899.76808
       -51.050  
 20  9 26  6 31 15.0000000  0 15G20G13G30G27G24G18G10G15G 5R16R 1R24
                                R23R 7R 8
  21426393.060   112596449.28048      -467.932    21426387.420    87737480.48947
      -467.932  
  21281808.400   111836657.92246       413.315    21281804.240    87145438.87045
       413.315  
  24788198.680   130262841.76446       452.508    24788198.980   101503526.16743
       452.508  
  24043262.700   126348189.38847      -247.835    24043259.960    98453137.47144
      -247.836  
  23480792.800   123392407.93347      -702.943    23480792.740    96149927.27345
      -702.944  
  20347073.620   106924591.81549        -6.039    20347069.780    83317847.01048
        -6.039  
  24556836.220   129047052.32945      -611.250    24556830.160   100556111.95445
      -611.250  
  20004569.520   105124719.90249        42.928    20004564.960    81915348.17949
        42.927  
  24127145.700   126789000.43147       633.341    24127141.280    98796614.79045
       633.343  
  22781576.500   121695083.62805       258.894    22781579.420    94651741.52604
       258.896  
  21271874.460   113710351.70504      -544.409    21271869.160    88441376.28803
      -544.411  
  20859006.740   111542482.92406      -427.021    20859010.700    86755280.02206
      -427.023  
  19657902.540   105156524.07807       186.367    19657907.280    81788426.85306
       186.366  
  20956543.880   112182009.17907       533.647    20956544.820    87252687.41407
       533.650  
  19369393.940   103722229.24407       -50.627    19369394.580    80672841.62508
       -50.626  
 20  9 26  6 31 20.0000000  0 14G20G13G30G27G24G18G15G 5R16R 1R24R23
                                R 7R 8
  21424052.940   112584152.16848      -467.639    21424047.320    87727898.37147
      -467.640  
  21283874.840   111847516.97245       413.676    21283870.740    87153900.47044
       413.676  
  24790461.440   130274731.96846       452.957    24790461.360   101512791.26044
       452.957  
  24042024.340   126341680.99246      -247.199    24042021.540    98448065.97745
      -247.198  
  23477277.640   123373935.23347      -702.763    23477277.500    96135532.93046
      -702.762  
  20347043.880   106924435.47049        -5.429    20347040.000    83317725.18748
        -5.429  
  20004784.760   105125850.55249        43.560    20004780.120    81916229.19249
        43.561  
  24130311.520   126805636.33147       633.362    24130306.960    98809577.86244
       633.361  
  22782872.600   121702005.26305       259.841    22782873.960    94657125.00803
       259.840  
  21269149.660   113695798.98004      -544.184    21269147.380    88430057.48403
      -544.183  
  20856873.360   111531071.73205      -426.128    20856876.800    86746404.68206
      -426.128  
  19658835.400   105161514.49408       187.255    19658840.060    81792308.28106
       187.255  
  20959212.240   112196292.14206       533.950    20959213.060    87263796.39207
       533.950  
  19369141.280   103720876.42207       -49.992    19369141.900    80671789.42407
       -49.992  
 20  9 26  6 31 25.0000000  0 14G20G13G30G27G24G18G10G15G 5R16R24R23
                                R 7R 8
  21421715.020   112571866.56548      -467.606    21421709.360    87718325.11946
      -467.605  
  21285944.300   111858392.60247       413.957    21285940.400    87162375.04045
       413.956  
  24792727.180   130286637.87647       453.101    24792726.680   101522068.57142
       453.102  
  24040789.760   126335192.98947      -246.767    24040786.980    98443010.33345
      -246.765  
  23473764.120   123355471.77647      -702.811    23473764.140    96121145.81746
      -702.811  
  20347018.020   106924299.51249        -5.048    20347014.140    83317619.24848
        -5.048  
  24550718.700   129014917.13844      -611.220    24550712.760   100531078.94542
      -611.220  
  20005003.800   105127001.22849        43.883    20004999.080    81917125.81548
        43.884  
  24133478.660   126822279.17847       633.331    24133473.940    98822546.23645
       633.333  
  22784173.260   121708952.40705       260.351    22784169.520    94662509.37403
       260.351  
  20854743.820   111519684.12705      -425.737    20854747.160    86737547.53705
      -425.735  
  19659773.520   105166532.77408       187.956    19659778.080    81796211.36306
       187.957  
  20961882.700   112210586.40507       533.980    20961883.480    87274914.19407
       533.980  
  19368891.960   103719541.35407       -49.843    19368892.560    80670751.04607
       -49.843  
 20  9 26  6 31 30.0000000  0 14G20G13G30G27G24G18G15G 5R16R 1R24R23
                                R 7R 8
  21419377.740   112559584.52848      -467.022    21419372.160    87708754.72946
      -467.022  
  21288015.580   111869276.81847       414.706    21288011.660    87170856.22545
       414.705  
  24794994.300   130298551.38647       453.902    24794993.560   101531351.83543
       453.902  
  24039557.560   126328717.39047      -245.834    24039554.800    98437964.43245
      -245.833  
  23470250.760   123337009.32547      -702.292    23470250.900    96106759.52645
      -702.295  
  20346994.500   106924176.09549        -4.102    20346990.660    83317523.08148
        -4.102  
  20005225.160   105128164.05549        44.837    20005220.340    81918031.92448
        44.837  
  24136645.580   126838920.96147       633.731    24136640.960    98835513.90445
       633.730  
  22785476.860   121715917.13705       261.477    22785475.980    94667926.35203
       261.479  
  21263711.720   113666725.79604      -543.423    21263710.520    88407447.37804
      -543.427  
  20852617.420   111508312.44406      -424.684    20852620.720    86728702.96206
      -424.683  
  19660715.340   105171570.88108       189.069    19660719.840    81800129.90107
       189.069  
  20964553.860   112224884.11605       534.655    20964554.400    87286034.58807
       534.657  
  19368644.440   103718216.18507       -48.968    19368645.100    80669720.38607
       -48.970  
 20  9 26  6 31 35.0000000  0 14G20G13G30G27G24G18G15G 5R16R 1R24R23
                                R 7R 8
  21417043.040   112547316.10148      -466.879    21417037.580    87699194.91446
      -466.880  
  21290090.400   111880179.77647       415.086    21290086.460    87179352.01644
       415.088  
  24797264.760   130310482.64247       454.186    24797263.480   101540648.81843
       454.188  
  24038329.680   126322264.31447      -245.441    24038326.980    98432936.08445
      -245.442  
  23466739.580   123318558.22346      -702.195    23466739.540    96092382.05945
      -702.196  
  20346975.260   106924075.31449        -3.631    20346971.480    83317444.53548
        -3.630  
  20005450.740   105129349.09949        45.294    20005445.820    81918955.34848
        45.293  
  24139814.140   126855571.74646       633.725    24139809.560    98848488.57745
       633.724  
  22786785.520   121722909.19005       262.078    22786785.300    94673364.62404
       262.078  
  21260996.540   113652206.31805      -543.269    21260995.320    88396154.48305
      -543.271  
  20850495.740   111496966.35407      -424.097    20850498.760    86719878.17706
      -424.096  
  19661662.700   105176638.89407       189.782    19661667.200    81804071.67007
       189.783  
  20967227.520   112239195.12904       534.738    20967227.800    87297165.35507
       534.739  
  19368400.740   103716911.16907       -48.565    19368401.380    80668705.34407
       -48.565  
 20  9 26  6 31 40.0000000  0 13G20G13G30G27G24G18G15G 5R16R 1R24R23
                                R 8
  21414709.140   112535051.20648      -466.773    21414703.640    87689637.85047
      -466.773  
  21292166.800   111891091.19347       415.508    21292162.800    87187854.46744
       415.506  
  24799536.660   130322421.50946       454.514    24799535.360   101549951.85644
       454.514  
  24037104.140   126315823.68247      -244.959    24037101.500    98427917.38145
      -244.957  
  23463228.680   123300108.23546      -702.211    23463228.760    96078005.44745
      -702.214  
  20346958.460   106923986.93249        -3.118    20346954.660    83317375.66448
        -3.117  
  20005678.580   105130546.22049        45.808    20005673.600    81919888.15948
        45.808  
  24142982.520   126872221.48046       633.563    24142977.700    98861462.32244
       633.564  
  22788097.600   121729918.72405       262.786    22788096.420           0.00010
       262.786  
  21258281.300   113637691.57705      -542.949    21258280.320    88384865.25804
      -542.953  
  20848376.960   111485635.87906      -423.529    20848379.840    86711065.52306
      -423.528  
  19662613.800   105181726.82508       190.569    19662618.300    81808028.94506
       190.570  
  19368158.880   103715616.06507       -48.158    19368159.560    80667698.03308
       -48.159  
 20  9 26  6 31 45.0000000  0 15G20G13G30G27G24G18G10G15G 5R16R 1R24
                                R23R 7R 8
  21412376.720   112522794.36148      -466.382    21412371.200    87680087.02946
      -466.381  
  21294245.640   111902015.68446       415.938    21294241.700    87196367.01345
       415.938  
  24801810.840   130334372.39046       454.979    24801809.680   101559264.20243
       454.980  
  24035881.780   126309399.99046      -244.335    24035879.100    98422911.92344
      -244.336  
  23459718.600   123281664.01746      -701.902    23459718.780    96063633.34746
      -701.902  
  20346944.880   106923915.56349        -2.446    20346941.080    83317320.05948
        -2.446  
  24538496.640   128950664.49246      -610.979    24538488.880   100481033.67344
      -610.979  
  20005909.580   105131759.86349        46.457    20005904.520    81920833.88348
        46.456  
  24146151.480   126888874.54846       633.860    24146146.700    98874438.76145
       633.859  
  22789413.760   121736950.22405       263.571    22789416.320    94684295.48704
       263.570  
  21255566.780   113623185.41305      -542.599    21255567.420           0.00000
      -542.599  
  20846262.080   111474325.66306      -422.701    20846264.800    86702268.73605
      -422.701  
  19663569.500   105186839.01208       191.548    19663573.940    81812005.09906
       191.547  
  20972576.620   112267847.30406       535.192    20972578.860    87319424.91207
       535.192  
  19367919.720   103714335.38507       -47.622    19367920.400    80666701.89907
       -47.621  
 20  9 26  6 31 50.0000000  0 13G20G13G30G27G24G18G15G 5R16R24R23R 7
                                R 8
  21410045.480   112510543.71249      -466.029    21410039.960    87670541.12047
      -466.030  
  21296326.680   111912951.23747       416.546    21296322.740    87204888.24144
       416.545  
  24804086.960   130346333.45546       455.495    24804085.640   101568584.55345
       455.495  
  24034662.240   126302991.30147      -243.567    24034659.680    98417918.12945
      -243.566  
  23456209.400   123263223.66146      -701.742    23456209.700    96049264.29245
      -701.744  
  20346934.180   106923859.29049        -1.767    20346930.380    83317276.22448
        -1.767  
  20006143.380   105132988.29049        47.129    20006138.240    81921791.08548
        47.130  
  24149320.740   126905529.24546       633.772    24149315.860    98887416.40444
       633.773  
  22790733.560   121744001.74505       264.507    22790732.880    94689780.02002
       264.507  
  20844150.380   111463033.51007      -421.906    20844152.540    86693485.97804
      -421.909  
  19664529.380   105191973.61808       192.468    19664533.800    81815998.67606
       192.469  
  20975253.760   112282175.23306       535.484    20975252.960    87330568.87107
       535.486  
  19367682.860   103713067.20308       -47.064    19367683.620    80665715.58708
       -47.066  
 20  9 26  6 31 55.0000000  0 13G20G13G30G27G24G18G15G 5R16R 1R24R23
                                R 8
  21407715.360   112498298.80148      -465.721    21407709.780    87660999.65646
      -465.723  
  21298409.780   111923897.56247       416.922    21298405.800    87213417.85144
       416.921  
  24806364.900   130358304.30346       455.928    24806363.600   101577912.40043
       455.930  
  24033445.480   126296597.25247      -242.894    24033442.960    98412935.75944
      -242.894  
  23452700.960   123244786.68046      -701.386    23452701.300    96034897.78445
      -701.385  
  20346926.240   106923817.65449        -1.196    20346922.460    83317243.76648
        -1.196  
  20006379.860   105134230.92749        47.676    20006374.700    81922759.35948
        47.677  
  24152490.280   126922185.06745       633.863    24152485.520    98900394.93644
       633.866  
  22792057.200   121751072.67505       265.238    22792058.020           0.00000
       265.238  
  21250143.900           0.00000      -541.994    21250142.520           0.00000
      -541.994  
  20842041.920   111451759.41005      -420.829    20842044.580    86684715.19706
      -420.829  
  19665493.340   105197129.99108       193.302    19665497.740    81820009.18007
       193.302  
  19367448.300   103711810.86908       -46.554    19367449.020    80664738.44007
       -46.554  
 20  9 26  6 32  0.0000000  0 13G20G13G30G27G24G18G15G 5R16R24R23R 7
                                R 8
  21405387.480   112486065.97048      -465.570    21405381.880    87651467.51446
      -465.569  
  21300496.080   111934861.08546       417.377    21300492.160    87221960.82344
       417.380  
  24808645.840   130370291.30446       456.360    24808644.460   101587252.99043
       456.359  
  24032232.820   126290224.24447      -242.321    24032230.240    98407969.83345
      -242.323  
  23449194.260   123226359.59346      -701.313    23449194.900    96020539.05245
      -701.315  
  20346922.340   106923797.10249        -0.581    20346918.520    83317227.73548
        -0.580  
  20006620.240   105135494.19149        48.295    20006615.080    81923743.75748
        48.294  
  24155661.240   126938848.28846       634.050    24155656.480    98913379.20844
       634.053  
  22793385.660   121758169.64404       265.978    22793387.020    94700806.45202
       265.978  
  20839937.780   111440509.43506      -420.497    20839940.600    86675965.19804
      -420.498  
  19666462.680   105202315.03908       194.173    19666467.060    81824041.99706
       194.172  
  20980611.100   112310855.57907       535.979    20980610.900    87352890.30007
       535.979  
  19367217.220   103710573.13607       -46.055    19367217.880    80663775.76907
       -46.055  
 20  9 26  6 32  5.0000000  0 13G20G13G30G27G24G18G15G 5R16R24R23R 7
                                R 8
  21403060.180   112473836.22048      -465.400    21403054.620    87641937.84946
      -465.400  
  21302583.800   111945832.50347       417.717    21302579.920    87230509.92744
       417.717  
  24810928.120   130382285.24246       456.608    24810927.060   101596598.88944
       456.610  
  24031022.360   126283863.10347      -241.872    24031019.800    98403013.06044
      -241.871  
  23445687.700   123207933.19746      -701.246    23445688.580    96006180.83245
      -701.247  
  20346920.780   106923788.52049        -0.121    20346916.900    83317221.06248
        -0.122  
  20006862.820   105136768.93149        48.704    20006857.620    81924737.04748
        48.705  
  24158831.860   126955509.86145       633.980    24158827.220    98926362.24844
       633.982  
  22794717.240   121765283.37904       266.508    22794714.180           0.00000
       266.508  
  20837836.680   111429274.77007      -419.967    20837839.380    86667227.07605
      -419.965  
  19667435.560   105207519.18408       194.902    19667439.940    81828089.66106
       194.902  
  20983290.960   112325203.40506       536.071    20983292.120    87364049.73907
       536.069  
  19366987.760   103709344.58007       -45.673    19366988.440    80662820.17407
       -45.673  
 20  9 26  6 32 10.0000000  0 12G20G13G30G27G24G18G15G 5R16R24R23R 8
  21400734.860   112461616.93348      -465.048    21400729.340    87632416.33346
      -465.047  
  21304674.580   111956819.37447       418.247    21304670.720    87239071.20544
       418.245  
  24813213.140   130394293.47146       457.046    24813212.280   101605955.93143
       457.047  
  24029815.660   126277521.33147      -241.151    24029813.100    98398071.42845
      -241.151  
  23442182.700   123189514.82646      -700.993    23442183.640    95991828.86645
      -700.994  
  20346922.860   106923799.26749         0.594    20346918.920    83317229.43048
         0.594  
  20007108.980   105138062.60249        49.438    20007103.780    81925745.11948
        49.438  
  24162001.180   126972189.18644       634.327    24161996.640    98939349.88144
       634.327  
  22796053.360   121772421.42105       267.467    22796058.160    94711885.24304
       267.465  
  20835739.800   111418062.78105      -419.035    20835742.500    86658506.73105
      -419.035  
  19668413.400   105212749.97708       195.869    19668417.820    81832158.08006
       195.867  
  19366761.500   103708132.86407       -45.099    19366762.160    80661877.81807
       -45.101  
 20  9 26  6 32 15.0000000  0 13G20G13G30G27G24G18G15G 5R16R24R23R 7
                                R 8
  21398410.240   112449401.14648      -464.883    21398404.700    87622897.52346
      -464.882  
  21306766.960   111967814.41148       418.582    21306763.040    87247638.80445
       418.580  
  24815499.540   130406309.35945       457.351    24815498.860   101615318.95443
       457.352  
  24028611.240   126271191.91747      -240.641    24028608.720    98393139.43145
      -240.641  
  23438678.060   123171097.99547      -700.900    23438678.620    95977478.09346
      -700.900  
  20346927.300   106923822.45449         1.110    20346923.320    83317247.50648
         1.110  
  20007357.440   105139368.30349        49.938    20007352.220    81926762.51948
        49.939  
  24165173.600   126988855.24546       634.191    24165172.380    98952336.27545
       634.193  
  22797392.600   121779576.60005       268.286    22797396.260    94717450.34303
       268.285  
  20833645.820   111406866.36706      -418.528    20833648.780    86649798.35705
      -418.527  
  19669394.920   105218000.50608       196.729    19669399.340    81836241.77706
       196.730  
  20988656.160           0.00000       536.571           0.000           0.00000
         0.000  
  19366537.060   103706930.95007       -44.696    19366537.680    80660942.95008
       -44.695  
 20  9 26  6 32 20.0000000  0 14G20G13G30G27G24G18G15G 5R16R 1R24R23
                                R 7R 8
  21396087.560   112437195.59048      -464.334    21396082.020    87613386.71346
      -464.335  
  21308862.260   111978824.61247       419.304    21308858.260    87256218.19144
       419.304  
  24817788.480   130418339.28345       458.016    24817788.180   101624692.89345
       458.017  
  24027410.500   126264881.62348      -239.813    24027407.920    98388222.29045
      -239.813  
  23435174.840   123152688.87246      -700.468    23435175.420    95963133.33245
      -700.468  
  20346935.380   106923864.79449         1.938    20346931.360    83317280.49648
         1.938  
  20007609.460   105140692.71349        50.757    20007604.240    81927794.52848
        50.758  
  24168345.620   127005516.82646       634.537    24168347.700    98965334.09143
       634.537  
  22798736.220   121786755.86504       269.305    22798737.760    94723034.19304
       269.305  
  21236610.780   113521876.76104      -540.335    21236617.820    88294805.50305
      -540.335  
  20831556.260   111395692.30706      -417.508    20831558.920    86641107.46105
      -417.510  
  19670381.360   105223277.47708       197.778    19670385.820    81840346.11506
       197.778  
  20991342.180   112368289.23206       537.112    20991341.680           0.00000
       537.112  
  19366315.680   103705745.42207       -43.979    19366316.320    80660020.84507
       -43.979  
 20  9 26  6 32 25.0000000  0 13G20G13G30G27G24G18G15G 5R16R24R23R 7
                                R 8
  21393765.760   112424994.62248      -464.460    21393760.280    87603879.47345
      -464.460  
  21310959.380   111989844.24047       419.383    21310955.160    87264804.91444
       419.383  
  24820079.160   130430377.80046       458.225    24820079.200   101634073.52644
       458.226  
  24026212.360   126258584.90348      -239.531    24026209.720    98383315.75745
      -239.531  
  23431672.100   123134282.26446      -700.662    23431672.740    95948790.51145
      -700.661  
  20346946.040   106923920.68749         2.250    20346941.980    83317324.03148
         2.251  
  20007863.920   105142030.14649        50.979    20007858.720    81928836.69348
        50.978  
  24171521.000   127022188.20546       634.363    24171516.420    98978324.78044
       634.362  
  22800083.160   121793953.50903       269.672    22800086.300    94728629.35804
       269.672  
  20829469.580   111384535.16406      -417.071    20829472.120    86632429.72206
      -417.071  
  19671371.660   105228575.12808       198.317    19671376.160    81844466.50606
       198.317  
  20994028.280   112382664.27905       537.173    20994026.280    87408736.60407
       537.174  
  19366096.360   103704570.92007       -43.802    19366097.040    80659107.34808
       -43.801  
 20  9 26  6 32 30.0000000  0 12G20G13G30G27G24G18G15G 5R 1R24R23R 8
  21391444.660   112412797.21748      -463.935    21391439.120    87594375.00846
      -463.935  
  21313058.020   112000872.24247       420.069    21313053.640    87273398.15043
       420.069  
  24822371.200   130442423.66844       458.766    24822371.440   101643459.96043
       458.765  
  24025016.580   126252300.43547      -238.767    24025013.880    98378418.82245
      -238.769  
  23428169.640   123115876.75547      -700.280    23428170.380    95934448.57046
      -700.281  
  20346958.980   106923988.91049         3.045    20346954.960    83317377.19248
         3.045  
  20008120.640   105143379.52449        51.798    20008115.460    81929888.13648
        51.799  
  24174690.980   127038858.31644       634.551    24174689.880    98991314.54244
       634.548  
  21231212.880           0.00000      -539.807    21231217.900           0.00000
      -539.808  
  20827385.920   111373393.56307      -416.175    20827388.500    86623764.02706
      -416.175  
  19672365.620   105233892.33608       199.385    19672370.120    81848602.07707
       199.386  
  19365878.780   103703405.85007       -43.169    19365879.560    80658201.24707
       -43.171  
 20  9 26  6 32 35.0000000  0 11G20G13G27G24G18G15G 5R 1R24R23R 8
  21389125.740   112400610.85349      -463.771    21389120.080    87584879.10746
      -463.771  
  21315159.780   112011916.13847       420.427    21315155.240    87282003.81044
       420.427  
  24023824.660   126246036.00447      -238.181    24023821.880    98373537.44045
      -238.181  
  23424668.760   123097480.17646      -700.212    23424669.620    95920113.58245
      -700.212  
  20346975.780   106924077.17149         3.536    20346971.760    83317445.97548
         3.536  
  20008381.100   105144748.37949        52.284    20008375.960    81930954.78748
        52.283  
  24177862.960   127055534.82445       634.551    24177864.900    99004309.10345
       634.555  
  21228515.040   113478577.07404      -539.531    21228521.100    88261132.40705
      -539.532  
  20825306.540   111362275.25305      -415.570    20825309.440    86615116.47506
      -415.571  
  19673364.760   105239236.88508       200.135    19673369.240    81852758.95107
       200.136  
  19365664.500   103702258.33708       -42.704    19365665.320    80657308.76007
       -42.705  
 20  9 26  6 32 40.0000000  0 11G20G13G27G24G18G15G 5R 1R24R23R 8
  21386807.960   112388430.47448      -463.432    21386802.260    87575387.92145
      -463.433  
  21317263.520   112022970.80447       420.959    21317258.920    87290617.82344
       420.960  
  24022635.580   126239786.37747      -237.530    24022632.680    98368667.60945
      -237.531  
  23421168.620   123079087.19045      -699.859    23421169.740    95905781.39045
      -699.858  
  20346995.340   106924180.27549         4.277    20346991.380    83317526.31148
         4.277  
  20008644.280   105146131.63849        52.992    20008639.160    81932032.64948
        52.992  
  24181037.180   127072212.57045       634.799    24181038.260    99017304.78444
       634.800  
  21225817.840   113464163.41505      -539.148    21225824.460    88249921.78105
      -539.148  
  20823230.800   111351175.21807      -414.699    20823233.800    86606483.14205
      -414.700  
  19674367.980   105244603.47009       201.134    19674372.440    81856932.93206
       201.135  
  19365452.500   103701122.90408       -42.134    19365453.300    80656425.63307
       -42.135  
 20  9 26  6 32 45.0000000  0 11G20G13G27G24G18G15G 5R 1R24R23R 8
  21384491.540   112376257.13748      -463.107    21384485.660    87565902.21045
      -463.107  
  21319369.500   112034037.33548       421.492    21319364.900    87299241.09745
       421.491  
  24021449.320   126233552.69947      -236.914    24021446.520    98363810.19345
      -236.915  
  23417669.180   123060699.17745      -699.901    23417670.460    95891453.03443
      -699.899  
  20347017.940   106924299.29649         4.883    20347014.020    83317619.05348
         4.884  
  20008910.420   105147530.38449        53.606    20008905.340    81933122.58948
        53.606  
  24184211.340   127088892.50445       634.921    24184211.320    99030302.12744
       634.921  
  21223123.860   113449758.21805      -538.713    21223129.780    88238717.69705
      -538.713  
  20821158.620   111340094.32207      -414.024    20821161.300    86597864.64805
      -414.024  
  19675375.540   105249993.25608       202.035    19675380.000    81861125.00606
       202.035  
  19365243.100   103700000.92608       -41.585    19365243.820    80655553.02707
       -41.586  
 20  9 26  6 32 50.0000000  0 11G20G13G27G24G18G15R16R 1R24R23R 8
  21382177.440   112364096.09548      -462.479    21382171.380    87556426.04645
      -462.477  
  21321478.700   112045120.83947       422.310    21321474.080    87307877.57844
       422.311  
  24020267.200   126227340.18647      -235.901    24020264.360    98358969.29245
      -235.901  
  23414171.840   123042321.04946      -699.204    23414172.980    95877132.47045
      -699.207  
  20347044.560   106924439.47749         5.873    20347040.720    83317728.28148
         5.873  
  20009180.500   105148949.78849        54.546    20009175.440    81934228.62448
        54.546  
  22806877.340   121830245.23904       274.140    22806884.880    94756888.67304
       274.139  
  21220432.460   113435366.89504      -537.879    21220437.460    88227524.51505
      -537.882  
  20819091.080   111329038.11707      -412.914    20819093.680    86589265.37205
      -412.913  
  19676388.440   105255411.48308       203.228    19676392.880    81865339.18706
       203.227  
  19365037.100   103698897.47908       -40.734    19365037.760    80654694.74707
       -40.733  
 20  9 26  6 32 55.0000000  0 12G20G13G27G24G18G15G 5R16R 1R24R23R 8
  21379864.180   112351939.47949      -463.037    21379858.040    87546953.43545
      -463.038  
  21323589.700   112056213.56247       421.955    21323585.080    87316521.26745
       421.956  
  24019087.520   126221140.96247      -236.126    24019084.780    98354138.71046
      -236.126  
  23410675.060   123023945.37547      -699.781    23410675.880    95862813.79644
      -699.783  
  20347073.720   106924592.99049         5.633    20347069.920    83317847.92048
         5.633  
  20009453.020   105150382.00349        54.259    20009447.980    81935344.64048
        54.258  
  24190562.640   127122269.05045       634.324    24190563.420    99056298.19045
       634.323  
  22808248.440   121837569.18504       274.043    22808255.560    94762585.08504
       274.043  
  21217741.680   113420981.14306      -538.636    21217746.460    88216335.57405
      -538.635  
  20817026.660   111317998.39907      -413.032    20817029.240    86580678.94705
      -413.032  
  19677405.180   105260850.23608       203.238    19677409.640    81869569.31407
       203.238  
  19364833.080   103697804.59707       -41.100    19364833.680    80653844.74207
       -41.101  
 20  9 26  6 33  0.0000000  0 11G20G13G27G24G18G15G 5R 1R24R23R 8
  21377551.280   112339785.08949      -462.152    21377545.120    87537482.51646
      -462.156  
  21325701.980   112067313.20048       422.978    21325697.140    87325170.27844
       422.979  
  24017909.960   126214952.87247      -234.993    24017907.260    98349316.78646
      -234.992  
  23407178.280   123005569.50646      -698.907    23407178.940    95848494.90043
      -698.907  
  20347105.060   106924757.59649         6.835    20347101.240    83317976.17248
         6.835  
  20009727.540   105151824.84949        55.499    20009722.520    81936468.90548
        55.499  
  24193737.120   127138953.62245       635.251    24193739.660    99069299.21744
       635.248  
  21215050.560           0.00000      -537.641    21215055.920           0.00000
      -537.638  
  20814964.860   111306973.25806      -411.713    20814967.920    86572103.83905
      -411.714  
  19678425.300   105266307.18808       204.742    19678429.820    81873813.63906
       204.741  
  19364630.560   103696720.06108       -39.969    19364631.140    80653001.21807
       -39.969  
 20  9 26  6 33  5.0000000  0 11G20G13G27G24G18G15G 5R 1R24R23R 8
  21375240.880   112327643.76349      -462.015    21375234.640    87528021.69046
      -462.015  
  21327817.700   112078430.59048       423.234    21327812.740    87333833.20244
       423.234  
  24016736.500   126208786.71546      -234.418    24016733.880    98344512.01045
      -234.419  
  23403683.500   122987204.58446      -698.878    23403684.220    95834184.61845
      -698.878  
  20347140.580   106924944.11349         7.315    20347136.740    83318121.53648
         7.314  
  20010006.180   105153289.08649        55.930    20010001.140    81937609.86448
        55.930  
  24196913.840   127155646.51845       635.179    24196914.600    99082306.64145
       635.179  
  21212362.940   113392234.35105      -537.427    21212368.000    88193982.72405
      -537.429  
  20812907.780   111295973.40507      -411.103    20812910.880    86563548.38704
      -411.104  
  19679450.900   105271793.27408       205.487    19679455.420    81878080.54906
       205.488  
  19364431.660   103695654.65007       -39.663    19364432.180    80652172.51907
       -39.662  
 20  9 26  6 33 10.0000000  0 11G20G13G27G24G18G15G 5R 1R24R23R 8
  21372931.260   112315506.68348      -461.825    21372924.960    87518564.21746
      -461.824  
  21329935.100   112089556.94547       423.646    21329930.020    87342503.08544
       423.648  
  24015565.560   126202633.53447      -233.884    24015562.940    98339717.33145
      -233.883  
  23400189.000   122968841.54345      -698.940    23400189.800    95819875.74145
      -698.939  
  20347178.540   106925143.75249         7.881    20347174.780    83318277.07848
         7.882  
  20010287.200   105154765.84349        56.471    20010282.120    81938760.58248
        56.471  
  24200089.440   127172338.88145       635.455    24200090.560    99095313.60244
       635.458  
  21209676.420   113377872.22605      -537.285    21209681.300    88182812.12606
      -537.283  
  20810853.840   111284989.88507      -410.470    20810857.160    86555005.64606
      -410.471  
  19680480.300   105277299.67509       206.289    19680484.800    81882363.29306
       206.290  
  19364234.680   103694599.76107       -39.205    19364235.200    80651352.09207
       -39.206  
 20  9 26  6 33 15.0000000  0 12G20G13G27G24G18G15G 5R 1R24R23R 7R 8
  21370623.420   112303378.88449      -461.354    21370617.080    87509113.99646
      -461.354  
  21332055.140   112100697.24248       424.266    21332049.980    87351183.86745
       424.266  
  24014398.280   126196498.64547      -233.065    24014395.540    98334936.91745
      -233.066  
  23396695.940   122950485.81246      -698.472    23396696.900    95805572.59645
      -698.472  
  20347220.000   106925361.58149         8.691    20347216.240    83318446.81548
         8.691  
  20010571.560   105156260.30949        57.261    20010566.520    81939925.10148
        57.261  
  24203266.620   127189035.49245       635.622    24203267.620    99108324.05044
       635.617  
  21206991.880   113363520.75206      -536.743    21206996.820    88171649.87306
      -536.743  
  20808804.040   111274028.20807      -409.537    20808807.380    86546479.91306
      -409.537  
  19681514.480   105282831.54409       207.336    19681518.960    81886665.85106
       207.336  
  21020954.000   112526806.74904       539.755    21020945.500           0.00000
       539.755  
  19364040.540   103693560.33507       -38.486    19364041.100    80650543.65407
       -38.487  
 20  9 26  6 33 20.0000000  0 11G20G13G27G24G18G15G 5R 1R24R23R 8
  21368316.840   112291257.65949      -461.071    21368310.480    87499668.94246
      -461.072  
  21334177.260   112111848.70348       424.740    21334172.000    87359873.29244
       424.740  
  24013233.920   126190379.17247      -232.481    24013231.080    98330168.50444
      -232.481  
  23393203.700   122932134.29345      -698.267    23393204.820    95791272.69944
      -698.266  
  20347264.380   106925594.77849         9.294    20347260.640    83318628.53448
         9.293  
  20010858.720   105157769.58249        57.846    20010853.700    81941101.16048
        57.846  
  24206444.340   127205733.94345       635.512    24206446.260    99121335.73244
       635.515  
  21204308.740   113349177.30706      -536.380    21204313.440    88160493.89806
      -536.381  
  20806757.740   111263085.18408      -408.783    20806760.620    86537968.71105
      -408.783  
  19682552.840   105288385.87409       208.206    19682557.280    81890985.90106
       208.205  
  19363848.820   103692533.61907       -37.938    19363849.360    80649745.09407
       -37.939  
 20  9 26  6 33 25.0000000  0 12G20G13G27G24G18G15G 5R 1R24R23R 7R 8
  21366011.480   112279142.81348      -460.970    21366005.040    87490228.81946
      -460.971  
  21336301.440   112123011.25047       425.015    21336296.180    87368571.35444
       425.016  
  24012072.320   126184274.89147      -232.012    24012069.560    98325411.90845
      -232.012  
  23389712.440   122913786.99347      -698.199    23389713.440    95776976.15344
      -698.203  
  20347311.660   106925843.18649         9.729    20347307.920    83318822.09548
         9.729  
  20011148.660   105159293.56049        58.252    20011143.700    81942288.68648
        58.252  
  24209622.220   127222433.85245       635.621    24209622.560    99134348.66444
       635.622  
  21201627.140   113334841.40206      -536.285    21201631.400    88149343.74305
      -536.285  
  20804714.940   111252160.85307      -408.283    20804717.560    86529471.96705
      -408.282  
  19683595.380   105293962.63209       208.883    19683599.760    81895323.35606
       208.884  
  21026360.840           0.00000       540.093           0.000           0.00000
         0.000  
  19363659.400   103691519.41207       -37.669    19363659.920    80648956.30807
       -37.670  
 20  9 26  6 33 30.0000000  0 12G20G13G27G24G18G15G 5R 1R24R23R 7R 8
  21363707.300   112267034.52348      -460.825    21363700.880    87480793.80846
      -460.825  
  21338427.620   112134185.01648       425.376    21338422.340    87377278.18144
       425.377  
  24010913.600   126178186.04547      -231.589    24010910.900    98320667.30745
      -231.587  
  23386221.960   122895444.04046      -698.139    23386222.960    95762682.99444
      -698.141  
  20347361.900   106926107.08649        10.233    20347358.160    83319027.72948
        10.233  
  20011441.420   105160832.49549        58.735    20011436.560    81943487.86448
        58.735  
  24212800.900   127239135.61045       635.537    24212800.040    99147363.06344
       635.536  
  21198946.880   113320513.40806      -536.024    21198951.100    88138199.76706
      -536.024  
  20802675.740   111241255.42307      -407.662    20802677.880    86520989.97005
      -407.662  
  19684642.160   105299561.82509       209.652    19684646.500    81899678.27906
       209.653  
  21029056.080   112570192.42904       540.324    21029046.940           0.00000
       540.324  
  19363472.280   103690517.87707       -37.273    19363472.880    80648177.34807
       -37.274  
 20  9 26  6 33 35.0000000  0 11G20G13G27G24G18G15G 5R 1R24R23R 8
  21361404.660   112254934.33348      -460.246    21361398.200    87471365.01845
      -460.243  
  21340556.420   112145371.38748       426.107    21340551.040    87385994.79845
       426.108  
  24009758.220   126172114.23847      -230.657    24009755.400    98315936.03045
      -230.656  
  23382732.500   122877107.02246      -697.752    23382733.620    95748394.34545
      -697.751  
  20347415.320   106926387.86349        11.103    20347411.580    83319246.47948
        11.104  
  20011737.360   105162387.79649        59.604    20011732.520    81944699.76248
        59.605  
  24215980.040   127255840.50145       635.932    24215979.460    99160379.83243
       635.932  
  21196268.440   113306194.91907      -535.468    21196272.820    88127063.20806
      -535.470  
  20800640.280   111230370.38207      -406.629    20800642.340    86512523.75006
      -406.627  
  19685693.420   105305185.28208       210.813    19685697.800    81904052.07307
       210.813  
  19363287.880   103689530.64307       -36.519    19363288.540    80647409.47007
       -36.518  
 20  9 26  6 33 40.0000000  0 11G20G13G27G24G18G15G 5R 1R24R23R 8
  21359103.040   112242839.70648      -460.003    21359096.620    87461940.70746
      -460.006  
  21342687.080   112156568.03148       426.512    21342681.660    87394719.46444
       426.512  
  24008605.560   126166056.81947      -230.086    24008602.760    98311215.98445
      -230.086  
  23379243.840   122858773.51947      -697.540    23379244.940    95734108.51944
      -697.540  
  20347471.500   106926683.05949        11.674    20347467.780    83319476.52948
        11.673  
  20012035.960   105163956.99749        60.168    20012031.160    81945922.55548
        60.166  
  24219159.000   127272546.04345       635.854    24219158.260    99173397.07243
       635.854  
  21193591.120   113291883.37906      -535.166    21193595.220    88115931.94605
      -535.164  
  20798608.100   111219503.15407      -405.913    20798610.180    86504071.52605
      -405.915  
  19686748.620   105310830.17109       211.629    19686753.100    81908442.52206
       211.630  
  19363105.600   103688554.95707       -36.046    19363106.360    80646650.64707
       -36.047  
 20  9 26  6 33 45.0000000  0 11G20G13G27G24G18G15G 5R 1R24R23R 8
  21356803.080   112230754.17649      -459.661    21356796.820    87452523.41645
      -459.661  
  21344820.320   112167778.16748       427.007    21344814.760    87403454.65245
       427.006  
  24007456.140   126160017.33846      -229.408    24007453.520    98306509.89344
      -229.408  
  23375756.500   122840446.87746      -697.207    23375757.480    95719828.01145
      -697.207  
  20347531.100   106926996.16249        12.374    20347527.380    83319720.48048
        12.376  
  20012337.840   105165543.62449        60.816    20012333.080    81947158.86348
        60.817  
  24222338.820   127289255.68245       636.080    24222337.960    99186417.56844
       636.080  
  21190915.740   113277582.14306      -534.729    21190919.780    88104808.79805
      -534.730  
  20796579.980   111208657.30707      -405.115    20796581.620    86495635.87705
      -405.115  
  19687808.560   105316500.12708       212.577    19687813.080    81912852.48806
       212.577  
  19362926.140   103687594.61007       -35.464    19362927.040    80645903.69607
       -35.464  
 20  9 26  6 33 50.0000000  0 11G20G13G27G24G18G15G 5R 1R24R23R 8
  21354504.820   112218677.57348      -459.450    21354498.580    87443112.97746
      -459.447  
  21346956.180   112179001.90648       427.437    21346950.500    87412200.37544
       427.438  
  24006310.300   126153995.63547      -228.796    24006307.480    98301817.59545
      -228.795  
  23372270.380   122822126.95746      -697.134    23372271.380    95705552.72843
      -697.137  
  20347594.060   106927327.00649        12.951    20347590.360    83319978.29348
        12.950  
  20012643.060   105167147.40549        61.373    20012638.300    81948408.53648
        61.374  
  24225519.780   127305969.52245       636.430    24225518.800    99199441.40944
       636.426  
  21188242.420   113263291.23706      -534.496    21188246.520    88093693.69606
      -534.496  
  20794555.720   111197832.78307      -404.400    20794557.320    86487216.75405
      -404.399  
  19688873.080   105322194.92908       213.355    19688877.700    81917281.81906
       213.354  
  19362749.520   103686649.18508       -35.018    19362750.520    80645168.34007
       -35.017  
 20  9 26  6 33 55.0000000  0 11G20G13G27G24G18G15G 5R 1R24R23R 8
  21352207.500   112206605.92148      -459.188    21352201.500    87433706.57646
      -459.189  
  21349093.780   112190235.06748       427.808    21349087.920    87420953.51645
       427.807  
  24005167.020   126147987.71546      -228.254    24005164.160    98297136.10445
      -228.255  
  23368784.740   122803810.07645      -697.063    23368785.720    95691279.83344
      -697.063  
  20347659.640   106927671.62349        13.520    20347655.940    83320246.84948
        13.519  
  20012950.760   105168764.38849        61.903    20012946.000    81949668.56448
        61.902  
  24228700.600   127322683.28645       636.271    24228699.540    99212465.07243
       636.271  
  21185570.180   113249006.82906      -534.177    21185574.180    88082583.55105
      -534.175  
  20792534.720   111187025.60706      -403.812    20792536.060    86478811.22804
      -403.813  
  19689941.560   105327910.74709       214.209    19689946.240    81921727.41906
       214.211  
  19362575.000   103685714.84508       -34.539    19362576.040    80644441.64107
       -34.539  
 20  9 26  6 34  0.0000000  0 11G20G13G27G24G18G15G 5R 1R24R23R 8
  21349912.120   112194544.03348      -459.003    21349906.140    87424307.69046
      -459.002  
  21351234.080   112201482.44047       428.155    21351228.260    87429717.72244
       428.156  
  24004027.200   126141998.40447      -227.753    24004024.360    98292469.10644
      -227.753  
  23365300.480   122785500.59245      -696.831    23365301.380    95677012.71945
      -696.830  
  20347728.760   106928034.82849        14.047    20347725.080    83320529.84749
        14.049  
  20013261.840   105170399.27449        62.439    20013257.100    81950942.48048
        62.440  
  24231882.420   127339401.74545       636.342    24231880.580    99225492.40144
       636.340  
  21182900.240   113234733.26407      -533.955    21182903.720    88071481.92505
      -533.957  
  20790517.780   111176240.27507      -403.043    20790519.140    86470422.58005
      -403.043  
  19691014.780   105333652.03908       215.000    19691019.540    81926192.88306
       214.999  
  19362403.400   103684796.28007       -34.109    19362404.540    80643727.22208
       -34.111  
 20  9 26  6 34  5.0000000  0 11G20G13G27G24G18G15G 5R 1R24R23R 8
  21347617.540   112182486.46548      -458.817    21347611.620    87414912.14546
      -458.816  
  21353376.140   112212738.68748       428.480    21353370.160    87438488.77044
       428.481  
  24002889.940   126136022.25546      -227.261    24002886.960    98287812.34045
      -227.260  
  23361816.780   122767193.44146      -696.573    23361817.760    95662747.41945
      -696.576  
  20347800.360   106928411.11548        14.610    20347796.700    83320823.04748
        14.609  
  20013575.320   105172046.68549        62.906    20013570.620    81952226.17248
        62.906  
  24235063.880   127356119.52945       636.236    24235061.880    99238519.32844
       636.234  
  21180231.100   113220465.48807      -533.660    21180234.600    88060384.74905
      -533.660  
  20788503.960   111165471.54906      -402.554    20788505.440    86462046.98206
      -402.559  
  19692091.780   105339413.68608       215.815    19692096.680    81930674.20906
       215.814  
  19362233.820   103683888.18107       -33.748    19362234.980    80643020.89007
       -33.746  
 20  9 26  6 34 10.0000000  0 12G20G13G27G24G18G15G 5R 1R24R23R 7R 8
  21345325.720   112170443.23748      -458.312    21345319.920    87405527.89246
      -458.313  
  21355521.680   112224013.84647       429.267    21355515.640    87447274.63344
       429.268  
  24001757.000   126130069.30646      -226.409    24001754.160    98283173.67645
      -226.410  
  23358335.380   122748898.46846      -696.315    23358336.440    95648491.65846
      -696.318  
  20347876.360   106928810.59249        15.415    20347872.720    83321134.35748
        15.415  
  20013893.120   105173716.66749        63.759    20013888.420    81953527.50748
        63.758  
  24238244.420           0.00040       636.611    24238239.520           0.00040
       636.611  
  21177564.920   113206213.44505      -533.261    21177568.300    88049299.78105
      -533.258  
  20786495.100   111154729.76907      -401.461    20786496.720    86453685.23906
      -401.462  
  19693174.460   105345205.71608       216.908    19693179.460    81935179.04106
       216.910  
  21050707.340           0.00000       542.548    21050705.720           0.00000
       542.548  
  19362068.080   103683000.37508       -33.016    19362069.180    80642330.38508
       -33.018  
 20  9 26  6 34 15.0000000  0 12G20G13G27G24G18G15G 5R 1R24R23R 7R 8
  21343034.260   112158402.46148      -458.095    21343028.680    87396145.49647
      -458.096  
  21357668.540   112235295.82247       429.526    21357662.460    87456065.73944
       429.528  
  24000626.240   126124127.80246      -225.767    24000623.580    98278543.98045
      -225.769  
  23354854.180   122730603.90846      -696.210    23354855.180    95634236.19346
      -696.212  
  20347954.540   106929221.36249        15.949    20347950.900    83321454.41548
        15.949  
  20014212.900   105175397.37049        64.261    20014208.220    81954837.12548
        64.261  
  24241428.920   127389563.60245       636.580    24241424.860    99264573.80543
       636.578  
  21174899.480   113191965.03306      -532.960    21174902.660    88038217.67305
      -532.959  
  20784489.140   111144002.70008      -400.820    20784490.720    86445341.93205
      -400.819  
  19694260.600   105351016.01208       217.638    19694265.700    81939698.13906
       217.639  
  21053419.960   112700608.76405       542.680    21053419.700    87656027.38804
       542.677  
  19361903.960   103682121.03307       -32.600    19361904.980    80641646.48907
       -32.601  
 20  9 26  6 34 20.0000000  0 11G20G13G27G24G18G15G 5R 1R24R23R 8
  21340743.460   112146364.61748      -457.942    21340737.880    87386765.30046
      -457.942  
  21359816.920   112246585.19348       429.908    21359810.660    87464862.64244
       429.910  
  23999497.760   126118197.99746      -225.162    23999494.880    98273923.30144
      -225.162  
  23351373.080   122712310.15046      -696.057    23351373.860    95619981.26543
      -696.058  
  20348034.920   106929643.87849        16.439    20348031.320    83321783.63748
        16.439  
  20014534.820   105177089.17349        64.755    20014530.160    81956155.37148
        64.757  
  24244612.860   127406286.29946       636.554    24244606.420    99277604.48543
       636.555  
  21172234.820   113177720.93105      -532.643    21172238.120    88027138.97806
      -532.643  
  20782485.880   111133291.00007      -400.217    20782487.720    86437010.55506
      -400.215  
  19695350.280   105356845.03308       218.432    19695355.460    81944231.87406
       218.432  
  19361741.480   103681250.69507       -32.145    19361742.460    80640969.54507
       -32.145  
 20  9 26  6 34 25.0000000  0 12G20G13G27G24G18G15G 5R 1R24R23R 7R 8
  21338454.240   112134334.99548      -457.763    21338448.800    87377391.65346
      -457.766  
  21361967.700   112257887.26647       430.250    21361961.240    87473669.46544
       430.250  
  23998372.520   126112285.22846      -224.833    23998369.680    98269316.00445
      -224.834  
  23347893.260   122694022.67647      -696.037    23347893.780    95605731.40744
      -696.038  
  20348118.600   106930083.37749        16.969    20348114.980    83322126.11948
        16.969  
  20014859.840   105178797.37049        65.270    20014855.220    81957486.45748
        65.269  
  24247796.360   127423012.07945       636.443    24247788.800    99290637.52542
       636.442  
  21169571.780   113163486.44505      -532.505    21169575.220    88016067.70905
      -532.503  
  20780486.600   111122599.78507      -399.525    20780488.500    86428695.24105
      -399.528  
  19696444.360   105362698.23108       219.241    19696449.680    81948784.32106
       219.241  
  21058848.500   112729674.07805       542.960    21058844.520    87678626.72404
       542.960  
  19361581.680   103680394.55007       -31.747    19361582.620    80640303.62108
       -31.746  
 20  9 26  6 34 30.0000000  0 11G20G13G27G24G18G15G 5R 1R24R23R 8
  21336166.840   112122315.01648      -457.297    21336161.480    87368025.39846
      -457.295  
  21364120.900   112269203.27847       430.913    21364114.560    87482487.12044
       430.913  
  23997250.860   126106390.98047      -224.061    23997248.000    98264723.05845
      -224.060  
  23344414.800   122675742.65546      -695.674    23344415.220    95591487.16445
      -695.674  
  20348205.740   106930541.27749        17.753    20348202.140    83322482.93048
        17.753  
  20015188.280   105180523.37349        65.999    20015183.620    81958831.42048
        65.998  
  24250979.260   127439742.64645       636.736    24250973.020    99303674.35343
       636.733  
  21166910.740   113149262.71705      -532.184    21166914.300    88005004.78005
      -532.182  
  20778491.440   111111930.64208      -398.653    20778493.380    86420397.02305
      -398.654  
  19697543.240   105368576.82708       220.232    19697548.680    81953356.53806
       220.233  
  19361424.780   103679554.22107       -31.145    19361425.740    80639650.06608
       -31.146  
 20  9 26  6 34 35.0000000  0 12G20G13G27G24G18G15G 5R 1R24R23R 7R 8
  21333881.380   112110305.00348      -456.920    21333876.080    87358666.94746
      -456.919  
  21366277.020   112280533.81047       431.556    21366270.500    87491316.03643
       431.558  
  23996132.740   126100515.53347      -223.216    23996129.920    98260144.78545
      -223.217  
  23340937.900   122657470.63347      -695.332    23340938.180    95577249.23246
      -695.333  
  20348296.480   106931017.95149        18.482    20348292.880    83322854.36548
        18.482  
  20015520.140   105182267.49649        66.711    20015515.460    81960190.48248
        66.711  
  24254163.920   127456478.15745       637.350    24254157.600    99316715.01943
       637.348  
  21164251.880   113135050.50005      -531.454    21164255.540    87993950.85505
      -531.456  
  20776500.360   111101283.92106      -397.777    20776502.620    86412116.27106
      -397.776  
  19698646.940   105374481.28408       221.238    19698652.500    81957948.86006
       221.240  
  21064282.800   112758752.22506       543.782           0.000           0.00000
         0.000  
  19361270.900   103678729.75607       -30.569    19361271.780    80639008.79008
       -30.568  
 20  9 26  6 34 40.0000000  0 12G20G13G27G24G18G15G 5R 1R24R23R 7R 8
  21331597.040   112098301.15449      -456.851    21331591.820    87349313.28646
      -456.850  
  21368435.140   112291874.73947       431.609    21368428.440    87500153.17544
       431.610  
  23995017.520   126094655.04445      -222.840    23995014.700    98255578.22744
      -222.843  
  23337461.640   122639202.63545      -695.344    23337461.960    95563014.45545
      -695.346  
  20348390.060   106931509.57649        18.874    20348386.440    83323237.44249
        18.874  
  20015854.760   105184025.92549        67.112    20015850.040    81961560.65648
        67.113  
  24257348.580   127473214.67346       636.958    24257341.920    99329758.37844
       636.961  
  21161594.540   113120845.58304      -531.474    21161598.120    87982902.60306
      -531.476  
  20774512.700   111090655.60106      -397.302    20774515.120    86403849.75805
      -397.301  
  19699754.820   105380407.68208       221.843    19699760.380    81962558.34306
       221.841  
  21067002.020   112773307.53105       543.757    21066999.380           0.00000
       543.757  
  19361119.280   103677917.59207       -30.204    19361120.140    80638377.13808
       -30.204  
 20  9 26  6 34 45.0000000  0 12G20G13G27G24G18G15G 5R 1R24R23R 7R 8
  21329314.840   112086308.07049      -456.505    21329309.540    87339968.03847
      -456.506  
  21370596.120   112303230.91347       432.270    21370589.400    87509002.20744
       432.268  
  23993906.080   126088814.43245      -222.251    23993903.120    98251027.08243
      -222.251  
  23333986.940   122620943.09246      -695.089    23333987.160    95548786.31546
      -695.093  
  20348487.400   106932020.84649        19.530    20348483.740    83323635.83948
        19.529  
  20016193.040   105185803.34949        67.719    20016188.260    81962945.63948
        67.719  
  24260535.980   127489977.20346       637.048    24260530.120    99342826.60343
       637.049  
  21158939.540   113106653.06206      -531.112    21158943.200    87971864.00106
      -531.113  
  20772529.380   111080050.75305      -396.742    20772531.960    86395601.55005
      -396.741  
  19700867.740   105386360.93608       222.804    19700873.260    81967188.66806
       222.804  
  21069723.480   112787873.00506       544.007    21069721.260           0.00000
       544.010  
  19360970.820   103677122.26008       -29.641    19360971.620    80637758.51808
       -29.640  
 20  9 26  6 34 50.0000000  0 12G20G13G27G24G18G15G 5R 1R24R23R 7R 8
  21327032.180   112074312.76648      -456.450    21327026.880    87330620.99247
      -456.450  
  21372757.440   112314589.17548       432.563    21372750.700    87517852.84444
       432.561  
  23992795.940   126082980.23146      -221.815    23992792.920    98246480.90544
      -221.814  
  23330511.540   122602679.47646      -694.993    23330511.760    95534554.89846
      -694.994  
  20348585.920   106932538.59848        20.008    20348582.260    83324039.28648
        20.007  
  20016532.440   105187586.69049        68.165    20016527.620    81964335.30148
        68.163  
  24263719.400   127506712.25544       637.132    24263715.060    99355866.96544
       637.127  
  21156284.400   113092459.40906      -530.810    21156288.120    87960824.45506
      -530.809  
  20770548.020   111069455.95107      -395.766    20770550.860    86387361.15204
      -395.766  
  19701983.160   105392327.51208       223.489    19701988.600    81971829.29706
       223.491  
  21072443.640   112802435.25505       544.372    21072440.360           0.00000
       544.372  
  19360823.020   103676330.52008       -29.306    19360823.760    80637142.70108
       -29.306  
 20  9 26  6 34 55.0000000  0 13G20G13G27G24G18G10G15G 5R 1R24R23R 7
                                R 8
  21324751.840   112062329.59348      -455.908    21324746.640    87321283.55547
      -455.911  
  21374921.960   112325963.91547       433.150    21374915.120    87526716.19843
       433.151  
  23991689.680   126077166.96646      -220.894    23991686.800    98241951.13344
      -220.896  
  23327038.060   122584425.86646      -694.579    23327038.220    95520331.29946
      -694.579  
  20348688.400   106933077.19749        20.836    20348684.760    83324459.00548
        20.836  
  24422604.960   128341693.34444      -608.968    24422600.100   100006495.00344
      -608.968  
  20016875.660   105189390.17649        68.958    20016870.800    81965740.61948
        68.957  
  24266904.420   127523454.29946       637.283    24266899.580    99368912.66044
       637.282  
  21153631.600   113078279.07105      -530.336    21153635.380    87949795.33006
      -530.336  
  20768571.240   111058885.59907      -394.960    20768574.360    86379139.64505
      -394.958  
  19703103.820   105398322.10308       224.587    19703109.200    81976491.74606
       224.587  
  21075165.940   112817008.81507       544.611    21075165.500           0.00000
       544.611  
  19360678.540   103675556.73707       -28.609    19360679.240    80636540.89407
       -28.610  
 20  9 26  6 35  0.0000000  0 12G20G13G27G24G18G10G15R 1R24R23R 7R 8
  21322473.120   112050354.75748      -455.358    21322467.940    87311952.47146
      -455.357  
  21377088.820   112337351.25447       433.860    21377081.940    87535589.43444
       433.861  
  23990586.780   126071371.01447      -220.060    23990583.940    98237434.83445
      -220.060  
  23323565.800   122566178.57846      -694.081    23323566.000    95506112.63945
      -694.081  
  20348794.160   106933632.97049        21.695    20348790.520    83324892.03349
        21.696  
  24419562.960   128325695.93345      -608.559    24419558.180    99994029.53344
      -608.558  
  20017222.000   105191210.22149        69.803    20017217.120    81967158.80348
        69.804  
  21150980.820   113064108.59805      -529.783    21150984.500    87938773.92406
      -529.785  
  20766598.580   111048336.22908      -393.965    20766601.840    86370934.57006
      -393.963  
  19704228.940   105404340.80608       225.725    19704234.320    81981172.97006
       225.724  
  21077889.600   112831589.78606       545.104    21077887.120           0.00010
       545.104  
  19360536.840   103674797.50107       -27.854    19360537.440    80635950.39007
       -27.854  
 20  9 26  6 35  5.0000000  0 12G20G13G27G24G18G10G15R 1R24R23R 7R 8
  21320196.100   112038388.86748      -455.132    21320190.960    87302628.40847
      -455.132  
  21379258.160   112348751.87247       434.247    21379251.360    87544473.04144
       434.246  
  23989487.240   126065592.78247      -219.472    23989484.420    98232932.33244
      -219.473  
  23320094.800   122547938.50546      -693.917    23320095.220    95491899.61045
      -693.917  
  20348903.320   106934206.45249        22.291    20348899.680    83325338.90648
        22.291  
  24416517.580   128309701.37945      -608.556    24416513.440    99981566.16244
      -608.556  
  20017571.600   105193047.27149        70.359    20017566.700    81968590.25648
        70.360  
  21148331.860   113049948.35405      -529.478    21148335.520    87927760.38206
      -529.479  
  20764629.980   111037808.17608      -393.216    20764633.300    86362746.08106
      -393.216  
  19705358.740   105410384.34808       226.548    19705364.120    81985873.48606
       226.549  
  21080615.080   112846178.86807       545.339    21080611.640    87769241.62502
       545.338  
  19360397.880   103674053.12408       -27.430    19360398.420    80635371.41208
       -27.430  
 20  9 26  6 35 10.0000000  0 11G20G13G27G24G18G15R 1R24R23R 7R 8
  21317920.800   112026431.73848      -454.925    21317915.680    87293311.17546
      -454.925  
  21381429.960   112360165.40946       434.619    21381423.220    87553366.68244
       434.620  
  23988391.180   126059832.09946      -219.020    23988388.240    98228443.51644
      -219.021  
  23316625.120   122529704.92247      -693.815    23316625.460    95477691.66445
      -693.819  
  20349015.840   106934797.39149        22.760    20349012.140    83325799.39348
        22.759  
  20017924.400   105194901.13749        70.854    20017919.520    81970034.85648
        70.853  
  21145684.700   113035798.40505      -529.405    21145688.480    87916754.81006
      -529.404  
  20762665.200   111027301.26407      -392.603    20762668.580    86354574.16505
      -392.607  
  19706493.080   105416452.28608       227.324    19706498.440    81990592.97106
       227.325  
  21083342.080   112860775.97407       545.483    21083330.980           0.00000
       545.483  
  19360261.740   103673323.52008       -26.991    19360262.160    80634803.92508
       -26.990  
 20  9 26  6 35 15.0000000  0 12G20G13G27G24G18G10G15R 1R24R23R 7R 8
  21315645.960   112014477.23248      -454.941    21315640.840    87283995.98947
      -454.942  
  21383603.100   112371586.05248       434.806    21383596.540    87562265.99544
       434.805  
  23987297.360   126054083.19047      -218.603    23987294.300    98223963.86144
      -218.604  
  23313155.560   122511472.07547      -693.944    23313155.860    95463484.26046
      -693.944  
  20349130.540   106935399.88949        23.111    20349126.760    83326268.88248
        23.112  
  24410427.820   128277682.00144      -608.616    24410427.120    99956608.77644
      -608.617  
  20018279.260   105196765.85549        71.158    20018274.400    81971487.88949
        71.158  
  21143038.300   113021652.18205      -529.320    21143042.240    87905752.20706
      -529.320  
  20760703.240   111016809.57908      -392.149    20760706.420    86346413.93604
      -392.147  
  19707630.800   105422538.69808       227.913    19707636.220    81995326.84606
       227.913  
  21086069.280   112875374.66107       545.404    21086066.540           0.00000
       545.404  
  19360127.200   103672602.46508       -26.792    19360127.540    80634243.10808
       -26.792  
 20  9 26  6 35 20.0000000  0 12G20G27G24G18G10G15G 5R 1R24R23R 7R 8
  21313372.340   112002528.89748      -454.462    21313367.200    87274685.57247
      -454.461  
  23986206.200   126048349.02446      -217.678    23986203.180    98219495.66645
      -217.679  
  23309686.900   122493243.27946      -693.547    23309687.100    95449279.99846
      -693.546  
  20349248.040   106936017.15849        23.945    20349244.200    83326749.84948
        23.945  
  24407381.540   128261656.45045      -608.642    24407380.540    99944143.50744
      -608.642  
  20018636.820   105198644.67249        71.935    20018631.940    81972951.90048
        71.935  
  24282840.460   127607190.22045       637.809    24282839.740    99434192.29544
       637.809  
  21140393.340   113007513.38805      -528.747    21140397.320    87894755.36306
      -528.747  
  20758744.760   111006336.32408      -391.167    20758747.820    86338267.96105
      -391.163  
  19708772.600   105428646.88708       228.941    19708778.100    82000077.65206
       228.941  
  21088797.440   112889978.42608       545.917    21088796.660    87803259.00803
       545.918  
  19359994.860   103671893.29407       -26.108    19359995.120    80633691.52308
       -26.108  
 20  9 26  6 35 25.0000000  0 13G20G13G27G24G18G10G15G 5R 1R24R23R 7
                                R 8
  21311100.520   111990590.10849      -454.138    21311095.400    87265382.63347
      -454.139  
  21387954.880   112394453.69646       435.931    21387947.840    87580110.06044
       435.931  
  23985118.640   126042633.30145      -217.198    23985115.500    98215041.83744
      -217.197  
  23306219.520   122475022.06146      -693.234    23306219.780    95435081.64046
      -693.234  
  20349369.060   106936652.75249        24.599    20349365.120    83327245.11548
        24.599  
  24404339.840   128245665.69245      -608.538    24404340.720    99931683.13845
      -608.537  
  20018997.780   105200541.14649        72.547    20018992.840    81974429.63148
        72.548  
  24286029.900           0.00040       637.799    24286029.240           0.00040
       637.799  
  21137750.280   112993385.47306      -528.287    21137754.360    87883766.98906
      -528.288  
  20756790.440   110995885.13007      -390.391    20756793.460    86330139.26704
      -390.391  
  19709919.160   105434780.38908       229.855    19709924.760    82004848.17606
       229.855  
  21091527.200   112904590.99208       546.146    21091524.380           0.00000
       546.146  
  19359865.360   103671199.59007       -25.560    19359865.600    80633152.00607
       -25.561  
 20  9 26  6 35 30.0000000  0 13G20G13G27G24G18G10G15G 5R 1R24R23R 7
                                R 8
  21308830.400   111978660.08748      -453.972    21308825.260    87256086.50947
      -453.972  
  21390133.820   112405911.37345       436.227    21390129.620    87589038.18644
       436.224  
  23984034.300   126036935.25346      -216.592    23984031.140    98210601.77746
      -216.591  
  23302753.480   122456807.65148      -693.178    23302753.720    95420888.62646
      -693.181  
  20349493.380   106937305.89049        25.104    20349489.380    83327754.05748
        25.104  
  24401297.760   128229677.72044      -608.408    24401296.180    99919225.05344
      -608.413  
  20019361.900   105202454.44449        73.049    20019356.960    81975920.55349
        73.048  
  24289216.440   127640716.84245       637.843    24289214.760    99460297.41945
       637.843  
  21135109.220   112979267.72705      -528.085    21135113.360    87872786.45306
      -528.082  
  20754839.980   110985455.24008      -389.764    20754842.840    86322027.24504
      -389.766  
  19711070.300   105440938.43408       230.634    19711075.940    82009637.71506
       230.636  
  21094258.520   112919211.30108       546.300    21094256.600           0.00000
       546.300  
  19359738.680   103670520.68807       -25.164    19359738.820    80632623.92008
       -25.162  
 20  9 26  6 35 35.0000000  0 13G20G13G27G24G18G10G15G 5R 1R24R23R 7
                                R 8
  21306560.520   111966731.43248      -454.015    21306555.360    87246791.45447
      -454.015  
  21392314.500   112417374.57644       436.319    21392313.400    87597970.61744
       436.318  
  23982951.920   126031247.22946      -216.392    23982948.780    98206169.56145
      -216.393  
  23299287.360   122438592.62646      -693.252    23299287.600    95406695.10246
      -693.252  
  20349619.620   106937969.00549        25.384    20349615.520    83328270.76648
        25.384  
  24398252.920           0.00000      -608.757           0.000           0.00000
         0.000  
  20019727.780   105204377.03349        73.290    20019722.840    81977418.66048
        73.291  
  24292408.160   127657472.64646       637.585    24292404.840    99473353.85345
       637.586  
  21132468.620   112965152.32405      -528.087    21132472.780    87861807.81506
      -528.087  
  20752892.080   110975038.99408      -389.348    20752894.840    86313925.61204
      -389.346  
  19712224.660   105447113.28408       231.126    19712230.300    82014440.36706
       231.127  
  21096989.800   112933831.76407       546.197    21096991.340    87837407.07104
       546.199  
  19359613.220   103669848.75707       -25.023    19359613.360    80632101.29208
       -25.023  
 20  9 26  6 35 40.0000000  0 13G20G13G27G24G18G10G15G 5R 1R24R23R 7
                                R 8
  21304291.880   111954809.34948      -453.562    21304286.760    87237501.52147
      -453.562  
  21394496.880   112428848.57346       436.969    21394497.960    87606911.30644
       436.972  
  23981872.520   126025574.69647      -215.529    23981869.340    98201749.46745
      -215.531  
  23295822.040   122420382.15746      -692.894    23295822.260    95392505.10646
      -692.894  
  20349748.760   106938647.47249        26.148    20349744.580    83328799.43348
        26.149  
  24395211.840   128197678.51145      -608.545    24395212.540    99894308.24944
      -608.545  
  20020096.480   105206314.27049        74.047    20020091.460    81978928.16348
        74.048  
  24295596.300   127674229.95145       637.851    24295593.580    99486411.42345
       637.854  
  21129829.500   112951044.94804      -527.722    21129833.680    87850835.40906
      -527.722  
  20750947.900   110964641.91008      -388.494    20750950.620    86305838.97505
      -388.492  
  19713383.120   105453310.26408       232.151    19713388.780    82019260.25506
       232.150  
  21099722.020   112948457.93707       546.624    21099727.100    87848782.97304
       546.625  
  19359490.040   103669189.40407       -24.336    19359490.240    80631588.49108
       -24.337  
 20  9 26  6 35 45.0000000  0 13G20G13G27G24G18G10G15G 5R 1R24R23R 7
                                R 8
  21302026.480   111942904.29548      -452.905    21302021.380    87228224.88446
      -452.906  
  21396686.060           0.00000       437.909           0.000           0.00000
         0.000  
  23980798.060   126019928.09547      -214.546    23980794.740    98197349.50844
      -214.547  
  23292359.560   122402186.87545      -692.328    23292359.820    95378327.02445
      -692.329  
  20349882.800   106939351.71849        27.170    20349878.560    83329348.20648
        27.169  
  24392170.540   128181698.12146      -608.098    24392170.580    99881855.98245
      -608.098  
  20020469.900   105208276.59249        75.052    20020464.940    81980457.28049
        75.051  
  24298786.740   127690999.08147       638.364    24298783.360    99499478.28944
       638.364  
  21127193.840   112936956.09605      -526.869    21127198.080    87839877.43006
      -526.869  
  20749009.180   110954274.48708      -387.289    20749011.900    86297775.49405
      -387.289  
  19714547.700   105459540.29208       233.433    19714553.400    82024105.79705
       233.435  
  21102457.160   112963100.19907       547.231    21102461.360    87860171.37003
       547.232  
  19359371.240   103668553.14407       -23.431    19359371.420    80631093.62507
       -23.431  
 20  9 26  6 35 50.0000000  0 13G20G13G27G24G18G10G15G 5R 1R24R23R 7
                                R 8
  21299762.500   111931006.80048      -452.888    21299757.400    87218954.05947
      -452.887  
  21398877.060   112451839.66145       437.962    21398872.300    87624817.01544
       437.962  
  23979726.720   126014297.81646      -214.137    23979723.300    98192962.29445
      -214.138  
  23288898.160   122383997.21945      -692.456    23288898.440    95364153.24945
      -692.456  
  20350019.940   106940072.21749        27.521    20350015.620    83329909.62648
        27.521  
  24389130.480   128165719.13244      -608.289    24389129.040    99869404.89144
      -608.292  
  20020846.300   105210254.43549        75.367    20020841.320    81981998.44048
        75.368  
  24301978.520   127707770.64345       638.177    24301974.500    99512547.05844
       638.176  
  21124559.840   112922875.95605      -526.952    21124564.100    87828926.20306
      -526.952  
  20747074.260   110943927.16907      -386.858    20747076.960    86289727.57605
      -386.858  
  19715716.680   105465793.43408       234.022    19715722.320    82028969.34806
       234.023  
  21105193.520   112977749.00207       547.200    21105200.740           0.00000
       547.200  
  19359254.900   103667930.29108       -23.205    19359255.080    80630609.15808
       -23.204  
 20  9 26  6 35 55.0000000  0 13G20G13G27G24G18G10G15G 5R 1R24R23R 7
                                R 8
  21297499.100   111919112.45648      -452.646    21297494.060    87209685.78046
      -452.646  
  21401065.840   112463353.69144       438.231    21401066.240    87633789.08644
       438.228  
  23978657.520   126008679.46846      -213.646    23978654.120    98188584.33844
      -213.646  
  23285436.900   122365808.57146      -692.260    23285437.260    95349980.28546
      -692.260  
  20350159.340   106940804.54649        28.098    20350154.940    83330480.25648
        28.098  
  24386086.980   128149756.43644      -608.283    24386085.420    99856944.58544
      -608.283  
  20021224.800   105212243.43249        75.909    20021219.860    81983548.30848
        75.909  
  24305169.340   127724540.02346       638.134    24305166.840    99525614.10045
       638.133  
  21121926.700   112908800.15606      -526.656    21121931.000    87817978.37306
      -526.657  
  20745142.240   110933595.31208      -386.156    20745144.840    86281691.72404
      -386.159  
  19716889.120   105472065.28008       234.812    19716894.740    82033847.45105
       234.813  
  21107930.140   112992399.81807       547.442    21107933.280           0.00000
       547.442  
  19359140.240   103667316.41207       -22.787    19359140.420    80630131.68907
       -22.786  
