     2              OBSERVATION DATA    M                   RINEX VERSION / TYPE
LEICA GEO OFFICE 7.0                    26-9-20 23:56       PGM / RUN BY / DATE
                                                            OBSERVER / AGENCY
PROS                                                        MARKER NAME
PROS                                                        MARKER NUMBER
196020              LEICA GX1230+ GNSS  7.50                REC # / TYPE / VERS
                    LEIAX1203+GNSS                          ANT # / TYPE
 -1165499.7986  3792392.2971  4978660.0963                  APPROX POSITION XYZ
        1.8030        0.0000        0.0000                  ANTENNA: DELTA H/E/N
L1PhaOff:   0.0585  L2PhaOff:   0.0555                      COMMENT
     1     1                                                WAVELENGTH FACT L1/2
     6    C1    L1    D1    P2    L2    D2                  # / TYPES OF OBSERV
  2020     9    26     8    58   50.000000                  TIME OF FIRST OBS
  2020     9    26    10    31   50.000000                  TIME OF LAST OBS
    18                                                      LEAP SECONDS
    23                                                      # OF SATELLITES
          C1    L1    D1    P2    L2    D2                  COMMENT
   G 1   542   514   542   511   498   511                  PRN / # OF OBS
   G 2     0     0     0     0     0     0                  PRN / # OF OBS
   G 3     0     0     0     0     0     0                  PRN / # OF OBS
   G 4     0     0     0     0     0     0                  PRN / # OF OBS
   G 5     0     0     0     0     0     0                  PRN / # OF OBS
   G 6     0     0     0     0     0     0                  PRN / # OF OBS
   G 7     0     0     0     0     0     0                  PRN / # OF OBS
   G 8     0     0     0     0     0     0                  PRN / # OF OBS
   G 9     0     0     0     0     0     0                  PRN / # OF OBS
   G10  1117  1117  1117  1117  1117  1117                  PRN / # OF OBS
   G11   532   467   532   393   357   393                  PRN / # OF OBS
   G12   804   717   804   730   681   730                  PRN / # OF OBS
   G13     0     0     0     0     0     0                  PRN / # OF OBS
   G14     0     0     0     0     0     0                  PRN / # OF OBS
   G15   219   182   219   201   172   201                  PRN / # OF OBS
   G16     0     0     0     0     0     0                  PRN / # OF OBS
   G17     0     0     0     0     0     0                  PRN / # OF OBS
   G18    46    41    46    41    39    41                  PRN / # OF OBS
   G19     0     0     0     0     0     0                  PRN / # OF OBS
   G20  1094  1092  1094  1093  1091  1093                  PRN / # OF OBS
   G21   960   887   960   920   869   920                  PRN / # OF OBS
   G22    31    31    31    19    19    19                  PRN / # OF OBS
   G23     0     0     0     0     0     0                  PRN / # OF OBS
   G24   980   914   980   951   910   951                  PRN / # OF OBS
   G25   597   558   597   575   547   575                  PRN / # OF OBS
   G26     0     0     0     0     0     0                  PRN / # OF OBS
   G27     0     0     0     0     0     0                  PRN / # OF OBS
   G28     0     0     0     0     0     0                  PRN / # OF OBS
   G29     0     0     0     0     0     0                  PRN / # OF OBS
   G30     0     0     0     0     0     0                  PRN / # OF OBS
   G31   351   319   351   323   305   323                  PRN / # OF OBS
   G32  1095  1081  1095  1088  1079  1088                  PRN / # OF OBS
   R 1   989   958   989   922   805   922                  PRN / # OF OBS
   R 2  1110  1092  1110  1082  1004  1082                  PRN / # OF OBS
   R 3   325   297   325   272   182   272                  PRN / # OF OBS
   R 4     0     0     0     0     0     0                  PRN / # OF OBS
   R 5     0     0     0     0     0     0                  PRN / # OF OBS
   R 6     0     0     0     0     0     0                  PRN / # OF OBS
   R 7     0     0     0     0     0     0                  PRN / # OF OBS
   R 8   380   348   380   360   266   360                  PRN / # OF OBS
   R 9     0     0     0     0     0     0                  PRN / # OF OBS
   R10   701   664   701     0     0     0                  PRN / # OF OBS
   R11  1102  1080  1102  1065  1001  1065                  PRN / # OF OBS
   R12   981   963   981   959   910   959                  PRN / # OF OBS
   R13     0     0     0     0     0     0                  PRN / # OF OBS
   R14     0     0     0     0     0     0                  PRN / # OF OBS
   R15     0     0     0     0     0     0                  PRN / # OF OBS
   R16     0     0     0     0     0     0                  PRN / # OF OBS
   R17   602   534   602   547   372   547                  PRN / # OF OBS
   R18   820   743   820   725   514   725                  PRN / # OF OBS
   R19     0     0     0     0     0     0                  PRN / # OF OBS
   R20     0     0     0     0     0     0                  PRN / # OF OBS
   R21     0     0     0     0     0     0                  PRN / # OF OBS
   R22     0     0     0     0     0     0                  PRN / # OF OBS
   R23     0     0     0     0     0     0                  PRN / # OF OBS
   R24    52    40    52    40    20    40                  PRN / # OF OBS
                                                            END OF HEADER
 20  9 26  8 58 50.0000000  0 12G20G21G24G10G32G11R10R18R11R 1R17R 8
  20483959.760   107643936.33949       336.895    20483956.940    83878374.87348
       336.895  
  23067558.900   121220864.91045      -147.200    23067555.340    94457784.48445
      -147.199  
  20818290.960   109400850.49847       242.415    20818287.720    85247395.09144
       242.415  
  20520056.800   107833627.19449      -163.963    20520054.180    84026190.60348
      -163.964  
  22414072.020   117786743.71047      -520.478    22414065.480    91781870.93944
      -520.478  
  24096290.360   126626838.94145      -255.051    24096285.120    98670234.59344
      -255.048  
  21070149.960   112315756.58205       347.854           0.000           0.00000
         0.000  
  22553341.780   120391287.46205      -362.726           0.000           0.00000
         0.000  
  20672972.320   110470095.25607      -508.632    20672974.920    85921189.86907
      -508.634  
  19521847.240   104355462.32607       191.396    19521852.420    81165384.53506
       191.396  
  21433701.120   114696069.02206       314.229    21433703.320    89208054.15206
       314.228  
  22145125.720   118586133.71607       588.866    22145124.620    92233664.96106
       588.865  
 20  9 26  8 58 55.0000000  0 14G18G20G21G24G10G32G15R10R 2R18R11R 1
                                R17R 8
  24379056.580   128112796.81344       736.566    24379045.600    99828129.54143
       736.566  
  20485647.620   107652805.84949       339.014    20485644.900    83885286.18748
       339.013  
  23066826.080   121217013.90245      -145.084    23066823.940    94454783.72744
      -145.085  
  20819506.580   109407238.74548       244.662    20819503.820    85252372.88044
       244.664  
  20519240.440   107829337.68249      -161.791    20519237.800    84022848.13948
      -161.791  
  22411471.540   117773081.62447      -518.605    22411466.380    91771225.22745
      -518.608  
  23807609.680   125109833.13515       655.325           0.000           0.00000
         0.000  
  21071892.380   112325050.06304       350.301           0.000           0.00000
         0.000  
  21131372.640   112761042.82205      -542.821    21131374.860    87703048.80906
      -542.821  
  22551532.780   120381629.00206      -360.304    22551536.740           0.00000
      -360.304  
  20670433.040   110456524.95908      -506.370    20670435.420    85910635.19107
      -506.371  
  19522807.780   104360596.31607       193.529    19522812.420    81169377.64006
       193.529  
  21435276.160   114704497.65006       316.647    21435278.820    89214609.78705
       316.645  
  22148072.780   118601914.24207       590.771    22148071.720    92245938.75506
       590.770  
 20  9 26  8 59  0.0000000  0 12G20G21G24G10G32R10R 2R18R11R 1R17R 8
  20487342.740   107661713.70448       338.268    20487340.000    83892227.36748
       338.268  
  23066101.100           0.00040      -145.839    23066096.200           0.00040
      -145.839  
  20820729.980   109413667.80047       244.019    20820726.900    85257382.59744
       244.018  
  20518431.180   107825086.00449      -162.543    20518428.600    84019535.13648
      -162.543  
  22408877.580   117759449.95947      -519.639    22408873.920    91760603.23144
      -519.641  
  21073644.060   112334389.44704       349.902           0.000           0.00000
         0.000  
  21128653.720           0.00010      -543.732    21128659.000           0.00010
      -543.728  
  22549732.060   120372016.11806      -360.737    22549735.380    93622684.48204
      -360.734  
  20667901.740   110442997.94408      -506.933    20667903.480    85900114.15407
      -506.933  
  19523775.140   104365767.99207       192.733    19523779.440    81173400.05905
       192.733  
  21436859.920   114712972.82207       316.173    21436862.300    89221201.46006
       316.178  
  22151025.620   118617725.64507       589.651    22151025.460    92258236.52606
       589.649  
 20  9 26  8 59  5.0000000  0 14G18G20G24G10G32G15G11R10R 2R18R11R 1
                                R17R 8
  24386413.860           0.00010       735.190           0.000           0.00000
         0.000  
  20489032.900   107670595.51549       338.638    20489030.040    83899148.26548
       338.637  
  20821948.920   109420073.39148       244.439    20821946.080    85262373.92844
       244.440  
  20517616.940   107820807.98549      -162.230    20517614.440    84016201.61748
      -162.230  
  22406277.700   117745784.79147      -519.561    22406273.760    91749955.01343
      -519.561  
  23814157.320           0.00040       654.345    23814157.440           0.00040
       654.345  
  24092489.940   126606896.34744      -252.787    24092477.620    98654689.60444
      -252.787  
  21075392.680   112343709.62406       350.402           0.000           0.00000
         0.000  
  21125933.220           0.00000      -543.829           0.000           0.00000
         0.000  
  22547927.840   120362383.52906      -360.206    22547932.480    93615192.53105
      -360.208  
  20665366.100   110429448.54407      -506.445    20665367.900    85889575.76308
      -506.446  
  19524737.300   104370911.68707       193.030    19524741.220    81177400.72905
       193.029  
  21438439.900   114721428.82107       316.821    21438441.960           0.00010
       316.817  
  22153972.000   118633502.81707       589.666    22153971.880    92270507.62206
       589.669  
 20  9 26  8 59 10.0000000  0 13G18G20G21G24G10G32R10R18R11R 1R24R17
                                R 8
  24390088.620   128170803.94745       736.568    24390087.860    99873348.30944
       736.568  
  20490730.620   107679516.75849       340.556    20490727.600    83906099.88348
       340.556  
  23064647.780   121205531.77045      -143.524    23064641.040    94445864.60044
      -143.524  
  20823175.820   109426520.91548       246.470    20823173.360    85267398.00344
       246.470  
  20516810.140   107816568.96649      -160.300    20516807.760    84012898.48148
      -160.300  
  22403683.980   117732151.03847      -518.115    22403680.200    91739331.35744
      -518.117  
  21077150.100   112353076.88607       352.569           0.000           0.00000
         0.000  
  22546132.520   120352797.78707      -358.010           0.000           0.00000
         0.000  
  20662838.920   110415943.45908      -504.348    20662840.320    85879071.86207
      -504.351  
  19525706.860   104376094.24907       194.934    19525710.800    81181431.61106
       194.934  
  23240824.460   124279150.84004       784.928    23240830.860    96661572.49104
       784.928  
  21440029.080   114729932.54406       318.938    21440029.720           0.00000
       318.938  
  22156924.500   118649312.12306       591.379    22156923.780    92282803.71406
       591.382  
 20  9 26  8 59 15.0000000  0 11G20G24G10G32R10R 2R18R11R 1R17R 8
  20492428.160   107688436.80549       338.912    20492424.940    83913050.58748
       338.911  
  20824402.960   109432969.80548       244.899    20824400.820    85272423.10444
       244.899  
  20516003.040   107812328.36849      -161.974    20516000.600    84009594.12348
      -161.974  
  22401088.080   117718508.72248      -519.934    22401085.080    91728701.02745
      -519.935  
  21078908.900   112362450.18705       351.313           0.000           0.00000
         0.000  
  21120499.540   112703031.73016      -544.207    21120505.880    87657940.45817
      -544.207  
  22544337.940   120343217.60505      -359.412    22544343.760           0.00000
      -359.412  
  20660311.860   110402441.55106      -505.809    20660313.440    85868570.38308
      -505.809  
  19526675.920   104381274.19207       193.210    19526679.560    81185460.46905
       193.209  
  21441619.140   114738442.21006       317.607    21441618.980    89241011.02406
       317.606  
  22159875.340   118665112.25907       589.382    22159873.920    92295092.69807
       589.382  
 20  9 26  8 59 20.0000000  0 13G18G20G24G10G32R10R 2R18R11R 1R24R17
                                R 8
  24397446.020   128209434.10646       736.322    24397437.220    99903451.30144
       736.323  
  20494129.580   107697377.19749       341.132    20494126.000    83920017.12048
       341.132  
  20825634.300   109439441.45847       247.235    20825632.340    85277465.95245
       247.233  
  20515199.660   107808107.72849      -159.729    20515197.280    84006305.32348
      -159.729  
  22398494.720   117704878.86046      -518.086    22398490.980    91718080.24344
      -518.083  
  21080672.660   112371851.19105       353.801           0.000           0.00000
         0.000  
  21117784.920   112688544.22606      -542.254    21117789.300    87646672.44706
      -542.254  
  22542548.420   120333664.85206      -356.899    22542548.620           0.00000
      -356.897  
  20657789.580   110388964.37107      -503.417    20657791.820    85858088.10908
      -503.417  
  19527648.560   104386473.43307       195.389    19527652.360    81189504.32506
       195.389  
  23248662.120           0.00010       784.862           0.000           0.00000
         0.000  
  21443214.600   114746980.16307       320.195    21443214.180    89247651.61006
       320.196  
  22162828.380   118680925.07407       591.322    22162827.540    92307391.61807
       591.320  
 20  9 26  8 59 25.0000000  0 13G18G20G24G10G32G15R10R18R11R 1R24R17
                                R 8
  24401126.520   128228779.27446       736.262    24401122.380    99918525.49045
       736.261  
  20495836.280   107706345.72148       341.562    20495832.580    83927005.59348
       341.561  
  20826871.480   109445943.92647       247.733    20826868.660    85282532.83744
       247.735  
  20514401.640   107803914.98249      -159.342    20514399.340    84003038.25348
      -159.342  
  22395905.580   117691269.38247      -517.906    22395901.740    91707475.64344
      -517.911  
  23827253.220   125213042.61046       655.399    23827250.840    97568608.02644
       655.399  
  21082443.200   112381287.92404       354.397           0.000           0.00000
         0.000  
  22540765.600   120324147.36007      -356.162    22540769.360    93585453.37504
      -356.166  
  20655273.640   110375520.32707      -502.886    20655276.100    85847631.61608
      -502.884  
  19528626.240   104391699.85107       195.752    19528630.140    81193569.32006
       195.751  
  23252593.760           0.00000       784.890    23252592.040           0.00000
       784.890  
  21444816.760   114755554.19306       320.911    21444818.920    89254320.31307
       320.909  
  22165785.280   118696758.68605       591.563    22165784.400    92319706.59606
       591.565  
 20  9 26  8 59 30.0000000  0 15G18G20G21G24G10G32G15R10R 2R18R11R 1
                                R24R17R 8
  24404806.980   128248120.70346       736.267    24404802.920    99933596.67244
       736.266  
  20497544.620   107715322.94049       342.089    20497540.580    83934000.83148
       342.089  
  23061778.540           0.00040      -142.127    23061773.900           0.00040
      -142.127  
  20828110.960   109452457.57448       248.423    20828107.460    85287608.41144
       248.423  
  20513605.300   107799730.30549      -158.854    20513602.880    83999777.48448
      -158.854  
  22393315.960   117677661.12346      -517.808    22393312.100    91696871.78144
      -517.808  
  23830526.620           0.00010       655.554           0.000           0.00000
         0.000  
  21084216.360   112390740.36305       355.268           0.000           0.00000
         0.000  
  21112362.260           0.00000      -542.011    21112367.640           0.00000
      -542.011  
  22538985.360   120314645.48706      -355.391           0.000           0.00000
         0.000  
  20652760.060   110362089.27907      -502.261    20652762.700    85837185.27008
      -502.262  
  19529605.360   104396933.85407       196.249    19529609.400    81197640.22806
       196.250  
  23256514.760   124363031.93404       785.142    23256514.460    96726818.24104
       785.146  
  21446422.060   114764144.44607       321.644    21446424.020    89261001.60807
       321.645  
  22168742.300   118712593.12607       591.625    22168740.860    92332022.27207
       591.624  
 20  9 26  8 59 35.0000000  0 13G18G20G21G24G10G32R10R18R11R 1R24R17
                                R 8
  24408488.080   128267463.42747       736.312    24408484.160    99948668.94942
       736.310  
  20499255.540   107724313.63349       342.547    20499251.280    83941006.56848
       342.547  
  23061069.460   121186742.65146      -141.540    23061058.760    94431221.22444
      -141.533  
  20829353.380   109458987.12347       248.921    20829350.200    85292696.34145
       248.921  
  20512811.440   107795558.91949      -158.396    20512809.020    83996527.06548
      -158.397  
  22390727.360   117664058.54847      -517.503    22390723.300    91686272.39045
      -517.503  
  21085993.720   112400213.68706       356.019           0.000           0.00000
         0.000  
  22537209.220   120305164.36606      -354.729    22537214.100           0.00000
      -354.728  
  20650249.780   110348676.31707      -501.557    20650252.720    85826753.00108
      -501.557  
  19530586.720   104402180.12807       196.649    19530590.920    81201720.67106
       196.648  
  23260438.460   124384022.77504       785.091    23260442.060           0.00000
       785.091  
  21448031.320   114772755.71006       322.383    21448033.760    89267699.22906
       322.385  
  22171700.420   118728433.36107       591.814    22171698.820    92344342.47706
       591.814  
 20  9 26  8 59 40.0000000  0 15G18G20G21G24G10G32G15R10R 2R18R11R 1
                                R24R17R 8
  24412168.840   128286803.84444       735.054    24412165.440    99963739.45543
       735.050  
  20500968.320   107733314.25949       341.741    20500963.920    83948020.05448
       341.741  
  23060361.860   121183022.94546      -142.150    23060356.000    94428322.89744
      -142.155  
  20830598.280   109465529.01747       248.242    20830595.140    85297793.94544
       248.241  
  20512019.440   107791397.13649      -159.190    20512016.980    83993284.12348
      -159.191  
  22388139.800   117650458.14146      -518.625    22388135.300    91675674.75444
      -518.628  
  23837082.520           0.00040       654.205    23837083.860           0.00040
       654.205  
  21087774.320   112409704.31405       355.486           0.000           0.00000
         0.000  
  21106944.840           0.00000      -542.688    21106948.900           0.00000
      -542.690  
  22535436.160   120295699.95507      -355.289    22535441.060    93563340.59303
      -355.287  
  20647742.180   110335277.74008      -502.147    20647745.560    85816331.89207
      -502.148  
  19531569.840   104407435.18106       195.801    19531574.200    81205807.94006
       195.801  
  23264363.180   124405014.71403       784.279    23264369.560    96759465.55904
       784.277  
  21449643.960   114781384.59507       321.918    21449647.020    89274410.66307
       321.915  
  22174658.780   118744275.66406       590.662    22174657.140    92356664.33106
       590.660  
 20  9 26  8 59 45.0000000  0 14G18G20G21G24G10G32G15R10R 2R18R11R 1
                                R17R 8
  24415831.180   128306052.21446       733.426    24415828.120    99978738.07444
       733.428  
  20502665.860   107742234.96049       340.534    20502661.300    83954971.24448
       340.535  
  23059637.920   121179223.59646      -143.563    23059634.200    94425362.30044
      -143.560  
  20831828.440   109471993.68647       247.106    20831824.800    85302831.34544
       247.106  
  20511212.220   107787155.14549      -160.391    20511209.680    83989978.67848
      -160.392  
  22385535.280   117636770.47947      -519.878    22385530.100    91665009.15644
      -519.884  
  23840341.820           0.00040       652.592    23840339.040           0.00040
       652.592  
  21089541.180   112419120.94506       354.504           0.000           0.00000
         0.000  
  21104217.880   112616156.48906      -544.397    21104223.480    87590358.88207
      -544.395  
  22533649.240   120286161.39106      -356.194           0.000           0.00000
         0.000  
  20645220.220   110321802.44407      -503.287    20645223.820    85805851.07508
      -503.288  
  19532537.460   104412607.65907       194.584    19532541.860    81209830.98705
       194.583  
  21451242.620   114789939.42507       320.872    21451245.700    89281064.36606
       320.873  
  22177600.460   118760028.67207       589.203    22177598.940    92368916.59506
       589.205  
 20  9 26  8 59 50.0000000  0 15G18G20G21G24G10G32G15R10R 2R18R11R 1
                                R24R17R 8
  24419504.980   128325360.15545       736.086    24419502.140    99993783.18643
       736.086  
  20504377.120   107751227.69749       343.663    20504372.280    83961978.55547
       343.663  
  23058929.320   121175496.19746      -140.235    23058926.000    94422457.88045
      -140.238  
  20833072.840   109478532.84947       250.344    20833069.100    85307926.87745
       250.341  
  20510418.620   107782984.87049      -157.222    20510416.080    83986729.12948
      -157.221  
  22382939.640   117623152.19146      -517.252    22382932.940    91654368.38745
      -517.252  
  23843613.480   125299028.85847       655.493    23843610.660    97635597.04444
       655.494  
  21091322.760   112428617.64906       357.916           0.000           0.00000
         0.000  
  21101504.820   112601675.38307      -541.461    21101508.240    87579095.78307
      -541.460  
  22531877.200   120276702.91406      -352.771    22531884.580           0.00000
      -352.771  
  20642712.860   110308404.53708      -499.945    20642716.660    85795430.48508
      -499.945  
  19533518.600   104417851.88607       197.589    19533523.100    81213909.87506
       197.588  
  23272193.540   124446881.92705       785.319    23272199.160    96792038.41104
       785.319  
  21452856.420   114798574.93306       324.412    21452858.760    89287780.84707
       324.413  
  22180554.220   118775847.26107       592.134    22180553.060    92381219.99306
       592.133  
 20  9 26  8 59 55.0000000  0 15G18G20G21G24G10G32G15R10R 2R18R11R 1
                                R24R17R 8
  24423188.700   128344707.76345       736.558    24423184.360   100008872.85244
       736.558  
  20506098.640   107760274.25649       344.655    20506093.720    83969027.84947
       344.655  
  23058227.680   121171812.73505      -139.383           0.000           0.00000
         0.000  
  20834328.040   109485128.44748       251.457    20834324.100    85313066.20644
       251.458  
  20509635.220   107778868.16149      -156.342    20509632.700    83983521.29948
      -156.342  
  22380357.060   117609575.09747      -516.534    22380350.680    91643788.94444
      -516.534  
  23846890.660   125316260.46445       655.854    23846888.560    97649024.08945
       655.860  
  21093115.900   112438176.03006       359.137           0.000           0.00000
         0.000  
  21098799.660   112587241.02206      -540.714    21098803.760    87567869.08607
      -540.714  
  22530116.820   120267305.81406      -351.627    22530116.140           0.00000
      -351.627  
  20640216.620   110295066.13007      -498.828    20640220.460    85785056.13708
      -498.826  
  19534509.700   104423149.72607       198.526    19534514.340    81218030.39206
       198.526  
  23276121.060   124467874.46604       786.102    23276131.360           0.00000
       786.102  
  21454481.820   114807272.70206       325.433    21454484.340    89294545.77607
       325.433  
  22183516.880   118791712.75207       592.704    22183515.840    92393559.85006
       592.702  
 20  9 26  9  0  0.0000000  0 15G18G20G21G24G10G32G11R10R 2R18R11R 1
                                R24R17R 8
  24426872.800   128364060.39846       736.479    24426868.720   100023952.81542
       736.478  
  20507823.080   107769336.12449       345.027    20507817.980    83976089.07548
       345.026  
  23057533.320   121168154.57907      -139.037           0.000           0.00000
         0.000  
  20835586.360   109491741.76247       251.965    20835582.400    85318219.49844
       251.964  
  20508854.660   107774766.49649      -155.966    20508852.280    83980325.20848
      -155.966  
  22377775.140   117596005.40806      -516.264           0.000           0.00000
         0.000  
  24078778.000           0.00040      -245.227    24078770.200           0.00040
      -245.228  
  21094913.180   112447757.02704       359.753           0.000           0.00000
         0.000  
  21096096.540   112572814.57806      -540.636    21096100.780    87556648.50407
      -540.636  
  22528360.600   120257931.28906      -350.895    22528362.620           0.00010
      -350.895  
  20637724.160   110281747.42007      -498.246    20637728.160    85774697.17608
      -498.248  
  19535503.520   104428461.82207       198.880    19535508.140    81222162.05406
       198.878  
  23280054.500   124488894.19306       786.264    23280059.200           0.00000
       786.264  
  21456111.460   114815993.46707       326.131    21456114.180    89301328.65407
       326.130  
  22186480.940   118807585.74506       592.762    22186479.800    92405905.45105
       592.764  
 20  9 26  9  0  5.0000000  0 15G18G20G21G24G10G32G11R10R 2R18R11R 1
                                R24R17R 8
  24430555.660   128383411.22846       736.301    24430550.860   100039031.35543
       736.302  
  20509549.520   107778408.39349       345.420    20509544.400    83983158.32747
       345.420  
  23056840.560   121164507.02245      -138.599    23056836.340    94413880.62044
      -138.599  
  20836847.300   109498368.07048       252.330    20836843.400    85323382.86544
       252.330  
  20508076.100   107770675.02349      -155.568    20508073.820    83977137.06548
      -155.569  
  22375194.060   117582438.81947      -516.388    22375187.560    91622664.87445
      -516.387  
  24077556.000   126528393.06445      -244.800    24077551.680    98593515.73941
      -244.799  
  21096713.840   112457355.67805       360.429           0.000           0.00000
         0.000  
  21093393.640   112558389.03205      -540.663    21093397.720    87545431.08407
      -540.658  
  22526607.720   120248574.35505      -350.306    22526617.680           0.00000
      -350.306  
  20635234.500   110268443.95007      -497.734    20635238.680    85764350.08308
      -497.734  
  19536499.000   104433783.15607       199.170    19536503.620    81226300.85806
       199.171  
  23283986.400   124509915.76506       786.187    23283992.620    96841082.25605
       786.189  
  21457744.500   114824732.02607       326.840    21457747.200    89308125.26007
       326.841  
  22189445.520   118823461.64807       592.926    22189444.300    92418253.42605
       592.926  
 20  9 26  9  0 10.0000000  0 16G18G20G21G24G10G32G15G11R10R 2R18R11
                                R 1R24R17R 8
  24434237.980   128402758.85846       736.201    24434233.300   100054107.35844
       736.203  
  20511277.680   107787489.68649       345.769    20511272.500    83990234.70348
       345.768  
  23056148.500   121160868.66746      -138.236    23056141.420    94411055.60942
      -138.235  
  20838110.500   109505006.03447       252.828    20838106.640    85328555.25544
       252.831  
  20507299.200   107766592.26549      -155.263    20507297.020    83973955.69848
      -155.263  
  22372612.480   117568873.63146      -516.140    22372605.900    91612094.47344
      -516.137  
  23856727.480   125367982.41244       655.686    23856729.060    97689294.92944
       655.686  
  24076333.700   126521967.85345      -244.321    24076327.440    98588508.98141
      -244.322  
  21098517.640   112466970.52805       361.107           0.000           0.00000
         0.000  
  21090691.060   112543966.68006      -540.618    21090695.060           0.00000
      -540.619  
  22524857.580   120239233.34205      -349.774           0.000           0.00000
         0.000  
  20632747.440   110255154.08807      -497.259    20632751.720    85754013.43608
      -497.257  
  19537495.900   104439112.29607       199.500    19537500.740    81230445.72306
       199.501  
  23287916.640   124530937.58904       786.088    23287922.220    96857432.50705
       786.090  
  21459380.560   114833487.32007       327.472    21459383.540    89314934.97307
       327.473  
  22192410.440   118839338.68507       592.987    22192409.280    92430602.21505
       592.988  
 20  9 26  9  0 15.0000000  0 13G18G20G21G24G10G32G11R10R18R11R 1R17
                                R 8
  24437928.260   128422154.66045       736.723    24437924.360   100069221.12845
       736.716  
  20513017.340   107796631.63249       346.658    20513012.220    83997358.29248
       346.658  
  23055467.740   121157290.96706      -137.452           0.000           0.00000
         0.000  
  20839385.600   109511706.95847       253.827    20839381.840    85333776.81045
       253.827  
  20506533.800   107762569.92949      -154.364    20506531.700    83970821.42948
      -154.365  
  22370042.340   117555361.29346      -515.703    22370031.900    91601565.76744
      -515.717  
  24075122.380   126515606.10244      -243.247    24075115.680    98583551.81343
      -243.249  
  21100334.300   112476653.96205       362.305           0.000           0.00000
         0.000  
  22523120.320   120229939.24005      -348.340           0.000           0.00000
         0.000  
  20630272.700   110241930.31708      -496.102    20630277.200    85743728.37208
      -496.103  
  19538504.140   104444501.81807       200.337    19538508.920    81234637.60606
       200.337  
  21461029.660   114842311.49507       328.695    21461032.620    89321798.17907
       328.695  
  22195385.400   118855269.66407       593.656    22195383.840    92442992.95406
       593.657  
 20  9 26  9  0 20.0000000  0 14G18G20G21G24G10G32R10R 2R18R11R 1R24
                                R17R 8
  24441603.340   128441470.19546       734.986    24441600.600   100084272.15144
       734.987  
  20514744.040   107805705.61749       345.548    20514738.900    84004428.91948
       345.549  
  23054774.220   121153645.40546      -138.466    23054769.320    94405431.05143
      -138.467  
  20840648.200   109518342.36347       252.829    20840644.660    85338947.21445
       252.829  
  20505755.360   107758479.37849      -155.483    20505753.300    83967633.97848
      -155.483  
  22367457.520   117541773.49446      -517.088    22367445.680    91590977.81343
      -517.091  
  21102139.400   112486275.52105       361.274           0.000           0.00000
         0.000  
  21085291.520   112515153.03307      -541.257    21085296.160           0.00000
      -541.257  
  22521371.460   120220604.67004      -349.486    22521375.660           0.00000
      -349.486  
  20627786.080   110228642.05008      -496.953    20627790.480    85733393.03207
      -496.954  
  19539499.200   104449820.90107       199.176    19539503.960    81238774.65906
       199.175  
  23295787.300   124573033.05306       785.393    23295789.220    96890152.72103
       785.393  
  21462667.160   114851073.79907       327.839    21462670.000    89328613.32507
       327.839  
  22198345.860   118871123.20806       591.907    22198344.460    92455323.43606
       591.908  
 20  9 26  9  0 25.0000000  0 14G20G21G24G10G32G11R10R 2R18R11R 1R24
                                R17R 8
  20516476.060   107814807.31549       347.135    20516470.820    84011521.15148
       347.135  
  23054086.020   121150027.53447      -136.977    23054078.000    94402611.96443
      -136.979  
  20841916.540   109525007.96046       254.502    20841912.980    85344141.25145
       254.498  
  20504982.120   107754416.27949      -153.886    20504980.180    83964467.94148
      -153.887  
  22364875.720   117528205.89445      -515.816    22364863.500    91580405.68244
      -515.816  
  24072681.120   126502792.05345      -242.735    24072682.900    98573612.05154
      -242.735  
  21103950.960   112495932.89104       362.981           0.000           0.00000
         0.000  
  21082588.720   112500728.41606      -540.020    21082592.900    87500585.01906
      -540.019  
  22519629.400   120211305.41404      -347.387    22519638.420    93497721.37302
      -347.384  
  20625305.440   110215386.38708      -495.294    20625309.880    85723083.06608
      -495.294  
  19540499.320   104455166.91007       200.737    19540504.020    81242932.69506
       200.736  
  23299716.780   124594049.00807       786.638    23299723.380    96906498.48504
       786.639  
  21464311.300   114859871.65907       329.721    21464313.800    89335456.04106
       329.724  
  22201310.120   118886997.30407       593.495    22201308.960    92467670.02406
       593.494  
 20  9 26  9  0 30.0000000  0 15G18G20G21G24G10G32G11R10R 2R18R11R 1
                                R24R17R 8
  24448964.120           0.00040       736.147    24448957.960           0.00040
       736.147  
  20518213.360   107823936.81449       347.576    20518208.100    84018635.06448
       347.575  
  23053403.880           0.00040      -136.488    23053398.320           0.00040
      -136.488  
  20843190.700   109531703.84747       254.998    20843187.520    85349358.71745
       255.001  
  20504214.140   107750380.82749      -153.473    20504212.380    83961323.44548
      -153.474  
  22362297.100   117514658.58647      -515.674    22362285.580    91569849.16043
      -515.669  
  24071470.960   126496426.62645      -242.133    24071465.460    98568651.76145
      -242.137  
  21105769.300   112505624.69305       363.945           0.000           0.00000
         0.000  
  21079889.400   112486324.15406      -539.853    21079892.720           0.00000
      -539.852  
  22517894.280   120202041.30104      -346.943           0.000           0.00000
         0.000  
  20622830.980   110202163.55408      -494.661    20622835.360    85712798.64508
      -494.661  
  19541504.460   104460539.79907       201.138    19541509.160    81247111.59606
       201.139  
  23303650.900   124615084.62505       786.722           0.000           0.00000
         0.000  
  21465962.120   114868705.20207       330.418    21465964.640    89342326.66707
       330.415  
  22204278.240   118902891.52407       593.609    22204277.040    92480032.22805
       593.607  
 20  9 26  9  0 35.0000000  0 15G18G20G21G24G10G15G11R10R 2R18R11R 1
                                R24R17R 8
  24452646.960   128499536.72346       736.467    24452640.080   100129483.03344
       736.464  
  20519953.120   107833079.29149       348.308    20519947.860    84025759.06348
       348.308  
  23052721.040   121142862.11147      -135.866    23052713.400    94397056.67644
      -135.864  
  20844467.660   109538415.08246       255.864    20844465.120    85354588.34145
       255.863  
  20503448.660   107746358.15049      -152.746    20503446.980    83958188.87548
      -152.745  
  23873135.560           0.00040       656.184    23873130.740           0.00050
       656.184  
  24070263.980   126490076.96945      -241.248    24070255.900    98563704.06744
      -241.253  
  21107591.360   112515336.64005       364.859           0.000           0.00000
         0.000  
  21077191.380   112471925.50006      -539.479    21077193.880    87478178.77106
      -539.479  
  22516161.620   120192797.48605      -345.883           0.000           0.00000
         0.000  
  20620359.880   110188958.60908      -493.799    20620364.300    85702528.15908
      -493.798  
  19542511.820   104465924.60107       201.754    19542516.560    81251299.80606
       201.753  
  23307586.080   124636124.54407       787.110    23307588.380    96939223.83504
       787.110  
  21467616.760   114877559.17707       331.404    21467619.080    89349213.05607
       331.405  
  22207247.180   118918791.33207       594.047    22207246.100    92492398.70205
       594.049  
 20  9 26  9  0 40.0000000  0 16G18G20G21G24G10G32G15G11R10R 2R18R11
                                R 1R24R17R 8
  24456327.840   128518889.83746       736.437    24456323.340   100144563.43444
       736.436  
  20521696.360   107842240.10349       348.725    20521691.100    84032897.37448
       348.724  
  23052043.380   121139303.91945      -135.049    23052035.600    94394284.03244
      -135.047  
  20845748.700   109545147.25647       256.399    20845746.200    85359834.14345
       256.400  
  20502686.580   107742353.58449      -152.315    20502685.020    83955068.42448
      -152.314  
  22357145.120           0.00000      -515.075           0.000           0.00000
         0.000  
  23876413.720   125471409.24046       656.223    23876409.980    97769916.49645
       656.222  
  24069059.720   126483748.53244      -240.690    24069050.640    98558772.79944
      -240.691  
  21109418.120   112525074.17106       365.701           0.000           0.00000
         0.000  
  21074495.300   112457537.87907      -539.404    21074497.400    87466988.36107
      -539.403  
  22514435.480   120183579.40105      -344.973           0.000           0.00000
         0.000  
  20617893.200   110175776.83608      -493.195    20617897.500    85692275.63808
      -493.194  
  19543522.480   104471326.81807       202.239    19543527.220    81255501.49906
       202.240  
  23311522.420   124657174.29706       787.228    23311522.900    96955595.94303
       787.224  
  21469276.260   114886439.01808       332.051    21469278.360    89356119.54206
       332.052  
  22210218.140   118934701.62207       594.291    22210217.020    92504773.33905
       594.293  
 20  9 26  9  0 45.0000000  0 16G18G20G21G24G10G32G15G11R10R 2R18R11
                                R 1R24R17R 8
  24460009.440   128538243.47045       736.795    24460006.860   100159644.06244
       736.798  
  20523442.080   107851413.70049       349.569    20523436.760    84040045.61248
       349.569  
  23051369.840   121135757.64246      -134.489    23051368.240    94391537.60944
      -134.489  
  20847032.520   109551894.51447       257.298    20847030.140    85365091.76745
       257.297  
  20501926.920   107738361.63949      -151.511    20501925.420    83951957.85048
      -151.513  
  22354570.480   117474060.45845      -514.472    22354559.860    91538178.62143
      -514.473  
  23879695.520   125488656.51444       656.435    23879690.680    97783355.94043
       656.438  
  24067858.660   126477435.81645      -239.729    24067850.680    98553853.72744
      -239.728  
  21111248.560           0.00000       366.672           0.000           0.00000
         0.000  
  21071800.420           0.00000      -538.768    21071801.560           0.00010
      -538.768  
  22512712.680   120174381.37104      -343.885    22512715.860           0.00000
      -343.885  
  20615429.800   110162612.61808      -492.206    20615434.040    85682036.82608
      -492.206  
  19544535.260   104476740.66507       202.977    19544540.000    81259712.28606
       202.977  
  23315459.320   124678228.05905       787.708    23315456.140           0.00000
       787.713  
  21470939.560   114895339.28707       333.194    21470941.300    89363041.98607
       333.193  
  22213190.120   118950617.11207       594.671    22213189.040    92517152.06605
       594.670  
 20  9 26  9  0 50.0000000  0 16G18G20G21G24G10G32G15G11R10R 2R18R11
                                R 1R24R17R 8
  24463692.400   128557599.22246       736.545    24463688.380   100174726.46244
       736.547  
  20525190.580   107860601.98349       349.849    20525185.260    84047205.33748
       349.848  
  23050698.260   121132227.13647      -134.210    23050688.440    94388786.43443
      -134.209  
  20848319.660   109558658.98247       257.641    20848317.560    85370362.81845
       257.640  
  20501170.060   107734384.13449      -151.201    20501168.640    83948858.51448
      -151.202  
  22351996.340   117460541.54044      -514.011    22351989.120    91527644.69042
      -514.021  
  23882975.780   125505906.89344       656.366    23882973.740    97796797.75944
       656.369  
  24066660.840   126471140.65645      -239.307    24066654.200    98548948.46944
      -239.308  
  21113083.240   112544613.02304       367.293           0.000           0.00000
         0.000  
  21069105.080   112428788.46605      -538.854    21069105.260    87444621.55805
      -538.854  
  22510993.200   120165205.09404      -343.636           0.000           0.00000
         0.000  
  20612969.940   110149468.01608      -491.733    20612974.300    85671813.25108
      -491.734  
  19545550.660   104482168.18007       203.237    19545555.320    81263933.72206
       203.236  
  23319397.100   124699287.93206       787.729    23319398.960           0.00000
       787.725  
  21472607.000   114904261.68107       333.781    21472608.760    89369981.65306
       333.780  
  22216163.400   118966539.62007       594.694    22216162.280    92529536.21704
       594.695  
 20  9 26  9  0 55.0000000  0 14G18G20G21G24G10G15G11R10R 2R11R 1R24
                                R17R 8
  24467373.300   128576941.55746       735.932    24467368.080   100189798.39343
       735.932  
  20526938.840   107869789.13549       349.673    20526933.560    84054364.16948
       349.672  
  23050024.060   121128695.80845      -134.301    23050020.220    94386034.89144
      -134.307  
  20849607.080   109565424.90846       257.544    20849604.900    85375634.93445
       257.545  
  20500412.960   107730405.41849      -151.390    20500411.500    83945758.17548
      -151.389  
  23886255.620   125523145.35146       655.876    23886254.320    97810230.37344
       655.874  
  24065463.400   126464847.22345      -239.405    24065455.440    98544015.30444
      -239.396  
  21114919.160   112554398.13505       367.158           0.000           0.00000
         0.000  
  21066409.460   112414404.53206      -539.238    21066411.260    87433434.04605
      -539.238  
  20610510.840   110136326.89308      -491.738    20610515.280    85661592.38008
      -491.739  
  19546565.640   104487593.31207       202.950    19546570.260    81268153.26406
       202.950  
  23323333.680   124720337.72805       787.154    23323337.540    97004711.94204
       787.156  
  21474275.580   114913190.15808       333.810    21474276.980    89376926.00806
       333.811  
  22219134.900   118982452.91206       594.222    22219133.680    92541913.26806
       594.222  
 20  9 26  9  1  0.0000000  0 14G18G20G21G24G10G15G11R10R 2R11R 1R24
                                R17R 8
  24471057.100   128596298.16546       737.301    24471051.240   100204881.44144
       737.304  
  20528692.160   107879002.94949       351.500    20528686.920    84061543.76048
       351.500  
  23049358.660   121125191.24347      -132.474    23049354.540    94383304.11044
      -132.477  
  20850900.100   109572219.68247       259.447    20850897.520    85380929.54744
       259.447  
  20499660.880   107726453.19549      -149.553    20499659.440    83942678.53548
      -149.553  
  23889539.560   125540399.19646       657.384    23889537.860    97823674.92545
       657.384  
  24064274.780           0.00010      -237.444           0.000           0.00000
         0.000  
  21116761.040   112564217.26305       369.364           0.000           0.00000
         0.000  
  21063717.480   112400040.19006      -537.566    21063721.300    87422261.87906
      -537.570  
  20608057.700   110123217.54609      -489.745    20608062.200    85651396.25408
      -489.747  
  19547585.380   104493044.15807       204.755    19547589.980    81272392.79107
       204.755  
  23327272.400   124741405.59305       788.743    23327278.000           0.00000
       788.743  
  21475950.620   114922153.02607       335.952    21475951.860    89383897.18705
       335.950  
  22222110.120   118998385.65307       595.755    22222108.940    92554305.42105
       595.754  
 20  9 26  9  1  5.0000000  0 15G18G20G21G24G10G32G15R10R 2R18R11R 1
                                R24R17R 8
  24474738.740   128615649.33645       736.628    24474734.100   100219960.22142
       736.632  
  20530446.800   107888223.60248       351.384    20530441.540    84068728.69947
       351.384  
  23048693.760   121121693.75945      -132.398    23048688.560    94380578.67644
      -132.396  
  20852194.880   109579024.01847       259.578    20852192.000    85386231.83144
       259.569  
  20498910.060   107722507.66249      -149.741    20498908.620    83939604.13548
      -149.743  
  22344283.000           0.00040      -513.771    22344276.180           0.00040
      -513.771  
  23892822.180           0.00040       656.593    23892821.820           0.00040
       656.593  
  21118605.780           0.00000       369.463           0.000           0.00000
         0.000  
  21061025.620   112385674.78904      -537.975    21061029.720    87411088.88105
      -537.980  
  22505859.200   120137794.05105      -341.119           0.000           0.00000
         0.000  
  20605606.740   110110119.90509      -489.660    20605611.120    85641209.19208
      -489.660  
  19548606.200   104498500.72407       204.582    19548610.800    81276636.82805
       204.580  
  23331211.420   124762471.52006       788.182    23331221.040    97037500.70104
       788.179  
  21477628.240   114931130.13008       336.080    21477629.460    89390879.30606
       336.082  
  22225085.160   119014317.48907       595.396    22225084.400    92566696.83605
       595.397  
 20  9 26  9  1 10.0000000  0 15G18G20G21G24G10G32G15R10R 2R18R11R 1
                                R24R17R 8
  24478427.940   128635037.73446       736.992    24478424.540   100235068.16644
       736.991  
  20532210.920   107897493.89049       352.201    20532205.600    84075952.29448
       352.201  
  23048037.280   121118245.87845      -131.826    23048032.040    94377892.12144
      -131.827  
  20853499.620   109585880.32847       260.421    20853496.820    85391574.22644
       260.427  
  20498168.720   107718611.66849      -148.890    20498167.200    83936568.27948
      -148.890  
  22341719.140           0.00040      -513.154    22341723.160           0.00050
      -513.154  
  23896112.040   125574886.83746       657.176    23896111.360    97850577.37145
       657.175  
  21120461.300   112583941.88803       370.834           0.000           0.00000
         0.000  
  21058340.760           0.00000      -537.594    21058344.460           0.00010
      -537.595  
  22504160.580           0.00000      -339.912    22504164.880           0.00000
      -339.912  
  20603166.100   110097077.45908      -488.680    20603170.380    85631065.04008
      -488.680  
  19549636.140   104504006.58907       205.328    19549640.760    81280919.14106
       205.329  
  23335158.040   124783579.03105       788.647    23335165.940    97053917.66904
       788.648  
  21479316.680   114940165.10207       337.176    21479317.700    89397906.55506
       337.175  
  22228068.160   119030291.65007       595.799    22228067.120    92579121.18604
       595.797  
 20  9 26  9  1 15.0000000  0 15G18G20G21G24G10G15G11R10R 2R18R11R 1
                                R24R17R 8
  24482107.920   128654379.78045       736.616    24482105.360   100250139.81143
       736.618  
  20533968.560   107906730.22949       352.087    20533963.260    84083149.43348
       352.088  
  23047374.220   121114764.55647      -131.826    23047369.320    94375179.31541
      -131.821  
  20854798.420   109592705.17747       260.401    20854795.660    85396892.25845
       260.402  
  20497420.900   107714681.61349      -148.990    20497419.280    83933505.87248
      -148.989  
  23899393.500   125592129.60744       656.723    23899389.980    97864013.30243
       656.722  
  24060709.780   126439888.89704      -236.646           0.000           0.00000
         0.000  
  21122311.520   112593804.91705       370.762           0.000           0.00000
         0.000  
  21055648.200   112356963.94305      -537.913    21055652.620    87388770.59805
      -537.913  
  22502455.220   120119629.22505      -340.037    22502463.160    93426404.78504
      -340.037  
  20600719.860   110084005.23208      -488.591    20600724.100    85620897.79808
      -488.592  
  19550659.460   104509476.58807       205.181    19550664.140    81285173.59906
       205.181  
  23339096.580   124804642.97906       788.233           0.000           0.00000
         0.000  
  21481000.020   114949172.64407       337.377    21481000.580    89404912.43705
       337.376  
  22231043.160   119046223.44107       595.463    22231042.180    92591512.65004
       595.462  
 20  9 26  9  1 20.0000000  0 13G18G20G21G24G10G15R10R 2R11R 1R24R17
                                R 8
  24485791.540   128673736.50646       737.075    24485788.720   100265223.01543
       737.072  
  20535731.340   107915993.72448       353.162    20535726.100    84090367.72947
       353.161  
  23046717.000   121111310.32745      -130.893    23046713.000    94372487.69544
      -130.895  
  20856102.700   109599559.53846       261.538    20856099.780    85402233.39045
       261.535  
  20496678.260   107710778.57549      -147.948    20496676.540    83930464.57248
      -147.949  
  23902677.280   125609388.59946       657.304    23902674.440    97877461.91245
       657.302  
  21124168.300   112603702.08705       372.120           0.000           0.00000
         0.000  
  21052961.040   112342619.67906      -537.173    21052964.120           0.00010
      -537.179  
  20598279.620   110070965.35608      -487.373    20598283.820    85610755.66208
      -487.373  
  19551687.680   104514972.92507       206.174    19551692.360    81289448.50306
       206.175  
  23343038.360   124825725.56304       788.979           0.000           0.00000
         0.000  
  21482689.820   114958215.08908       338.702    21482689.820    89411945.46705
       338.703  
  22234021.800   119062174.94807       596.222    22234021.080    92603919.34005
       596.222  
 20  9 26  9  1 25.0000000  0 15G18G20G21G24G10G32G15R10R 2R18R11R 1
                                R24R17R 8
  24489477.480   128693104.43945       737.277    24489474.200   100280314.95744
       737.275  
  20537498.580   107925280.79949       353.813    20537493.440    84097604.41648
       353.813  
  23046063.700   121107879.95545      -130.155    23046060.200    94369814.74845
      -130.155  
  20857411.980   109606439.94046       262.357    20857409.120    85407594.76445
       262.356  
  20495940.060   107706899.05849      -147.327    20495938.300    83927441.56648
      -147.326  
  22334016.500   117366058.73745      -512.559    22334014.180    91454057.19445
      -512.559  
  23905963.500   125626659.87845       657.354    23905962.420    97890920.01245
       657.355  
  21126030.840   112613630.27105       372.992           0.000           0.00000
         0.000  
  21050275.500           0.00000      -536.795           0.000           0.00000
         0.000  
  22499067.720   120101552.51405      -337.693    22499075.660           0.00000
      -337.693  
  20595844.780   110057954.32008      -486.519    20595848.900    85600635.97108
      -486.519  
  19552720.100   104520492.08307       206.879    19552724.860    81293741.19906
       206.879  
  23346983.260   124846823.13304       789.118    23346991.860           0.00000
       789.119  
  21484385.520   114967288.69408       339.625    21484385.080    89419002.70305
       339.626  
  22237003.640   119078142.63307       596.553    22237003.200    92616338.57505
       596.555  
 20  9 26  9  1 30.0000000  0 11G18G20G21G24G10R10R 2R11R 1R17R 8
  24493162.440   128712469.11344       737.287    24493158.880   100295404.24042
       737.290  
  20539267.560   107934576.94948       354.383    20539262.460    84104848.16948
       354.383  
  23045412.680           0.00040      -129.532    23045407.240           0.00040
      -129.532  
  20858723.500   109613332.04247       262.923    20858720.480    85412965.23046
       262.924  
  20495203.580   107703028.49949      -146.754    20495201.800    83924425.55648
      -146.755  
  21127896.580   112623574.69405       373.827           0.000           0.00000
         0.000  
  21047590.180           0.00000      -536.305           0.000           0.00000
         0.000  
  20593412.640   110044957.27408      -485.807    20593416.620    85590527.14708
      -485.806  
  19553754.040   104526019.13307       207.337    19553758.800    81298040.02406
       207.337  
  21486084.280   114976378.73807       340.423           0.000           0.00000
         0.000  
  22239985.560   119094111.53907       596.829    22239985.260    92628758.90005
       596.828  
 20  9 26  9  1 35.0000000  0 12G18G20G21G24G10G15R10R 2R11R 1R17R 8
  24496839.860   128731793.82346       735.486    24496835.940   100310462.44143
       735.487  
  20541031.320   107943845.69448       353.083    20541026.260    84112070.53548
       353.084  
  23044756.860   121101013.69444      -130.837    23044753.560    94364408.89944
      -130.835  
  20860030.340   109620199.09947       261.741    20860027.120    85418316.17345
       261.740  
  20494461.860   107699130.47149      -148.032    20494460.040    83921388.13448
      -148.032  
  23912526.700   125661208.72745       655.902    23912525.620    97917859.04344
       655.902  
  21129758.340   112633497.96805       372.783           0.000           0.00000
         0.000  
  21044900.300   112299637.83406      -538.125    21044902.480    87344158.26905
      -538.125  
  20590976.160   110031937.05209      -486.912    20590979.980    85580400.31408
      -486.912  
  19554782.600   104531516.98207       206.022    19554787.260    81302316.10906
       206.022  
  21487779.140   114985448.12108       339.409    21487779.200    89433126.71206
       339.409  
  22242960.920   119110044.60907       595.223    22242960.440    92641151.28605
       595.224  
 20  9 26  9  1 40.0000000  0 13G18G20G24G10G15G11R10R 2R11R 1R24R17
                                R 8
  24500521.320   128751140.17645       737.087    24500516.600   100325537.45043
       737.091  
  20542801.500   107953148.45448       355.039    20542796.580    84119319.46048
       355.038  
  20861344.080   109627102.52447       263.825    20861340.900    85423695.41845
       263.826  
  20493726.560   107695266.39349      -146.045    20493724.700    83918377.14848
      -146.045  
  23915809.680   125678462.24645       657.356    23915809.540    97931303.35244
       657.356  
  24054832.840   126408994.56504      -232.768           0.000           0.00000
         0.000  
  21131627.720   112643462.84805       375.013           0.000           0.00000
         0.000  
  21042212.720   112285303.47105      -536.542    21042217.280    87333009.30105
      -536.542  
  20588547.060   110018956.33008      -484.727    20588550.840    85570304.23908
      -484.729  
  19555817.360   104537048.15607       207.883    19555821.980    81306618.15806
       207.883  
  23358816.660           0.00000       789.500    23358814.200           0.00000
       789.500  
  21489481.880   114994559.30308       341.712    21489482.100    89440213.16306
       341.713  
  22245941.160   119126004.38707       596.937    22245940.620    92653564.47805
       596.935  
 20  9 26  9  1 45.0000000  0 13G18G20G21G24G10G15G11R10R 2R11R 1R17
                                R 8
  24504208.160   128770515.06347       737.730    24504203.780   100340616.85043
       737.727  
  20544579.520   107962492.25449       356.290    20544574.680    84126600.35148
       356.290  
  23043466.180   121094224.05245      -127.756    23043464.680    94359130.63344
      -127.756  
  20862665.960   109634049.11646       265.083    20862662.920    85429108.47244
       265.079  
  20492999.040   107691443.25349      -144.864    20492997.140    83915398.11848
      -144.866  
  23919101.300   125695738.51745       658.271    23919101.060    97944772.87745
       658.271  
  24053672.560   126402887.68044      -231.819    24053665.720    98495748.62441
      -231.819  
  21133506.260   112653476.07806       376.353           0.000           0.00000
         0.000  
  21039533.540   112271003.05705      -535.435    21039539.100    87321894.93905
      -535.439  
  20586126.600   110006022.12609      -483.401    20586130.340    85560244.28807
      -483.401  
  19556859.700   104542619.89007       209.088    19556864.280    81310951.71606
       209.088  
  21491193.660   115003719.37508       343.104    21491193.320    89447337.73706
       343.103  
  22248927.800   119141998.15007       597.775    22248927.480    92666004.02405
       597.776  
 20  9 26  9  1 50.0000000  0 13G18G20G21G24G10G15R10R 2R11R 1R24R17
                                R 8
  24507899.700   128789913.18146       739.390    24507895.780   100355732.27444
       739.390  
  20546364.360   107971871.62548       358.193    20546359.480    84133908.90348
       358.195  
  23042830.060   121090894.13645      -125.829    23042830.140    94356524.39344
      -125.828  
  20863994.940   109641034.10146       267.021    20863992.120    85434551.29744
       267.022  
  20492278.300   107687655.71249      -142.944    20492276.400    83912446.79048
      -142.945  
  23922392.780   125713022.32645       659.579    23922394.780    97958242.50245
       659.579  
  21135392.960   112663532.41606       378.674           0.000           0.00000
         0.000  
  21036859.260   112256731.01505      -533.865           0.000           0.00000
         0.000  
  20583713.900   109993129.07108      -481.238    20583717.540    85550216.38508
      -481.239  
  19557908.620   104548226.58907       210.934    19557913.080    81315312.51106
       210.933  
  23366710.280   124952300.82115       792.021           0.000           0.00000
         0.000  
  21492913.600   115012922.91507       345.308    21492913.100    89454496.03805
       345.307  
  22251919.860   119158020.26008       599.493    22251919.840    92678465.65606
       599.494  
 20  9 26  9  1 55.0000000  0 11G18G20G21G24G10R10R 2R11R 1R17R 8
  24511594.520   128809329.18145       736.968    24511590.720   100370861.65841
       736.967  
  20548154.940   107981281.43148       356.307    20548150.160    84141241.22148
       356.307  
  23042200.720   121087587.91447      -127.614    23042201.720    94353948.26844
      -127.614  
  20865330.380   109648051.84647       265.297    20865327.760    85440019.59844
       265.299  
  20491563.340   107683898.55149      -144.826    20491561.360    83909519.10348
      -144.824  
  21137286.620   112673626.47905       377.057           0.000           0.00000
         0.000  
  21034188.540           0.00000      -536.033           0.000           0.00000
         0.000  
  20581307.880   109980271.86909      -482.937    20581311.520    85540216.34408
      -482.937  
  19558963.080   104553862.92107       209.023    19558967.400    81319696.33106
       209.022  
  21494640.600   115022164.44908       343.659    21494640.280    89461683.90206
       343.659  
  22254916.100   119174065.29507       597.264    22254916.280    92690945.15506
       597.264  
 20  9 26  9  2  0.0000000  0 13G18G20G21G24G10G15G11R10R 2R11R 1R17
                                R 8
  24515273.880   128828664.88746       738.080    24515270.640   100385928.46643
       738.078  
  20549932.660   107990623.48449       357.898    20549927.900    84148520.73948
       357.898  
  23041560.200   121084214.23746      -126.025    23041559.940    94351319.31646
      -126.022  
  20866653.260   109655004.12746       266.933    20866650.900    85445437.02945
       266.931  
  20490835.500   107680073.63949      -143.180    20490833.480    83906538.67748
      -143.180  
  23928970.440           0.00040       658.728    23928972.660           0.00040
       658.728  
  24050205.640   126384704.99004      -229.744           0.000           0.00000
         0.000  
  21139168.620   112683658.68107       378.990           0.000           0.00000
         0.000  
  21031503.920   112228128.19806      -534.644    21031507.700           0.00000
      -534.644  
  20578889.860   109967350.59408      -481.162    20578893.460    85530166.47707
      -481.163  
  19560004.380   104559429.17607       210.627    19560008.560    81324025.62606
       210.628  
  21496356.180   115031344.23808       345.572    21496354.740    89468823.74005
       345.572  
  22257897.980   119190033.52607       598.650    22257898.640    92703364.84205
       598.651  
 20  9 26  9  2  5.0000000  0 13G18G20G21G24G10G11R10R 2R11R 1R24R17
                                R 8
  24518959.880   128848035.64645       735.447    24518956.940   100401022.53444
       735.449  
  20551719.340   108000012.73448       355.622    20551714.660    84155837.04848
       355.621  
  23040927.980           0.00000      -128.371           0.000           0.00000
         0.000  
  20867985.680   109662006.40947       264.844    20867983.560    85450893.29545
       264.848  
  20490116.620   107676295.96849      -145.524    20490114.520    83903595.04148
      -145.524  
  24049055.380           0.00010      -232.010           0.000           0.00000
         0.000  
  21141060.840   112693745.71504       376.734           0.000           0.00000
         0.000  
  21028827.400   112213844.09305      -537.247    21028833.800    87277466.10105
      -537.247  
  20576481.760   109954482.36308      -483.301    20576485.200    85520157.87607
      -483.302  
  19561054.400   104565042.18007       208.264    19561058.560    81328391.32906
       208.262  
  23378566.640           0.00000       788.620    23378569.880           0.00000
       788.620  
  21498082.000   115040579.29207       343.683    21498079.920    89476006.52605
       343.683  
  22260887.340   119206041.77906       595.884    22260888.200    92715815.75605
       595.882  
 20  9 26  9  2 10.0000000  0 12G20G21G24G10G32R10R 2R11R 1R24R17R 8
  20553500.460   108009372.75949       357.233    20553495.880    84163130.59548
       357.234  
  23040289.020           0.00040      -126.628    23040282.220           0.00050
      -126.628  
  20869312.900   109668981.43945       266.627    20869311.080    85456328.43945
       266.624  
  20489392.140   107672488.96049      -143.864    20489390.040    83900628.53348
      -143.864  
  22310974.780           0.00040      -510.477    22310969.640           0.00040
      -510.477  
  21142948.540   112703809.91906       378.798           0.000           0.00000
         0.000  
  21026143.360   112199522.67807      -535.884    21026146.600    87266327.30205
      -535.886  
  20574068.980   109941589.29408      -481.483    20574072.380    85510129.89407
      -481.482  
  19562098.640   104570624.32707       209.822    19562102.800    81332732.97006
       209.823  
  23382511.120   125036799.09704       789.585    23382518.520           0.00010
       789.584  
  21499803.560   115049791.65105       345.477    21499801.940    89483171.67305
       345.477  
  22263869.700   119222012.38307       597.395    22263870.820    92728237.33206
       597.396  
 20  9 26  9  2 15.0000000  0 13G18G20G21G24G10G32R10R 2R11R 1R24R17
                                R 8
  24526323.640   128886718.96904       737.087           0.000           0.00000
         0.000  
  20555290.780   108018780.96048       358.410    20555286.180    84170461.62548
       358.410  
  23039657.740   121074202.38044      -125.453    23039657.120    94343549.68244
      -125.453  
  20870649.620   109676007.09544       267.731    20870648.060    85461802.96044
       267.731  
  20488676.840   107668730.21749      -142.710    20488674.700    83897699.64648
      -142.710  
  22308419.080           0.00000      -510.882           0.000           0.00000
         0.000  
  21144846.840   112713929.67006       380.026           0.000           0.00000
         0.000  
  21023468.140   112185242.88006      -534.977    21023472.920           0.00010
      -534.977  
  20571666.380   109928750.26608      -480.095    20571669.620    85500144.01307
      -480.095  
  19563151.820   104576254.17507       210.954    19563156.000    81337111.75106
       210.954  
  23386465.040   125057928.75705       790.503    23386469.420    97267305.34705
       790.503  
  21501535.620   115059060.11808       346.849    21501534.060    89490380.43506
       346.852  
  22266859.780   119238024.11207       598.208    22266860.980    92740690.76805
       598.212  
 20  9 26  9  2 20.0000000  0 13G18G20G24G10G32G15R10R 2R11R 1R24R17
                                R 8
  24530012.900   128906079.70445       739.049    24530006.220   100446268.51043
       739.049  
  20557088.620   108028228.83049       360.805    20557084.040    84177823.60647
       360.805  
  20871994.440   109683074.99747       270.367    20871993.140    85467310.44544
       270.364  
  20487969.140   107665011.19449      -140.311    20487966.860    83894801.71948
      -140.311  
  22305870.220   117218139.22447      -508.708    22305867.280    91338806.78346
      -508.708  
  23942124.080   125816718.41743       660.134    23942122.920    98038985.22842
       660.134  
  21146754.120   112724096.53805       382.690           0.000           0.00000
         0.000  
  21020798.600   112170995.93106      -532.941    21020803.620           0.00000
      -532.939  
  20569272.200   109915956.54308      -477.415    20569275.400    85490193.32607
      -477.415  
  19564212.320   104581923.14407       213.310    19564216.480    81341520.93506
       213.310  
  23390422.880   125079089.77405       792.582    23390427.980    97283763.86003
       792.586  
  21503276.580   115068376.05207       349.604    21503274.740    89497626.16407
       349.606  
  22269855.860   119254068.41006       600.487    22269857.420    92753169.68305
       600.487  
 20  9 26  9  2 25.0000000  0 13G18G20G21G24G10G11R10R 2R11R 1R24R17
                                R 8
  24533701.360   128925459.29046       736.582    24533697.020   100461369.56143
       736.582  
  20558886.520   108037677.15348       358.862    20558881.960    84185185.95648
       358.862  
  23038415.540   121067697.36145      -125.479    23038412.700    94338467.13644
      -125.479  
  20873339.900   109690145.46146       268.574    20873338.720    85472819.93245
       268.575  
  20487261.460   107661292.51049      -142.242    20487259.200    83891904.03548
      -142.242  
  24044479.680   126354605.36846      -228.292    24044475.620    98458100.50043
      -228.291  
  21148662.760   112734270.82307       381.047           0.000           0.00000
         0.000  
  21018127.340   112156741.72607      -535.178    21018131.120           0.00000
      -535.175  
  20566878.960   109903168.17308      -479.254    20566882.100    85480246.83907
      -479.255  
  19565272.580   104587591.38107       211.275    19565276.880    81345929.57406
       211.275  
  23394378.600   125100241.73106       790.321    23394383.460           0.00000
       790.320  
  21505018.920   115077699.62807       347.768    21505017.620    89504877.90207
       347.766  
  22272850.500   119270104.96507       598.053    22272852.200           0.00000
       598.049  
 20  9 26  9  2 30.0000000  0 16G18G20G21G24G10G32G15G11R10R 2R18R11
                                R 1R24R17R 8
  24537385.160   128944818.31844       736.954    24537384.920   100476454.48743
       736.958  
  20560682.840   108047117.26748       359.704    20560678.320    84192541.89548
       359.702  
  23037793.660   121064423.53146      -124.280    23037790.460    94335915.94144
      -124.273  
  20874684.240   109697210.25947       269.354    20874683.220    85478324.92946
       269.353  
  20486552.320   107657565.82649      -141.455    20486549.960    83889000.13348
      -141.455  
  22300767.860           0.00040      -510.271    22300765.160           0.00040
      -510.271  
  23948703.600           0.00010       657.883           0.000           0.00000
         0.000  
  24043338.300           0.00040      -227.234    24043353.720           0.00040
      -227.234  
  21150571.100   112744443.47907       382.206           0.000           0.00000
         0.000  
  21015453.240   112142472.23206      -534.621    21015458.780           0.00010
      -534.617  
  22477420.320           0.00000      -328.363    22477430.080           0.00000
      -328.363  
  20564485.140   109890376.73908      -478.304    20564488.420    85470297.95007
      -478.304  
  19566331.160   104593250.11207       212.048    19566335.460    81350330.79606
       212.049  
  23398330.760   125121376.33504       790.863    23398336.000    97316655.53505
       790.859  
  21506761.120   115087022.04006       349.072    21506760.260    89512128.66106
       349.071  
  22275842.240   119286125.61507       598.581           0.000           0.00000
         0.000  
 20  9 26  9  2 35.0000000  0 13G18G20G21G24G10G11R10R 2R11R 1R24R17
                                R 8
  24541073.440           0.00040       736.520    24541067.600           0.00050
       736.520  
  20562483.380   108056579.47649       359.768    20562478.860    84199915.01447
       359.769  
  23037174.840   121061172.18647      -123.990    23037170.260    94333382.56045
      -123.990  
  20876033.160   109704299.46347       269.551    20876032.300    85483849.06744
       269.547  
  20485847.360   107653861.13349      -141.335    20485844.940    83886113.40548
      -141.337  
  24042206.300   126342638.89644      -227.220    24042205.760    98448827.12743
      -227.220  
  21152484.980   112754645.33707       382.616           0.000           0.00000
         0.000  
  21012781.840   112128217.32906      -534.735    21012786.960           0.00000
      -534.735  
  20562096.460   109877612.65108      -477.924    20562099.840    85460370.35407
      -477.925  
  19567393.700   104598929.97807       212.162    19567397.980    81354748.46606
       212.162  
  23402285.220   125142524.08807       790.510           0.000           0.00000
         0.000  
  21508508.700   115096373.77107       349.271    21508507.980    89519402.22806
       349.271  
  22278836.660   119302160.58207       598.315           0.000           0.00000
         0.000  
 20  9 26  9  2 40.0000000  0 15G20G21G24G10G32G15G11R10R 2R18R11R 1
                                R24R17R 8
  20564286.260   108066053.58248       362.419    20564281.700    84207297.45147
       362.418  
  23036558.500           0.00040      -121.678    23036554.500           0.00040
      -121.678  
  20877385.000   109711403.07046       272.181    20877384.120    85489384.32745
       272.179  
  20485144.700   107650168.52849      -138.777    20485142.180    83883236.02348
      -138.777  
  22295668.560   117164528.98647      -508.182    22295666.660    91297026.27845
      -508.182  
  23955284.980           0.00040       659.555    23955289.920           0.00040
       659.555  
  24041075.820   126336720.49605      -224.372           0.000           0.00000
         0.000  
  21154402.380   112764866.10506       385.376           0.000           0.00000
         0.000  
  21010111.340   112113967.47304      -532.342           0.000           0.00000
         0.000  
  22474145.960           0.00000      -325.060           0.000           0.00000
         0.000  
  20559711.060   109864865.85808      -475.118    20559714.460    85450456.22507
      -475.120  
  19568458.280   104604620.79807       214.725    19568462.600    81359174.67106
       214.725  
  23406239.760   125163674.42404       792.545    23406244.220    97349557.87105
       792.545  
  21510259.920   115105744.92907       352.130    21510259.560    89526690.87307
       352.132  
  22281831.940   119318199.72108       600.688    22281828.200    92803036.56404
       600.688  
 20  9 26  9  2 45.0000000  0 14G20G21G24G10G32G15G11R10R 2R11R 1R24
                                R17R 8
  20566094.660   108075556.73649       361.042    20566090.100    84214702.52548
       361.041  
  23035947.200   121054703.04846      -122.767    23035939.480    94328317.34645
      -122.766  
  20878742.740   109718538.17047       270.885    20878741.760    85494944.20946
       270.882  
  20484447.580   107646505.00149      -140.031    20484444.980    83880381.31348
      -140.031  
  22293123.400   117151153.83946      -509.826    22293121.120    91286604.13745
      -509.824  
  23958580.020           0.00040       657.876    23958581.860           0.00050
       657.876  
  24039952.580           0.00000      -225.574           0.000           0.00000
         0.000  
  21156326.540   112775122.94406       384.533           0.000           0.00000
         0.000  
  21007445.000   112099739.59006      -533.991    21007448.520           0.00000
      -533.991  
  20557332.080   109852153.57708      -476.327    20557335.500    85440568.90407
      -476.327  
  19569528.180   104610339.91707       213.297    19569532.500    81363622.88606
       213.297  
  23410198.760           0.00000       791.034    23410203.900           0.00000
       791.034  
  21512017.940   115115152.60207       351.199    21512018.080    89534007.97707
       351.199  
  22284831.180   119334260.65707       599.096    22284831.080    92815532.46605
       599.096  
 20  9 26  9  2 50.0000000  0 13G20G21G24G10G11R10R 2R18R11R 1R24R17
                                R 8
  20567900.680   108085047.61948       360.250    20567896.200    84222098.04248
       360.248  
  23035334.900   121051503.34147      -123.693    23035329.140    94325829.96644
      -123.693  
  20880098.680   109725663.46247       270.159    20880097.600    85500496.23345
       270.164  
  20483748.120   107642829.32949      -140.887    20483745.520    83877517.18248
      -140.887  
  24038823.640   126324868.64644      -226.418    24038823.720    98434962.68643
      -226.418  
  21158249.620   112785374.18407       383.680           0.000           0.00000
         0.000  
  21004775.080   112085492.25506      -535.179           0.000           0.00000
         0.000  
  22470893.060           0.00000      -326.566           0.000           0.00000
         0.000  
  20554951.800   109839434.11008      -476.941    20554955.180    85430676.00707
      -476.941  
  19570595.520   104616045.50107       212.423    19570599.820    81368060.55806
       212.423  
  23414147.320           0.00000       789.564    23414157.140           0.00000
       789.564  
  21513774.940   115124554.97405       350.746    21513775.240    89541320.95007
       350.746  
  22287826.480   119350301.15807       597.951    22287825.380           0.00000
       597.951  
 20  9 26  9  2 55.0000000  0 15G20G21G24G10G32G15G11R10R 2R18R11R 1
                                R24R17R 8
  20569709.840   108094555.39748       362.885    20569705.420    84229506.70347
       362.885  
  23034724.020   121048300.64446      -120.885    23034718.600    94323328.69544
      -120.885  
  20881458.180   109732807.56246       272.923    20881457.120    85506063.04444
       272.923  
  20483051.880   107639170.55649      -138.180    20483049.260    83874666.17148
      -138.179  
  22288027.140   117124385.94647      -508.566    22288023.640    91265728.40946
      -508.566  
  23965158.820   125937751.02545       658.855    23965159.040    98133328.12345
       658.855  
  24037701.480   126318969.26745      -223.540    24037700.460    98430365.73943
      -223.540  
  21160177.180   112795649.15006       386.713           0.000           0.00000
         0.000  
  21002107.180           0.00000      -532.763    21002107.180           0.00000
      -532.764  
  22469268.520   119942508.00505      -323.708    22469278.580           0.00000
      -323.708  
  20552575.660   109826736.78109      -474.066    20552578.980    85420800.31907
      -474.068  
  19571665.820   104621766.87007       215.049    19571670.080    81372510.48906
       215.050  
  23418110.200   125227166.48206       792.282    23418114.280           0.00000
       792.282  
  21515536.340   115133981.29107       353.578    21515536.600    89548652.48307
       353.581  
  22290823.500   119366350.91606       600.249    22290823.320           0.00000
       600.250  
 20  9 26  9  3  0.0000000  0 14G20G21G24G10G32G15R10R 2R18R11R 1R24
                                R17R 8
  20571529.740   108104119.45448       364.413    20571525.360    84236959.17847
       364.414  
  23034124.720   121045152.70445      -119.379    23034119.960    94320875.62643
      -119.380  
  20882828.880   109740010.47646       274.520    20882827.500    85511675.90145
       274.514  
  20482366.400   107635568.22149      -136.712    20482363.760    83871859.18148
      -136.713  
  22285489.160   117111050.15146      -507.306    22285486.620    91255336.90845
      -507.304  
  23968457.700   125955086.93547       659.956    23968456.480    98146836.71745
       659.951  
  21162116.800   112805988.10407       388.478           0.000           0.00000
         0.000  
  20999448.340   112057079.16107      -531.488    20999450.240           0.00010
      -531.488  
  22467654.320           0.00000      -321.848    22467659.460           0.00000
      -321.848  
  20550211.180   109814101.89808      -472.398    20550214.540    85410973.14108
      -472.398  
  19572746.600   104627544.42207       216.556    19572750.900    81377004.17406
       216.555  
  23422075.640   125248371.60604       793.345    23422081.600           0.00000
       793.350  
  21517309.900   115143472.17706       355.247    21517310.240    89556034.29406
       355.247  
  22293829.920   119382450.04607       601.594    22293826.740           0.00000
       601.597  
 20  9 26  9  3  5.0000000  0 14G20G21G24G10G32G11R10R 2R18R11R 1R24
                                R17R 8
  20573348.220   108113676.15648       362.975    20573343.940    84244405.93848
       362.976  
  23033524.060           0.00000      -120.860           0.000           0.00000
         0.000  
  20884198.660   109747208.53546       273.372    20884197.180    85517284.68144
       273.373  
  20481679.500   107631958.66849      -138.065    20481676.880    83869046.54548
      -138.065  
  22282946.880   117097699.82045      -508.907    22282946.540    91244934.12545
      -508.911  
  24035478.960   126307286.28646      -223.164    24035477.920    98421265.37844
      -223.164  
  21164056.260   112816326.48307       387.234           0.000           0.00000
         0.000  
  20996786.820   112042876.54306      -533.146    20996790.040           0.00000
      -533.146  
  22466043.820   119925251.72905      -322.982    22466053.380           0.00000
      -322.990  
  20547846.300   109801464.61408      -473.615    20547849.680    85401144.19407
      -473.618  
  19573825.760   104633313.25207       215.101    19573830.040    81381491.06006
       215.100  
  23426037.460   125269559.62806       791.396    23426042.480    97431894.26105
       791.396  
  21519083.320   115152962.46707       354.063    21519083.760    89563415.60607
       354.063  
  22296833.440   119398533.69507       599.780    22296832.600    92865514.48903
       599.783  
 20  9 26  9  3 10.0000000  0 15G18G20G24G10G32G15G11R10R 2R18R11R 1
                                R24R17R 8
  24566876.480           0.00000       737.373           0.000           0.00000
         0.000  
  20575161.480   108123204.89148       363.784    20575157.240    84251830.97848
       363.782  
  20885563.540   109754380.83947       274.140    20885562.080    85522873.54545
       274.138  
  20480987.340   107628321.27749      -137.338    20480984.680    83866212.19648
      -137.338  
  22280402.420           0.00040      -508.414    22280399.600           0.00040
      -508.414  
  23975040.980           0.00040       658.807    23975040.220           0.00040
       658.807  
  24034361.400           0.00000      -222.001           0.000           0.00000
         0.000  
  21165991.540   112826643.23807       388.432           0.000           0.00000
         0.000  
  20994118.320   112028637.87307      -532.678    20994122.340           0.00000
      -532.678  
  22464428.040   119916626.21506      -321.750    22464434.660           0.00000
      -321.766  
  20545477.100   109788804.28708      -472.660    20545480.460    85391297.28307
      -472.660  
  19574899.400   104639052.59906       215.874    19574903.660    81385954.99506
       215.873  
  23429992.540           0.00000       792.015    23429997.660           0.00010
       792.015  
  21520852.840   115162431.49406       355.153    21520853.520    89570780.43607
       355.153  
  22299830.180   119414581.01306       600.478    22299832.520           0.00000
       600.478  
 20  9 26  9  3 15.0000000  0 13G18G20G24G10G32G15R10R 2R18R11R 1R17
                                R 8
  24570560.600   129119176.02544       737.311    24570571.280   100612348.63444
       737.311  
  20576980.880   108132765.99248       364.288    20576976.660    84259281.17648
       364.288  
  20886935.100   109761588.09447       274.895    20886933.440    85528489.54245
       274.896  
  20480301.340   107624716.39449      -136.775    20480298.700    83863403.23548
      -136.776  
  22277857.700   117070939.53245      -507.923    22277858.660    91224096.77844
      -507.923  
  23978331.120           0.00040       658.569    23978328.880           0.00040
       658.569  
  21167934.280   112836999.40707       389.064           0.000           0.00000
         0.000  
  20991454.980   112014425.14306      -532.593    20991462.320           0.00000
      -532.593  
  22462818.300   119908053.31805      -321.055    22462827.020           0.00000
      -321.077  
  20543115.040   109776181.95408      -471.914    20543118.320    85381479.91507
      -471.915  
  19575978.900   104644823.59707       216.276    19575983.220    81390443.53806
       216.275  
  21522629.840   115171940.27207       355.980    21522631.480    89578178.12907
       355.980  
  22302831.680   119430653.45407       600.554    22302830.900    92890500.57901
       600.554  
 20  9 26  9  3 20.0000000  0 14G20G24G10G32G15G11R10R 2R18R11R 1R24
                                R17R 8
  20578808.180   108142368.62649       365.510    20578803.980    84266763.75647
       365.509  
  20888314.860   109768838.85045       276.122    20888313.180    85534139.46045
       276.123  
  20479623.260   107621153.17849      -135.574    20479620.660    83860626.68848
      -135.574  
  22275322.700   117057598.98946      -507.307    22275321.220    91213710.48845
      -507.307  
  23981629.900   126024299.94845       659.274    23981628.660    98200771.15045
       659.272  
  24032151.380   126289796.60045      -220.210    24032152.120    98407654.29342
      -220.212  
  21169886.280   112847404.51906       390.502           0.000           0.00000
         0.000  
  20988798.000   112000247.12206      -531.541    20988804.160           0.00000
      -531.550  
  22461219.780   119899517.98205      -319.664           0.000           0.00000
         0.000  
  20540761.820   109763607.08408      -470.551    20540765.080    85371699.43807
      -470.550  
  19577066.140   104650635.73707       217.465    19577070.460    81394964.07106
       217.465  
  23437918.660   125333056.30904       792.948    23437925.260           0.00000
       792.948  
  21524415.960   115181498.33207       357.385    21524416.100    89585612.23407
       357.384  
  22305839.620   119446760.14007       601.484    22305837.900           0.00000
       601.485  
 20  9 26  9  3 25.0000000  0 12G18G20G24G10R10R 2R18R11R 1R24R17R 8
  24577940.260   129157960.02104       737.069           0.000           0.00000
         0.000  
  20580635.660   108151972.04148       365.307    20580631.420    84274246.92648
       365.308  
  20889695.240   109776092.97147       275.923    20889693.380    85539792.13545
       275.919  
  20478945.360   107617590.89449      -135.688    20478942.820    83857850.90048
      -135.689  
  21171839.620   112857817.11508       390.614           0.000           0.00000
         0.000  
  20986139.760   111986062.52206      -532.021           0.000           0.00000
         0.000  
  22459622.040   119890990.77104      -319.522    22459629.600           0.00000
      -319.522  
  20538409.720   109751038.19108      -470.597    20538413.000    85361923.67207
      -470.598  
  19578153.340   104656447.34207       217.168    19578157.660    81399484.20606
       217.169  
  23441881.300           0.00000       792.358           0.000           0.00000
         0.000  
  21526203.580   115191064.25306       357.446    21526203.720    89593052.32407
       357.448  
  22308846.140   119462859.91807       601.062    22308847.420           0.00000
       601.062  
 20  9 26  9  3 30.0000000  0 14G20G21G24G10G32G15G11R10R 2R11R 1R24
                                R17R 8
  20582463.120   108161575.39549       366.192    20582458.880    84281730.06748
       366.192  
  23030547.320           0.00040      -117.587    23030543.460           0.00040
      -117.587  
  20891076.000   109783349.43747       276.896    20891074.160    85545446.44044
       276.898  
  20478267.440   107614028.69849      -134.871    20478264.980    83855075.15648
      -134.872  
  22270244.960           0.00000      -507.154           0.000           0.00000
         0.000  
  23988218.360           0.00040       659.181    23988221.180           0.00040
       659.180  
  24029951.100           0.00010      -219.408           0.000           0.00000
         0.000  
  21173794.260   112868236.37708       391.771           0.000           0.00000
         0.000  
  20983480.360   111971870.73907      -531.484    20983487.420           0.00000
      -531.484  
  20536058.580   109738474.56608      -469.441    20536061.840    85352151.99307
      -469.443  
  19579240.280   104662257.79107       218.058    19579244.620    81404003.45407
       218.058  
  23445845.000           0.00000       792.902    23445847.980           0.00000
       792.902  
  21527992.340   115200637.02706       358.756    21527993.500    89600497.83307
       358.755  
  22311851.240   119478951.59206       601.568    22311852.260    92928069.74304
       601.567  
 20  9 26  9  3 35.0000000  0 15G20G21G24G10G32G15G11R10R 2R18R11R 1
                                R24R17R 8
  20584291.260   108171182.16449       365.401    20584287.000    84289215.88048
       365.400  
  23029956.000   121023233.13446      -118.533    23029949.620    94303803.54345
      -118.532  
  20892457.940   109790611.70447       276.224    20892456.040    85551105.42344
       276.221  
  20477590.260   107610470.14849      -135.691    20477587.860    83852302.25248
      -135.691  
  22267706.420           0.00040      -508.313    22267707.620           0.00040
      -508.313  
  23991512.740           0.00000       657.931           0.000           0.00000
         0.000  
  24028850.300   126272470.13145      -220.065    24028845.440    98394106.24644
      -220.065  
  21175750.800   112878665.72107       391.067           0.000           0.00000
         0.000  
  20980820.100   111957675.05207      -532.538    20980825.500    87078209.48104
      -532.540  
  22456434.040           0.00000      -318.872    22456437.720           0.00000
      -318.872  
  20533709.120   109725919.77808      -469.979    20533712.240    85342387.17207
      -469.979  
  19580327.660   104668070.58807       217.227    19580332.000    81408524.51905
       217.227  
  23449801.900           0.00000       791.841           0.000           0.00000
         0.000  
  21529783.060   115210220.21107       358.060    21529784.200    89607951.49407
       358.057  
  22314855.460   119495038.84206       600.322           0.000           0.00000
         0.000  
 20  9 26  9  3 40.0000000  0 14G18G20G21G24G10G32G15R10R 2R18R11R 1
                                R17R 8
  24588999.660           0.00000       737.270           0.000           0.00000
         0.000  
  20586122.080   108180802.94149       366.675    20586117.780    84296712.58848
       366.674  
  23029367.100           0.00000      -116.947           0.000           0.00000
         0.000  
  20893842.980   109797890.23647       277.566    20893840.920    85556776.94844
       277.570  
  20476915.800   107606925.83449      -134.334    20476913.400    83849540.43648
      -134.333  
  22265169.520   117004250.90447      -507.074    22265168.300    91172138.94946
      -507.074  
  23994805.760           0.00040       658.747    23994801.780           0.00040
       658.747  
  21177711.240   112889115.90607       392.842           0.000           0.00000
         0.000  
  20978160.960   111943486.58006      -531.201           0.000           0.00000
         0.000  
  22454844.060   119865467.43706      -317.354    22454853.660           0.00000
      -317.354  
  20531363.360   109713384.52608      -468.509    20531366.340    85332637.50507
      -468.509  
  19581417.520   104673896.46407       218.448    19581421.800    81413055.73506
       218.449  
  21531577.760   115219821.88806       359.672    21531579.480           0.00000
       359.673  
  22317860.920   119511132.53907       601.437    22317862.760           0.00000
       601.437  
 20  9 26  9  3 45.0000000  0 12G20G24G10G32G15R10R 2R18R11R 1R17R 8
  20587959.320   108190457.52149       367.650    20587954.960    84304235.62547
       367.651  
  20895234.920   109805204.73346       278.591    20895232.540    85562476.59344
       278.592  
  20476247.800   107603415.45249      -133.422    20476245.420    83846805.07848
      -133.422  
  22262635.180           0.00000      -506.549           0.000           0.00000
         0.000  
  23998103.760   126110896.15646       659.427    23998100.280    98268221.32945
       659.430  
  21179679.400   112899606.92507       393.959           0.000           0.00000
         0.000  
  20975507.240   111929325.04307      -530.718    20975508.800           0.00000
      -530.718  
  22453262.740   119857022.95506      -316.062           0.000           0.00000
         0.000  
  20529025.000   109700888.96408      -467.366    20529027.920    85322918.71107
      -467.364  
  19582513.540   104679755.52707       219.396    19582517.860    81417612.79206
       219.396  
  21533380.200   115229467.65706       360.889    21533381.800    89622926.00707
       360.889  
  22320871.220   119527252.54807       602.091    22320875.280    92965646.10604
       602.095  
 20  9 26  9  3 50.0000000  0 13G18G20G24G10G32G15R10R 2R18R11R 1R17
                                R 8
  24596377.800   129254831.72645       737.328    24596377.600   100718034.45944
       737.328  
  20589797.800   108200118.49249       367.737    20589793.400    84311763.65548
       367.737  
  20896628.420   109812528.15346       278.777    20896626.180    85568183.18144
       278.777  
  20475581.040   107599911.72549      -133.318    20475578.740    83844074.88948
      -133.319  
  22260104.200   116977631.65647      -506.723    22260102.060    91151399.33547
      -506.723  
  24001400.300   126128217.25345       659.147    24001397.680    98281718.32543
       659.146  
  21181649.960   112910111.36907       394.245           0.000           0.00000
         0.000  
  20972853.100   111915162.82507      -530.984    20972854.520    87045136.58604
      -530.985  
  22451683.600   119848592.57406      -315.669    22451691.140           0.00000
      -315.669  
  20526688.900   109688405.32208      -467.100    20526691.780    85313209.21007
      -467.100  
  19583610.560   104685620.02707       219.397    19583614.940    81422174.07806
       219.397  
  21535185.260   115239127.02107       361.206    21535186.300    89630438.88507
       361.205  
  22323881.600   119543371.42806       601.922    22323883.260           0.00000
       601.919  
 20  9 26  9  3 55.0000000  0 13G20G24G10G32G15G11R10R 2R18R11R 1R17
                                R 8
  20591640.260   108209800.32449       368.894    20591635.800    84319307.92248
       368.896  
  20898026.180   109819874.87646       280.207    20898023.940    85573907.91944
       280.208  
  20474918.320   107596429.07749      -132.143    20474916.060    83841361.16748
      -132.143  
  22257572.980   116964333.74147      -505.869    22257570.220    91141037.40346
      -505.872  
  24004697.320   126145547.88146       659.777    24004696.360    98295222.66945
       659.779  
  24024496.200   126249596.37503      -215.795           0.000           0.00000
         0.000  
  21183625.760   112920643.53208       395.692           0.000           0.00000
         0.000  
  20970201.780   111901014.37407      -529.960           0.000           0.00000
         0.000  
  22450110.480   119840191.16505      -314.183           0.000           0.00000
         0.000  
  20524357.780   109675948.28308      -465.719    20524360.640    85303520.44707
      -465.720  
  19584711.340   104691504.49307       220.513    19584715.780    81426750.87906
       220.513  
  21536995.720   115248814.56207       362.624    21536996.840    89637973.60307
       362.624  
  22326894.180   119559503.32206       602.739    22326895.640    92990731.09105
       602.738  
 20  9 26  9  4  0.0000000  0 12G12G20G24G10G32G15R10R 2R11R 1R17R 8
  24357633.900           0.00000      -636.693           0.000           0.00000
         0.000  
  20593485.260   108219495.53149       369.186    20593480.760    84326862.65348
       369.185  
  20899427.040   109827237.01046       280.285    20899424.740    85579644.56545
       280.286  
  20474258.200   107592960.07549      -131.850    20474255.940    83838658.02148
      -131.849  
  22255044.280   116951042.13048      -505.946    22255040.920    91130680.27146
      -505.945  
  24007995.420   126162880.80445       659.703    24007995.020    98308728.84845
       659.704  
  21185605.320   112931195.91707       396.321           0.000           0.00000
         0.000  
  20967551.680   111886872.64207      -529.937    20967552.440           0.00000
      -529.937  
  20522030.240   109663510.13908      -465.188    20522033.040    85293846.31907
      -465.187  
  19585814.540   104697401.61107       220.818    19585818.880    81431337.53106
       220.819  
  21538809.820   115258522.52506       363.118    21538811.220    89645524.26207
       363.116  
  22329907.960   119575641.16605       602.867    22329908.580    93003282.77005
       602.867  
 20  9 26  9  4  5.0000000  0 12G20G21G24G10G32R10R 2R18R11R 1R17R 8
  20595331.760   108229198.56849       369.572    20595327.200    84334423.45948
       369.572  
  23026488.180           0.00040      -114.027    23026485.260           0.00040
      -114.027  
  20900829.980   109834609.61045       280.972    20900827.660    85585389.50744
       280.970  
  20473599.620   107589499.26449      -131.398    20473597.380    83835961.30748
      -131.399  
  22252515.440   116937751.27647      -505.624    22252512.100    91120323.76746
      -505.624  
  21187587.720   112941762.99808       396.942           0.000           0.00000
         0.000  
  20964901.660   111872731.46805      -530.002    20964905.980           0.00000
      -530.002  
  22446973.140   119823446.42505      -313.162    22446988.360           0.00000
      -313.162  
  20519705.180   109651085.56608      -464.639    20519707.940    85284182.81207
      -464.641  
  19586918.980   104703305.60407       221.193    19586923.340    81435929.55006
       221.192  
  21540626.800   115268245.55207       363.916    21540628.380    89653086.60607
       363.916  
  22332921.680   119591779.20506       603.015    22332923.220    93015834.56405
       603.016  
 20  9 26  9  4 10.0000000  0 12G20G21G24G10G32R10R 2R18R11R 1R17R 8
  20597174.040   108238879.49948       368.689    20597169.420    84341967.03047
       368.689  
  23025910.700           0.00010      -114.938           0.000           0.00000
         0.000  
  20902229.140   109841962.27747       280.136    20902226.760    85591118.84545
       280.139  
  20472936.860   107586016.44749      -132.346    20472934.640    83833247.43648
      -132.347  
  22249980.080   116924430.92747      -506.949    22249977.620    91109944.23446
      -506.948  
  21189567.080   112952314.17007       396.109           0.000           0.00000
         0.000  
  20962245.960   111858560.67706      -531.285           0.000           0.00000
         0.000  
  22445403.120   119815085.16404      -313.514    22445416.400           0.00000
      -313.514  
  20517376.840   109638643.79408      -465.294    20517379.620    85274505.87206
      -465.294  
  19588019.000   104709185.87407       220.211    19588023.340    81440503.11006
       220.211  
  21542440.840   115277952.96207       363.195    21542442.540    89660636.79707
       363.194  
  22335929.560   119607886.46906       601.664    22335930.960    93028362.44704
       601.664  
 20  9 26  9  4 15.0000000  0 12G20G21G24G10G32G15R10R 2R11R 1R17R 8
  20599027.380   108248618.70948       371.470    20599022.740    84349556.03148
       371.470  
  23025348.160           0.00000      -111.697           0.000           0.00000
         0.000  
  20903640.040           0.00050       283.041    20903641.420           0.00050
       283.041  
  20472285.280   107582592.28549      -129.501    20472283.080    83830579.25348
      -129.501  
  22247455.160   116911161.92646      -504.229    22247452.480    91099604.83646
      -504.230  
  24017886.400   126214840.94545       660.821    24017881.760    98349225.25644
       660.820  
  21191558.780   112962931.04607       399.244           0.000           0.00000
         0.000  
  20959600.100   111844441.98905      -528.420    20959602.620    86990112.38505
      -528.420  
  20515060.640   109626266.79308      -462.417    20515063.440    85264879.32207
      -462.417  
  19589129.940   104715124.33208       222.932    19589134.220    81445121.89206
       222.933  
  21544267.380   115287726.56306       366.073    21544269.260    89668238.52407
       366.072  
  22338947.400   119624048.41305       603.999    22338947.100           0.00000
       603.999  
 20  9 26  9  4 20.0000000  0 10G20G24G10G32G15R10R 2R11R 1R17
  20600884.500   108258377.76549       371.414    20600879.840    84357160.48148
       371.415  
  20905055.160   109856804.77747       283.084    20905051.200    85602710.00744
       283.083  
  20471637.460   107579188.14649      -129.613    20471635.280    83827926.66648
      -129.612  
  22244932.600   116897905.20347      -504.830    22244930.020    91089274.83046
      -504.828  
  24021187.920   126232192.81945       660.142    24021183.560    98362746.15344
       660.143  
  21193555.500   112973574.65507       399.233           0.000           0.00000
         0.000  
  20956956.620   111830336.32207      -529.121           0.000           0.00000
         0.000  
  20512749.180   109613915.40908      -462.260    20512752.100    85255272.72507
      -462.261  
  19590244.440   104721081.74707       222.792    19590248.660    81449755.44506
       222.791  
  21546098.840   115297527.07306       366.187    21546100.920    89675861.12007
       366.188  
 20  9 26  9  4 25.0000000  0 11G20G24G10G32G15R10R 2R11R 1R17R 8
  20602736.820   108268111.62249       371.665    20602732.140    84364745.29148
       371.666  
  20906466.380   109864217.27346       283.345    20906463.300    85608486.08645
       283.343  
  20470984.940   107575759.13049      -129.323    20470982.740    83825254.69748
      -129.322  
  22242404.240   116884617.42547      -504.821    22242401.480    91078915.98647
      -504.821  
  24024482.460   126249508.37746       660.060    24024482.240    98376227.82746
       660.061  
  21195548.620   112984199.44007       399.973           0.000           0.00000
         0.000  
  20954307.080   111816198.01306      -528.932    20954310.360           0.00000
      -528.932  
  20510434.000   109601543.98208      -461.756    20510436.980    85245650.51007
      -461.756  
  19591353.920   104727012.45407       223.093    19591358.100    81454368.23806
       223.092  
  21547926.920   115307308.95206       366.964    21547928.940    89683469.24208
       366.966  
  22344980.800   119656357.11704       603.695    22344979.520           0.00000
       603.695  
 20  9 26  9  4 30.0000000  0 11G20G21G24G10G32G15R10R 2R11R 1R17
  20604597.820   108277891.36149       372.600    20604593.160    84372365.84048
       372.601  
  23023663.700           0.00040      -110.883    23023658.880           0.00040
      -110.883  
  20907884.920   109871677.94947       284.380    20907882.700    85614299.61445
       284.380  
  20470341.200   107572376.25949      -128.398    20470339.040    83822618.73748
      -128.399  
  22239882.360   116871367.25346      -504.056    22239879.760    91068591.20546
      -504.056  
  24027783.200   126266858.57344       660.550    24027782.740    98389747.45443
       660.549  
  21197551.760   112994877.29007       401.121           0.000           0.00000
         0.000  
  20951664.800   111802099.06105      -528.319    20951665.300    86957207.06104
      -528.317  
  20508128.560   109589224.54308      -460.607    20508131.540    85236068.71607
      -460.607  
  19592471.940   104732988.63107       223.946    19592476.060    81459016.34506
       223.947  
  21549764.980   115317144.42708       368.063    21549766.880    89691119.04907
       368.064  
 20  9 26  9  4 35.0000000  0 11G20G21G24G10G15R10R 2R11R 1R17R 8
  20606458.200   108287667.76149       372.436    20606453.540    84379983.82848
       372.435  
  23023105.620   120987241.78244      -111.227    23023101.540    94275745.47644
      -111.231  
  20909304.040   109879137.50945       284.373    20909304.040    85620112.24844
       284.372  
  20469696.860   107568990.36449      -128.480    20469694.720    83819980.33448
      -128.480  
  24031083.300           0.00040       660.058    24031083.160           0.00040
       660.058  
  21199555.440   113005558.27408       401.205           0.000           0.00000
         0.000  
  20949020.640   111787989.61206      -528.590    20949022.120           0.00000
      -528.590  
  20505823.540   109576907.28408      -460.543    20505826.520    85226488.62607
      -460.544  
  19593589.140   104738960.33707       223.789    19593593.220    81463661.02306
       223.788  
  21551603.600   115326983.28807       368.222    21551605.600    89698771.53107
       368.223  
  22351018.960   119688681.61203       603.965           0.000           0.00000
         0.000  
 20  9 26  9  4 40.0000000  0 11G20G24G10G32G15R10R 2R11R 1R17R 8
  20608323.240   108297468.55449       373.194    20608318.540    84387620.82148
       373.195  
  20910728.700   109886623.68047       285.156    20910728.080    85625945.55244
       285.159  
  20469057.280   107565629.19649      -127.784    20469055.100    83817361.24048
      -127.783  
  22234838.840   116844874.14147      -504.104    22234835.880    91047938.64846
      -504.104  
  24034385.620   126301550.03145       660.190    24034381.060    98416789.34544
       660.189  
  21201565.020   113016270.59208       402.241           0.000           0.00000
         0.000  
  20946379.820   111773897.65607      -528.255    20946381.700    86935266.68605
      -528.259  
  20503524.100   109564620.32508      -459.637    20503527.240    85216932.13907
      -459.637  
  19594710.700   104744955.73607       224.405    19594714.820    81468324.10306
       224.405  
  21553448.060   115336853.77807       369.115    21553450.340    89706448.56008
       369.115  
  22354040.940           0.00000       604.309    22354039.260           0.00010
       604.309  
 20  9 26  9  4 45.0000000  0 11G20G24G10G32G15R10R 2R18R11R 1R17
  20610188.980   108307272.99049       373.601    20610184.260    84395260.62448
       373.602  
  20912155.960           0.00040       285.606    20912153.940           0.00040
       285.606  
  20468418.440   107562272.03249      -127.309    20468416.240    83814745.27648
      -127.309  
  22232317.400   116831627.30046      -503.666    22232315.620    91037616.47146
      -503.667  
  24037685.340   126318891.56445       660.249    24037680.700    98430302.15245
       660.251  
  21203576.440   113026993.22707       402.918           0.000           0.00000
         0.000  
  20943738.400   111759802.85307      -527.968    20943739.540    86924297.10305
      -527.973  
  22434577.460           0.00000      -306.605    22434579.940           0.00000
      -306.605  
  20501226.520   109552342.69808      -458.980    20501229.680    85207382.86607
      -458.981  
  19595832.840   104750953.77407       224.845    19595836.920    81472989.24406
       224.845  
  21555294.600   115346734.88507       369.860    21555296.860    89714133.88608
       369.861  
 20  9 26  9  4 50.0000000  0 13G20G24G10G32G15R10R 2R18R11R 1R24R17
                                R 8
  20612058.520   108317097.50748       373.881    20612053.800    84402916.10248
       373.880  
  20913586.280   109901635.47546       285.979    20913582.980    85637643.30444
       285.979  
  20467783.480   107558935.24749      -127.066    20467781.260    83812145.19248
      -127.067  
  22229798.740   116818417.47147      -503.895    22229798.020    91027311.55446
      -503.895  
  24040987.780   126336241.83946       660.209    24040980.760    98443821.85145
       660.210  
  21205592.980   113037742.83107       403.407           0.000           0.00000
         0.000  
  20941099.460   111745720.97406      -527.948    20941102.340    86913344.47105
      -527.948  
  22433045.200           0.00000      -306.125    22433051.360           0.00000
      -306.125  
  20498933.820   109540091.09208      -458.486    20498937.020    85197853.87206
      -458.487  
  19596958.540   104756971.17308       225.087    19596962.620    81477669.46005
       225.086  
  23509364.200           0.00000       795.152           0.000           0.00000
         0.000  
  21557146.160   115356643.27007       370.407    21557148.400    89721840.38408
       370.408  
  22360082.560           0.00000       604.355    22360086.560           0.00000
       604.355  
 20  9 26  9  4 55.0000000  0 11G20G24G10G32G15R10R 2R11R 1R17R 8
  20613928.280   108326923.11849       374.798    20613923.540    84410572.42047
       374.797  
  20915018.360   109909153.35747       286.970    20915013.880    85643501.39745
       286.969  
  20467148.800   107555599.96649      -126.063    20467146.580    83809546.25548
      -126.063  
  22227278.240           0.00040      -502.993    22227278.300           0.00040
      -502.993  
  24044287.800   126353581.91846       660.596    24044279.320    98457333.57742
       660.598  
  21207610.960   113048499.96307       404.511           0.000           0.00000
         0.000  
  20938459.360   111731633.03606      -527.255    20938463.860    86902387.21006
      -527.256  
  20496642.340   109527846.25908      -457.316    20496645.600    85188330.10307
      -457.315  
  19598084.200   104762988.50607       225.969    19598088.280    81482349.58506
       225.969  
  21558999.200   115366559.66308       371.590    21559001.500    89729553.15508
       371.589  
  22363104.140           0.00000       605.021    22363110.480           0.00000
       605.021  
 20  9 26  9  5  0.0000000  0 12G20G24G10G32G15R10R12R 2R11R 1R17R 8
  20615803.700   108336778.41649       375.042    20615798.920    84418251.85547
       375.044  
  20916454.600   109916703.34846       287.296    20916450.820    85649384.46845
       287.298  
  20466519.860   107552294.68849      -125.848    20466517.640    83806970.71848
      -125.848  
  22224762.580   116791899.25146      -503.225    22224762.420    91006693.40546
      -503.225  
  24047591.280   126370940.52546       660.396    24047582.720    98470859.74945
       660.396  
  21209635.800   113059293.69408       405.037           0.000           0.00000
         0.000  
  23285461.520   124386747.97605      -859.458           0.000           0.00000
         0.000  
  20935823.660   111717568.52907      -527.412    20935828.580    86891448.18305
      -527.414  
  20494357.500   109515637.14608      -456.950    20494360.900    85178834.12407
      -456.949  
  19599215.260   104769034.98007       226.092    19599219.420    81487052.41206
       226.091  
  21560859.200   115376512.92007       372.104    21560861.580    89737294.56508
       372.104  
  22366132.320   119769610.56405       605.044    22366136.880    93154170.21507
       605.045  
 20  9 26  9  5  5.0000000  0 12G20G24G10G32G15R10R 2R11R 1R24R17R 8
  20617679.680   108346636.72449       375.583    20617674.900    84425933.66347
       375.583  
  20917891.060   109924258.44747       287.928    20917887.900    85655271.56245
       287.928  
  20465891.520   107548992.78349      -125.255    20465889.300    83804397.81048
      -125.255  
  22222243.840           0.00040      -502.903    22222246.760           0.00040
      -502.903  
  24050893.120   126388290.96346       660.492    24050884.200    98484379.57344
       660.491  
  21211662.480   113070097.14008       405.865           0.000           0.00000
         0.000  
  20933187.060   111703499.58505      -526.943    20933192.440    86880505.66204
      -526.944  
  20492074.280   109503436.79708      -456.118    20492077.800    85169344.99107
      -456.119  
  19600346.700   104775083.44507       226.705    19600350.920    81491756.75806
       226.705  
  23521293.400           0.00000       795.476           0.000           0.00000
         0.000  
  21562721.020   115386476.18907       372.923    21562723.280    89745043.74307
       372.924  
  22369155.580   119785816.76105       605.358    22369163.460    93166771.26006
       605.356  
 20  9 26  9  5 10.0000000  0 12G20G21G24G10G32G15G11R10R 2R11R 1R17
  20619558.780   108356511.40349       375.780    20619553.980    84433628.22747
       375.779  
  23019288.460   120967180.43045      -107.574    23019281.680    94260106.84143
      -107.573  
  20919331.860   109931832.18847       288.204    20919328.260    85661173.15545
       288.205  
  20465266.380   107545707.65049      -125.079    20465264.160    83801837.98048
      -125.080  
  22219734.240   116765498.75147      -503.032    22219732.140    90986085.85446
      -503.031  
  24054195.300   126405646.50347       660.281    24054187.060    98497903.35044
       660.282  
  24008625.800           0.00050      -207.061    24008613.740           0.00050
      -207.061  
  21213693.540   113080923.70508       406.252           0.000           0.00000
         0.000  
  20930552.160           0.00000      -526.998           0.000           0.00000
         0.000  
  20489795.300   109491258.68308      -455.768    20489798.780    85159873.14306
      -455.769  
  19601481.060   104781147.50307       226.802    19601485.340    81496473.26606
       226.801  
  21564587.120   115396462.75206       373.280    21564589.520    89752811.08607
       373.280  
 20  9 26  9  5 15.0000000  0 12G20G21G24G10G15R10R 2R18R11R 1R17R 8
  20621438.040   108366386.83649       375.908    20621433.220    84441323.33947
       375.910  
  23018750.720   120964356.18245      -107.311    23018744.260    94257905.95045
      -107.303  
  20920772.860   109939409.06447       288.517    20920770.980    85667077.15745
       288.519  
  20464641.460   107542423.63249      -124.912    20464639.220    83799279.00948
      -124.912  
  24057496.060   126422991.64147       659.932    24057487.020    98511419.07344
       659.931  
  21215725.940   113091757.48708       406.718           0.000           0.00000
         0.000  
  20927917.280   111675377.92006      -527.104           0.000           0.00000
         0.000  
  22425449.020   119708567.37703      -303.267    22425451.380           0.00000
      -303.267  
  20487517.520   109479087.03708      -455.421    20487520.920    85150406.28106
      -455.420  
  19602615.460   104787211.10207       226.876    19602619.700    81501189.40406
       226.875  
  21566454.780   115406456.95107       373.678    21566457.300    89760584.35007
       373.678  
  22375207.400   119818224.31506       605.287    22375215.460           0.00000
       605.287  
 20  9 26  9  5 20.0000000  0 13G20G21G24G10G32G15G11R10R 2R11R 1R17
                                R 8
  20623320.820   108376280.67849       376.995    20623315.940    84449032.85548
       376.994  
  23018216.400   120961550.90747      -106.276    23018211.640    94255720.09343
      -106.275  
  20922218.120   109947006.34546       289.513    20922216.820    85672997.15544
       289.510  
  20464020.140   107539158.47149      -123.824    20464017.860    83796734.70748
      -123.823  
  22214706.540   116739054.28347      -502.494    22214704.280    90965501.59047
      -502.494  
  24060797.820   126440343.96046       660.565    24060789.080    98524940.27444
       660.566  
  24006561.500   126155330.15145      -205.621    24006554.040    98302824.08341
      -205.621  
  21217763.140   113102616.55807       407.933           0.000           0.00000
         0.000  
  20925281.320   111661323.97305      -526.363    20925288.080    86847708.11306
      -526.363  
  20485244.340   109466939.81508      -454.107    20485247.640    85140958.49507
      -454.108  
  19603753.080   104793292.38607       227.903    19603757.340    81505919.29406
       227.903  
  21568327.220   115416476.70007       375.060    21568329.740           0.00000
       375.060  
  22378241.060           0.00000       605.959    22378240.660           0.00000
       605.959  
 20  9 26  9  5 25.0000000  0 13G20G21G24G10G32G15G11R10R 2R18R11R 1
                                R17
  20625206.660   108386190.55149       377.589    20625201.720    84456754.81147
       377.591  
  23017685.740   120958762.26246      -105.582    23017680.120    94253547.14045
      -105.580  
  20923667.300   109954622.13148       290.302    20923666.140    85678931.51044
       290.303  
  20463401.960   107535909.77649      -123.274    20463399.680    83794203.27748
      -123.274  
  22212195.280           0.00000      -502.050           0.000           0.00000
         0.000  
  24064100.760   126457701.30546       660.712    24064091.760    98538465.49344
       660.713  
  24005529.020   126149958.69504      -204.990           0.000           0.00000
         0.000  
  21219804.600   113113498.38508       408.808           0.000           0.00000
         0.000  
  20922650.640   111647265.70406      -526.321    20922656.780           0.00000
      -526.321  
  22422431.060   119692467.89705      -300.277    22422439.120           0.00000
      -300.277  
  20482975.240   109454814.67107      -453.331    20482978.540    85131527.81907
      -453.331  
  19604893.600   104799389.02307       228.496    19604897.840    81510661.11505
       228.497  
  21570203.880           0.00010       375.812    21570206.500           0.00010
       375.810  
 20  9 26  9  5 30.0000000  0 10G20G24G10G15R10R 2R11R 1R17R 8
  20627096.320   108396120.45549       378.189    20627091.300    84464492.40548
       378.189  
  20925120.720   109962260.07647       290.990    20925119.500    85684883.13245
       290.991  
  20462787.660   107532681.51849      -122.613    20462785.340    83791687.72748
      -122.613  
  24067405.300   126475067.28746       660.943    24067396.860    98551997.38643
       660.946  
  21221851.040   113124406.83008       409.668           0.000           0.00000
         0.000  
  20920022.040   111633234.73807      -525.764    20920027.680           0.00000
      -525.760  
  20480711.000   109442715.62208      -452.425    20480714.360    85122117.41406
      -452.424  
  19606037.680   104805504.88807       229.069    19606041.900    81515417.89005
       229.069  
  21572085.680   115436587.46706       376.753    21572088.380           0.00000
       376.756  
  22384300.640   119866913.30505       606.311    22384303.720    93229821.32806
       606.310  
 20  9 26  9  5 35.0000000  0 12G20G24G10G32G15G11R10R 2R11R 1R17R 8
  20628987.620   108406058.98149       378.603    20628982.520    84472236.72148
       378.604  
  20926576.400   109969908.83248       291.472    20926575.320    85690843.20045
       291.473  
  20462175.080   107529462.31849      -122.152    20462172.760    83789179.29248
      -122.154  
  22207175.880   116699492.42646      -501.709    22207175.640    90934676.24546
      -501.709  
  24070709.360   126492430.73446       660.932    24070701.660    98565527.42244
       660.928  
  24003490.860           0.00040      -203.609    24003479.120           0.00040
      -203.609  
  21223900.400   113135330.56807       410.271           0.000           0.00000
         0.000  
  20917393.660   111619205.30306      -525.780    20917398.940    86814968.12906
      -525.781  
  20478449.480   109430631.04708      -451.883    20478452.900    85112718.31907
      -451.884  
  19607183.220   104811628.38307       229.407    19607187.400    81520180.63206
       229.406  
  21573970.340   115446672.85306       377.494    21573973.040    89791866.94607
       377.495  
  22387332.860   119883149.14704       606.938    22387337.040    93242465.29507
       606.938  
 20  9 26  9  5 40.0000000  0 13G20G21G24G10G32G15R10R 2R18R11R 1R17
                                R 8
  20630878.120   108415993.45249       378.164    20630872.960    84479977.86948
       378.164  
  23016109.340   120950476.16947      -105.056    23016104.120    94247086.11445
      -105.056  
  20928031.580   109977555.86546       291.119    20928030.120    85696801.96245
       291.118  
  20461561.820   107526239.43449      -122.571    20461559.420    83786667.96848
      -122.572  
  22204666.400   116686297.94146      -502.271    22204665.000    90924394.83846
      -502.271  
  24074010.540   126509778.85646       659.905    24074003.800    98579045.41543
       659.905  
  21225950.120   113146256.58207       410.209           0.000           0.00000
         0.000  
  20914762.700   111605165.32707      -526.326    20914764.960           0.00000
      -526.326  
  22417943.220           0.00000      -298.608    22417951.160           0.00000
      -298.608  
  20476188.360   109418548.13108      -452.052    20476191.760    85103320.49306
      -452.052  
  19608327.760   104817746.73707       228.910    19608331.960    81524939.32006
       228.911  
  21575855.520   115456760.78905       376.856    21575858.160    89799713.17008
       376.854  
  22390361.780   119899372.54405       606.290    22390364.460           0.00000
       606.290  
 20  9 26  9  5 45.0000000  0 12G20G21G24G10G15G11R10R 2R11R 1R17R 8
  20632772.120   108425946.39249       379.316    20632766.940    84487733.39447
       379.317  
  23015586.720   120947732.99646      -103.614    23015581.800    94244948.53545
      -103.614  
  20929492.560           0.00040       291.563    20929491.060           0.00050
       291.563  
  20460952.160   107523035.60749      -121.198    20460949.720    83784171.43048
      -121.195  
  24077313.100   126527134.38947       661.067    24077306.500    98592569.23144
       661.068  
  24001451.360           0.00040      -202.402    24001443.680           0.00050
      -202.402  
  21228004.520   113157207.71208       411.583           0.000           0.00000
         0.000  
  20912133.260   111591136.74607      -525.030    20912136.740           0.00000
      -525.030  
  20473931.840   109406489.75808      -450.599    20473935.200    85093941.79407
      -450.601  
  19609475.540   104823882.73007       230.146    19609479.780    81529711.79205
       230.144  
  21577745.660   115466875.39606       378.638    21577748.280    89807580.28807
       378.634  
  22393393.740   119915606.37507       606.717    22393393.440    93267698.74305
       606.715  
 20  9 26  9  5 50.0000000  0 13G20G24G10G32G15G11R10R 2R18R11R 1R17
                                R 8
  20634670.760   108435923.85949       379.985    20634665.600    84495508.07947
       379.984  
  20930956.260   109992932.07847       293.148    20930953.040    85708748.52245
       293.148  
  20460347.260   107519856.77049      -120.729    20460344.840    83781694.43948
      -120.728  
  22199651.260   116659979.04247      -500.873    22199650.240    90903879.23346
      -500.872  
  24080617.960   126544503.07245       661.176    24080611.800    98606103.24143
       661.175  
  24000440.640   126123158.11744      -201.904    24000438.040    98277783.92443
      -201.904  
  21230064.860   113168190.29408       412.443           0.000           0.00000
         0.000  
  20909507.640   111577126.37207      -525.165    20909508.820    86782230.03805
      -525.165  
  22414975.020           0.00000      -296.364    22414972.720           0.00000
      -296.364  
  20471681.100   109394462.33108      -449.765    20471684.380    85084587.08907
      -449.764  
  19610627.940   104830042.82208       230.712    19610632.120    81534502.97106
       230.713  
  21579641.440   115477020.68305       379.744    21579643.020           0.00000
       379.744  
  22396429.100           0.00000       607.022    22396431.180           0.00000
       607.021  
 20  9 26  9  5 55.0000000  0 13G20G21G24G10G32G15R10R 2R11R 1R24R17
                                R 8
  20636572.560   108445917.88649       380.455    20636567.380    84503295.62048
       380.455  
  23014556.660   120942323.19047      -102.626    23014549.720    94240743.11145
      -102.626  
  20932423.760   110000645.41447       293.663    20932420.600    85714758.88145
       293.664  
  20459745.600   107516695.04649      -120.129    20459743.160    83779230.77048
      -120.129  
  22197148.080   116646822.87946      -500.804    22197146.060    90893627.65946
      -500.802  
  24083922.540   126561884.33845       661.091    24083922.100    98619642.54644
       661.091  
  21232129.600   113179196.27508       413.242           0.000           0.00000
         0.000  
  20906883.700   111563125.76907      -524.791    20906886.240           0.00000
      -524.794  
  20469434.560   109382457.62008      -449.007    20469437.880    85075250.12307
      -449.007  
  19611783.200   104836218.66907       231.236    19611787.460    81539306.38706
       231.237  
  23561088.920   125991727.92904       797.294           0.000           0.00000
         0.000  
  21581541.740   115487189.51407       380.402    21581544.320    89823376.13908
       380.402  
  22399465.980   119948120.36706       607.361    22399465.640    93292980.83706
       607.363  
 20  9 26  9  6  0.0000000  0 13G20G21G24G10G32G15G11R10R 2R11R 1R17
                                R 8
  20638477.100   108455926.62448       381.000    20638471.980    84511094.62747
       381.001  
  23014045.020   120939637.58547      -102.190    23014039.620    94238650.43546
      -102.189  
  20933895.860   110008375.69546       294.229    20933892.580    85720782.50345
       294.228  
  20459146.860   107513548.41049      -119.670    20459144.320    83776778.82348
      -119.669  
  22194646.200   116633674.66346      -500.317    22194643.980    90883382.34846
      -500.318  
  24087229.300   126579262.03944       661.175    24087224.080    98633183.62644
       661.176  
  23998430.960           0.00040      -200.604    23998425.260           0.00040
      -200.604  
  21234198.300   113190223.48707       413.864           0.000           0.00000
         0.000  
  20904261.960   111549133.11407      -524.378           0.000           0.00000
         0.000  
  20467191.920   109370473.50908      -448.383    20467195.240    85065929.17107
      -448.384  
  19612941.060   104842408.37208       231.641    19612945.360    81544120.60006
       231.642  
  21583446.040   115497379.96005       381.099    21583447.740    89831302.02607
       381.099  
  22402503.500   119964387.74106       607.499    22402504.240    93305633.22106
       607.499  
 20  9 26  9  6  5.0000000  0 13G20G21G24G10G32G15G11R10R 2R11R 1R17
                                R 8
  20640383.580   108465945.42049       381.159    20640378.500    84518901.46448
       381.160  
  23013536.040   120936962.81945      -102.037    23013532.000    94236566.16745
      -102.036  
  20935368.680   110016118.47747       294.631    20935366.580    85726815.82046
       294.631  
  20458550.120   107510412.40749      -119.483    20458547.560    83774335.18548
      -119.483  
  22192145.720   116620529.49947      -500.470    22192143.200    90873139.31646
      -500.469  
  24090536.160   126596638.56046       660.953    24090532.600    98646723.85044
       660.951  
  23997426.620   126107348.98144      -200.254    23997423.880    98265455.08144
      -200.254  
  21236270.120   113201267.31008       414.368           0.000           0.00000
         0.000  
  20901640.620   111535144.14908      -524.626    20901641.300    86749575.21606
      -524.626  
  20464952.260   109358505.64008      -447.957    20464955.620    85056620.84107
      -447.957  
  19614100.680   104848607.35007       231.777    19614105.040    81548942.00706
       231.777  
  21585353.580   115507587.50405       381.449    21585356.060           0.00000
       381.449  
  22405540.920   119980657.64106       607.405    22405542.500    93318287.64607
       607.404  
 20  9 26  9  6 10.0000000  0 12G20G21G24G10G32G15R10R 2R11R 1R17R 8
  20642291.000   108475968.93549       381.490    20642285.920    84526711.97747
       381.491  
  23013027.240   120934293.31747      -101.533    23013023.120    94234486.11945
      -101.535  
  20936843.780   110023868.00747       294.935    20936841.060    85732854.37346
       294.936  
  20457954.360   107507281.62249      -119.158    20457951.760    83771895.61548
      -119.158  
  22189643.380           0.00040      -500.366    22189640.600           0.00040
      -500.366  
  24093842.340   126614008.59946       660.809    24093839.800    98660258.87344
       660.810  
  21238344.100   113212322.32908       414.909           0.000           0.00000
         0.000  
  20899018.880   111521152.56908      -524.461    20899020.720    86738692.93006
      -524.463  
  20462714.620   109346548.48308      -447.412    20462718.120    85047320.86207
      -447.414  
  19615261.040   104854810.05707       232.067    19615265.440    81553766.36906
       232.067  
  21587263.080   115517806.41005       382.170    21587265.200    89847188.30808
       382.171  
  22408577.860   119996924.37007       607.335    22408580.600    93330939.48606
       607.336  
 20  9 26  9  6 15.0000000  0 11G20G21G24G10G15G11R10R 2R11R 1R 8
  20644201.420   108486008.35749       382.327    20644196.380    84534534.91447
       382.327  
  23012521.920   120931640.46247      -100.709    23012518.580    94232418.99645
      -100.711  
  20938322.120   110031635.67747       295.825    20938318.860    85738907.20645
       295.821  
  20457361.740   107504167.31249      -118.294    20457359.140    83769468.91048
      -118.295  
  24097148.980   126631383.32545       661.150    24097145.180    98673797.62745
       661.151  
  23995432.600   126096848.82445      -198.800    23995429.220    98257274.85145
      -198.800  
  21240422.220   113223400.12307       416.004           0.000           0.00000
         0.000  
  20896398.900   111507170.87707      -524.142    20896400.280    86727818.19004
      -524.139  
  20460481.080   109334613.36008      -446.378    20460484.660    85038037.96007
      -446.378  
  19616424.300   104861027.92607       232.840    19616428.640    81558602.49006
       232.840  
  22411617.340   120013199.25804       607.635    22411620.100    93343597.75106
       607.635  
 20  9 26  9  6 20.0000000  0 12G20G21G24G10G32G15R10R 2R11R 1R17R 8
  20646114.640   108496062.67249       382.721    20646109.700    84542369.44548
       382.721  
  23012020.440   120929003.09147      -100.305    23012016.940    94230363.79946
      -100.303  
  20939803.800   110039420.41046       296.445    20939800.020    85744973.20346
       296.444  
  20456772.060   107501068.48149      -117.842    20456769.440    83767054.21248
      -117.842  
  22184645.600   116581060.90147      -499.693    22184642.860    90842400.06346
      -499.693  
  24100455.420   126648761.84346       661.076    24100452.760    98687339.37546
       661.074  
  21242504.360   113234499.30908       416.635           0.000           0.00000
         0.000  
  20893780.200   111493196.86408      -523.763    20893780.620    86716949.62506
      -523.768  
  20458251.480   109322699.45708      -445.719    20458255.100    85028771.66806
      -445.722  
  19617590.140   104867260.10207       233.245    19617594.520    81563449.69905
       233.246  
  21591098.060           0.00000       383.823    21591097.500           0.00000
       383.823  
  22414657.940   120029481.86206       608.068    22414660.260    93356261.99906
       608.069  
 20  9 26  9  6 25.0000000  0 13G20G21G24G10G32G15R10R 2R11R 1R24R17
                                R 8
  20648031.680   108506136.68849       383.910    20648026.760    84550219.32948
       383.910  
  23011522.640   120926386.04147       -99.021    23011519.080    94228324.56645
       -99.022  
  20941289.740   110047227.05747       297.716    20941285.900    85751056.23945
       297.717  
  20456186.160   107497989.74249      -116.668    20456183.600    83764655.18048
      -116.667  
  22182146.780   116567942.88446      -498.937    22182147.540    90832178.26146
      -498.938  
  24103764.020   126666148.81447       662.028    24103761.880    98700887.64544
       662.028  
  21244591.520   113245624.70808       418.017           0.000           0.00000
         0.000  
  20891164.160   111479236.44808      -522.867    20891163.900    86706091.46505
      -522.866  
  20456026.820   109310811.46308      -444.349    20456030.520    85019525.41507
      -444.349  
  19618759.480   104873511.05808       234.332    19618763.880    81568311.55706
       234.331  
  23585004.180   126119618.42505       797.849           0.000           0.00000
         0.000  
  21593019.660   115548622.19803       385.596    21593020.120    89871142.54308
       385.594  
  22417700.960   120045776.40607       608.897    22417703.480    93368935.53607
       608.898  
 20  9 26  9  6 30.0000000  0 12G20G21G24G10G32G15R10R 2R11R 1R17R 8
  20649951.600   108516225.80249       384.056    20649946.700    84558080.98548
       384.056  
  23011027.720   120923784.63347       -98.936    23011023.220    94226297.44446
       -98.936  
  20942778.640   110055050.86248       297.887    20942774.980    85757152.73346
       297.886  
  20455603.180   107494926.78749      -116.502    20455600.780    83762268.48448
      -116.502  
  22179652.500   116554833.28445      -498.932    22179652.940    90821962.98445
      -498.931  
  24107073.220   126683539.60546       661.667    24107070.840    98714438.84345
       661.670  
  21246682.780   113256771.93808       418.431           0.000           0.00000
         0.000  
  20888549.640   111465284.27608      -522.997    20888547.040           0.00000
      -522.997  
  20453806.040   109298944.73408      -443.965    20453809.900    85010295.78707
      -443.966  
  19619931.540   104879776.33407       234.478    19619935.940    81573184.54506
       234.478  
  21594944.940   115558934.57205       385.645    21594947.360    89879163.32608
       385.645  
  22420745.240   120062078.35707       608.843    22420748.220    93381614.80906
       608.843  
 20  9 26  9  6 35.0000000  0 13G20G21G24G10G32G15G11R10R 2R11R 1R17
                                R 8
  20651872.760   108526321.55549       384.354    20651867.880    84565947.80548
       384.354  
  23010534.020   120921190.62147       -98.601    23010529.420    94224276.24545
       -98.603  
  20944269.180   110062883.57648       298.227    20944265.520    85763256.20445
       298.224  
  20455021.600   107491870.99449      -116.165    20455019.320    83759887.34348
      -116.166  
  22177157.680   116541723.21346      -499.034    22177157.120    90811747.39047
      -499.036  
  24110381.700   126700926.01847       661.676    24110379.260    98727986.72145
       661.675  
  23991485.100           0.00050      -196.304    23991482.480           0.00050
      -196.304  
  21248776.420   113267932.10608       418.934           0.000           0.00000
         0.000  
  20885935.140   111451332.12007      -522.950    20885934.900    86684375.16206
      -522.950  
  20451587.680   109287090.78707      -443.417    20451591.640    85001076.03607
      -443.418  
  19621104.740   104886047.54107       234.720    19621109.100    81578062.17605
       234.720  
  21596874.660   115569260.16006       386.113    21596877.040    89887194.33307
       386.113  
  22423789.700   120078379.32407       608.762    22423792.860    93394293.34507
       608.761  
 20  9 26  9  6 40.0000000  0 14G20G21G24G10G32G15G11R10R 2R11R 1R24
                                R17R 8
  20653796.180   108536429.32448       384.905    20653791.340    84573824.00348
       384.905  
  23010042.660   120918609.49347       -98.047    23010037.600    94222264.90645
       -98.045  
  20945762.480   110070730.53247       298.811    20945758.720    85769370.68645
       298.810  
  20454442.440   107488827.80149      -115.590    20454440.280    83757516.02648
      -115.590  
  22174664.400   116528618.41147      -498.640    22174663.420    90801535.81846
      -498.639  
  24113690.560   126718313.02347       661.740    24113688.140    98741535.00345
       661.741  
  23990506.240   126070958.26844      -195.654    23990503.700    98237100.54644
      -195.654  
  21250873.480   113279110.88508       419.771           0.000           0.00000
         0.000  
  20883321.560   111437385.49208      -522.638    20883322.440    86673527.76607
      -522.636  
  20449372.760   109275255.09708      -442.673    20449376.800    84991870.50807
      -442.674  
  19622279.980   104892329.84607       235.207    19622284.360    81582948.41506
       235.206  
  23596970.720   126183600.60604       798.081    23596976.500    98142832.80704
       798.083  
  21598808.020   115579604.70507       386.983    21598810.080    89895240.11507
       386.982  
  22426834.820   120094684.54507       609.106    22426837.160    93406975.16506
       609.107  
 20  9 26  9  6 45.0000000  0 13G20G21G24G10G32G15R10R 2R11R 1R24R17
                                R 8
  20655721.320   108546546.09849       385.184    20655716.540    84581707.20248
       385.184  
  23009552.940   120916037.97547       -97.691    23009548.140    94220261.09346
       -97.689  
  20947257.840   110078588.52047       299.204    20947254.300    85775493.75946
       299.204  
  20453865.080   107485794.20849      -115.272    20453863.040    83755152.19148
      -115.272  
  22172171.580   116515515.61047      -498.613    22172170.540    90791325.85447
      -498.613  
  24116998.800   126735697.92347       661.604    24116996.780    98755081.70345
       661.605  
  21252973.620   113290305.21008       420.292           0.000           0.00000
         0.000  
  20880708.440   111423441.00706      -522.574    20880708.400    86662682.12206
      -522.577  
  20447160.560   109263434.50908      -442.159    20447164.860    84982676.75408
      -442.161  
  19623456.840   104898620.33408       235.494    19623461.140    81587841.00906
       235.495  
  23600960.160   126204932.27405       797.908    23600969.000           0.00000
       797.908  
  21600745.020   115589964.96707       387.496    21600746.320    89903298.09408
       387.495  
  22429880.260   120110991.18507       609.049    22429882.340    93419658.11106
       609.049  
 20  9 26  9  6 50.0000000  0 13G20G21G24G10G32G15R10R 2R11R 1R24R17
                                R 8
  20657649.040   108556676.56649       385.791    20657644.320    84589601.08348
       385.791  
  23009065.960   120913480.74944       -96.936    23009061.380    94218268.50044
       -96.938  
  20948755.900   110086462.51047       299.933    20948752.940    85781629.30946
       299.935  
  20453290.420   107482774.91449      -114.648    20453288.520    83752799.46848
      -114.647  
  22169680.000   116502419.64448      -498.362    22169678.320    90781121.21247
      -498.361  
  24120307.440   126753085.30447       661.769    24120305.360    98768630.32045
       661.769  
  21255077.520   113301519.71708       421.080           0.000           0.00000
         0.000  
  20878096.520   111409503.93107      -522.245    20878096.820    86651842.15605
      -522.243  
  20444952.140   109251634.03107      -441.224    20444956.640    84973498.61908
      -441.225  
  19624636.140   104904923.72508       236.056    19624640.340    81592743.64805
       236.056  
  23604948.640   126226267.94505       798.095    23604955.400    98176026.52704
       798.095  
  21602685.260   115600345.82206       388.250    21602686.000    89911372.10307
       388.251  
  22432926.980   120127303.78207       609.347    22432929.080    93432345.66406
       609.347  
 20  9 26  9  6 55.0000000  0 12G20G21G24G10G32G15R10R 2R11R 1R17R 8
  20659578.420   108566815.63149       386.169    20659573.740    84597501.67248
       386.168  
  23008581.000   120910932.85048       -96.691    23008576.140    94216283.15246
       -96.694  
  20950256.180   110094347.22947       300.313    20950253.460    85787773.26446
       300.313  
  20452717.540   107479764.83549      -114.295    20452715.780    83750453.96848
      -114.295  
  22167188.440   116489325.34947      -498.175    22167186.440    90770917.91047
      -498.176  
  24123615.780   126770470.11247       661.657    24123613.600    98782176.90145
       661.657  
  21257184.240   113312749.20608       421.708           0.000           0.00000
         0.000  
  20875484.900   111395568.73608      -522.101    20875485.980    86641003.71806
      -522.103  
  20442746.520   109239848.34208      -440.739    20442751.160    84964331.96608
      -440.739  
  19625816.880   104911234.89808       236.330    19625821.000    81597652.34206
       236.330  
  21604628.380   115610741.95306       388.966    21604629.080    89919457.99708
       388.965  
  22435973.820   120143617.29807       609.423    22435975.860    93445033.93507
       609.424  
 20  9 26  9  7  0.0000000  0 12G20G21G24G10G32G15R10R 2R11R 1R17R 8
  20661511.640   108576974.71149       386.827    20661506.980    84605417.82348
       386.827  
  23008100.140   120908405.73047       -95.936    23008095.040    94214313.90845
       -95.935  
  20951760.640   110102254.24946       301.278    20951758.260    85793934.59145
       301.278  
  20452148.620   107476775.42949      -113.570    20452146.940    83748124.55148
      -113.569  
  22164699.200   116476244.25247      -497.777    22164697.160    90760724.82747
      -497.776  
  24126925.900   126787863.73846       661.911    24126923.420    98795730.36146
       661.911  
  21259295.940   113324005.38008       422.662           0.000           0.00000
         0.000  
  20872875.780   111381647.10307      -521.694    20872877.720    86630175.80407
      -521.696  
  20440545.940   109228089.18708      -439.762    20440550.640    84955185.98207
      -439.763  
  19627001.240   104917565.49708       237.033    19627005.300    81602576.11506
       237.034  
  21606575.980   115621165.28905       389.877    21606577.220    89927565.00907
       389.877  
  22439022.920   120159943.37607       609.864    22439025.080    93457732.01706
       609.863  
 20  9 26  9  7  5.0000000  0 13G20G21G24G10G32G15R10R12R 2R11R 1R17
                                R 8
  20663448.000   108587150.44648       387.586    20663443.380    84613346.98048
       387.585  
  23007622.620   120905895.96746       -95.273    23007617.500    94212358.30545
       -95.273  
  20953269.000   110110180.13346       301.854    20953266.440    85800110.64546
       301.853  
  20451583.020   107473803.31549      -112.818    20451581.380    83745808.64348
      -112.819  
  22162211.420   116463172.94048      -497.351    22162209.800    90750539.44847
      -497.353  
  24130237.000   126805262.86647       662.261    24130234.820    98809288.20345
       662.258  
  21261411.980   113335284.80008       423.610           0.000           0.00000
         0.000  
  23178183.860   123813696.02704      -856.530           0.000           0.00000
         0.000  
  20870268.740   111367735.53107      -521.421    20870270.620    86619355.63307
      -521.419  
  20438349.720   109216353.04008      -438.872    20438354.400    84946057.82307
      -438.871  
  19628188.560   104923912.00508       237.714    19628192.600    81607512.30206
       237.714  
  21608528.240   115631611.98104       390.950    21608529.080    89935690.20307
       390.952  
  22442073.580   120176278.63807       610.275    22442075.360    93470437.19806
       610.278  
 20  9 26  9  7 10.0000000  0 12G20G21G24G10G32G15R10R 2R11R 1R17R 8
  20665386.480   108597337.73449       388.033    20665381.980    84621285.12048
       388.033  
  23007147.340   120903398.51446       -94.800    23007142.220    94210412.23246
       -94.801  
  20954779.680   110118119.60647       302.491    20954777.320    85806297.22346
       302.493  
  20451019.720   107470843.36449      -112.383    20451018.120    83743502.18948
      -112.382  
  22159724.540   116450106.30547      -497.192    22159723.200    90740357.60347
      -497.191  
  24133548.020   126822662.29447       662.272    24133545.820    98822846.12546
       662.274  
  21263531.300   113346582.25308       424.266           0.000           0.00000
         0.000  
  20867662.480   111353829.01607      -521.102    20867664.740    86608539.48306
      -521.101  
  20436156.860   109204634.68408      -438.179    20436161.500    84936943.54507
      -438.178  
  19629377.900   104930269.15308       238.058    19629381.900    81612456.74606
       238.058  
  21610483.600           0.00000       391.419    21610484.440           0.00000
       391.419  
  22445124.800   120192617.54706       610.345    22445126.600    93483145.24906
       610.346  
 20  9 26  9  7 15.0000000  0 11G20G21G24G10G32G15R10R 2R11R 1R 8
  20667327.360   108607537.15648       388.500    20667322.880    84629232.71848
       388.500  
  23006674.440   120900913.93048       -94.225    23006669.540    94208476.26545
       -94.227  
  20956293.220   110126073.38947       303.048    20956290.840    85812494.92945
       303.049  
  20450458.900   107467896.23349      -111.866    20450457.280    83741205.72348
      -111.866  
  22157238.980   116437044.95447      -497.019    22157237.740    90730179.91547
      -497.019  
  24136859.000   126840062.77547       662.401    24136856.760    98836404.96546
       662.400  
  21265654.180   113357898.20608       425.014           0.000           0.00000
         0.000  
  20865057.420   111339928.45806      -520.758    20865059.140    86597727.92406
      -520.757  
  20433967.380   109192934.80408      -437.482    20433972.000    84927843.64607
      -437.482  
  19630569.380   104936637.81507       238.557    19630573.320    81617410.15206
       238.557  
  22448176.940   120208961.17407       610.623    22448178.800    93495856.97305
       610.622  
 20  9 26  9  7 20.0000000  0 12G20G21G24G10G32G15R10R 2R11R 1R17R 8
  20669270.540   108617748.88049       388.901    20669266.140    84637189.92648
       388.900  
  23006204.160   120898442.40847       -93.801    23006199.000    94206550.34845
       -93.799  
  20957809.520   110134041.74947       303.584    20957806.900    85818704.07745
       303.584  
  20449900.520   107464962.06049      -111.380    20449898.900    83738919.34448
      -111.380  
  22154754.640   116423988.96047      -496.771    22154753.240    90720006.47647
      -496.772  
  24140170.380   126857464.14747       662.314    24140168.140    98849964.45346
       662.314  
  21267780.580   113369232.82108       425.664           0.000           0.00000
         0.000  
  20862453.400   111326033.19706      -520.654    20862455.680    86586920.58707
      -520.657  
  20431781.500   109181253.62208      -436.833    20431786.060    84918758.31207
      -436.834  
  19631762.980   104943017.89008       238.951    19631766.860    81622372.45206
       238.950  
  21614405.580   115663048.76206       392.915    21614406.340    89960152.76607
       392.913  
  22451229.960   120225309.16807       610.730    22451231.640    93508572.06206
       610.731  
 20  9 26  9  7 25.0000000  0 13G20G21G24G10G32G15G11R10R 2R11R 1R17
                                R 8
  20671216.140   108627973.10649       389.285    20671211.800    84645156.84348
       389.285  
  23005736.300   120895983.96647       -93.379    23005731.380    94204634.63046
       -93.378  
  20959328.300   110142024.71846       304.010    20959326.160    85824924.55845
       304.011  
  20449344.640   107462041.04349      -110.997    20449343.060    83736643.24448
      -110.998  
  22152271.260   116410938.79747      -496.665    22152269.740    90709837.51047
      -496.664  
  24143482.000   126874866.90247       662.317    24143479.840    98863524.99546
       662.319  
  23981832.840   126025368.73645      -190.004    23981834.260    98201598.22844
      -190.004  
  21269910.480   113380586.42408       426.238           0.000           0.00000
         0.000  
  20859850.540   111312144.24506      -520.521           0.000           0.00000
         0.000  
  20429599.120   109169591.35608      -436.177    20429603.640    84909687.65807
      -436.178  
  19632958.760   104949409.76308       239.286    19632962.620    81627343.89806
       239.287  
  21616371.960   115673571.01006       393.573    21616372.740    89968336.68707
       393.574  
  22454283.920   120241662.15706       610.800    22454285.340    93521291.03806
       610.802  
 20  9 26  9  7 30.0000000  0 14G20G21G24G10G32G15G11R10R 2R18R11R 1
                                R17R 8
  20673164.500   108638211.64749       389.875    20673160.160    84653134.91448
       389.875  
  23005271.440   120893540.74547       -92.719    23005266.600    94202730.81945
       -92.719  
  20960850.100   110150024.07246       304.710    20960848.140    85831157.79145
       304.711  
  20448791.660   107459135.02449      -110.374    20448790.080    83734378.80948
      -110.375  
  22149789.460   116397895.97547      -496.309    22149787.660    90699674.27247
      -496.310  
  24146794.200   126892272.69847       662.465    24146792.060    98877087.96646
       662.465  
  23980886.400   126020389.65046      -189.211    23980881.700    98197718.36044
      -189.210  
  21272044.240   113391960.75208       427.172           0.000           0.00000
         0.000  
  20857248.900   111298262.93006      -520.203    20857252.080    86565338.33706
      -520.200  
  22386135.680           0.00000      -280.361    22386130.660           0.00000
      -280.361  
  20427420.680   109157949.84308      -435.374    20427425.100    84900633.16508
      -435.375  
  19634157.100   104955815.28008       239.874    19634160.900    81632325.94806
       239.875  
  21618342.280   115684114.30105       394.344    21618342.760    89976536.98907
       394.345  
  22457339.000   120258021.91306       611.065    22457340.340    93534015.28605
       611.069  
 20  9 26  9  7 35.0000000  0 12G20G21G24G10G32G15R10R12R 2R11R 1R 8
  20675114.640   108648459.73049       390.245    20675110.320    84661120.45148
       390.245  
  23004808.520   120891107.70648       -92.434    23004803.840    94200834.98946
       -92.435  
  20962374.400   110158035.25847       305.113    20962372.660    85837400.34744
       305.109  
  20448240.660   107456239.30849      -109.979    20448239.080    83732122.42148
      -109.979  
  22147308.040   116384856.01148      -496.260    22147306.120    90689513.28647
      -496.260  
  24150106.060   126909676.97646       662.370    24150104.000    98890649.75844
       662.368  
  21274180.920   113403350.95806       427.639           0.000           0.00000
         0.000  
  23152498.180   123676460.11004      -856.074    23152496.140           0.00010
      -856.074  
  20854647.860   111284384.71206      -519.910    20854650.740    86554544.24706
      -519.912  
  20425245.160   109146324.20808      -434.828    20425249.420    84891590.96707
      -434.827  
  19635357.080   104962229.47408       240.223    19635360.820    81637314.79605
       240.221  
  22460394.380   120274383.32107       611.092    22460395.860    93546740.85907
       611.091  
 20  9 26  9  7 40.0000000  0 13G20G21G24G10G32G15R10R12R 2R11R 1R17
                                R 8
  20677067.560   108658722.13949       390.828    20677063.220    84669117.12948
       390.828  
  23004348.500   120888690.00647       -91.587    23004343.760    94198951.10645
       -91.588  
  20963902.020   110166063.12948       305.826    20963899.920    85843655.83245
       305.824  
  20447692.520   107453358.61849      -109.339    20447690.900    83729877.72048
      -109.339  
  22144828.120   116371823.47647      -495.746    22144826.100    90679358.05447
      -495.746  
  24153418.680   126927084.24747       662.543    24153416.300    98904213.84646
       662.543  
  21276321.580   113414762.09807       428.481           0.000           0.00000
         0.000  
  23148215.300           0.00000      -855.835    23148219.980           0.00000
      -855.835  
  20852048.460   111270514.56307      -519.599    20852051.380    86543756.34007
      -519.598  
  20423073.520   109134719.61208      -433.989    20423077.720    84882565.15908
      -433.988  
  19636559.560   104968657.33008       240.786    19636563.260    81642314.23605
       240.786  
  21622292.340   115705265.40806       395.830    21622292.700    89992975.28107
       395.830  
  22463451.120   120290751.64706       611.351    22463452.560    93559471.75406
       611.351  
 20  9 26  9  7 45.0000000  0 14G20G21G24G10G32G15G11R10R12R 2R11R 1
                                R17R 8
  20679022.620   108668995.68149       391.316    20679018.240    84677122.49248
       391.317  
  23003890.540   120886283.99847       -91.182    23003885.920    94197076.27145
       -91.181  
  20965432.100   110174103.97748       306.379    20965429.660    85849921.36345
       306.381  
  20447146.640   107450489.82649      -108.873    20447145.020    83727642.30648
      -108.873  
  22142349.080   116358795.47148      -495.761    22142346.920    90669206.35147
      -495.761  
  24156731.280   126944491.52647       662.601    24156728.800    98917777.96646
       662.601  
  23978062.220   126005561.22545      -187.332    23978053.980    98186128.82044
      -187.332  
  21278465.580   113426190.92908       429.229           0.000           0.00000
         0.000  
  23143935.920   123630748.87004      -855.649    23143940.240           0.00000
      -855.649  
  20849449.840   111256649.05807      -519.461    20849453.300    86532972.05307
      -519.462  
  20420905.120   109123132.54608      -433.246    20420909.320    84873553.01707
      -433.245  
  19637763.900   104975095.54407       241.129    19637767.600    81647321.71705
       241.130  
  21624272.900   115715863.96405       396.474    21624273.780    90001218.61907
       396.475  
  22466508.320   120307123.45405       611.614    22466509.680    93572205.31105
       611.616  
 20  9 26  9  7 50.0000000  0 14G20G21G24G10G32G15G11R10R12R 2R11R 1
                                R17R 8
  20680980.360   108679283.44349       391.847    20680975.940    84685138.92448
       391.848  
  23003435.460   120883893.05447       -90.676    23003431.100    94195213.24446
       -90.678  
  20966965.300   110182161.23948       306.950    20966962.520    85856199.76144
       306.951  
  20446603.620   107447635.93749      -108.321    20446601.960    83725418.49648
      -108.321  
  22139871.380   116345774.71548      -495.426    22139869.060    90659060.34646
      -495.428  
  24160044.480   126961901.82947       662.679    24160041.960    98931344.42146
       662.679  
  23977125.020   126000657.24946      -186.778    23977122.460    98182350.95044
      -186.778  
  21280613.420   113437640.28507       429.995           0.000           0.00000
         0.000  
  23139658.420   123607894.56106      -855.616    23139662.900    96139494.83404
      -855.615  
  20846852.620   111242791.01407      -519.188    20846856.600    86522193.57406
      -519.188  
  20418740.580   109111566.12707      -432.501    20418744.760    84864556.93307
      -432.502  
  19638970.800   104981547.33807       241.684    19638974.440    81652339.77105
       241.685  
  21626256.320   115726483.27006       397.189    21626258.360    90009478.09707
       397.188  
  22469566.780   120323501.90406       611.887    22469568.280    93584944.15806
       611.887  
 20  9 26  9  7 55.0000000  0 14G20G21G24G10G32G15G11R10R12R 2R11R 1
                                R17R 8
  20682940.960   108689586.19049       392.277    20682936.460    84693167.02848
       392.278  
  23002983.500   120881517.85747       -90.254    23002979.080    94193362.46845
       -90.254  
  20968501.800   110190235.60147       307.514    20968498.700    85862491.57045
       307.511  
  20446063.540   107444797.75849      -107.831    20446061.920    83723206.93448
      -107.831  
  22137395.200   116332762.24048      -495.240    22137392.980    90648920.73947
      -495.240  
  24163358.300   126979315.87647       662.738    24163355.860    98944913.83546
       662.737  
  23976194.640   125995760.99446      -186.096    23976189.780    98178535.72944
      -186.095  
  21282765.240   113449110.96307       430.639           0.000           0.00000
         0.000  
  23135381.480   123585045.72005      -855.505           0.000           0.00000
         0.000  
  20844257.360   111228942.09207      -519.001    20844261.300    86511422.21106
      -519.001  
  20416580.040   109100021.28408      -431.781    20416584.240    84855577.59207
      -431.779  
  19640180.380   104988013.36407       242.078    19640184.000    81657368.94605
       242.077  
  21628244.400   115737124.35406       397.947    21628246.880    90017754.43807
       397.948  
  22472626.700   120339887.63407       611.962    22472628.040    93597688.60606
       611.963  
 20  9 26  9  8  0.0000000  0 14G20G21G24G10G32G15G11R10R 2R18R11R 1
                                R17R 8
  20684904.260   108699903.16249       392.920    20684899.720    84701206.25448
       392.920  
  23002534.380   120879157.80047       -89.371    23002530.180    94191523.50345
       -89.373  
  20970041.420   110198326.34347       308.293    20970037.720    85868795.93844
       308.297  
  20445526.300   107441974.59649      -107.121    20445524.720    83721007.08648
      -107.121  
  22134920.560   116319757.19248      -494.771    22134918.160    90638786.97646
      -494.771  
  24166672.780   126996732.99247       663.052    24166670.200    98958485.60046
       663.052  
  23975265.120   125990882.78944      -185.207    23975261.660    98174734.58343
      -185.208  
  21284920.920   113460602.26707       431.550           0.000           0.00000
         0.000  
  20841663.300   111215100.68906      -518.599    20841667.480    86500656.61706
      -518.597  
  22377799.280   119454221.21705      -275.360    22377797.020    92908830.55006
      -275.360  
  20414423.380   109088497.19607      -430.854    20414427.660    84846614.43508
      -430.854  
  19641392.440   104994492.91807       242.687    19641396.060    81662408.58205
       242.687  
  21630236.840   115747786.51405       398.870    21630238.540    90026047.27907
       398.870  
  22475687.980   120356280.02906       612.468    22475688.960    93610438.21306
       612.469  
 20  9 26  9  8  5.0000000  0 14G20G21G24G10G32G15G11R10R12R 2R11R 1
                                R17R 8
  20686870.100   108710233.51149       393.257    20686865.500    84709255.85548
       393.258  
  23002087.920   120876811.88647       -89.154    23002083.660    94189695.45145
       -89.153  
  20971583.760   110206432.58747       308.650    20971580.000    85875112.50244
       308.650  
  20444991.720   107439165.57249      -106.770    20444990.200    83718818.22848
      -106.769  
  22132447.000   116306758.76947      -494.731    22132444.580    90628658.34447
      -494.732  
  24169987.600   127014152.31848       662.889    24169985.040    98972059.06845
       662.890  
  23974339.340   125986021.82146      -184.790    23974337.100    98170946.72645
      -184.789  
  21287080.300   113472113.40407       432.092           0.000           0.00000
         0.000  
  23126828.600   123539365.79605      -855.059    23126833.180           0.00000
      -855.059  
  20839070.880   111201266.51306      -518.563    20839075.060    86489896.66107
      -518.562  
  20412270.580   109076993.10908      -430.364    20412274.840    84837666.84508
      -430.364  
  19642606.980   105000985.15907       242.971    19642610.500    81667458.07405
       242.971  
  21632233.840   115758468.60006       399.414    21632234.680    90034355.53507
       399.414  
  22478750.260   120372678.38606       612.453    22478751.200    93623192.42606
       612.455  
 20  9 26  9  8 10.0000000  0 14G20G21G24G10G32G15G11R10R12R 2R11R 1
                                R17R 8
  20688837.600   108720572.52549       393.832    20688832.940    84717312.25348
       393.831  
  23001643.240   120874475.53447       -88.562    23001639.140    94187874.96045
       -88.562  
  20973128.340   110214549.78046       309.209    20973124.380    85881437.59044
       309.211  
  20444458.940   107436366.01749      -106.227    20444457.500    83716636.76148
      -106.227  
  22129973.820   116293762.27847      -494.415    22129971.320    90618531.18346
      -494.415  
  24173302.040   127031569.09847       662.970    24173299.500    98985630.59145
       662.970  
  23973417.080   125981173.21045      -183.984    23973414.160    98167168.65544
      -183.985  
  21289242.500   113483639.51507       432.880           0.000           0.00000
         0.000  
  23122553.020           0.00000      -854.987    23122556.740           0.00000
      -854.993  
  20836478.940   111187434.41308      -518.226    20836483.020    86479138.35307
      -518.226  
  20410120.660   109065504.16108      -429.563    20410124.860    84828730.97208
      -429.563  
  19643822.980   105007485.39507       243.515    19643826.460    81672513.86305
       243.514  
  21634232.720   115769166.10705       400.331    21634233.720    90042675.81407
       400.331  
  22481812.800   120389077.52707       612.735    22481813.400    93635947.29706
       612.737  
 20  9 26  9  8 15.0000000  0 14G12G20G21G24G10G32G15G11R10R 2R18R11
                                R 1R 8
  24196422.420   127153069.02805      -627.181           0.000           0.00000
         0.000  
  20690807.820   108730925.98049       394.274    20690803.120    84725379.87248
       394.274  
  23001201.500   120872154.24947       -88.227    23001197.260    94186066.14745
       -88.227  
  20974676.120   110222683.41148       309.880    20974671.760    85887775.56244
       309.876  
  20443929.060   107433581.66049      -105.710    20443927.680    83714467.12648
      -105.710  
  22127502.140   116280773.50748      -494.190    22127499.540    90608410.12446
      -494.191  
  24176617.100   127048989.14147       663.000    24176614.400    98999204.67345
       662.999  
  23972498.140   125976342.76845      -183.534    23972494.840    98163404.66844
      -183.536  
  21291408.640   113495186.48607       433.543           0.000           0.00000
         0.000  
  20833888.440   111173610.40908      -517.957    20833892.420    86468386.41007
      -517.960  
  22373683.520   119432238.28204      -273.016    22373683.880    92891741.82507
      -273.014  
  20407974.680   109054036.28308      -428.816    20407978.820    84819811.54408
      -428.817  
  19645041.580   105013999.29607       243.934    19645045.020    81677580.21005
       243.934  
  22484876.580   120405483.49607       612.883    22484877.120    93648707.51605
       612.882  
 20  9 26  9  8 20.0000000  0 14G20G21G24G10G32G15G11R10R12R 2R11R 1
                                R17R 8
  20692780.440   108741292.04549       394.758    20692775.700    84733457.32148
       394.759  
  23000762.300   120869846.48747       -87.599    23000758.040    94184267.88946
       -87.599  
  20976226.700   110230831.80347       310.354    20976222.300    85894124.93244
       310.354  
  20443401.680   107430810.74649      -105.180    20443400.420    83712307.97648
      -105.180  
  22125031.500   116267790.53748      -493.967    22125028.840    90598293.49247
      -493.968  
  24179932.400   127066410.51948       663.031    24179929.480    99012779.74045
       663.031  
  23971582.180   125971528.81946      -182.862    23971579.000    98159653.53144
      -182.860  
  21293578.360   113506752.37407       434.285           0.000           0.00000
         0.000  
  23114004.500           0.00000      -854.871           0.000           0.00000
         0.000  
  20831298.980   111159792.99707      -517.758    20831303.020    86457639.51907
      -517.758  
  20405832.260   109042587.64208      -428.174    20405836.400    84810907.04408
      -428.174  
  19646262.360   105020525.12108       244.364    19646265.800    81682655.86805
       244.364  
  21638242.420   115790604.35806       401.728    21638242.780    90059360.00007
       401.728  
  22487941.380   120421894.55807       613.006    22487941.780    93661471.63506
       613.008  
 20  9 26  9  8 25.0000000  0 15G12G20G21G24G10G32G15G11R10R12R 2R11
                                R 1R17R 8
  24190153.160   127120124.22005      -626.991           0.000           0.00000
         0.000  
  20694755.160   108751669.23749       395.061    20694750.420    84741543.44748
       395.061  
  23000325.340   120867550.63247       -87.245    23000321.140    94182478.94145
       -87.246  
  20977779.740   110238993.34447       310.761    20977775.160    85900484.56745
       310.760  
  20442876.600   107428051.73649      -104.866    20442875.420    83710158.09648
      -104.865  
  22122561.720   116254811.98448      -494.055    22122559.100    90588180.34847
      -494.055  
  24183247.720   127083831.93947       662.903    24183244.540    99026354.87645
       662.903  
  23970669.520   125966729.76045      -182.464    23970665.280    98155914.07444
      -182.464  
  21295751.320   113518335.76107       434.794           0.000           0.00000
         0.000  
  23109730.680   123448028.06105      -854.960    23109734.640    96015144.91905
      -854.961  
  20828710.280   111145979.85107      -517.678    20828714.380    86446895.92607
      -517.678  
  20403693.220   109031156.72108      -427.638    20403697.260    84802016.35708
      -427.638  
  19647485.160   105027061.35407       244.632    19647488.460    81687739.58606
       244.632  
  21640252.780   115801359.95506       402.191    21640252.820    90067725.44607
       402.192  
  22491006.860   120438308.97107       613.033    22491007.220    93674238.38706
       613.034  
 20  9 26  9  8 30.0000000  0 16G12G20G21G24G10G32G15G11R10R12R 2R18
                                R11R 1R17R 8
  24187021.620   127103654.20947      -626.689    24187020.960    99041800.33844
      -626.689  
  20696732.140   108762058.00849       395.675    20696727.360    84749638.61048
       395.675  
  22999890.680   120865267.24147       -86.526    22999886.620    94180699.73644
       -86.528  
  20979335.440   110247168.76846       311.543    20979330.980    85906855.04644
       311.542  
  20442353.880   107425305.16649      -104.219    20442352.780    83708017.91148
      -104.219  
  22120092.920   116241838.39048      -493.599    22120090.200    90578071.07046
      -493.600  
  24186563.040   127101253.63847       663.131    24186559.660    99039930.22645
       663.131  
  23969758.920   125961946.19645      -181.729    23969755.360    98152186.55244
      -181.729  
  21297927.600   113529937.00607       435.698           0.000           0.00000
         0.000  
  23105457.900   123425199.32906      -854.586    23105460.300           0.00000
      -854.585  
  20826122.780   111132172.30307      -517.352    20826126.860    86436156.67707
      -517.350  
  22369606.280           0.00000      -270.701    22369608.040           0.00000
      -270.701  
  20401557.620   109019744.12408      -426.733    20401561.520    84793139.86508
      -426.732  
  19648709.940   105033608.45207       245.230    19648713.160    81692831.77905
       245.230  
  21642266.100   115812133.65906       403.118    21642266.320    90076104.99907
       403.118  
  22494072.920   120454727.38005       613.345    22494073.240    93687008.26206
       613.345  
 20  9 26  9  8 35.0000000  0 15G12G20G21G24G10G32G15G11R10R12R 2R11
                                R 1R17R 8
  24183887.840   127087193.78045      -626.113    24183886.480    99028974.14841
      -626.119  
  20698712.320   108772463.78549       396.414    20698707.520    84757747.01148
       396.414  
  22999459.500   120863001.86947       -85.613    22999455.580    94178934.41546
       -85.608  
  20980894.680   110255362.99047       312.171    20980890.260    85913240.19543
       312.166  
  20441834.560   107422576.39449      -103.455    20441833.540    83705891.62648
      -103.457  
  22117626.120   116228875.07148      -493.063    22117623.240    90567969.83646
      -493.066  
  24189879.460   127118681.14847       663.412    24189875.760    99053510.07144
       663.413  
  23968852.500   125957183.31344      -180.747    23968848.720    98148475.24643
      -180.747  
  21300108.320   113541561.63307       436.646           0.000           0.00000
         0.000  
  23101186.800           0.00000      -854.281    23101188.640           0.00000
      -854.281  
  20823537.180   111118375.14507      -516.934    20823541.200    86425425.68206
      -516.937  
  20399426.520   109008355.15608      -425.792    20399430.220    84784281.81407
      -425.794  
  19649937.760   105040171.94907       246.021    19649940.980    81697936.74905
       246.019  
  21644283.800   115822931.07606       404.041    21644284.780    90084502.98407
       404.042  
  22497140.700   120471155.17304       613.735    22497140.980    93699785.45806
       613.733  
 20  9 26  9  8 40.0000000  0 14G12G20G21G24G10G32G15G11R10R12R 2R11
                                R 1R 8
  24180755.360   127070738.96845      -626.304    24180756.840    99016152.23844
      -626.306  
  20700694.980   108782882.83449       396.763    20700690.180    84765865.72648
       396.764  
  22999031.000   120860750.46748       -85.476    22999027.120    94177180.09444
       -85.476  
  20982456.980   110263572.85047       312.802    20982452.680    85919637.50744
       312.799  
  20441317.960   107419861.74549      -103.169    20441316.940    83703776.28748
      -103.169  
  22115160.500   116215918.29548      -493.095    22115157.640    90557873.63847
      -493.095  
  24193196.100   127136110.67948       663.320    24193192.480    99067091.56746
       663.321  
  23967949.420   125952437.64345      -180.453    23967945.160    98144777.40944
      -180.457  
  21302292.700   113553205.77607       437.150           0.000           0.00000
         0.000  
  23096916.080   123379574.24404      -854.391           0.000           0.00000
         0.000  
  20820952.900   111104585.50805      -516.236    20820956.920    86414700.42007
      -516.238  
  20397299.060   108996986.10708      -425.272    20397302.660    84775439.25807
      -425.273  
  19651167.960   105046747.94507       246.235    19651171.160    81703051.37505
       246.235  
  22500209.380   120487588.60006       613.717    22500209.720    93712567.07406
       613.715  
 20  9 26  9  8 45.0000000  0 15G12G20G21G24G10G32G15G11R10R 2R18R11
                                R 1R17R 8
  24177624.960   127054290.11946      -625.918    24177624.580    99003334.96543
      -625.919  
  20702680.180   108793314.98049       397.113    20702675.320    84773994.68148
       397.112  
  22998605.180   120858513.17047       -85.025    22998601.300    94175436.82344
       -85.027  
  20984022.200   110271797.85347       313.194    20984018.080    85926046.63544
       313.193  
  20440804.040   107417161.14149      -102.649    20440803.020    83701671.91448
      -102.649  
  22112696.120   116202968.09848      -492.790    22112693.280    90547782.58247
      -492.791  
  24196513.060   127153542.13746       663.280    24196509.420    99080674.52945
       663.279  
  23967049.580   125947709.03646      -179.860    23967045.480    98141092.73944
      -179.859  
  21304480.760   113564869.58307       437.726           0.000           0.00000
         0.000  
  20818369.720   111090802.41607      -516.729    20818373.980    86403980.24906
      -516.729  
  22365562.860           0.00000      -268.307    22365565.340           0.00000
      -268.307  
  20395175.300   108985637.03608      -424.556    20395178.860    84766612.23408
      -424.558  
  19652400.480   105053336.49506       246.580    19652403.660    81708175.78204
       246.581  
  21648330.360           0.00000       405.365    21648332.500           0.00000
       405.365  
  22503279.140   120504027.57106       613.787    22503279.560    93725352.84106
       613.789  
 20  9 26  9  8 50.0000000  0 14G20G21G24G10G32G15R10R12R 2R18R11R 1
                                R17R 8
  20704667.300   108803757.49049       397.710    20704662.440    84782131.69447
       397.710  
  22998181.600   120856287.00547       -84.282    22998177.560    94173702.25844
       -84.287  
  20985589.760   110280035.21848       313.646    20985585.920    85932465.31245
       313.647  
  20440292.280   107414471.68449      -102.084    20440291.200    83699576.26848
      -102.085  
  22110232.380   116190021.34648      -492.377    22110229.560    90537694.19447
      -492.377  
  24199829.960   127170972.80047       663.521    24199826.180    99094256.90745
       663.517  
  21306671.960   113576549.85606       438.691           0.000           0.00000
         0.000  
  23088370.940           0.00000      -854.013           0.000           0.00000
         0.000  
  20815787.500   111077023.36106      -516.265    20815790.800           0.00000
      -516.265  
  22364222.400   119381748.66305      -267.357    22364226.660    92852478.78906
      -267.357  
  20393054.680   108974304.98708      -423.663    20393058.180    84757798.40706
      -423.664  
  19653634.760   105059934.68507       247.085    19653637.920    81713307.82205
       247.081  
  21650358.980           0.00000       406.057    21650360.880           0.00000
       406.057  
  22506349.560   120520469.51007       614.123    22506349.980    93738141.02406
       614.123  
 20  9 26  9  8 55.0000000  0 14G12G20G21G24G10G32G15G11R10R 2R11R 1
                                R17R 8
  24171366.740   127021396.76306      -625.740           0.000           0.00000
         0.000  
  20706657.140   108814214.12049       398.083    20706652.240    84790279.72948
       398.083  
  22997760.720   120854075.87347       -84.004    22997756.720    94171979.21442
       -84.002  
  20987160.280   110288288.91647       314.360    20987156.820    85938896.74145
       314.363  
  20439783.340   107411797.22649      -101.622    20439782.240    83697492.24048
      -101.622  
  22107770.080   116177082.18548      -492.339    22107767.340    90527611.68546
      -492.337  
  24203147.380   127188406.49647       663.548    24203143.440    99107841.51745
       663.551  
  23965259.900           0.00040      -178.357    23965267.260           0.00050
      -178.357  
  21308866.960   113588250.61106       439.265           0.000           0.00000
         0.000  
  20813206.580   111063252.18206      -516.044    20813209.900    86382551.33707
      -516.044  
  20390937.940   108962993.77308      -423.030    20390941.380    84749000.76107
      -423.030  
  19654871.600   105066546.26407       247.521    19654874.660    81718450.06105
       247.523  
  21652392.640           0.00000       406.801    21652394.060           0.00000
       406.801  
  22509421.140   120536917.82607       614.324    22509421.620    93750934.17905
       614.324  
 20  9 26  9  9  0.0000000  0 14G12G20G21G24G10G32G15G11R10R 2R11R 1
                                R17R 8
  24168241.040   127004962.88805      -625.240           0.000           0.00000
         0.000  
  20708649.460   108824683.56949       398.545    20708644.480    84798437.74048
       398.546  
  22997342.480   120851878.32248       -83.535    22997338.580    94170266.80045
       -83.534  
  20988733.480   110296557.47546       314.816    20988730.420    85945339.74144
       314.817  
  20439276.940   107409136.43949      -101.172    20439275.900    83695418.93848
      -101.173  
  22105308.940   116164149.05448      -492.269    22105306.260    90517533.96447
      -492.269  
  24206465.160   127205841.56146       663.454    24206461.100    99121427.29245
       663.454  
  23964369.160   125933611.41845      -177.826    23964362.880    98130073.00944
      -177.826  
  21311065.380   113599970.15706       439.904           0.000           0.00000
         0.000  
  20810627.060   111049487.67007      -515.923    20810631.620    86371845.43106
      -515.921  
  20388824.920   108951702.14607      -422.440    20388828.180    84740218.44107
      -422.441  
  19656110.640   105073170.03607       247.883    19656113.740    81723601.88205
       247.882  
  21654427.920   115877213.75706       407.332    21654428.880           0.00000
       407.332  
  22512493.600   120553371.33906       614.505    22512494.240    93763731.20006
       614.509  
 20  9 26  9  9  5.0000000  0 14G12G20G21G24G10G32G15G11R10R12R 2R11
                                R 1R17
  24165114.240   126988533.55346      -624.933    24165113.060    98952099.19843
      -624.933  
  20710644.000   108835164.90649       399.319    20710639.000    84806605.03748
       399.318  
  22996926.780   120849693.64447       -82.763    22996922.900    94168564.45145
       -82.762  
  20990309.280   110304839.89545       315.591    20990306.380    85951793.48244
       315.594  
  20438773.020   107406488.39749      -100.362    20438772.000    83693355.52148
      -100.363  
  22102848.880   116151221.29648      -491.732    22102846.140    90507460.42746
      -491.733  
  24209783.140   127223277.45346       663.697    24209779.120    99135013.69245
       663.697  
  23963480.300   125928947.26145      -176.989    23963479.060    98126438.70244
      -176.994  
  21313267.240   113611708.09106       440.906           0.000           0.00000
         0.000  
  23075568.120           0.00000      -853.329    23075569.360           0.00000
      -853.328  
  20808048.780   111035728.63407      -515.435    20808053.700    86361144.00607
      -515.437  
  20386715.300   108940429.21108      -421.355    20386718.540    84731450.61707
      -421.355  
  19657351.720   105079804.93707       248.622    19657354.880    81728762.36005
       248.622  
  21656468.120   115888126.11107       408.359    21656468.480    90135216.49507
       408.360  
 20  9 26  9  9 10.0000000  0 15G12G20G21G24G10G32G15R10R12R 2R18R11
                                R 1R17R 8
  24161989.100   126972110.40845      -625.172    24161989.700    98939302.00843
      -625.174  
  20712641.140   108845659.85549       399.392    20712636.080    84814782.90448
       399.392  
  22996513.780   120847523.28247       -82.623    22996510.000    94166873.37343
       -82.627  
  20991883.980           0.00000       315.774           0.000           0.00000
         0.000  
  20438271.800   107403854.93649      -100.245    20438270.860    83691303.47948
      -100.245  
  22100390.060   116138300.36848      -491.855    22100387.360    90497392.16347
      -491.855  
  24213101.580   127240715.69547       663.467    24213097.480    99148601.94245
       663.466  
  21315472.900   113623465.87306       441.235           0.000           0.00000
         0.000  
  23071298.640           0.00000      -853.773           0.000           0.00000
         0.000  
  20805471.840   111021977.19307      -515.512    20805475.860    86350448.41006
      -515.510  
  22358905.360   119353344.07304      -264.436    22358911.580    92830417.92907
      -264.437  
  20384609.580   108929176.72708      -421.081    20384612.680    84722698.68707
      -421.082  
  19658595.280   105086452.87606       248.727    19658598.520    81733933.01305
       248.726  
  21658511.260   115899058.88105       408.860    21658511.920    90143719.80507
       408.860  
  22518641.520           0.00000       614.760    22518643.080           0.00000
       614.760  
 20  9 26  9  9 15.0000000  0 14G12G20G21G24G10G32G15R10R 2R18R11R 1
                                R17R 8
  24158863.500   126955688.64045      -624.735    24158862.440    98926505.88342
      -624.737  
  20714639.940   108856163.45749       400.146    20714634.840    84822967.52147
       400.146  
  22996102.700   120845362.73047       -81.850    22996098.920    94165189.79544
       -81.850  
  20993468.660   110321408.86746       316.622    20993468.260    85964760.01645
       316.622  
  20437772.400   107401230.99449       -99.477    20437771.520    83689258.83748
       -99.477  
  22097931.620   116125381.57248      -491.506    22097929.040    90487325.62947
      -491.508  
  24216419.460   127258151.40047       663.731    24216415.100    99162188.18845
       663.732  
  21317681.240   113635238.46407       442.188           0.000           0.00000
         0.000  
  20802895.200   111008227.97806      -515.032    20802899.220    86339754.57205
      -515.031  
  22357588.240   119346300.34005      -263.368    22357592.140    92824939.45607
      -263.368  
  20382506.780   108917939.61108      -420.091    20382509.700    84713958.72706
      -420.092  
  19659840.400   105093108.64707       249.378    19659843.600    81739109.71905
       249.377  
  21660557.500   115910006.56007       409.627    21660559.140    90152234.62507
       409.628  
  22521714.520   120602737.54606       615.109    22521718.160    93802157.68406
       615.110  
 20  9 26  9  9 20.0000000  0 15G12G20G21G24G10G32G15G11R10R 2R18R11
                                R 1R17R 8
  24155740.940   126939279.74546      -624.474    24155739.480    98913719.80041
      -624.477  
  20716642.540   108866687.05249       400.823    20716637.420    84831167.72848
       400.823  
  22995695.540   120843222.97948       -81.156    22995691.840    94163522.47744
       -81.158  
  20995054.040   110329739.85346       317.380    20995054.980    85971251.65144
       317.382  
  20437276.960   107398628.03349       -98.788    20437276.180    83687230.54248
       -98.788  
  22095475.840   116112476.18548      -491.061    22095473.260    90477269.44847
      -491.062  
  24219739.000   127275595.91947       663.955    24219734.580    99175781.34845
       663.955  
  23960835.320   125915054.59844      -175.079    23960834.820    98115602.75543
      -175.079  
  21319894.520   113647037.35006       443.110           0.000           0.00000
         0.000  
  20800321.260   110994492.71708      -514.659    20800324.500    86329071.63306
      -514.661  
  22356274.380   119339285.23505      -262.420    22356277.340    92819483.25307
      -262.419  
  20380408.960   108906729.37408      -419.217    20380411.780    84705239.69307
      -419.219  
  19661089.180   105099783.95007       249.991    19661092.300    81744301.61505
       249.991  
  21662607.580   115920981.40205       410.599    21662610.300           0.00000
       410.601  
  22524792.180   120619214.61506       615.521    22524793.680    93814973.21007
       615.519  
 20  9 26  9  9 25.0000000  0 15G12G20G21G24G10G32G15G11R10R 2R18R11
                                R 1R17R 8
  24152618.820   126922873.63406      -624.303           0.000           0.00000
         0.000  
  20718647.060   108877220.76049       401.133    20718641.900    84839375.80648
       401.132  
  22995290.500   120841094.40947       -80.899    22995286.740    94161863.70644
       -80.894  
  20996640.900   110338082.80044       317.670    20996642.120    85977752.70443
       317.668  
  20436783.720   107396036.14549       -98.445    20436782.940    83685210.90948
       -98.445  
  22093020.560   116099574.25348      -490.965    22093018.060    90467216.01347
      -490.965  
  24223058.380   127293039.44747       663.904    24223053.800    99189373.73244
       663.903  
  23959962.980   125910425.63905      -174.439           0.000           0.00000
         0.000  
  21322110.860   113658852.49905       443.649           0.000           0.00000
         0.000  
  20797747.980   110980761.49807      -514.476    20797751.020    86318391.82006
      -514.476  
  22354963.360   119332289.29405      -261.768    22354967.020    92814041.94907
      -261.767  
  20378314.340   108895536.17008      -418.592    20378317.040    84696533.83107
      -418.592  
  19662339.620   105106468.71507       250.276    19662342.800    81749500.86005
       250.277  
  21664658.640           0.00000       411.260    21664661.640           0.00000
       411.260  
  22527869.000   120635694.34106       615.516    22527870.920    93827790.77206
       615.515  
 20  9 26  9  9 30.0000000  0 16G12G20G21G24G10G32G15G11R10R12R 2R18
                                R11R 1R17R 8
  24149498.020   126906471.53645      -624.074    24149486.240    98888116.99343
      -624.074  
  20720653.660   108887765.63549       401.650    20720648.520    84847592.58848
       401.650  
  22994887.720   120838977.86447       -80.225    22994883.780    94160214.55944
       -80.228  
  20998230.900   110346439.42846       318.284    20998232.040    85984264.36244
       318.285  
  20436292.800   107393456.39849       -97.863    20436292.020    83683200.71648
       -97.864  
  22090566.240   116086676.93048      -490.648    22090563.840    90457166.14146
      -490.647  
  24226377.520   127310482.90946       663.934    24226372.900    99202966.03245
       663.933  
  23959091.120           0.00040      -173.764    23959093.460           0.00050
      -173.764  
  21324330.600   113670685.20806       444.417           0.000           0.00000
         0.000  
  23054239.340           0.00000      -852.837    23054241.120           0.00000
      -852.837  
  20795175.740   110967035.25208      -514.348    20795178.480    86307715.85006
      -514.348  
  22353655.960   119325313.32005      -260.871    22353659.760    92808616.24307
      -260.873  
  20376223.100   108884361.06808      -417.831    20376225.760    84687842.09507
      -417.830  
  19663591.940   105113163.94105       250.859    19663595.220    81754708.27105
       250.858  
  21666716.800           0.00000       411.899    21666720.920           0.00000
       411.897  
  22530946.020   120652177.53406       615.814    22530949.280    93840611.05206
       615.814  
 20  9 26  9  9 35.0000000  0 15G12G20G21G24G10G32G15G11R10R12R 2R18
                                R11R 1R 8
  24146382.240           0.00040      -623.681    24146379.100           0.00050
      -623.681  
  20722663.500   108898327.47149       402.189    20722658.360    84855822.59447
       402.188  
  22994488.440   120836879.17948       -79.637    22994484.380    94158579.09143
       -79.633  
  20999825.360   110354814.88547       319.084    20999825.080    85990790.82945
       319.075  
  20435805.280   107390894.49549       -97.281    20435804.500    83681204.43648
       -97.282  
  22088113.880   116073789.96548      -490.455    22088111.520    90447124.31947
      -490.453  
  24229697.880   127327931.93945       664.017    24229693.420    99216562.65844
       664.017  
  23958224.480   125901316.65844      -173.180    23958217.180    98104928.72143
      -173.182  
  21326554.620   113682541.04806       445.174           0.000           0.00000
         0.000  
  23049969.840           0.00000      -852.506    23049974.180           0.00010
      -852.506  
  20792605.440   110953319.86007      -514.097    20792608.660    86297048.39907
      -514.101  
  22352354.440   119318363.30005      -259.994    22352357.720    92803210.58907
      -259.991  
  20374136.300   108873209.74308      -417.045    20374138.960    84679168.85907
      -417.045  
  19664847.320   105119875.50806       251.201    19664850.700    81759928.38505
       251.201  
  22534025.140   120668670.21806       615.991    22534028.140    93853438.68106
       615.990  
 20  9 26  9  9 40.0000000  0 16G12G20G21G24G10G32G15G11R10R12R 2R18
                                R11R 1R17R 8
  24143263.780   126873688.38905      -623.606           0.000           0.00000
         0.000  
  20724675.840   108908902.26349       402.669    20724670.660    84864062.69647
       402.668  
  22994091.720   120834794.57046       -78.853    22994087.720    94156954.74043
       -78.853  
  21001422.440   110363205.41447       319.479    21001421.360    85997328.83443
       319.479  
  20435320.420   107388346.60449       -96.747    20435319.640    83679219.08348
       -96.748  
  22085662.780   116060909.35848      -490.166    22085660.440    90437087.50147
      -490.166  
  24233018.520   127345382.92946       664.080    24233014.180    99230160.83644
       664.081  
  23957357.560   125896773.69845      -172.720    23957354.860    98101388.73644
      -172.719  
  21328782.340   113694416.04907       445.826           0.000           0.00000
         0.000  
  23045714.120           0.00000      -852.430    23045713.820           0.00000
      -852.430  
  20790036.340   110939611.08007      -513.731    20790039.900    86286381.95607
      -513.731  
  22351056.540   119311435.27805      -259.038    22351059.980    92797822.17707
      -259.039  
  20372053.320   108862078.41408      -416.378    20372055.860    84670511.16607
      -416.379  
  19666105.080   105126599.56005       251.658    19666108.480    81765158.16405
       251.660  
  21670842.540   115965056.16806       413.236    21670846.240    90195057.22106
       413.237  
  22537105.240   120685168.38906       616.192    22537108.540    93866270.61006
       616.191  
 20  9 26  9  9 45.0000000  0 16G12G20G21G24G10G32G15G11R10R12R 2R18
                                R11R 1R17R 8
  24140143.820   126857308.16246      -623.254    24140145.400    98849856.01143
      -623.254  
  20726690.760   108919490.66849       403.259    20726685.480    84872313.36847
       403.260  
  22993697.780   120832724.29648       -78.448    22993693.920    94155341.73244
       -78.454  
  21003022.040   110371611.48946       320.286    21003021.480    86003878.89844
       320.291  
  20434838.360   107385813.29149       -96.133    20434837.580    83677245.08749
       -96.133  
  22083213.000   116048035.89548      -489.780    22083210.720    90427056.25147
      -489.780  
  24236339.680   127362836.45546       664.379    24236335.300    99243760.92743
       664.380  
  23956496.000   125892248.09644      -171.829    23956495.060    98097862.28544
      -171.829  
  21331013.800   113706310.92007       446.642           0.000           0.00000
         0.000  
  23041450.880   123083303.63904      -852.271    23041451.220    95731454.47004
      -852.269  
  20787468.880   110925910.18708      -513.326    20787472.520    86275725.80706
      -513.329  
  22349762.280   119304529.74805      -258.193    22349766.200    92792451.21106
      -258.193  
  20369974.180   108850967.70908      -415.432    20369976.640    84661869.50307
      -415.432  
  19667365.000   105133336.57806       252.390    19667368.780    81770398.12304
       252.388  
  21672911.920   115976127.92005       414.114    21672916.380    90203668.55707
       414.116  
  22540186.740   120701672.45305       616.574    22540191.440    93879107.10406
       616.573  
 20  9 26  9  9 50.0000000  0 15G12G20G21G24G10G32G15G11R10R 2R18R11
                                R 1R17R 8
  24137027.920   126840931.00444      -623.199    24137018.640    98837069.71143
      -623.199  
  20728707.600   108930089.28149       403.518    20728702.280    84880572.03247
       403.518  
  22993306.100   120830665.28648       -78.220    22993302.240    94153737.30144
       -78.221  
  21004624.200   110380029.87246       320.643    21004623.780    86010438.74044
       320.641  
  20434358.460   107383291.21249       -95.801    20434357.640    83675279.81549
       -95.800  
  22080763.880   116035166.01648      -489.766    22080761.680    90417027.76647
      -489.766  
  24239660.560   127380288.78546       664.184    24239656.240    99257360.18244
       664.184  
  23955637.420   125887736.61945      -171.442    23955635.240    98094346.91844
      -171.445  
  21333248.300   113718222.04707       447.146           0.000           0.00000
         0.000  
  20784902.100   110912212.89208      -513.336    20784905.920    86265072.37405
      -513.338  
  22348471.720   119297643.34104      -257.560    22348475.980    92787095.11107
      -257.559  
  20367898.240   108839874.11608      -414.933    20367900.660    84653241.16407
      -414.932  
  19668626.860   105140083.17506       252.607    19668630.820    81775645.45305
       252.608  
  21674983.940   115987216.32705       414.711    21674988.760    90212292.89607
       414.711  
  22543268.960   120718179.04607       616.478    22543274.800    93891945.57907
       616.478  
 20  9 26  9  9 55.0000000  0 15G12G20G21G24G10G32G15G11R10R 2R18R11
                                R 1R17R 8
  24133913.260   126824559.16205      -622.869           0.000           0.00000
         0.000  
  20730726.780   108940700.20649       404.247    20730721.380    84888840.29247
       404.247  
  22992916.960   120828619.48347       -77.438    22992912.960    94152143.17844
       -77.438  
  21006229.200   110388462.69647       321.345    21006229.080    86017009.75945
       321.345  
  20433881.060   107380782.14149       -95.076    20433880.200    83673324.69448
       -95.076  
  22078315.820   116022301.92948      -489.325    22078313.800    90407003.82847
      -489.326  
  24242981.460   127397742.30344       664.637    24242977.500    99270960.32244
       664.638  
  23954782.420   125883241.74844      -170.494    23954779.760    98090844.45443
      -170.495  
  21335486.380   113730151.73907       448.072           0.000           0.00000
         0.000  
  20782336.580   110898521.99408      -512.849    20782340.440    86254423.88506
      -512.848  
  22347185.700   119290778.09505      -256.680    22347189.560    92781755.47506
      -256.679  
  20365825.820   108828799.70808      -413.965    20365828.300    84644627.76407
      -413.966  
  19669890.960   105146841.47305       253.226    19669895.160    81780901.91404
       253.225  
  21677059.260   115998323.39706       415.634    21677064.640    90220931.74107
       415.634  
  22546352.500   120734690.38806       616.896    22546358.980    93904787.74506
       616.896  
 20  9 26  9 10  0.0000000  0 13G20G21G24G10G32G11R10R 2R18R11R 1R17
                                R 8
  20732748.460   108951324.39049       404.116    20732742.960    84897118.84647
       404.117  
  22992530.480   120826588.02047       -77.481    22992526.380    94150560.25543
       -77.482  
  21007837.160   110396910.73847       321.323    21007836.100    86023592.63145
       321.323  
  20433406.400   107378287.64949       -95.146    20433405.500    83671380.93048
       -95.146  
  22075869.060   116009444.48848      -489.684    22075867.200    90396985.02747
      -489.684  
  23953930.580   125878763.88546      -170.521    23953927.040    98087355.11844
      -170.520  
  21337728.040   113742100.86206       448.196           0.000           0.00000
         0.000  
  20779772.380   110884838.28308      -513.207    20779776.400    86243780.98905
      -513.207  
  22345903.880   119283935.16905      -256.390    22345906.920    92776433.17706
      -256.389  
  20363757.220   108817745.60607      -413.753    20363759.740    84636030.13307
      -413.754  
  19671157.500   105153612.35505       253.067    19671161.860    81786168.19704
       253.066  
  21679138.520   116009450.25907       415.766    21679143.240    90229585.97307
       415.766  
  22549437.160   120751207.51207       616.525    22549443.840    93917634.34606
       616.527  
 20  9 26  9 10  5.0000000  0 14G12G20G21G24G10G32G11R10R 2R18R11R 1
                                R17R 8
  24127685.040           0.00000      -622.720           0.000           0.00000
         0.000  
  20734773.280   108961965.25749       404.820    20734767.760    84905410.42447
       404.820  
  22992147.420   120824574.18847       -76.729    22992143.220    94148991.03644
       -76.729  
  21009448.460   110405377.48147       322.157    21009447.100    86030190.12544
       322.156  
  20432935.120   107375810.86949       -94.350    20432934.180    83669450.98648
       -94.351  
  22073424.320   115996597.28348      -489.190    22073422.500    90386974.22247
      -489.189  
  23953082.440   125874306.81945      -169.632    23953079.960    98083882.12043
      -169.632  
  21339974.020   113754072.92006       449.260           0.000           0.00000
         0.000  
  20777210.140   110871165.11608      -512.708    20777213.980    86233146.29307
      -512.707  
  22344626.740   119277117.96305      -255.354    22344629.300    92771130.92606
      -255.355  
  20361693.040   108806715.35608      -412.829    20361695.620    84627451.04308
      -412.829  
  19672427.080   105160399.33005       253.852    19672431.560    81791446.93404
       253.852  
  21681222.060   116020600.25007       416.711    21681226.180    90238258.18306
       416.711  
  22552523.520   120767733.69507       616.993    22552530.120    93930488.09306
       616.992  
 20  9 26  9 10 10.0000000  0 14G12G20G21G24G10G32G11R10R 2R18R11R 1
                                R17R 8
  24124570.280   126775486.69205      -622.820           0.000           0.00000
         0.000  
  20736796.920   108972599.80449       404.993    20736791.360    84913697.08047
       404.994  
  22991763.360   120822555.08248       -76.557    22991759.040    94147417.71544
       -76.558  
  21011059.060   110413839.79347       322.370    21011057.840    86036784.14545
       322.369  
  20432462.820   107373328.75649       -94.196    20432461.840    83667516.86648
       -94.197  
  22070977.100   115983737.19948      -489.346    22070975.340    90376953.39047
      -489.346  
  23952233.500   125869847.39345      -169.376    23952232.120    98080407.22844
      -169.377  
  21342219.880   113766044.53406       449.615           0.000           0.00000
         0.000  
  20774645.540   110857479.29208      -512.792    20774649.560    86222501.80905
      -512.794  
  22343350.080   119270303.21505      -254.926    22343352.420    92765830.52805
      -254.924  
  20359629.000   108795685.36708      -412.435    20359631.560    84618872.16107
      -412.435  
  19673695.360   105167179.08306       253.895    19673699.880    81796720.06704
       253.896  
  21683305.720   116031750.08406       417.154    21683308.900    90246930.24206
       417.155  
  22555607.260   120784245.64307       616.757    22555613.760    93943330.71406
       616.756  
 20  9 26  9 10 15.0000000  0 14G12G20G21G24G10G32G11R10R 2R18R11R 1
                                R17R 8
  24121459.700   126759130.74445      -622.189    24121454.320    98773340.58943
      -622.189  
  20738824.480   108983254.96149       405.984    20738818.920    84921999.78747
       405.985  
  22991383.320   120820557.54947       -75.565    22991379.060    94145861.19745
       -75.564  
  21012673.900   110422324.91547       323.469    21012672.360    86043395.93145
       323.468  
  20431994.680   107370868.38749       -93.177    20431993.620    83665599.72048
       -93.178  
  22068532.580   115970891.21048      -488.562    22068530.840    90366943.53247
      -488.562  
  23951389.880   125865412.59246      -168.240    23951388.320    98076951.52343
      -168.241  
  21344470.740   113778043.05506       450.752           0.000           0.00000
         0.000  
  20772083.640   110843808.49008      -512.056    20772087.900    86211868.94007
      -512.055  
  22342079.120   119263518.15905      -253.531    22342081.160    92760553.34806
      -253.533  
  20357570.160   108784683.27208      -411.185    20357572.700    84610314.98507
      -411.185  
  19674967.480   105173979.06906       254.868    19674971.960    81802008.95505
       254.867  
  21685394.560   116042926.96907       418.347    21685397.140    90255623.38906
       418.347  
  22558693.460   120800770.73107       617.496    22558699.840    93956183.56606
       617.496  
 20  9 26  9 10 20.0000000  0 15G12G20G21G24G10G32G15G11R10R 2R18R11
                                R 1R17R 8
  24118349.880   126742787.75244      -621.690    24118349.660    98760605.69041
      -621.687  
  20740855.880   108993930.15849       406.714    20740850.320    84930318.13347
       406.714  
  22991007.220   120818580.98847       -74.808    22991002.860    94144320.92643
       -74.805  
  21014292.880   110430832.01647       324.213    21014291.580    86050024.87145
       324.211  
  20431530.540   107368429.05049       -92.387    20431529.400    83663698.94048
       -92.388  
  22066090.620   115958058.77049      -488.110    22066088.860    90356944.25147
      -488.111  
  24259589.400   127485000.35646       664.801    24259586.580    99338947.99643
       664.801  
  23950550.480   125861001.91845      -167.418    23950548.660    98073514.68944
      -167.419  
  21346726.700   113790067.66205       451.730           0.000           0.00000
         0.000  
  20769524.360   110830151.47008      -511.574    20769529.000    86201246.77805
      -511.573  
  22340813.540   119256762.22805      -252.490    22340815.600    92755298.69807
      -252.490  
  20355516.380   108773708.34808      -410.241    20355518.900    84601778.92007
      -410.240  
  19676243.180   105180798.46806       255.463    19676247.740    81807312.91705
       255.463  
  21687488.360   116054130.54207       419.241    21687490.640    90264337.27605
       419.242  
  22561782.000   120817308.34107       617.976    22561788.340    93969046.13506
       617.977  
 20  9 26  9 10 25.0000000  0 14G20G21G24G10G32G15G11R10R 2R18R11R 1
                                R17R 8
  20742893.680   109004638.75649       408.135    20742888.080    84938662.48947
       408.135  
  22990637.740   120816638.97448       -73.384    22990633.060    94142807.72942
       -73.384  
  21015918.680   110439374.59948       325.749    21015918.120    86056681.45844
       325.748  
  20431073.000   107366024.22549       -90.950    20431071.720    83661825.00148
       -90.949  
  22063653.700   115945253.20348      -486.919    22063652.000    90346965.87947
      -486.919  
  24262910.680   127502484.60344       665.814    24262907.440    99352571.82643
       665.821  
  23949718.520   125856628.68045      -165.791    23949716.100    98070106.90443
      -165.788  
  21348989.900   113802132.11405       453.332           0.000           0.00000
         0.000  
  20766970.420   110816522.44708      -510.344    20766974.920    86190646.46406
      -510.344  
  22339555.640   119250049.21805      -250.831    22339558.740    92750077.43106
      -250.829  
  20353470.140   108762774.24108      -408.566    20353472.660    84593274.63307
      -408.567  
  19677525.140   105187651.16907       256.947    19677529.680    81812642.85604
       256.946  
  21689589.360   116065374.26907       420.908    21689591.760    90273082.37706
       420.909  
  22564875.120   120833872.30007       619.077    22564881.820    93981929.20506
       619.078  
 20  9 26  9 10 30.0000000  0 13G20G21G24G10G32G11R10R 2R18R11R 1R17
                                R 8
  20744933.620   109015358.68449       406.762    20744928.020    84947015.67847
       406.762  
  22990270.580   120814709.21247       -74.685    22990266.060    94141304.17041
       -74.690  
  21017546.900   110447930.61947       324.450    21017546.460    86063348.46244
       324.451  
  20430617.780   107363631.83349       -92.255    20430616.400    83659960.80249
       -92.255  
  22061217.760   115932452.54148      -488.508    22061216.120    90336991.32747
      -488.508  
  23948889.440   125852270.67146      -166.954    23948886.980    98066711.10244
      -166.955  
  21351256.460   113814214.04705       452.184           0.000           0.00000
         0.000  
  20764417.440   110802898.62508      -511.951    20764422.000    86180050.17206
      -511.952  
  22338301.700   119243356.42604      -251.836    22338305.280    92744871.93206
      -251.836  
  20351427.420   108751858.63908      -409.635    20351429.780    84584784.74607
      -409.636  
  19678809.100   105194514.54506       255.588    19678813.560    81817981.07804
       255.587  
  21691693.960   116076635.63007       419.769    21691695.640    90281841.15505
       419.771  
  22567969.100   120850439.97806       617.416    22567975.620    93994815.18806
       617.416  
 20  9 26  9 10 35.0000000  0 14G20G21G24G10G32G15G11R10R 2R18R11R 1
                                R17R 8
  20746966.380   109026040.65649       407.977    20746960.780    84955339.27148
       407.977  
  22989896.440   120812742.58147       -73.376    22989891.880    94139771.68144
       -73.377  
  21019168.300   110456450.74246       325.718    21019167.780    86069987.49046
       325.720  
  20430155.500   107361202.54649       -91.018    20430154.120    83658067.90048
       -91.020  
  22058773.360   115919607.46848      -487.574    22058771.740    90326982.18547
      -487.573  
  24269557.240           0.00040       664.781    24269559.500           0.00040
       664.781  
  23948053.940   125847878.92546      -165.730    23948052.040    98063288.97043
      -165.730  
  21353516.880   113826263.41606       453.543           0.000           0.00000
         0.000  
  20761855.960   110789230.14107      -511.002    20761860.700    86169419.14607
      -511.001  
  22337042.240   119236634.07505      -250.338    22337046.060    92739643.49206
      -250.339  
  20349378.800   108740911.33408      -408.133    20349381.100    84576270.14407
      -408.132  
  19680085.720   105201338.58606       256.683    19680090.180    81823288.62405
       256.684  
  21693792.580   116087864.54408       421.193    21693794.100    90290574.73406
       421.194  
  22571054.520   120866961.02506       618.211    22571060.400    94007664.85105
       618.212  
 20  9 26  9 10 40.0000000  0 14G20G21G24G10G32G15G11R10R 2R18R11R 1
                                R17R 8
  20749007.000   109036764.32049       407.786    20749001.460    84963695.38047
       407.786  
  22989530.340   120810818.59147       -73.520    22989525.840    94138272.41343
       -73.519  
  21020797.940   110465014.53246       325.545    21020797.560    86076660.61444
       325.543  
  20429701.420   107358816.06949       -91.184    20429699.920    83656208.29348
       -91.184  
  22056335.680   115906797.58448      -487.977    22056334.120    90317000.44547
      -487.976  
  24272886.280           0.00040       664.216    24272877.520           0.00040
       664.216  
  23947227.160   125843532.81646      -165.705    23947224.960    98059902.33443
      -165.704  
  21355786.380   113838360.91306       453.684           0.000           0.00000
         0.000  
  20759301.280   110775597.80908      -511.399    20759305.980    86158816.19906
      -511.399  
  22335792.440   119229962.89905      -250.141    22335796.540    92734454.75906
      -250.139  
  20347339.360   108730013.31808      -408.134    20347341.660    84567793.91607
      -408.134  
  19681370.140   105208204.14406       256.511    19681374.640    81828628.49905
       256.511  
  21695900.300   116099141.99307       421.260    21695901.460    90299346.12205
       421.259  
  22574146.380   120883516.86807       617.834    22574152.100    94020541.65405
       617.832  
 20  9 26  9 10 45.0000000  0 14G20G21G24G10G32G15G11R10R 2R18R11R 1
                                R17R 8
  20751048.220   109047490.89149       408.716    20751042.660    84972053.74847
       408.717  
  22989165.000   120808898.68547       -72.569    22989160.500    94136776.29941
       -72.564  
  21022428.560   110473583.15447       326.646    21022428.200    86083337.52045
       326.645  
  20429248.100   107356433.63549       -90.154    20429246.540    83654351.83549
       -90.154  
  22053897.240   115893984.16248      -487.342    22053895.800    90307015.97347
      -487.343  
  24276205.420           0.00000       664.636           0.000           0.00000
         0.000  
  23946401.460   125839193.70245      -164.588    23946399.400    98056521.25645
      -164.589  
  21358057.640   113850467.39606       454.818           0.000           0.00000
         0.000  
  20756745.960   110761962.07307      -510.776    20756750.520    86148210.67405
      -510.780  
  22334545.100   119223303.57906      -248.801    22334549.180    92729275.28806
      -248.801  
  20345301.780   108719125.21608      -406.922    20345304.040    84559325.38907
      -406.921  
  19682655.000   105215071.96006       257.448    19682659.480    81833970.13805
       257.447  
  21698009.400   116110428.56707       422.305    21698009.980    90308124.55706
       422.306  
  22577237.280   120900067.68607       618.428    22577242.400    94033414.53905
       618.427  
 20  9 26  9 10 50.0000000  0 13G20G21G24G10G32G11R10R 2R18R11R 1R17
                                R 8
  20753095.900   109058251.25649       409.492    20753090.360    84980438.44948
       409.492  
  22988806.240   120807013.53347       -71.744    22988801.560    94135307.34141
       -71.741  
  21024065.940   110482187.65747       327.442    21024066.000    86090042.32144
       327.443  
  20428801.420   107354086.07449       -89.400    20428799.800    83652522.59948
       -89.400  
  22051464.040   115881198.09948      -486.824    22051462.700    90297052.82147
      -486.825  
  23945582.980   125834892.47946      -163.769    23945581.080    98053169.69244
      -163.770  
  21360336.240   113862613.89605       455.843           0.000           0.00000
         0.000  
  20754195.840   110748354.56108      -510.228    20754200.280    86137627.02607
      -510.228  
  22333305.780   119216687.61505      -247.732    22333309.820    92724129.55906
      -247.733  
  20343271.940   108708278.49408      -405.894    20343274.100    84550889.02107
      -405.893  
  19683946.080   105221973.26306       258.108    19683950.660    81839337.85005
       258.107  
  21700126.180   116121755.65708       423.351    21700126.940    90316934.45806
       423.353  
  22580333.140   120916645.35607       618.972    22580337.860    94046308.26206
       618.972  
 20  9 26  9 10 55.0000000  0 13G20G21G24G10G32G11R10R 2R18R11R 1R17
                                R 8
  20755146.320   109069026.49649       410.363    20755140.880    84988834.73647
       410.363  
  22988450.560   120805144.27547       -70.794    22988446.220    94133850.93244
       -70.798  
  21025706.560   110490808.87147       328.433    21025706.560    86096760.12844
       328.434  
  20428357.780   107351754.54649       -88.447    20428356.100    83650705.80848
       -88.446  
  22049032.460   115868420.45447      -486.134    22049031.200    90287096.21247
      -486.134  
  23944768.340   125830610.23746      -162.632    23944766.600    98049832.84044
      -162.630  
  21362618.860   113874781.41206       456.846           0.000           0.00000
         0.000  
  20751647.500   110734755.98908      -509.498    20751651.680    86127050.34206
      -509.497  
  22332070.760   119210095.51005      -246.595    22332074.720    92719002.38206
      -246.598  
  20341246.220   108697453.82608      -404.703    20341248.360    84542469.87507
      -404.703  
  19685239.740   105228889.03405       259.017    19685244.500    81844716.76804
       259.018  
  21702246.900   116133103.91307       424.519    21702247.140    90325760.90006
       424.519  
  22583430.460   120933230.24806       619.618    22583434.780    94059207.61804
       619.618  
 20  9 26  9 11  0.0000000  0 13G20G21G24G10G32G11R10R 2R18R11R 1R17
                                R 8
  20757198.320   109079809.78749       410.483    20757192.980    84997237.30048
       410.483  
  22988096.560   120803284.20848       -70.695    22988092.480    94132401.57041
       -70.698  
  21027349.080   110499440.15947       328.636    21027349.140    86103485.80744
       328.636  
  20427915.900   107349432.24449       -88.284    20427914.180    83648896.21548
       -88.284  
  22046601.240   115855644.49348      -486.330    22046600.040    90277140.93747
      -486.331  
  23943955.940   125826340.21645      -162.389    23943953.820    98046505.54243
      -162.387  
  21364904.160   113886962.84906       457.244           0.000           0.00000
         0.000  
  20749099.600   110721159.61508      -509.569    20749103.580    86116475.41006
      -509.570  
  22330839.040   119203520.70705      -246.023    22330842.920    92713888.57606
      -246.020  
  20339223.340   108686644.42007      -404.379    20339225.440    84534062.56707
      -404.379  
  19686534.860   105235812.15806       259.118    19686539.680    81850101.42204
       259.117  
  21704370.280   116144466.55107       424.860    21704370.440    90334598.48005
       424.860  
  22586527.860   120949815.67706       619.343    22586531.540    94072107.37604
       619.344  
 20  9 26  9 11  5.0000000  0 15G20G21G24G10G32G15G11R10R12R 2R18R11
                                R 1R17R 8
  20759250.980   109090596.44949       410.946    20759245.640    85005642.50747
       410.945  
  22987743.380   120801428.67806       -70.217           0.000           0.00000
         0.000  
  21028992.640   110508076.80448       329.207    21028992.920    86110215.74544
       329.202  
  20427474.920   107347114.51849       -87.727    20427473.140    83647090.23949
       -87.728  
  22044169.440   115842865.50347      -486.018    22044168.220    90267183.25947
      -486.017  
  24289509.980           0.00040       665.298    24289509.540           0.00040
       665.298  
  23943144.740   125822077.65546      -161.752    23943142.880    98043184.19941
      -161.755  
  21367191.120   113899153.56006       458.010           0.000           0.00000
         0.000  
  22973345.080   122719481.16005      -849.922    22973353.460           0.00000
      -849.922  
  20746551.200   110707560.40008      -509.328    20746555.060    86105898.22406
      -509.328  
  22329609.620   119196958.20404      -245.327    22329613.500    92708784.42007
      -245.328  
  20337202.460   108675845.50608      -403.607    20337204.640    84525663.40607
      -403.607  
  19687830.420   105242738.00807       259.561    19687835.320    81855488.14905
       259.563  
  21706495.440   116155838.72207       425.627    21706495.380    90343443.57505
       425.625  
  22589624.320   120966396.62506       619.665    22589627.880    94085003.68705
       619.665  
 20  9 26  9 11 10.0000000  0 13G20G21G24G10G32G11R10R 2R18R11R 1R17
                                R 8
  20761307.220   109101402.24749       411.404    20761301.920    85014062.59147
       411.404  
  22987394.100   120799593.30207       -69.566           0.000           0.00000
         0.000  
  21030640.300   110516734.52347       329.646    21030640.540    86116962.02544
       329.647  
  20427037.760   107344817.01949       -87.281    20427035.960    83645299.99648
       -87.282  
  22041740.020   115830099.18248      -485.897    22041738.900    90257235.53747
      -485.899  
  23942338.100   125817838.34447      -161.112    23942335.420    98039880.76244
      -161.111  
  21369482.820   113911369.81906       458.620           0.000           0.00000
         0.000  
  20744005.240   110693974.81707      -509.188    20744009.160    86095331.67406
      -509.188  
  22328385.480   119190424.22505      -244.319    22328389.460    92703702.52506
      -244.322  
  20335186.480   108665073.05208      -402.860    20335188.780    84517284.85907
      -402.861  
  19689129.600   105249682.43906       259.966    19689134.400    81860889.44404
       259.965  
  21708625.420   116167236.38108       426.192    21708625.440    90352308.31506
       426.195  
  22592723.040   120982989.21407       619.653    22592726.240    94097909.01905
       619.653  
 20  9 26  9 11 15.0000000  0 15G20G21G24G10G32G15G11R10R12R 2R18R11
                                R 1R17R 8
  20763364.660   109112214.15649       411.639    20763359.440    85022487.44847
       411.639  
  22987046.240   120797764.94148       -69.477    22987049.500    94128136.87143
       -69.477  
  21032289.440   110525400.20247       329.937    21032288.840    86123714.41443
       329.939  
  20426601.980   107342526.83049       -86.981    20426600.100    83643515.40948
       -86.981  
  22039310.620   115817332.57848      -485.855    22039309.480    90247287.47846
      -485.854  
  24296164.260   127677197.38046       665.021    24296155.380    99488745.33044
       665.021  
  23941533.360   125813609.24446      -160.710    23941530.260    98036585.37642
      -160.708  
  21371776.720   113923597.70106       459.015           0.000           0.00000
         0.000  
  22964850.900   122674079.79404      -849.987           0.000           0.00000
         0.000  
  20741459.340   110680389.09708      -509.194    20741463.160    86084764.94505
      -509.192  
  22327164.080   119183905.28604      -243.951    22327168.020    92698632.21606
      -243.952  
  20333172.960   108654313.87108      -402.403    20333175.280    84508916.64707
      -402.405  
  19690429.740   105256632.44606       260.149    19690434.480    81866294.99604
       260.150  
  21710757.800   116178646.30807       426.712    21710757.800    90361182.75605
       426.711  
  22595821.460   120999580.10807       619.666    22595824.180    94110813.02305
       619.666  
 20  9 26  9 11 20.0000000  0 14G20G21G24G10G32G15G11R10R 2R18R11R 1
                                R17R 8
  20765424.920   109123040.81249       412.211    20765419.760    85030923.81147
       412.211  
  22986701.500   120795952.59247       -68.666    22986706.160    94126724.70843
       -68.674  
  21033941.800   110534082.74847       330.783    21033940.000    86130479.99344
       330.783  
  20426169.260   107340252.56149       -86.323    20426167.300    83641743.25748
       -86.323  
  22036882.800   115804574.39848      -485.493    22036881.640    90237346.04547
      -485.492  
  24299493.200   127694676.44046       665.191    24299486.540    99502365.40844
       665.191  
  23940732.100   125809399.05146      -159.943    23940729.400    98033304.63443
      -159.942  
  21374074.600   113935846.68906       459.938           0.000           0.00000
         0.000  
  20738915.000   110666812.25107      -508.775    20738919.000    86074205.21105
      -508.776  
  22325947.300   119177410.35405      -242.934    22325951.260    92693580.61506
      -242.934  
  20331163.640   108643576.74608      -401.557    20331165.980    84500565.53507
      -401.558  
  19691732.540   105263596.59505       260.660    19691737.200    81871711.58504
       260.659  
  21712894.000   116190077.24008       427.532    21712893.760    90370073.51306
       427.530  
  22598921.240   121016178.46207       619.897    22598923.700    94123722.86705
       619.896  
 20  9 26  9 11 25.0000000  0 15G20G21G24G10G32G15G11R10R12R 2R18R11
                                R 1R17R 8
  20767486.100   109133872.40748       412.615    20767481.020    85039364.01347
       412.616  
  22986357.880   120794146.30307       -68.308           0.000           0.00000
         0.000  
  21035595.480   110542772.25948       331.081    21035593.400    86137251.11545
       331.079  
  20425737.680   107337984.43349       -85.934    20425735.660    83639975.87248
       -85.934  
  22034454.660   115791814.68048      -485.414    22034453.540    90227403.42846
      -485.414  
  24302819.380   127712149.42544       665.079    24302811.440    99515980.71944
       665.080  
  23939932.660   125805197.97947      -159.452    23939930.260    98030031.14743
      -159.453  
  21376374.500   113948106.37007       460.447           0.000           0.00000
         0.000  
  22956353.860   122628705.70004      -849.598    22956353.120    95377890.89901
      -849.599  
  20736370.500   110653234.40808      -508.604    20736374.600    86063644.66806
      -508.605  
  22324732.960   119170929.44905      -242.384    22324737.180    92688539.90306
      -242.385  
  20329156.600   108632851.75208      -400.904    20329158.900    84492223.89607
      -400.906  
  19693036.240   105270565.02506       261.064    19693040.800    81877131.51504
       261.062  
  21715032.300   116201519.29008       428.075    21715032.320    90378972.89306
       428.073  
  22602020.440   121032773.78007       620.009    22602024.220           0.00000
       620.009  
 20  9 26  9 11 30.0000000  0 14G20G24G10G32G15G11R10R12R 2R18R11R 1
                                R17R 8
  20769550.440   109144720.68949       413.252    20769545.460    85047817.21347
       413.252  
  21037252.720   110551480.50247       331.815    21037250.140    86144036.74044
       331.815  
  20425309.500   107335734.24549       -85.249    20425307.460    83638222.48748
       -85.249  
  22032028.460   115779065.36847      -484.980    22032027.400    90217468.86247
      -484.979  
  24306145.400   127729627.71544       665.479    24306139.600    99529600.15543
       665.479  
  23939137.080   125801017.65147      -158.682    23939134.820    98026773.71841
      -158.683  
  21378678.640   113960388.66906       461.283           0.000           0.00000
         0.000  
  22952105.720   122606015.54005      -849.225    22952108.300    95360250.97404
      -849.225  
  20733828.000   110639667.46308      -508.216    20733832.240    86053092.61307
      -508.217  
  22323523.700   119164474.63306      -241.342    22323527.700    92683519.51706
      -241.343  
  20327154.100   108622150.81708      -400.016    20327156.400    84483900.94607
      -400.016  
  19694342.800   105277549.66006       261.692    19694347.360    81882563.97604
       261.693  
  21717174.900   116212984.44708       428.990    21717174.980    90387890.23106
       428.989  
  22605121.380   121049378.40207       620.432    22605122.880    94149540.98504
       620.433  
 20  9 26  9 11 35.0000000  0 14G20G21G24G10G32G11R10R12R 2R18R11R 1
                                R17R 8
  20771619.560   109155594.03548       414.282    20771614.620    85056289.96347
       414.281  
  22985682.360   120790595.28608       -66.532           0.000           0.00000
         0.000  
  21038915.040   110560215.75048       333.019    21038912.260    86150843.46845
       333.016  
  20424886.300   107333510.27249       -84.146    20424884.220    83636489.51948
       -84.145  
  22029605.900   115766334.74548      -484.160    22029604.840    90207548.98046
      -484.163  
  23938347.060   125796866.66446      -157.319    23938345.380    98023539.14843
      -157.314  
  21380988.720   113972702.40707       462.688           0.000           0.00000
         0.000  
  22947858.960   122583342.11105      -848.614           0.000           0.00000
         0.000  
  20731289.160   110626120.00408      -507.408    20731293.400    86042555.66504
      -507.405  
  22322320.920   119158054.29906      -239.863    22322325.060    92678525.89306
      -239.863  
  20325157.620   108611482.52507      -398.574    20325159.920    84475603.34806
      -398.573  
  19695654.080   105284559.08305       262.734    19695658.600    81888015.76603
       262.733  
  21719323.360   116224481.07907       430.254    21719323.300    90396831.93307
       430.259  
  22608225.640   121066000.70007       621.133    22608226.680    94162469.43904
       621.135  
 20  9 26  9 11 40.0000000  0 14G20G21G24G10G32G11R10R12R 2R18R11R 1
                                R17R 8
  20773691.400   109166481.53449       414.532    20773686.520    85064773.73047
       414.532  
  22985350.000   120788848.14707       -66.345           0.000           0.00000
         0.000  
  21040580.340   110568967.03746       333.228    21040577.460    86157662.57344
       333.231  
  20424466.040   107331301.77249       -83.889    20424463.920    83634768.64148
       -83.890  
  22027184.720   115753611.88948      -484.187    22027183.660    90197634.97446
      -484.185  
  23937560.560   125792733.89447      -156.953    23937559.020    98020318.92742
      -156.956  
  21383302.560   113985036.10306       462.998           0.000           0.00000
         0.000  
  22943613.620   122560674.54204      -848.481    22943622.440           0.00000
      -848.481  
  20728751.880   110612580.88808      -507.380    20728756.240    86032025.24506
      -507.380  
  22321122.540   119151657.33706      -239.343    22321126.760    92673550.51306
      -239.344  
  20323165.240   108600835.99908      -398.193    20323167.480    84467322.75907
      -398.194  
  19696967.800   105291582.24905       262.976    19696972.500    81893478.19304
       262.977  
  21721475.760   116235998.13607       430.697    21721475.960    90405789.75306
       430.695  
  22611331.060   121082629.58207       621.065    22611330.160    94175402.96905
       621.067  
 20  9 26  9 11 45.0000000  0 13G20G24G10G32G11R10R12R 2R18R11R 1R17
                                R 8
  20775763.980   109177373.08949       414.878    20775759.160    85073260.66447
       414.878  
  21042246.800   110577724.35147       333.604    21042243.780    86164486.43943
       333.604  
  20424046.800   107329098.53849       -83.504    20424044.640    83633051.82948
       -83.505  
  22024763.160   115740886.82048      -484.050    22024762.100    90187719.40246
      -484.052  
  23936775.540   125788609.42946      -156.567    23936774.000    98017104.96441
      -156.563  
  21385618.340   113997379.81307       463.586           0.000           0.00000
         0.000  
  22939367.060   122538002.19404      -848.646    22939376.760           0.00000
      -848.646  
  20726214.260   110599039.95507      -507.329    20726218.660    86021493.39405
      -507.327  
  22319926.580   119145273.57906      -238.661    22319930.940    92668585.32006
      -238.660  
  20321174.960   108590200.46108      -397.509    20321177.180    84459050.66706
      -397.509  
  19698282.200   105298608.70106       263.238    19698286.980    81898943.21704
       263.239  
  21723629.840   116247525.30207       431.212    21723630.120    90414755.32005
       431.211  
  22614435.720   121099254.80706       621.005    22614436.800    94188333.75804
       621.003  
 20  9 26  9 11 50.0000000  0 15G20G21G24G10G32G15G11R10R12R 2R18R11
                                R 1R17R 8
  20777839.820   109188281.83349       415.435    20777835.020    85081760.95647
       415.436  
  22984690.820   120785382.72747       -65.340    22984680.880    94118426.03244
       -65.340  
  21043916.940   110586500.90248       334.313    21043914.040    86171325.33044
       334.311  
  20423631.080   107326913.79449       -82.832    20423628.880    83631349.43549
       -82.832  
  22022343.720   115728172.55947      -483.681    22022342.660    90177812.22046
      -483.684  
  24319454.580   127799594.68904       666.090           0.000           0.00000
         0.000  
  23935994.720   125784506.32147      -155.778    23935992.900    98013907.59842
      -155.773  
  21387938.420   114009746.69407       464.330           0.000           0.00000
         0.000  
  22935123.740   122515338.78305      -848.375    22935133.400           0.00000
      -848.381  
  20723678.800   110585510.48708      -506.886    20723683.080    86010970.53905
      -506.887  
  22318735.560   119138916.44406      -237.842    22318740.120    92663640.94305
      -237.842  
  20319189.260   108579589.72008      -396.655    20319191.460    84450797.88407
      -396.656  
  19699599.800   105305651.86206       263.775    19699604.600           0.00010
       263.772  
  21725788.420   116259076.07008       432.072    21725788.760    90423739.25307
       432.072  
  22617542.180   121115889.88306       621.399    22617542.580    94201272.20605
       621.396  
 20  9 26  9 11 55.0000000  0 14G20G21G24G10G32G15G11R10R 2R18R11R 1
                                R17R 8
  20779917.280   109199198.99848       415.729    20779912.480    85090267.86247
       415.729  
  22984364.720   120783668.71807       -64.936           0.000           0.00000
         0.000  
  21045588.940   110595287.84147       334.651    21045586.260    86178172.31345
       334.651  
  20423217.160   107324738.70149       -82.521    20423214.980    83629654.55948
       -82.521  
  22019924.620   115715460.38948      -483.700    22019923.620    90167906.58647
      -483.700  
  24322784.200   127817085.92545       665.776    24322782.800    99597724.59344
       665.774  
  23935216.360   125780415.92347      -155.398    23935214.700    98010720.35243
      -155.399  
  21390261.160   114022127.77707       464.879           0.000           0.00000
         0.000  
  20721143.960   110571983.58808      -506.797           0.000           0.00000
         0.000  
  22317548.000   119132577.06406      -237.190    22317552.580    92658710.22905
      -237.188  
  20317206.500   108568994.82908      -396.146    20317208.760    84442557.44307
      -396.147  
  19700918.840   105312702.77706       264.012    19700923.700    81909898.26304
       264.012  
  21727949.700   116270641.21608       432.591    21727949.980    90432734.38106
       432.589  
  22620648.780   121132525.67607       621.549    22620648.200           0.00000
       621.550  
 20  9 26  9 12  0.0000000  0 13G20G21G24G10G32G11R10R 2R18R11R 1R17
                                R 8
  20781995.960   109210122.84049       415.883    20781991.220    85098779.94547
       415.883  
  22984040.120   120781962.53248       -64.787    22984032.580    94115757.93543
       -64.783  
  21047262.600   110604083.22847       334.939    21047260.060    86185025.88845
       334.939  
  20422804.780   107322571.62149       -82.320    20422802.600    83627965.92648
       -82.320  
  22017505.620   115702748.66348      -483.708    22017504.700    90158001.39047
      -483.711  
  23934440.060   125776336.28607      -154.954           0.000           0.00000
         0.000  
  21392586.280   114034521.47607       465.221           0.000           0.00000
         0.000  
  20718609.140   110558457.43308      -506.970    20718613.500           0.00000
      -506.970  
  22316363.240   119126253.34307      -236.692    22316367.900    92653791.86905
      -236.695  
  20315226.380   108558413.88708      -395.693    20315228.680    84434327.77607
      -395.692  
  19702239.140   105319759.95707       264.059           0.000           0.00000
         0.000  
  21730113.400   116282219.18407       433.009    21730113.800    90441739.36906
       433.012  
  22623755.280   121149160.46507       621.209    22623754.800    94227136.28704
       621.208  
 20  9 26  9 12  5.0000000  0 15G20G21G24G10G32G15G11R10R12R 2R18R11
                                R 1R17R 8
  20784077.820   109221063.04449       416.730    20784073.060    85107304.75847
       416.730  
  22983718.920   120780273.83248       -63.783    22983710.140    94114442.08141
       -63.781  
  21048939.900   110612897.13747       335.801    21048937.160    86191893.77044
       335.804  
  20422395.720   107320422.10749       -81.426    20422393.560    83626290.98448
       -81.426  
  22015088.560   115690046.89848      -483.149    22015087.600    90148103.86046
      -483.146  
  24329439.840   127852053.96344       665.839    24329435.720    99624980.00544
       665.840  
  23933667.720   125772277.19207      -154.047           0.000           0.00000
         0.000  
  21394915.560   114046937.66006       466.350           0.000           0.00000
         0.000  
  22922399.180   122447342.69106      -848.049    22922408.800           0.00000
      -848.049  
  20716076.440   110544942.08708      -506.300    20716080.280    85979413.41105
      -506.301  
  22315183.400   119119955.30905      -235.480    22315188.160    92648893.36405
      -235.479  
  20313250.740   108547856.84708      -394.601    20313253.120    84426116.82507
      -394.604  
  19703562.360   105326832.97106       265.026    19703567.620           0.00010
       265.026  
  21732281.360   116293819.72307       434.013    21732281.820    90450762.06906
       434.012  
  22626863.440   121165804.05707       621.838    22626862.660           0.00000
       621.842  
 20  9 26  9 12 10.0000000  0 15G20G21G24G10G32G15G11R10R12R 2R18R11
                                R 1R17R 8
  20786163.200   109232022.13449       417.312    20786158.520    85115844.30147
       417.313  
  22983401.580   120778605.20848       -63.251    22983389.080    94113141.90442
       -63.252  
  21050621.120   110621731.70047       336.484    21050618.220    86198777.87643
       336.484  
  20421990.480   107318292.79349       -80.837    20421988.360    83624631.79848
       -80.837  
  22012673.840   115677357.77448      -482.805    22012672.940    90138216.20046
      -482.804  
  24332768.920   127869553.66545       665.990    24332769.160    99638616.09545
       665.992  
  23932899.640   125768241.24647      -153.367    23932899.300    98001233.67443
      -153.367  
  21397249.480   114059378.58607       467.077           0.000           0.00000
         0.000  
  22918159.760   122424696.21205      -847.916    22918167.480           0.00000
      -847.923  
  20713546.260   110531439.88707      -505.998    20713550.580    85968924.61305
      -505.997  
  22314008.740   119113685.75906      -234.553    22314013.700    92644017.01206
      -234.551  
  20311280.120   108537326.17408      -393.798    20311282.420    84417926.27207
      -393.799  
  19704889.000   105333924.51006       265.583    19704893.780    81926407.06904
       265.583  
  21734453.980   116305445.51407       434.828    21734454.560    90459804.35506
       434.827  
  22629973.740   121182459.20308       622.060    22629973.720    94253037.21504
       622.060  
 20  9 26  9 12 15.0000000  0 15G20G21G24G10G32G15G11R10R12R 2R18R11
                                R 1R17R 8
  20788250.260   109242989.73949       417.361    20788245.600    85124390.49347
       417.361  
  22983086.040   120776946.31948       -63.151    22983072.260    94111849.21942
       -63.149  
  21052304.200   110630576.70547       336.635    21052301.340    86205670.06944
       336.634  
  20421587.140   107316173.34249       -80.701    20421585.060    83622980.28148
       -80.701  
  22010259.500   115664670.98947      -482.991    22010258.740    90128330.42247
      -482.992  
  24336100.160   127887050.77645       665.684    24336097.740    99652250.23744
       665.684  
  23932133.900   125764217.97206      -153.080           0.000           0.00000
         0.000  
  21399586.200   114071833.79207       467.400           0.000           0.00000
         0.000  
  22913919.840   122402050.09805      -848.082    22913930.040    95201591.86604
      -848.082  
  20711016.460   110517940.36807      -506.116    20711021.380    85958424.95205
      -506.112  
  22312837.500   119107434.04405      -234.043    22312842.240    92639154.57704
      -234.044  
  20309312.520   108526811.59508      -393.447    20309314.840    84409748.26807
      -393.447  
  19706217.160   105341024.03506       265.567    19706222.540    81931928.97404
       265.566  
  21736629.300   116317085.89507       435.152    21736630.040    90468857.97906
       435.152  
  22633084.140   121199115.12507       621.867    22633084.420    94265991.86104
       621.867  
 20  9 26  9 12 20.0000000  0 16G12G20G21G24G10G32G15G11R10R12R 2R18
                                R11R 1R17R 8
  24044051.180   126352332.35845      -616.401    24044048.680    98456375.96144
      -616.402  
  20790338.760   109253965.08949       417.980    20790334.100    85132942.70747
       417.981  
  22982772.080   120775296.27847       -62.447    22982760.460    94110563.50543
       -62.452  
  21053989.120   110639431.29346       337.247    21053986.240    86212569.80545
       337.245  
  20421185.520   107314062.88649       -80.002    20421183.460    83621335.74048
       -80.001  
  22007845.460   115651985.46248      -482.704    22007844.800    90118445.62747
      -482.707  
  24339430.160   127904544.49246       665.822    24339426.480    99665881.70844
       665.822  
  23931370.660   125760206.74647      -152.354    23931363.040    97994946.92343
      -152.354  
  21401925.300   114084302.50907       468.124           0.000           0.00000
         0.000  
  22909680.940   122379403.20705      -847.791    22909688.780    95183977.55004
      -847.791  
  20708487.080   110504442.91408      -505.788    20708491.100           0.00000
      -505.788  
  22311669.520   119101199.24707      -233.025    22311673.140           0.00000
      -233.025  
  20307347.720   108516312.07508      -392.567    20307350.020    84401581.99607
      -392.568  
  19707546.620   105348130.70206       266.136    19707551.420    81937456.33205
       266.137  
  21738807.220   116328739.94907       435.952    21738808.000    90477922.20505
       435.953  
  22636194.600   121215771.09607       622.125    22636194.240    94278946.51305
       622.125  
 20  9 26  9 12 25.0000000  0 16G12G20G21G24G10G32G15G11R10R12R 2R18
                                R11R 1R17R 8
  24040964.680   126336124.45444      -616.900    24040966.160    98443757.87744
      -616.900  
  20792429.340   109264951.14848       418.364    20792424.680    85141503.27947
       418.363  
  22982460.400   120773658.13947       -62.046    22982449.380    94109287.02042
       -62.046  
  21055676.500   110648298.63447       337.675    21055673.680    86219479.41845
       337.676  
  20420786.200   107311964.48249       -79.624    20420784.160    83619700.64348
       -79.624  
  22005432.340   115639304.51248      -482.550    22005431.720    90108564.35546
      -482.551  
  24342759.280   127922037.66746       665.820    24342755.380    99679512.67745
       665.822  
  23930610.200   125756210.44106      -151.819           0.000           0.00000
         0.000  
  21404267.640   114096787.88307       468.787           0.000           0.00000
         0.000  
  22905442.100   122356759.04004      -847.518    22905451.240           0.00000
      -847.518  
  20705958.540   110490950.24707      -505.658           0.000           0.00000
         0.000  
  22310505.220   119094984.60206      -232.449           0.000           0.00000
         0.000  
  20305386.380   108505830.81508      -391.904    20305388.580    84393429.87707
      -391.903  
  19708878.020   105355247.51206       266.479    19708883.080    81942991.68404
       266.477  
  21740988.320   116340410.90207       436.524    21740989.100    90486999.62607
       436.524  
  22639305.560   121232430.33007       622.381    22639305.000           0.00000
       622.381  
 20  9 26  9 12 30.0000000  0 15G20G21G24G10G32G15G11R10R12R 2R18R11
                                R 1R17R 8
  20794522.980   109275953.34749       419.025    20794518.320    85150076.42347
       419.024  
  22982152.040   120772037.56244       -61.112    22982142.160    94108024.06344
       -61.106  
  21057367.300   110657184.14047       338.478    21057364.520    86226403.11344
       338.479  
  20420390.200   107309883.64649       -78.856    20420388.220    83618079.19448
       -78.855  
  22003021.000   115626633.42647      -481.989    22003020.460    90098690.78547
      -481.991  
  24346089.420   127939535.85845       666.098    24346085.380    99693147.73045
       666.096  
  23929853.580   125752234.54906      -150.997           0.000           0.00000
         0.000  
  21406614.000   114109295.28607       469.697           0.000           0.00000
         0.000  
  22901205.000   122334122.72805      -847.210    22901210.480           0.00000
      -847.210  
  20703431.960   110477468.23408      -505.068    20703435.820    85926936.70206
      -505.068  
  22309345.720   119088795.54706      -231.419    22309345.300           0.00000
      -231.419  
  20303429.460   108495373.32808      -390.935    20303431.680    84385296.29906
      -390.936  
  19710212.320   105362380.09105       267.192    19710218.140    81948539.21505
       267.191  
  21743173.620   116352104.29508       437.467    21743174.360    90496094.46206
       437.469  
  22642418.260   121249098.27907       622.714    22642417.580    94304863.58003
       622.716  
 20  9 26  9 12 35.0000000  0 15G20G21G24G10G32G15G11R10R12R 2R18R11
                                R 1R17R 8
  20796619.420   109286970.01249       419.624    20796614.700    85158660.84947
       419.624  
  22981846.660   120770432.37547       -60.740    22981836.540    94106773.41844
       -60.742  
  21059061.180   110666085.92047       339.236    21059058.340    86233339.57745
       339.234  
  20419997.240   107307818.56449       -78.197    20419995.260    83616470.05748
       -78.198  
  22000611.300   115613970.57848      -481.685    22000610.780    90088823.60647
      -481.685  
  24349419.940   127957037.34446       666.294    24349416.080    99706785.18744
       666.296  
  23929100.540   125748277.49206      -150.249           0.000           0.00000
         0.000  
  21408964.240   114121823.01507       470.508           0.000           0.00000
         0.000  
  22896968.120   122311492.73907      -847.043    22896974.780    95131192.42704
      -847.043  
  20700907.100   110463995.27308      -504.686    20700911.440           0.00000
      -504.684  
  22308190.580   119082630.32706      -230.511    22308193.300           0.00000
      -230.511  
  20301476.580   108484937.89508      -390.042    20301478.860    84377179.88106
      -390.043  
  19711549.220   105369526.63606       267.633    19711554.240    81954097.64104
       267.634  
  21745362.640   116363818.18607       438.249    21745363.340    90505205.28006
       438.249  
  22645532.120   121265773.08307       622.994    22645533.360    94317832.90505
       622.993  
 20  9 26  9 12 40.0000000  0 14G20G21G24G10G32G11R10R12R 2R18R11R 1
                                R17R 8
  20798718.740   109298001.74548       420.160    20798713.920    85167256.99747
       420.159  
  22981544.320   120768843.61747       -60.132    22981535.240    94105535.29845
       -60.129  
  21060758.240   110675004.83246       339.819    21060755.320    86240289.43845
       339.821  
  20419607.420   107305769.98649       -77.639    20419605.440    83614873.75049
       -77.639  
  21998203.240   115601316.62048      -481.371    21998202.840    90078963.42747
      -481.373  
  23928351.160   125744339.71007      -149.455           0.000           0.00000
         0.000  
  21411318.200   114134371.66907       471.216           0.000           0.00000
         0.000  
  22892733.460   122288869.55505      -846.822    22892740.900    95113596.68803
      -846.825  
  20698383.960   110450531.50108      -504.421    20698387.220    85905995.92304
      -504.422  
  22307040.080   119076489.64606      -229.593    22307044.060           0.00000
      -229.593  
  20299527.940   108474525.22408      -389.284    20299530.280    84369081.12206
      -389.285  
  19712888.860   105376687.85705       268.097    19712894.160    81959667.42304
       268.099  
  21747555.680   116375553.45208       439.000    21747556.380    90514332.62907
       439.003  
  22648647.500   121282455.68107       623.269    22648646.340    94330808.26105
       623.271  
 20  9 26  9 12 45.0000000  0 16G12G20G21G24G10G32G15G11R10R12R 2R18
                                R11R 1R17R 8
  24028654.540   126271441.79444      -615.169    24028645.340    98393306.84243
      -615.169  
  20800820.900   109309048.56749       420.571    20800816.060    85175864.91147
       420.571  
  22981245.120   120767270.99347       -59.730    22981236.420    94104309.95244
       -59.731  
  21062458.440   110683940.46647       340.218    21062455.620    86247252.20646
       340.219  
  20419220.720   107303737.83749       -77.201    20419218.760    83613290.29748
       -77.202  
  21995796.960   115588671.54448      -481.229    21995796.560    90069110.10247
      -481.229  
  24356083.560   127992089.92547       666.268    24356080.820    99734080.31345
       666.268  
  23927605.460   125740421.39006      -148.836           0.000           0.00000
         0.000  
  21413676.180   114146941.46307       471.851           0.000           0.00000
         0.000  
  22888499.480   122266253.64105      -846.825           0.000           0.00000
         0.000  
  20695862.700   110437077.30508      -504.231    20695864.860    85895531.63303
      -504.234  
  22305894.260   119070373.64806      -228.807    22305898.300    92610286.82905
      -228.805  
  20297583.580   108464135.25808      -388.571    20297585.860    84361000.05607
      -388.572  
  19714231.340   105383863.70905       268.605    19714236.640    81965248.73304
       268.604  
  21749752.700   116387309.79107       439.654    21749753.300    90523476.49206
       439.653  
  22651764.220   121299145.58907       623.344    22651764.160    94343789.35105
       623.341  
 20  9 26  9 12 50.0000000  0 15G20G21G24G10G32G15G11R10R12R 2R18R11
                                R 1R17R 8
  20802923.460   109320097.29549       420.730    20802918.520    85184474.30547
       420.730  
  22980946.520   120765701.57947       -59.500    22980938.440    94103086.99144
       -59.502  
  21064159.480   110692880.06147       340.458    21064156.660    86254218.14346
       340.457  
  20418834.660   107301709.00749       -76.947    20418832.700    83611709.39248
       -76.948  
  21993389.740   115576022.16447      -481.304    21993389.480    90059253.44447
      -481.304  
  24359413.920   128009589.94247       666.037    24359410.820    99747716.69645
       666.037  
  23926860.880   125736509.22146      -148.523    23926866.240    97976512.60643
      -148.523  
  21416035.620   114159518.81707       472.219           0.000           0.00000
         0.000  
  22884264.600   122243631.23905      -847.023    22884271.860    95078421.27604
      -847.023  
  20693340.500   110423618.94407      -504.274           0.000           0.00000
         0.000  
  22304750.460   119064268.85205      -228.339    22304753.440    92605538.65604
      -228.338  
  20295640.980   108453754.66508      -388.173    20295643.180    84352926.25006
      -388.173  
  19715573.800   105391040.95605       268.837    19715579.500    81970830.98004
       268.838  
  21751951.240   116399074.00807       440.015    21751951.620    90532626.46305
       440.014  
  22654879.960   121315829.84907       623.221    22654880.360    94356765.99605
       623.219  
 20  9 26  9 12 55.0000000  0 16G12G20G21G24G10G32G15G11R10R12R 2R18
                                R11R 1R17R 8
  24022497.560   126239069.53045      -614.679    24022500.000    98368122.58244
      -614.679  
  20805029.580   109331165.19449       421.634    20805024.660    85193098.64747
       421.634  
  22980651.800   120764152.51346       -58.521    22980643.740    94101880.01745
       -58.523  
  21065864.520   110701840.86447       341.467    21065861.940    86261200.64246
       341.466  
  20418452.540   107299700.75649       -75.997    20418450.560    83610144.50949
       -75.996  
  21990985.120   115563385.53848      -480.748    21990984.800    90049406.75546
      -480.751  
  24362744.760   128027097.93647       666.645    24362741.280    99761359.28744
       666.645  
  23926120.800   125732620.50806      -147.477           0.000           0.00000
         0.000  
  21418399.740   114172121.17606       473.293           0.000           0.00000
         0.000  
  22880031.560   122221019.99406      -846.387    22880039.140    95060834.78504
      -846.387  
  20690820.920   110410174.50807      -503.497    20690823.460           0.00000
      -503.497  
  22303612.180   119058192.62506      -227.092           0.000           0.00000
         0.000  
  20293703.400   108443400.88308      -386.972    20293705.540    84344873.26606
      -386.972  
  19716919.860   105398236.91505       269.571    19716925.580    81976427.83904
       269.573  
  21754154.500   116410863.62308       441.162    21754154.580    90541796.10406
       441.164  
  22657997.780   121332525.66607       623.841    22657998.580    94369751.63504
       623.839  
 20  9 26  9 13  0.0000000  0 14G20G24G10G32G15G11R10R12R 2R18R11R 1
                                R17R 8
  20807139.020   109342250.55948       422.138    20807134.120    85201736.57047
       422.138  
  21067573.200   110710820.85247       342.137    21067570.880    86268198.15244
       342.132  
  20418074.000   107297711.35749       -75.451    20418071.980    83608594.31849
       -75.451  
  21988582.660   115550760.55748      -480.217    21988582.300    90039569.14546
      -480.218  
  24366076.840   128044612.18945       666.492    24366074.140    99775006.79244
       666.490  
  23925385.060   125728753.56107      -146.909           0.000           0.00000
         0.000  
  21420768.300   114184746.93107       474.062           0.000           0.00000
         0.000  
  22875800.140   122198418.33705      -845.989    22875804.960           0.00010
      -845.989  
  20688303.560   110396741.78308      -503.335    20688305.520           0.00000
      -503.335  
  22302479.120   119052143.56406      -226.105    22302484.420    92596132.85006
      -226.105  
  20291770.640   108433072.49008      -386.238    20291772.700    84336840.08607
      -386.237  
  19718269.320   105405450.05506       270.133    19718274.660    81982037.96804
       270.136  
  21756362.120   116422676.84308       441.885    21756362.140    90550984.15506
       441.885  
  22661117.580   121349231.70008       623.939    22661119.560           0.00000
       623.938  
 20  9 26  9 13  5.0000000  0 15G12G20G24G10G32G15G11R10R12R 2R18R11
                                R 1R17R 8
  24016356.620           0.00040      -614.175    24016349.840           0.00040
      -614.175  
  20809251.400   109353351.22549       422.698    20809246.500    85210386.44047
       422.698  
  21069285.200   110719818.10147       342.659    21069283.080    86275208.87946
       342.660  
  20417698.680   107295738.69649       -74.866    20417696.600    83607057.16748
       -74.865  
  21986181.940   115538144.45747      -480.334    21986181.500    90029738.35247
      -480.332  
  24369409.560   128062130.63346       666.575    24369409.180    99788657.43144
       666.578  
  23924653.080   125724906.37906      -146.157           0.000           0.00000
         0.000  
  21423140.800   114197393.71206       474.865           0.000           0.00000
         0.000  
  22871570.640   122175823.80706      -845.970    22871577.940           0.00000
      -845.970  
  20685788.060   110383319.10206      -503.182    20685790.380           0.00010
      -503.177  
  22301350.640   119046119.20205      -224.986    22301356.740    92591447.29905
      -224.987  
  20289842.100   108422766.94908      -385.444    20289844.140    84328824.62707
      -385.444  
  19719621.500   105412678.09306       270.608    19719626.700    81987659.86704
       270.607  
  21758573.700   116434511.40708       442.593    21758573.820    90560188.76706
       442.594  
  22664238.780   121365945.48807       624.356    22664239.400    94395755.79605
       624.357  
 20  9 26  9 13 10.0000000  0 13G20G24G10G32G15G11R10R 2R18R11R 1R17
                                R 8
  20811366.420   109364465.75449       423.125    20811361.520    85219047.09947
       423.126  
  21071000.260   110728831.11547       342.973    21070998.340    86282232.00445
       342.976  
  20417326.240   107293781.33249       -74.354    20417324.120    83605531.94648
       -74.354  
  21983782.740   115525536.05847      -479.881    21983782.180    90019913.66747
      -479.884  
  24372743.600   128079651.77545       666.376    24372741.880    99802310.29545
       666.376  
  23923924.560   125721077.26545      -145.513    23923923.500    97964458.55443
      -145.513  
  21425517.020   114210060.13107       475.255           0.000           0.00000
         0.000  
  20683274.160   110369904.42108      -502.938           0.000           0.00000
         0.000  
  22300226.600   119040118.29605      -224.448    22300228.920           0.00000
      -224.448  
  20287917.600   108412483.15708      -384.764    20287919.700    84320826.17006
      -384.765  
  19720976.260   105419919.46105       270.975           0.000           0.00000
         0.000  
  21760789.000   116446366.02607       443.254    21760789.100    90569409.08905
       443.253  
  22667361.160   121382665.64507       624.345    22667362.180    94408760.36105
       624.345  
 20  9 26  9 13 15.0000000  0 13G20G21G10G32G15G11R10R12R 2R18R11R17
                                R 8
  20813482.020   109375583.36249       422.968    20813477.140    85227710.17748
       422.968  
  22979503.180   120758098.47046       -57.017    22979496.380    94097206.86844
       -57.017  
  20416954.620   107291828.42949       -74.396    20416952.500    83604010.22248
       -74.396  
  21981382.900   115512924.62748      -480.392    21981382.300    90010086.63747
      -480.394  
  24376075.500   128097130.91445       666.214    24376077.180    99815961.85044
       666.214  
  23923197.360   125717255.65646      -145.287    23923194.020    97961480.69343
      -145.288  
  21427894.920           0.00000       475.530           0.000           0.00000
         0.000  
  22863112.020           0.00000      -845.973           0.000           0.00000
         0.000  
  20680759.800   110356487.35708      -502.994           0.000           0.00000
         0.000  
  22299104.900   119034134.91706      -224.313    22299108.920           0.00000
      -224.313  
  20285995.040   108402209.95608      -384.579    20285997.220    84312835.90307
      -384.579  
  21763005.900   116458229.36808       443.360    21763007.400    90578630.10406
       443.360  
  22670482.740   121399381.34207       624.166           0.000           0.00000
         0.000  
 20  9 26  9 13 20.0000000  0 15G12G20G24G10G32G15G11R10R12R 2R18R11
                                R 1R17R 8
  24007150.280   126158406.49944      -613.717    24007138.640    98305231.15941
      -613.717  
  20815599.260   109386709.56849       423.806    20815594.380    85236379.97648
       423.804  
  21074434.360   110746881.57347       344.092    21074433.220    86296280.23346
       344.092  
  20416584.960   107289885.66349       -73.564    20416582.820    83602496.35648
       -73.563  
  21978983.540   115500315.73748      -479.604    21978982.860    90000261.45447
      -479.603  
  24379409.160   128114641.59647       666.531    24379402.960    99829606.58644
       666.532  
  23922472.740   125713446.89646      -144.626    23922469.560    97958512.89241
      -144.630  
  21430275.520   114235427.11706       476.560           0.000           0.00000
         0.000  
  22858882.140           0.00000      -845.474           0.000           0.00000
         0.000  
  20678245.840   110343072.89907      -502.520    20678247.100           0.00000
      -502.520  
  22297986.660   119028164.68806      -223.349           0.000           0.00000
         0.000  
  20284075.580   108391953.21908      -383.361    20284077.800    84304858.41607
      -383.360  
  19723689.340   105434444.48107       271.704    19723693.540           0.00000
       271.704  
  21765225.640   116470107.53806       444.465    21765226.000    90587868.65406
       444.468  
  22673604.400   121416097.91507       624.605    22673601.940    94434765.21305
       624.606  
 20  9 26  9 13 25.0000000  0 16G12G20G21G24G10G32G15G11R10R12R 2R18
                                R11R 1R17R 8
  24004078.780   126142288.13045      -613.372    24004080.740    98292671.55944
      -613.378  
  20817719.940   109397853.96649       424.501    20817715.080    85245063.89247
       424.501  
  22978941.120   120755147.17947       -55.383    22978936.920    94094904.61045
       -55.383  
  21076155.360   110755930.30848       344.739    21076152.960    86303331.15545
       344.740  
  20416219.020   107287962.59949       -72.815    20416216.880    83600997.87548
       -72.815  
  21976586.420   115487718.86048      -479.201    21976585.780    89990445.76346
      -479.203  
  24382742.160   128132159.15146       666.867    24382742.540    99843256.58944
       666.868  
  23921752.260   125709660.91446      -143.712    23921747.420    97955562.72043
      -143.709  
  21432660.500   114248140.77907       477.403           0.000           0.00000
         0.000  
  22854654.680   122085461.85704      -845.652    22854659.160           0.00000
      -845.653  
  20675734.440   110329671.50207      -502.094    20675737.580    85811968.73906
      -502.094  
  22296873.620   119022222.32705      -222.126    22296878.340    92572848.96505
      -222.126  
  20282160.980   108381722.27008      -382.432    20282163.220    84296901.06706
      -382.435  
  19725048.260   105441714.47403       272.405    19725053.860    82010219.24604
       272.401  
  21767449.940   116482009.96507       445.290    21767451.340    90597126.08706
       445.291  
  22676728.180   121432825.20507       624.943    22676730.760    94447775.33905
       624.941  
 20  9 26  9 13 30.0000000  0 16G12G20G21G24G10G32G15G11R10R12R 2R18
                                R11R 1R17R 8
  24001015.400           0.00040      -613.393    24001012.080           0.00040
      -613.393  
  20819841.900   109409004.75549       424.622    20819837.040    85253752.84547
       424.622  
  22978663.440   120753690.10546       -55.200    22978658.640    94093769.16046
       -55.198  
  21077879.680   110764987.22247       344.921    21077877.600    86310388.50944
       344.919  
  20415854.580   107286047.43349       -72.651    20415852.440    83599505.54648
       -72.651  
  21974189.460   115475122.33348      -479.284    21974188.760    89980630.25647
      -479.283  
  24386075.400   128149672.07747       666.558    24386073.020    99856903.05345
       666.557  
  23921033.880   125705885.66746      -143.255    23921027.760    97952620.96444
      -143.251  
  21435047.780   114260866.49006       477.749           0.000           0.00000
         0.000  
  22850427.140   122062877.61206      -845.598           0.000           0.00000
         0.000  
  20673223.180   110316270.72208      -502.130           0.000           0.00000
         0.000  
  22295763.540   119016295.82206      -221.685    22295768.060    92568239.48206
      -221.684  
  20280249.060   108371505.58108      -381.997    20280251.280    84288954.71907
      -381.997  
  19726409.360   105448990.38405       272.456    19726415.040    82015878.21304
       272.459  
  21769676.420   116493924.57207       445.644    21769677.560    90606392.94707
       445.645  
  22679851.740   121449551.23207       624.740    22679853.860    94460784.40006
       624.742  
 20  9 26  9 13 35.0000000  0 16G12G20G21G24G10G32G15G11R10R12R 2R18
                                R11R 1R17R 8
  23997947.040           0.00000      -612.889           0.000           0.00000
         0.000  
  20821966.540   109420169.77449       425.403    20821961.680    85262452.86047
       425.403  
  22978388.160           0.00000       -54.432           0.000           0.00000
         0.000  
  21079606.520   110774060.03347       345.743    21079604.600    86317458.35245
       345.738  
  20415493.080   107284147.86649       -71.822    20415490.940    83598025.37449
       -71.823  
  21971794.000   115462533.72748      -478.727    21971793.240    89970820.98447
      -478.727  
  24389409.080   128167188.06447       666.971    24389406.160    99870551.89545
       666.971  
  23920319.000   125702128.88245      -142.364    23920313.120    97949693.54342
      -142.361  
  21437438.920   114273612.16907       478.717           0.000           0.00000
         0.000  
  22846200.520   122040301.69805      -844.943           0.000           0.00000
         0.000  
  20670713.620   110302878.95907      -501.545           0.000           0.00000
         0.000  
  22294657.880   119010392.97106      -220.540    22294661.800    92563648.33405
      -220.539  
  20278341.100   108361310.74007      -380.991    20278343.480    84281025.47506
      -380.994  
  19727773.700   105456279.96107       273.226    19727778.920    82021547.86504
       273.227  
  21771906.720   116505859.40307       446.599    21771907.980    90615675.68906
       446.597  
  22682976.400   121466284.15307       625.276    22682978.300    94473798.91906
       625.276  
 20  9 26  9 13 40.0000000  0 15G12G20G24G10G32G15G11R10R12R 2R18R11
                                R 1R17R 8
  23994882.920           0.00040      -612.355    23994894.020           0.00050
      -612.355  
  20824094.020   109431349.93049       425.874    20824089.160    85271164.65447
       425.874  
  21081336.560   110783150.17548       346.365    21081334.080    86324541.47545
       346.368  
  20415134.780   107282265.01649       -71.253    20415132.680    83596558.24749
       -71.255  
  21969400.320   115449954.33648      -478.479    21969399.480    89961018.85346
      -478.479  
  24392742.860   128184708.04046       667.087    24392741.480    99884203.78545
       667.088  
  23919607.800   125698391.81345      -141.728    23919603.880    97946781.59343
      -141.728  
  21439834.120   114286378.88807       479.512           0.000           0.00000
         0.000  
  22841975.420   122017731.19207      -844.655    22841981.320           0.00000
      -844.655  
  20668205.740   110289496.61208      -501.261    20668212.340    85780756.72106
      -501.261  
  22293556.840   119004515.01106      -219.707    22293561.060    92559076.68904
      -219.710  
  20276437.460   108351139.06707      -380.186    20276440.000    84273114.13807
      -380.188  
  19729140.760   105463584.37105       273.641    19729144.600    82027229.10604
       273.640  
  21774141.020   116517815.52906       447.467    21774142.600    90624974.88006
       447.466  
  22686102.480   121483024.50708       625.565    22686105.500    94486819.11905
       625.566  
 20  9 26  9 13 45.0000000  0 15G12G20G21G24G10G32G15R10R12R 2R18R11
                                R 1R17R 8
  23991822.140           0.00050      -612.689    23991821.240           0.00050
      -612.689  
  20826223.440   109442540.44949       425.847    20826218.680    85279884.54947
       425.847  
  22977848.700   120749415.30246       -53.861    22977842.940    94090434.53545
       -53.860  
  21083068.540   110792252.39347       346.397    21083065.500    86331634.09745
       346.399  
  20414778.760   107280394.05049       -71.217    20414776.660    83595100.34748
       -71.218  
  21967007.480   115437379.10448      -478.729    21967006.500    89951219.96946
      -478.730  
  24396076.780   128202227.12546       666.605    24396074.580    99897855.03845
       666.604  
  21442232.220   114299161.51108       479.625           0.000           0.00000
         0.000  
  22837750.680   121995163.07405      -845.029    22837755.860    94885155.90205
      -845.025  
  20665698.880   110276119.34607      -501.566    20665705.040           0.00000
      -501.565  
  22292459.560   118998656.98306      -219.385    22292463.880    92554520.46305
      -219.386  
  20274537.320   108340985.63207      -379.963    20274540.000    84265217.00307
      -379.963  
  19730508.900   105470898.59304       273.624    19730511.500    82032917.98104
       273.622  
  21776378.340   116529787.80307       447.452    21776380.160    90634286.60007
       447.453  
  22689229.080   121499767.77107       625.080    22689232.600    94499841.68906
       625.081  
 20  9 26  9 13 50.0000000  0 15G20G21G24G10G32G15G11R10R12R 2R18R11
                                R 1R17R 8
  20828356.140   109453747.96649       426.729    20828351.420    85288617.67947
       426.729  
  22977583.760   120748019.91944       -52.826    22977577.780    94089347.17744
       -52.825  
  21084803.880   110801373.53747       347.346    21084800.960    86338741.47944
       347.346  
  20414426.240   107278541.61649       -70.284    20414424.160    83593656.88448
       -70.284  
  21964616.720   115424814.85348      -478.073    21964615.620    89941429.65846
      -478.072  
  24399411.540   128219752.06447       667.010    24399409.680    99911510.82446
       667.010  
  23918194.960   125690943.04845      -140.578    23918194.000    97941014.00644
      -140.578  
  21444634.560   114311966.98007       480.752           0.000           0.00000
         0.000  
  22833527.600   121972604.18406      -844.623    22833532.280    94867610.14704
      -844.624  
  20663194.120   110262753.81107      -500.807    20663198.100           0.00000
      -500.807  
  22291367.280   118992825.64606      -218.069    22291371.040    92549984.95406
      -218.068  
  20272641.860   108330857.05808      -378.745    20272644.580    84257339.22307
      -378.744  
  19731880.560   105478229.67505       274.474    19731882.360    82038619.89004
       274.474  
  21778619.880   116541783.28506       448.671    21778621.660    90643616.44507
       448.671  
  22692357.500   121516520.62607       625.767    22692361.020    94512871.64806
       625.768  
 20  9 26  9 13 55.0000000  0 16G12G20G21G24G10G32G15G11R10R12R 2R18
                                R11R 1R17R 8
  23985700.140   126045700.13746      -611.421    23985696.600    98217492.62143
      -611.421  
  20830491.600   109464969.73749       427.664    20830486.920    85297361.90647
       427.664  
  22977317.620   120746641.43605       -51.645           0.000           0.00000
         0.000  
  21086542.580   110810510.56747       348.316    21086539.460    86345861.24745
       348.316  
  20414076.760   107276704.89749       -69.297    20414074.660    83592225.66248
       -69.297  
  21962227.540   115412258.77648      -477.416    21962226.260    89931645.71647
      -477.416  
  24402746.840   128237280.13245       667.356    24402745.040    99925169.04545
       667.356  
  23917492.600   125687260.70245      -139.612    23917496.180    97938144.53043
      -139.606  
  21447040.580   114324792.44007       481.800           0.000           0.00000
         0.000  
  22829305.640   121950051.68006      -844.027    22829308.340           0.00000
      -844.027  
  20660690.960   110249397.05908      -500.139    20660695.600    85749561.20004
      -500.141  
  22290279.420   118987018.15306      -216.859    22290284.020    92545468.01704
      -216.858  
  20270750.520   108320750.48708      -377.556    20270753.320    84249478.56507
      -377.557  
  19733254.980   105485574.53305       275.313    19733256.460    82044332.58804
       275.312  
  21780860.360           0.00000       449.711    21780866.860           0.00000
       449.711  
  22695487.280   121533280.16907       626.388    22695489.740    94525906.87105
       626.389  
 20  9 26  9 14  0.0000000  0 14G20G21G24G10G32G15R10R12R 2R18R11R 1
                                R17R 8
  20832628.860   109476200.98849       427.433    20832624.180    85306113.56247
       427.433  
  22977059.740   120745272.14246       -52.131    22977055.100    94087202.32245
       -52.133  
  21088283.300   110819659.05348       348.136    21088280.620    86352989.99745
       348.135  
  20413729.360   107274879.13749       -69.472    20413727.260    83590803.02548
       -69.473  
  21959838.980   115399705.98649      -477.883    21959837.540    89921864.36547
      -477.884  
  24406081.980   128254806.58246       666.972    24406080.580    99938825.95145
       666.975  
  21449449.460   114337633.09907       481.892           0.000           0.00000
         0.000  
  22825084.140   121927501.14205      -844.489           0.000           0.00000
         0.000  
  20658188.580   110236044.22408      -500.547    20658192.580    85739175.66204
      -500.547  
  22289195.140   118981229.85106      -216.822    22289199.540    92540966.06105
      -216.823  
  20268862.480   108310661.36008      -377.485    20268865.320    84241631.44807
      -377.484  
  19734630.660   105492928.51206       275.054    19734632.380    82050052.27904
       275.055  
  21783114.360   116565826.92807       449.669    21783116.420    90662314.37007
       449.671  
  22698617.400   121550041.72308       625.900    22698619.280    94538943.59606
       625.901  
 20  9 26  9 14  5.0000000  0 16G12G20G21G24G10G32G15G11R10R12R 2R18
                                R11R 1R17R 8
  23979584.460           0.00000      -611.206           0.000           0.00000
         0.000  
  20834767.840   109487441.54848       428.386    20834763.220    85314872.41647
       428.386  
  22976802.280           0.00040       -51.084    22976795.380           0.00040
       -51.084  
  21090026.480   110828818.76148       349.173    21090023.740    86360127.40945
       349.174  
  20413384.060   107273064.31349       -68.434    20413381.920    83589388.87848
       -68.435  
  21957451.100   115387156.54149      -477.163    21957449.500    89912085.60947
      -477.165  
  24409416.520   128272331.09345       667.506    24409415.520    99952481.46544
       667.505  
  23916098.460           0.00000      -138.438           0.000           0.00000
         0.000  
  21451861.220   114350488.56407       483.099           0.000           0.00000
         0.000  
  22820863.020   121904951.96105      -843.789    22820864.460           0.00000
      -843.789  
  20655686.940   110222695.24207      -499.854    20655691.040    85728793.13506
      -499.854  
  22288114.420   118975460.34006      -215.396    22288118.540    92536478.66506
      -215.397  
  20266977.620   108300589.29006      -376.214    20266980.560    84233797.65507
      -376.216  
  19736007.740   105500291.18105       276.069    19736008.980    82055778.82004
       276.070  
  21785362.400   116577872.93104       450.759    21785367.280    90671683.48107
       450.760  
  22701747.880   121566805.02007       626.484    22701749.400    94551981.72205
       626.483  
 20  9 26  9 14 10.0000000  0 16G12G20G21G24G10G32G15G11R10R12R 2R18
                                R11R 1R17R 8
  23976526.060   125997513.26745      -611.089    23976518.660    98179861.18744
      -611.089  
  20836910.420   109498701.02949       428.634    20836905.860    85323646.02347
       428.635  
  22976547.860   120742586.85145       -50.920    22976542.580    94085105.28645
       -50.922  
  21091773.600   110837999.04848       349.465    21091771.220    86367280.92545
       349.463  
  20413042.620   107271269.94549       -68.203    20413040.480    83587990.64848
       -68.202  
  21955065.620   115374619.88448      -477.149    21955063.780    89902316.71646
      -477.148  
  24412752.540   128289863.30245       667.003    24412751.560    99966142.94044
       667.002  
  23915406.640   125676321.97304      -138.058           0.000           0.00000
         0.000  
  21454277.580   114363368.51207       483.362           0.000           0.00000
         0.000  
  22816644.000   121882413.83506      -843.959    22816646.300    94797439.08403
      -843.957  
  20653187.820   110209359.66608      -499.913    20653191.980    85718421.08305
      -499.918  
  22287039.060   118969719.48506      -214.854    22287043.540    92532013.60605
      -214.854  
  20265097.600   108290544.22808      -375.692    20265100.820    84225984.86607
      -375.694  
  19737388.440   105507672.65904       276.129    19737390.240    82061519.98803
       276.129  
  21787620.060           0.00000       451.327    21787623.800           0.00000
       451.325  
  22704880.380   121583579.65708       626.455    22704882.520    94565028.62406
       626.457  
 20  9 26  9 14 15.0000000  0 15G20G21G24G10G32G15G11R10R12R 2R18R11
                                R 1R17R 8
  20839054.240   109509966.95349       428.985    20839049.760    85332424.66747
       428.985  
  22976294.960   120741256.42847       -50.427    22976288.460    94084068.63245
       -50.428  
  21093522.160   110847187.71948       349.976    21093519.960    86374440.86745
       349.978  
  20412702.720   107269483.59849       -67.725    20412700.560    83586598.68648
       -67.725  
  21952680.200   115362083.64848      -476.983    21952678.260    89892548.25246
      -476.985  
  24416087.940   128307390.79245       667.054    24416086.820    99979800.73245
       667.053  
  23914718.680           0.00040      -137.632    23914713.140           0.00040
      -137.632  
  21456696.260   114376260.69607       484.016           0.000           0.00000
         0.000  
  22812424.680   121859874.63004      -843.963    22812424.020           0.00000
      -843.963  
  20650688.900   110196025.12908      -499.600    20650693.740           0.00000
      -499.599  
  22285966.620   118963994.72205      -214.051    22285972.700           0.00000
      -214.051  
  20263220.580   108280513.46007      -375.016    20263223.780    84218183.06807
      -375.014  
  19738769.680   105515059.90103       276.717           0.000           0.00000
         0.000  
  21789877.460   116602037.47905       451.967    21789881.700    90690491.36507
       451.970  
  22708012.660   121600353.19808       626.549    22708014.940    94578074.67005
       626.551  
 20  9 26  9 14 20.0000000  0 14G12G20G21G24G10G32G15R10R12R 2R18R11
                                R17R 8
  23970418.020   125965393.04246      -610.860    23970409.040    98154816.96253
      -610.860  
  20841199.760   109521241.59248       429.400    20841195.280    85341210.11347
       429.399  
  22976044.620   120739936.28247       -49.969    22976036.620    94083040.00645
       -49.971  
  21095272.940   110856387.01948       350.495    21095270.920    86381609.20745
       350.494  
  20412364.760   107267707.54349       -67.270    20412362.640    83585214.79448
       -67.271  
  21950295.280   115349550.08948      -476.800    21950293.260    89882781.88047
      -476.801  
  24419422.400   128324916.01546       667.131    24419421.680    99993456.77345
       667.130  
  21459117.640   114389167.25507       484.674           0.000           0.00000
         0.000  
  22808205.520   121837336.36205      -843.736    22808205.440           0.00000
      -843.741  
  20648190.720   110182694.01307      -499.428    20648195.160    85697667.07704
      -499.429  
  22284897.580   118958288.19707      -213.281    22284904.200    92523122.59906
      -213.283  
  20261346.580   108270499.27007      -374.204    20261349.840    84210394.28507
      -374.205  
  21792138.200   116614135.23906       452.512    21792142.040    90699900.71007
       452.513  
  22711145.300   121617127.87407       626.643    22711147.520    94591121.65705
       626.643  
 20  9 26  9 14 25.0000000  0 15G20G21G24G10G32G15G11R10R12R 2R18R11
                                R 1R17R 8
  20843348.840   109532535.03148       430.436    20843344.340    85350010.17747
       430.436  
  22975793.500           0.00000       -48.834           0.000           0.00000
         0.000  
  21097027.520   110865606.87948       351.618    21097025.360    86388793.51245
       351.616  
  20412030.660   107265951.91249       -66.146    20412028.580    83583846.72548
       -66.145  
  21947912.820   115337029.37348      -475.991    21947910.640    89873025.46947
      -475.992  
  24422758.780   128342448.77346       667.789    24422758.040   100007118.55845
       667.792  
  23913351.220   125665506.03804      -135.772           0.000           0.00000
         0.000  
  21461543.560   114402098.26407       485.948           0.000           0.00000
         0.000  
  22803988.340   121814809.37607      -842.916    22803992.080    94744849.88605
      -842.916  
  20645695.040   110169376.38308      -498.653    20645698.960    85687308.87306
      -498.654  
  22283833.800   118952610.55606      -211.891    22283840.140    92518706.62906
      -211.890  
  20259477.440   108260511.94107      -372.909    20259480.920    84202626.39007
      -372.911  
  19741538.060   105529838.88504       277.949    19741543.620           0.00010
       277.949  
  21794404.360   116626257.88106       453.861    21794407.380    90709329.43607
       453.861  
  22714280.040   121633913.95707       627.468    22714282.360    94604177.53005
       627.467  
 20  9 26  9 14 30.0000000  0 13G20G21G24G10G32G15R10R12R 2R18R11R17
                                R 8
  20845500.900   109543843.80449       430.215    20845496.360    85358822.20447
       430.216  
  22975551.980   120737318.82247       -49.009    22975546.040    94081018.88745
       -49.009  
  21098785.420   110874843.91248       351.396    21098783.540    86395991.21946
       351.396  
  20411699.800   107264213.23349       -66.315    20411697.740    83582491.93348
       -66.315  
  21945532.000   115324517.98748      -476.452    21945529.860    89863276.38747
      -476.454  
  24426095.720   128359985.73645       667.180    24426095.220   100020783.85244
       667.178  
  21463973.480   114415050.39107       485.886           0.000           0.00000
         0.000  
  22799772.520   121792290.14106      -843.465    22799774.660    94727334.90004
      -843.463  
  20643201.380   110156068.78008      -499.097    20643204.680    85676958.57307
      -499.098  
  22282774.640   118946957.88106      -211.704    22282781.940    92514310.11107
      -211.704  
  20257612.780   108250547.95607      -372.990    20257616.320    84194876.62306
      -372.991  
  21796673.500   116638401.90704       453.829    21796677.560    90718774.82907
       453.829  
  22717416.180   121650707.71607       626.882    22717418.700    94617239.29906
       626.882  
 20  9 26  9 14 35.0000000  0 14G20G21G24G10G32G15G11R10R12R 2R18R11
                                R17R 8
  20847655.640   109555166.67749       431.227    20847651.040    85367645.24247
       431.226  
  22975311.160   120736050.82748       -47.892    22975305.300    94080030.86545
       -47.893  
  21100546.260   110884096.91848       352.481    21100544.800    86403201.32246
       352.482  
  20411371.900   107262490.26049       -65.239    20411369.900    83581149.35048
       -65.239  
  21943152.680   115312014.61048      -475.629    21943150.520    89853533.51646
      -475.631  
  24429433.460   128377525.53345       667.707    24429432.980   100034451.26244
       667.705  
  23911999.840   125658386.12705      -134.531           0.000           0.00000
         0.000  
  21466407.120   114428022.28307       487.135           0.000           0.00000
         0.000  
  22795557.800   121769777.26306      -842.661    22795560.640    94709824.95705
      -842.665  
  20640709.280   110142769.88608      -498.229    20640712.360    85666615.01006
      -498.230  
  22281720.020   118941328.94704      -210.456    22281727.360    92509932.08406
      -210.456  
  20255752.180   108240606.18407      -371.642    20255755.820    84187144.14507
      -371.642  
  21798946.520   116650565.69206       454.946    21798951.180    90728235.61007
       454.944  
  22720553.700   121667508.56207       627.689    22720556.120    94630306.57405
       627.691  
 20  9 26  9 14 40.0000000  0 13G20G21G24G10G32R10R12R 2R18R11R 1R17
                                R 8
  20849811.000   109566492.95549       430.989    20849806.340    85376470.91348
       430.989  
  22975070.320   120734787.67447       -48.168    22975064.020    94079046.52644
       -48.168  
  21102308.100   110893355.05847       352.380    21102306.700    86410415.44146
       352.382  
  20411044.980   107260772.26849       -65.414    20411042.980    83579810.65548
       -65.413  
  21940773.040   115299508.75648      -476.106    21940770.740    89843788.61546
      -476.104  
  21468842.300   114441002.88607       487.023           0.000           0.00000
         0.000  
  22791342.320   121747259.95605      -843.254    22791346.300    94692311.55806
      -843.257  
  20638216.660   110129468.98808      -498.600    20638220.020    85656269.82807
      -498.598  
  22280667.920   118935713.33105      -210.191    22280674.620    92505564.43106
      -210.192  
  20253893.660   108230675.64007      -371.599    20253897.440    84179420.43806
      -371.602  
  19745713.980   105552155.93305       278.810           0.000           0.00000
         0.000  
  21801221.380   116662738.78807       455.211    21801225.560    90737703.55507
       455.213  
  22723690.320   121684304.84307       627.085    22723693.540    94643370.42105
       627.083  
 20  9 26  9 14 45.0000000  0 16G12G20G21G24G10G32G15G11R10R12R 2R18
                                R11R 1R17R 8
  23955163.300   125885244.48145      -608.799    23955160.120    98092374.80943
      -608.799  
  20851968.400   109577829.95048       432.458    20851963.660    85385304.93547
       432.457  
  22974832.740           0.00040       -46.532    22974827.020           0.00040
       -46.532  
  21104072.260   110902625.96847       353.908    21104070.780    86417639.54746
       353.909  
  20410720.400   107259066.77549       -63.855    20410718.440    83578481.68948
       -63.855  
  21938394.180   115287007.65248      -474.932    21938391.860    89834047.51746
      -474.933  
  24436103.980   128412607.69644       667.835    24436101.960   100061748.86944
       667.835  
  23910655.760   125651358.64244      -133.081    23910650.580    97910128.56443
      -133.081  
  21471280.460   114453999.85907       488.762           0.000           0.00000
         0.000  
  22787127.620   121724746.26106      -842.014           0.000           0.00000
         0.000  
  20635725.100   110116173.23507      -497.580    20635728.700           0.00000
      -497.585  
  22279619.480   118930117.85106      -208.484    22279625.420           0.00000
      -208.484  
  20252038.780   108220763.88107      -369.889    20252042.440    84171711.28606
      -369.889  
  19747109.000   105559611.93104       279.943    19747112.720    82101941.01302
       279.941  
  21803499.320   116674927.38406       456.797    21803503.160    90747183.28007
       456.798  
  22726827.600   121701104.45208       628.247    22726831.020    94656436.75004
       628.248  
 20  9 26  9 14 50.0000000  0 14G20G21G24G10G32G11R10R12R 2R18R11R 1
                                R17R 8
  20854131.840   109589198.69749       432.659    20854127.020    85394163.71148
       432.658  
  22974600.400   120732330.85545       -46.428    22974593.420    94077118.84143
       -46.424  
  21105842.740   110911930.38448       354.203    21105841.440    86424889.69546
       354.205  
  20410402.180   107257394.64149       -63.574    20410400.240    83577178.72148
       -63.574  
  21936020.280   115274532.39248      -474.928    21936017.880    89824326.51546
      -474.926  
  23909991.260   125647872.60945      -132.568    23909990.520    97907414.00943
      -132.561  
  21473725.700   114467034.41207       489.105           0.000           0.00000
         0.000  
  22782917.600   121702257.03905      -842.048    22782922.460    94657325.37205
      -842.048  
  20633238.580   110102904.69807      -497.345    20633242.020    85635614.75006
      -497.345  
  22278579.120   118924564.43006      -207.914    22278584.300    92496910.08806
      -207.914  
  20250191.400   108210892.26906      -369.201    20250195.020    84164033.40307
      -369.202  
  19748510.200   105567099.99405       280.084    19748510.020           0.00000
       280.084  
  21805784.300   116687154.75806       457.294    21805787.540    90756693.46806
       457.296  
  22729969.520   121717928.72807       628.326    22729972.920    94669522.30505
       628.325  
 20  9 26  9 14 55.0000000  0 15G12G20G21G24G10G32G15G11R10R12R 2R18
                                R11R17R 8
  23949077.900   125853247.29605      -608.944           0.000           0.00000
         0.000  
  20856296.360   109600572.96649       432.853    20856291.440    85403026.74747
       432.854  
  22974369.580   120731119.85447       -46.095    22974363.100    94076175.14845
       -46.095  
  21107614.700   110921241.90848       354.346    21107613.220    86432145.50747
       354.345  
  20410085.360   107255729.62549       -63.358    20410083.400    83575881.32748
       -63.359  
  21933646.220   115262056.48348      -474.965    21933643.780    89814605.10046
      -474.967  
  24442788.060           0.00000       667.562           0.000           0.00000
         0.000  
  23909330.140   125644396.27704      -132.328           0.000           0.00000
         0.000  
  21476172.920   114480080.00507       489.558           0.000           0.00000
         0.000  
  22778706.920   121679765.53605      -842.299    22778710.080    94639831.85205
      -842.297  
  20630752.080   110089635.96207      -497.393    20630755.580    85625294.64007
      -497.394  
  22277541.640   118919026.16006      -207.370    22277547.000    92492602.46807
      -207.367  
  20248346.460   108201034.16706      -368.826    20248350.060    84156365.95105
      -368.825  
  21808071.480   116699393.50006       457.471    21808074.900    90766212.54207
       457.471  
  22733110.860   121734750.83308       628.089    22733113.760    94682606.18904
       628.089  
 20  9 26  9 15  0.0000000  0 14G12G20G21G24G10G32G15R10R12R 2R18R11
                                R17R 8
  23946028.940           0.00040      -608.799    23946033.240           0.00040
      -608.799  
  20858462.460   109611955.48649       433.276    20858457.500    85411896.27047
       433.276  
  22974141.840   120729918.55847       -45.638    22974135.280    94075239.12045
       -45.639  
  21109388.700   110930563.62948       354.857    21109386.960    86439409.14146
       354.858  
  20409770.420   107254074.57549       -62.931    20409768.420    83574591.69648
       -62.931  
  21931272.560   115249583.02948      -474.821    21931270.120    89804885.56546
      -474.822  
  24446123.580           0.00040       667.487    24446122.120           0.00040
       667.487  
  21478622.880   114493139.31607       490.142           0.000           0.00000
         0.000  
  22774496.540   121657274.84505      -842.109    22774500.160    94622339.13206
      -842.110  
  20628266.220   110076370.37607      -497.304    20628269.760    85614976.95207
      -497.303  
  22276507.300   118913505.81605      -206.606    22276513.540    92488308.87107
      -206.606  
  20246504.460   108191192.30606      -368.229    20246508.180    84148711.15006
      -368.229  
  21810361.460   116711646.20307       458.086    21810363.460    90775742.46406
       458.085  
  22736252.540   121751573.60008       628.229    22736254.500    94695690.50503
       628.231  
 20  9 26  9 15  5.0000000  0 14G20G21G24G10G32G15G11R10R12R 2R18R11
                                R17R 8
  20860629.020   109623340.53149       434.283    20860624.020    85420767.74147
       434.283  
  22973914.940   120728721.22745       -44.590    22973906.480    94074306.11744
       -44.587  
  21111163.520   110939889.71948       356.032    21111161.540    86446676.26545
       356.029  
  20409456.280   107252423.70149       -61.799    20409454.240    83573305.31348
       -61.799  
  21928898.180   115237106.11148      -473.936    21928895.760    89795163.29846
      -473.937  
  24449458.300   128482789.26245       668.259    24449460.000   100116458.47744
       668.260  
  23908014.700   125637467.37845      -130.456    23908006.720    97899293.32743
      -130.456  
  21481074.280   114506206.62206       491.316           0.000           0.00000
         0.000  
  22770284.880   121634779.04204      -841.267    22770286.900    94604842.42405
      -841.268  
  20625779.720   110063101.57308      -496.479    20625783.340    85604656.75307
      -496.475  
  22275475.320   118907997.65305      -205.162    22275482.000    92484024.84006
      -205.166  
  20244664.620   108181360.96807      -366.812    20244668.320    84141064.55507
      -366.811  
  21812652.840   116723906.99505       459.229    21812654.780    90785278.61006
       459.228  
  22739393.160   121768391.11608       628.960    22739394.700           0.00000
       628.960  
 20  9 26  9 15 10.0000000  0 15G12G20G21G24G10G32G15G11R10R12R 2R18
                                R11R17R 8
  23939944.340   125805278.17344      -608.613    23939946.440    98030065.40541
      -608.613  
  20862799.780   109634747.84949       434.058    20862794.760    85429656.54447
       434.058  
  22973691.400   120727547.53347       -44.688    22973683.680    94073391.55245
       -44.688  
  21112942.960   110949239.93848       355.769    21112940.720    86453962.13345
       355.769  
  20409146.680   107250796.80749       -61.992    20409144.600    83572037.58348
       -61.992  
  21926526.960   115224645.63148      -474.494    21926524.560    89785453.78846
      -474.494  
  24452799.860   128500335.60744       667.448    24452798.580   100130131.05443
       667.446  
  23907362.740   125634037.78405      -130.658           0.000           0.00000
         0.000  
  21483530.820   114519301.84306       491.382           0.000           0.00000
         0.000  
  22766076.380   121612298.10305      -841.904    22766080.520    94587357.30006
      -841.906  
  20623296.320   110049850.22407      -496.900    20623300.260    85594350.19207
      -496.901  
  22274449.520   118902521.61506      -205.115    22274456.460    92479768.60106
      -205.114  
  20242830.440   108171560.14907      -366.788    20242834.260    84133441.78306
      -366.790  
  21814951.480           0.00000       459.271    21814950.080           0.00000
       459.271  
  22742536.560   121785223.74607       628.377    22742534.940           0.00000
       628.377  
 20  9 26  9 15 15.0000000  0 14G20G21G24G10G32G15G11R10R12R 2R18R11
                                R17R 8
  20864970.940   109646157.24849       434.567    20864965.900    85438546.99447
       434.566  
  22973469.020   120726377.43647       -44.199    22973461.460    94072479.81345
       -44.200  
  21114723.120   110958594.05648       356.391    21114720.640    86461251.06146
       356.392  
  20408837.800   107249173.72149       -61.393    20408835.700    83570772.84548
       -61.393  
  21924154.960   115212181.21048      -474.151    21924152.600    89775741.27746
      -474.151  
  24456138.800   128517872.96646       667.576    24456137.520   100143796.55244
       667.575  
  23906710.900   125630614.72345      -129.854    23906693.100    97893895.53543
      -129.854  
  21485988.860   114532404.52806       492.085           0.000           0.00000
         0.000  
  22761866.740   121589811.84006      -841.661    22761871.500    94569867.97705
      -841.661  
  20620812.560   110036595.45507      -496.508    20620816.020    85584040.96807
      -496.511  
  22273425.980           0.00000      -204.309    22273432.960           0.00000
      -204.310  
  20240998.060   108161769.39107      -365.980    20241002.040    84125826.74906
      -365.981  
  21817248.600   116748489.71107       460.052    21817250.740    90804386.82706
       460.050  
  22745678.960   121802050.61007       628.665    22745676.740    94734955.35104
       628.665  
 20  9 26  9 15 20.0000000  0 14G20G21G24G10G32G15G11R10R12R 2R18R11
                                R17R 8
  20867146.020   109657587.34249       435.585    20867141.000    85447453.56648
       435.585  
  22973250.980   120725229.31945       -43.103    22973242.420    94071585.10843
       -43.104  
  21116507.480   110967970.46648       357.459    21116504.860    86468557.39344
       357.457  
  20408533.200   107247572.99849       -60.261    20408531.080    83569525.52648
       -60.262  
  21921785.900   115199731.53148      -473.307    21921783.380    89766040.22746
      -473.307  
  24459475.800           0.00050       668.402    24459475.060           0.00050
       668.402  
  23906063.620   125627217.10106      -128.590           0.000           0.00000
         0.000  
  21488451.840   114545533.54206       493.238           0.000           0.00000
         0.000  
  22757659.360   121567338.83605      -840.984    22757664.000    94552388.91805
      -840.982  
  20618331.700   110023356.43807      -495.714    20618335.080    85573743.85007
      -495.711  
  22272408.180   118891626.10005      -202.889    22272414.860    92471293.86406
      -202.890  
  20239171.180   108152007.53907      -364.655    20239175.240           0.00000
      -364.658  
  21819550.660   116760813.05805       461.362    21819550.940    90813971.61406
       461.363  
  22748823.800   121818890.78207       629.242    22748822.880    94748053.41304
       629.237  
 20  9 26  9 15 25.0000000  0 11G12G20G24G10G32G11R10R 2R18R11R 8
  23930831.480   125757356.74545      -607.566    23930816.360    97992681.32944
      -607.566  
  20869324.220   109669033.79749       435.537    20869319.220    85456372.89447
       435.537  
  21118295.300   110977365.09548       357.494    21118292.520    86475877.87346
       357.495  
  20408232.040   107245990.40749       -60.358    20408229.880    83568292.33048
       -60.357  
  21919418.860   115187292.49749      -473.682    21919416.220    89756347.48947
      -473.682  
  23905421.480   125623840.33347      -128.453    23905409.940    97888648.78741
      -128.456  
  21490918.900   114558684.60207       493.415           0.000           0.00000
         0.000  
  20615852.740   110010128.42507      -496.010    20615855.860    85563455.46906
      -496.012  
  22271395.340   118886218.97906      -202.360    22271401.780    92467088.36405
      -202.362  
  20237349.060   108142270.45207      -364.411    20237353.040    84110660.87907
      -364.409  
  22751970.380   121835740.24306       629.032    22751971.080    94761158.52503
       629.030  
 20  9 26  9 15 30.0000000  0 15G12G20G21G24G10G32G15G11R10R12R 2R18
                                R11R17R 8
  23927790.820           0.00000      -606.838           0.000           0.00000
         0.000  
  20871504.800   109680492.86749       436.296    20871499.800    85465302.01347
       436.297  
  22972822.560           0.00040       -42.053    22972818.220           0.00040
       -42.053  
  21120085.780   110986774.07947       358.306    21120082.920    86483209.59845
       358.303  
  20407933.600   107244422.22149       -59.394    20407931.440    83567070.34648
       -59.394  
  21917053.060   115174860.10848      -473.054    21917050.440    89746659.87647
      -473.054  
  24466157.120   128570517.83345       668.105    24466152.040   100184815.65343
       668.104  
  23904782.080   125620480.83945      -127.476    23904780.360    97886067.20343
      -127.476  
  21493389.300   114571853.89607       494.446           0.000           0.00000
         0.000  
  22749249.760   121522407.69406      -840.763           0.000           0.00000
         0.000  
  20613375.220   109996908.04506      -495.327    20613378.260    85553172.94507
      -495.327  
  22270386.700   118880834.29405      -201.396    22270392.080           0.00000
      -201.396  
  20235530.860   108132554.21707      -363.319    20235534.640    84103103.81705
      -363.319  
  21824165.880   116785521.59404       462.659    21824170.220           0.00000
       462.659  
  22755117.720   121852594.58805       629.652           0.000           0.00000
         0.000  
 20  9 26  9 15 35.0000000  0 14G20G21G24G10G32G11R10R12R 2R18R11R 1
                                R17R 8
  20873687.280   109691961.94049       436.753    20873682.280    85474238.95747
       436.753  
  22972610.660   120721889.42146       -41.892    22972605.460    94068981.09044
       -41.893  
  21121878.500   110996194.96047       358.868    21121875.660    86490550.45246
       358.871  
  20407637.380   107242865.67149       -58.944    20407635.220    83565857.47748
       -58.944  
  21914687.980   115162431.72848      -472.804    21914685.460    89736975.46846
      -472.807  
  23904145.560   125617135.76205      -126.956           0.000           0.00000
         0.000  
  21495862.660   114585038.36906       495.130           0.000           0.00000
         0.000  
  22745045.820   121499951.73805      -840.621    22745049.100    94499970.78503
      -840.621  
  20610898.660   109983692.28906      -495.330    20610901.360    85542893.95806
      -495.328  
  22269381.720   118875469.57304      -200.590    22269386.400    92458716.70206
      -200.588  
  20233715.820   108122856.09107      -362.675    20233719.720    84095560.85507
      -362.676  
  19761198.840   105634925.94304       284.254           0.000           0.00000
         0.000  
  21826477.760           0.00000       463.047    21826482.640           0.00000
       463.045  
  22758265.620   121869451.41807       629.698    22758267.860    94787378.27703
       629.701  
 20  9 26  9 15 40.0000000  0 14G12G20G21G24G10G32G15G11R10R12R 2R18
                                R11R 8
  23921722.060   125709533.61645      -606.755    23921717.720    97955423.64742
      -606.755  
  20875871.180   109703438.25249       436.923    20875866.120    85483181.55447
       436.922  
  22972402.120   120720793.51245       -41.474    22972396.780    94068127.07544
       -41.472  
  21123672.900   111005624.84048       359.017    21123670.220    86497898.47845
       359.016  
  20407342.920   107241318.24549       -58.713    20407340.740    83564651.69448
       -58.714  
  21912323.160   115150004.89447      -472.876    21912320.740    89727292.25746
      -472.876  
  24472836.680           0.00040       667.953    24472835.620           0.00050
       667.953  
  23903511.780   125613802.71606      -126.689           0.000           0.00000
         0.000  
  21498338.340   114598235.76506       495.454           0.000           0.00000
         0.000  
  22740842.080   121477495.84106      -840.669    22740845.920    94482505.13304
      -840.671  
  20608422.380   109970478.76807      -495.169    20608425.000    85532616.78706
      -495.168  
  22268379.760           0.00000      -199.879    22268385.020           0.00000
      -199.876  
  20231903.840   108113173.41406      -362.137    20231907.760    84088029.89307
      -362.137  
  22761413.660   121886307.91806       629.630    22761413.440           0.00000
       629.630  
