     2.11           OBSERVATION DATA    M                   RINEX VERSION / TYPE
LEICA GEO OFFICE 8.4                    30-9-20 21:26       PGM / RUN BY / DATE
                                                            OBSERVER / AGENCY
SAY1                                                        MARKER NAME
SAY1                                                        MARKER NUMBER
352348              LEICA GX1220GG      4.10                REC # / TYPE / VERS
                    LEIAX1202GG                             ANT # / TYPE
 -1197356.1526  3781140.9492  4979340.3252                  APPROX POSITION XYZ
        1.7610        0.0000        0.0000                  ANTENNA: DELTA H/E/N
L1PhaOff:   0.0644  L2PhaOff:   0.0640                      COMMENT
     1     1                                                WAVELENGTH FACT L1/2
     6    C1    L1    D1    P2    L2    D2                  # / TYPES OF OBSERV
  2020     9    30     7    14   35.0000000     GPS         TIME OF FIRST OBS
  2020     9    30     8    46   20.0000000     GPS         TIME OF LAST OBS
    18                                                      LEAP SECONDS
    23                                                      # OF SATELLITES
          C1    L1    D1    P2    L2    D2                  COMMENT
   G 1     0     0     0     0     0     0                  PRN / # OF OBS
   G 2     0     0     0     0     0     0                  PRN / # OF OBS
   G 3     0     0     0     0     0     0                  PRN / # OF OBS
   G 4     0     0     0     0     0     0                  PRN / # OF OBS
   G 5     0     0     0     0     0     0                  PRN / # OF OBS
   G 6     0     0     0     0     0     0                  PRN / # OF OBS
   G 7     0     0     0     0     0     0                  PRN / # OF OBS
   G 8   535   535   535   527   527   527                  PRN / # OF OBS
   G 9     0     0     0     0     0     0                  PRN / # OF OBS
   G10  1102  1102  1102  1102  1102  1102                  PRN / # OF OBS
   G11   153   153   153   144   144   144                  PRN / # OF OBS
   G12    51    51    51    50    50    50                  PRN / # OF OBS
   G13   442   442   442   441   441   441                  PRN / # OF OBS
   G14     0     0     0     0     0     0                  PRN / # OF OBS
   G15  1102  1102  1102  1102  1102  1102                  PRN / # OF OBS
   G16     0     0     0     0     0     0                  PRN / # OF OBS
   G17     0     0     0     0     0     0                  PRN / # OF OBS
   G18  1102  1102  1102  1102  1102  1102                  PRN / # OF OBS
   G19     0     0     0     0     0     0                  PRN / # OF OBS
   G20  1102  1102  1102  1102  1102  1102                  PRN / # OF OBS
   G21  1042  1042  1042  1033  1033  1033                  PRN / # OF OBS
   G22     0     0     0     0     0     0                  PRN / # OF OBS
   G23     0     0     0     0     0     0                  PRN / # OF OBS
   G24  1102  1102  1102  1102  1102  1102                  PRN / # OF OBS
   G25     0     0     0     0     0     0                  PRN / # OF OBS
   G26     0     0     0     0     0     0                  PRN / # OF OBS
   G27   533   533   533   533   533   533                  PRN / # OF OBS
   G28     0     0     0     0     0     0                  PRN / # OF OBS
   G29     0     0     0     0     0     0                  PRN / # OF OBS
   G30     0     0     0     0     0     0                  PRN / # OF OBS
   G31     0     0     0     0     0     0                  PRN / # OF OBS
   G32   734   734   734   727   727   727                  PRN / # OF OBS
   R 1     0     0     0     0     0     0                  PRN / # OF OBS
   R 2     0     0     0     0     0     0                  PRN / # OF OBS
   R 3    94    94    94    94    94    94                  PRN / # OF OBS
   R 4  1102  1102  1102  1102  1102  1102                  PRN / # OF OBS
   R 5  1102  1102  1102  1102  1102  1102                  PRN / # OF OBS
   R 6   707   707   707     0     0     0                  PRN / # OF OBS
   R 7     0     0     0     0     0     0                  PRN / # OF OBS
   R 8     0     0     0     0     0     0                  PRN / # OF OBS
   R 9     0     0     0     0     0     0                  PRN / # OF OBS
   R10     0     0     0     0     0     0                  PRN / # OF OBS
   R11     0     0     0     0     0     0                  PRN / # OF OBS
   R12     0     0     0     0     0     0                  PRN / # OF OBS
   R13   186   186   186   186   186   186                  PRN / # OF OBS
   R14  1055  1055  1055  1052  1052  1052                  PRN / # OF OBS
   R15   926   926   926   925   925   925                  PRN / # OF OBS
   R16     0     0     0     0     0     0                  PRN / # OF OBS
   R17     0     0     0     0     0     0                  PRN / # OF OBS
   R18     0     0     0     0     0     0                  PRN / # OF OBS
   R19    32    32    32    32    32    32                  PRN / # OF OBS
   R20   712   712   712   712   712   712                  PRN / # OF OBS
   R21  1102  1102  1102  1102  1102  1102                  PRN / # OF OBS
   R22   131   131   131     0     0     0                  PRN / # OF OBS
   R23     0     0     0     0     0     0                  PRN / # OF OBS
   R24     0     0     0     0     0     0                  PRN / # OF OBS
                                                            END OF HEADER
 20 09 30 07 14 35.0000000  0 13G15G18G20G 8G27G24G10G13R 4R 3R21R 5
                                R20
  20827821.640   109450940.38949     -2118.929    20827821.609    85286448.78848
     -1651.116  
  21108579.839   110926327.05749     -2194.770    21108579.704    86436097.56848
     -1710.215  
  20183724.488   106066198.98149      1115.589    20183723.232    82648983.38848
       869.288  
  24681800.063   129703737.22846       778.797    24681802.810   101067855.79944
       606.847  
  23996283.671   126101325.96245     -1077.371    23996287.406    98260769.43845
      -839.516  
  21343148.383   112159014.79448      2295.996    21343150.316    87396660.25947
      1789.085  
  22512170.590   118302273.39449      2788.672    22512172.848    92183610.07747
      2172.991  
  23197168.392   121901928.32948     -3344.640    23197168.007    94988520.86745
     -2606.218  
  19731767.726   105662720.90409     -1443.530    19731771.046    82182127.36708
     -1122.746  
  23203342.758   124209319.96605     -3474.640    23203349.538    96607266.97604
     -2702.496  
  22476967.435   120278811.84407      3102.026    22476970.961    93550196.81205
      2412.688  
  20193000.884   107943200.99208      1983.632    20193005.200    83955854.82708
      1542.823  
  20455982.814   109387337.07705     -1167.520    20455988.669    85079067.32308
      -908.073  
 20 09 30 07 14 40.0000000  0 14G15G18G20G 8G27G24G10G13R 4R 3R14R21
                                R 5R20
  20829839.142   109461542.90149     -2121.530    20829839.222    85294710.48448
     -1653.145  
  21110669.806   110937310.19149     -2197.891    21110669.723    86444655.84448
     -1712.645  
  20182664.718   106060629.25549      1112.852    20182663.319    82644643.34648
       867.156  
  24681061.034   129699853.57246       775.046    24681063.932   101064829.59044
       603.937  
  23997310.629   126106723.60145     -1080.780    23997314.542    98264975.41944
      -842.172  
  21340965.483   112147543.45548      2292.895    21340967.333    87387721.55847
      1786.671  
  22509518.069   118288334.71049      2787.366    22509520.193    92172748.77047
      2171.968  
  23200351.630   121918656.13647     -3345.875    23200351.335    95001555.53045
     -2607.176  
  19733116.961   105669945.49609     -1445.730    19733120.166    82187746.49708
     -1124.457  
  23206589.059   124226696.44705     -3475.878    23206596.863    96620782.01104
     -2703.461  
  21671756.100   115522656.39915      2879.414           0.000           0.0000 
         0.000  
  22474070.842   120263311.02706      3098.695    22474074.047    93538140.63006
      2410.098  
  20191146.993   107933290.22509      1981.406    20191151.291    83948146.45008
      1541.094  
  20457076.658   109393186.82605     -1172.179    20457082.699    85083617.12508
      -911.699  
 20 09 30 07 14 45.0000000  0 14G15G18G20G 8G27G24G10G13R 4R 3R14R21
                                R 5R20
  20831858.754   109472155.09949     -2123.835    20831858.556    85302979.72348
     -1654.941  
  21112762.254   110948306.26849     -2200.992    21112762.425    86453224.20348
     -1715.063  
  20181606.853   106055070.57849      1110.258    20181605.415    82640311.90648
       865.137  
  24680324.898   129695984.52646       772.000    24680327.712   101061814.76644
       601.562  
  23998340.242   126112135.75345     -1084.547    23998344.381    98269192.68843
      -845.101  
  21338785.050   112136085.57548      2289.831    21338787.048    87378793.34547
      1784.285  
  22506866.494   118274400.21449      2786.042    22506868.566    92161890.74048
      2170.941  
  23203535.415   121935387.51047     -3347.004    23203535.134    95014592.93845
     -2608.059  
  19734467.889   105677179.84609     -1448.354    19734471.206    82193373.21708
     -1126.503  
  23209835.718   124244073.94104     -3475.500    23209843.018    96634297.86304
     -2703.168  
  21669056.028   115508269.90505      2875.566    21669062.118    89839785.06013
      2236.547  
  22471176.896   120247825.53107      3095.070    22471180.084    93526096.35406
      2407.277  
  20189294.625   107923388.41409      1978.918    20189299.029    83940445.04808
      1539.159  
  20458174.743   109399058.99905     -1176.964    20458180.796    85088184.37608
      -915.421  
 20 09 30 07 14 50.0000000  0 14G15G18G20G 8G27G24G10G13R 4R 3R14R21
                                R 5R20
  20833880.656   109482780.01649     -2125.964    20833880.296    85311258.87948
     -1656.598  
  21114857.777   110959318.31249     -2203.698    21114858.056    86461805.02348
     -1717.172  
  20180551.665   106049525.96149      1107.793    20180550.463    82635991.42848
       863.211  
  24679592.174   129692133.09946       769.434    24679595.024   101058813.65845
       599.559  
  23999373.246   126117565.44645     -1087.316    23999377.281    98273423.67844
      -847.250  
  21336607.859   112124644.29748      2287.058    21336609.953    87369878.06647
      1782.125  
  22504216.056   118260472.94249      2785.159    22504218.433    92151038.32647
      2170.253  
  23206720.528   121952125.60948     -3347.836    23206720.480    95027635.61745
     -2608.703  
  19735821.228   105684426.94509     -1450.316    19735824.420    82199009.83908
     -1128.026  
  23213082.084   124261455.55605     -3476.008    23213089.892    96647816.86504
     -2703.570  
  21666360.995   115493901.67205      2872.362    21666364.592    89828609.70003
      2234.046  
  22468286.470   120232358.34107      3092.120    22468289.550    93514066.31805
      2404.980  
  20187444.504   107913498.57809      1977.078    20187448.702    83932752.96908
      1537.727  
  20459277.731   109404956.41805     -1181.539    20459283.679    85092771.25308
      -918.980  
 20 09 30 07 14 55.0000000  0 14G15G18G20G 8G27G24G10G13R 4R 3R14R21
                                R 5R20
  20835904.422   109493415.10049     -2127.891    20835903.989    85319545.96948
     -1658.097  
  21116955.751   110970343.77449     -2206.281    21116956.122    86470396.28348
     -1719.184  
  20179498.776   106043992.80749      1105.604    20179497.490    82631679.86848
       861.508  
  24678862.041   129688296.78746       766.132    24678865.389   101055824.32944
       596.987  
  24000409.004   126123009.98445     -1089.749    24000413.179    98277666.13245
      -849.159  
  21334433.107   112113216.99448      2284.246    21334435.327    87360973.68348
      1779.933  
  22501566.775   118246550.34649      2784.172    22501568.987    92140189.56848
      2169.483  
  23209906.388   121968867.82447     -3348.812    23209906.401    95040681.49445
     -2609.468  
  19737176.617   105691684.21009     -1452.312    19737179.773    82204654.36608
     -1129.582  
  23216330.128   124278838.74905     -3476.503    23216337.451    96661337.15704
     -2703.948  
  21663668.254   115479548.94204      2868.438    21663669.947    89817446.47202
      2231.007  
  22465398.758   120216906.98306      3088.788    22465401.806    93502048.58306
      2402.391  
  20185596.267   107903618.16309      1975.305    20185600.501    83925068.20108
      1536.347  
  20460384.816   109410876.78305     -1185.374    20460390.620    85097375.97508
      -921.960  
 20 09 30 07 15  0.0000000  0 14G15G18G20G 8G27G24G10G13R 4R 3R14R21
                                R 5R20
  20837929.712   109504058.69749     -2129.672    20837929.417    85327839.66748
     -1659.487  
  21119056.021   110981380.98449     -2208.741    21119056.349    86478996.70848
     -1721.101  
  20178447.787   106038469.53849      1103.527    20178446.716    82627376.03248
       859.891  
  24678134.562   129684473.88946       763.414    24678138.010   101052845.46045
       594.784  
  24001447.411   126128467.97545     -1092.694    24001451.836    98281919.10442
      -851.457  
  21332261.036   112101802.11848      2281.651    21332263.145    87352078.99047
      1777.909  
  22498917.891   118232630.80549      2783.565    22498920.328    92129343.15947
      2169.012  
  23213092.806   121985612.49748     -3349.301    23213092.882    95053729.28545
     -2609.847  
  19738533.328   105698949.86609     -1454.163    19738536.568    82210305.43308
     -1131.019  
  23219577.625   124296221.69904     -3476.477    23219584.731    96674857.25704
     -2703.921  
  21660978.865   115465210.10905      2866.445    21660980.410    89806294.10703
      2229.461  
  22462513.840   120201469.73607      3085.906    22462516.827    93490041.85406
      2400.147  
  20183749.315   107893745.58309      1973.620    20183753.478    83917389.52008
      1535.035  
  20461495.933   109416818.17205     -1190.933    20461501.917    85101997.06008
      -926.285  
 20 09 30 07 15  5.0000000  0 14G15G18G20G 8G27G24G10G13R 4R 3R14R21
                                R 5R20
  20839957.695   109514715.47349     -2132.757    20839957.307    85336143.66448
     -1661.891  
  21121159.533   110992434.57649     -2212.543    21121159.776    86487609.88947
     -1724.062  
  20177399.489   106032960.73049      1100.152    20177398.395    82623083.45848
       857.261  
  24677410.656   129680669.11246       758.960    24677414.007   101049880.69445
       591.397  
  24002489.330   126133943.85645     -1097.620    24002493.744    98286186.04145
      -855.292  
  21330092.025   112090404.20448      2277.530    21330094.362    87343197.49947
      1774.699  
  22496270.522   118218718.94249      2781.472    22496272.936    92118502.74847
      2167.379  
  23216280.613   122002364.22848     -3351.121    23216280.504    95066782.59845
     -2611.261  
  19739892.612   105706228.76909     -1457.262    19739895.836    82215966.79808
     -1133.382  
  23222826.186   124313609.24705     -3478.297    23222832.164    96688380.86904
     -2705.347  
  21658293.381   115450890.00205      2862.066    21658294.694    89795156.23803
      2226.047  
  22459632.591   120186051.34007      3081.844    22459635.497    93478049.78206
      2396.984  
  20181904.828   107883885.49108      1970.694    20181908.870    83909720.56508
      1532.761  
  20462611.777   109422785.49905     -1196.597    20462617.789    85106638.30508
      -930.691  
 20 09 30 07 15 10.0000000  0 15G15G18G20G 8G27G24G10G13R 4R 3R14R21
                                R13R 5R20
  20841987.744   109525383.57949     -2134.492    20841987.394    85344456.46648
     -1663.245  
  21123265.714   111003502.69649     -2214.898    21123266.068    86496234.39647
     -1725.897  
  20176353.661   106027464.61349      1098.258    20176352.496    82618800.76748
       855.781  
  24676689.619   129676880.66446       756.124    24676693.272   101046928.65345
       589.183  
  24003534.338   126139435.84945     -1099.499    24003538.421    98290465.50745
      -856.765  
  21327925.835   112079021.57848      2275.285    21327928.269    87334327.92748
      1772.949  
  22493624.286   118204812.91049      2780.867    22493626.713    92107666.87647
      2166.906  
  23219469.319   122019121.20848     -3351.581    23219469.198    95079839.95345
     -2611.628  
  19741254.000   105713518.90709     -1458.992    19741257.172    82221636.90008
     -1134.777  
  23226074.697   124330999.28304     -3478.257    23226080.670    96701906.44704
     -2705.315  
  21655610.433   115436586.50405      2859.770    21655612.738    89784031.30404
      2224.265  
  22456754.321   120170649.91807      3078.801    22456757.326    93466070.88905
      2394.617  
  21786141.872   116336782.94014     -1014.391    21786147.731    90484188.99315
      -788.969  
  20180062.161   107874035.97508      1968.965    20180066.168    83902059.84408
      1531.418  
  20463732.109   109428776.69805     -1200.473    20463738.158    85111298.12208
      -933.703  
 20 09 30 07 15 15.0000000  0 14G15G18G20G 8G27G24G10G13R 4R 3R14R21
                                R 5R20
  20844019.475   109536060.83949     -2136.327    20844019.200    85352776.40348
     -1664.672  
  21125374.371   111014583.23349     -2217.343    21125374.585    86504868.57848
     -1727.804  
  20175309.929   106021979.10949      1096.090    20175308.770    82614526.35348
       854.093  
  24675971.392   129673106.32646       753.809    24675975.005   101043987.62843
       587.378  
  24004581.860   126144941.89545     -1103.020    24004586.274    98294755.85243
      -859.508  
  21325762.320   112067652.00848      2272.702    21325764.861    87325468.54148
      1770.937  
  22490978.793   118190910.62448      2780.140    22490981.212    92096833.92947
      2166.344  
  23222658.630   122035881.37048     -3352.363    23222658.612    95092899.81945
     -2612.234  
  19742617.220   105720818.26809     -1460.793    19742620.382    82227314.18407
     -1136.175  
  23229322.949   124348389.80603     -3477.983    23229329.243    96715432.36702
     -2705.102  
  21652930.001   115422297.82304      2856.820    21652933.186    89772917.90104
      2221.973  
  22453879.033   120155263.48406      3075.758    22453882.002    93454103.65806
      2392.253  
  20178221.149   107864194.83709      1967.425    20178225.240    83894405.63008
      1530.218  
  20464856.641   109434789.70405     -1204.535    20464862.373    85115974.90808
      -936.863  
 20 09 30 07 15 20.0000000  0 13G15G18G20G 8G27G24G10G13R 4R14R21R 5
                                R20
  20846053.138   109546747.58749     -2138.402    20846052.746    85361103.74548
     -1666.292  
  21127485.310   111025676.51249     -2219.945    21127485.527    86513512.69047
     -1729.827  
  20174268.072   106016504.49249      1093.719    20174267.006    82610260.41148
       852.245  
  24675255.759   129669346.61645       750.395    24675259.424   101041057.97344
       584.719  
  24005632.322   126150462.08045     -1105.129    24005636.803    98299057.27944
      -861.145  
  21323601.297   112056296.00948      2269.660    21323603.847    87316619.70448
      1768.563  
  22488334.042   118177012.42848      2779.308    22488336.667    92086004.18147
      2165.694  
  23225848.490   122052644.97648     -3353.195    23225848.741    95105962.39845
     -2612.879  
  19743982.130   105728127.13909     -1462.852    19743985.023    82232998.86507
     -1137.773  
  21650252.633   115408024.16205      2853.159    21650256.445    89761816.18304
      2219.129  
  22451006.522   120139892.19307      3072.582    22451009.582    93442148.20306
      2389.784  
  20176381.874   107854362.63909      1965.390    20176385.984    83886758.36308
      1528.652  
  20465985.212   109440824.83305     -1209.742    20465990.974    85120668.90308
      -940.909  
 20 09 30 07 15 25.0000000  0 13G15G18G20G 8G27G24G10G13R 4R14R21R 5
                                R20
  20848088.718   109557444.16749     -2140.148    20848088.245    85369438.74448
     -1667.647  
  21129598.684   111036782.92549     -2222.378    21129599.173    86522167.02847
     -1731.726  
  20173228.529   106011041.18649      1091.651    20173227.466    82606003.29248
       850.632  
  24674543.037   129665601.83046       747.933    24674546.782   101038139.95045
       582.800  
  24006685.629   126155997.05647     -1107.859    24006689.939    98303370.28943
      -863.269  
  21321442.740   112044953.84148      2267.246    21321445.552    87307781.66048
      1766.683  
  22485690.079   118163118.71548      2778.565    22485692.664    92075177.92848
      2165.116  
  23229039.315   122069412.40948     -3353.706    23229039.328    95119027.91245
     -2613.277  
  19745348.734   105735445.77509     -1464.629    19745351.805    82238691.12108
     -1139.124  
  21647578.004   115393766.07104      2849.887    21647582.643    89750726.61704
      2216.582  
  22448137.028   120124536.60407      3069.788    22448139.691    93430204.96106
      2387.608  
  20174544.268   107844539.61309      1963.870    20174548.406    83879118.23008
      1527.456  
  20467118.011   109446882.48505     -1213.827    20467123.949    85125380.40308
      -944.093  
 20 09 30 07 15 30.0000000  0 13G15G18G20G 8G27G24G10G13R 4R14R21R 5
                                R20
  20850126.199   109568151.95249     -2142.991    20850125.944    85377782.47048
     -1669.866  
  21131714.920   111047903.79149     -2225.836    21131715.229    86530832.64147
     -1734.418  
  20172191.253   106005590.54349      1088.605    20172190.350    82601756.03848
       848.266  
  24673833.517   129661873.31045       743.527    24673837.203   101035234.62344
       579.371  
  24007742.096   126161548.01746     -1111.968    24007745.971    98307695.69243
      -866.472  
  21319287.194   112033626.90248      2263.699    21319290.141    87298955.48947
      1763.921  
  22483047.235   118149230.85148      2776.839    22483050.123    92064356.22947
      2163.769  
  23232231.081   122086185.00247     -3355.147    23232231.214    95132097.46445
     -2614.401  
  19746717.575   105742775.76008     -1467.406    19746720.522    82244392.21907
     -1141.304  
  21644906.338   115379524.65205      2846.327    21644911.451    89739649.93404
      2213.808  
  22445270.825   120109198.06807      3065.683    22445273.483    93418275.01406
      2384.421  
  20172708.761   107834727.27509      1961.054    20172712.783    83871486.41408
      1525.266  
  20468255.368   109452964.03405     -1219.555    20468261.227    85130110.48508
      -948.546  
 20 09 30 07 15 35.0000000  0 14G15G18G20G 8G27G24G10G13R 4R14R21R13
                                R 5R20
  20852165.972   109578870.68749     -2144.655    20852165.648    85386134.71748
     -1671.163  
  21133833.790   111059038.87449     -2228.152    21133834.268    86539509.31648
     -1736.227  
  20171156.437   106000152.33249      1086.617    20171155.433    82597518.47848
       846.715  
  24673126.869   129658160.62845       741.323    24673130.564   101032341.65044
       577.660  
  24008801.439   126167114.77547     -1114.925    24008805.358    98312033.48344
      -868.770  
  21317134.547   112022314.91348      2260.983    21317137.384    87290140.96547
      1761.805  
  22480405.510   118135348.58748      2775.925    22480408.301    92053538.87848
      2163.059  
  23235423.576   122102962.55247     -3355.737    23235423.646    95145170.87544
     -2614.862  
  19748088.428   105750116.68108     -1469.241    19748091.109    82250101.85107
     -1142.742  
  21642237.888   115365299.96705      2843.512    21642243.280    89728586.31104
      2211.620  
  22442407.534   120093876.26907      3062.996    22442410.313    93406358.05606
      2382.332  
  21790940.781   116362407.78214     -1035.859    21790945.828    90504116.62815
      -805.668  
  20170875.087   107824925.14409      1959.632    20170879.113    83863862.52708
      1524.155  
  20469397.001   109459069.13905     -1223.590    20469402.776    85134858.89608
      -951.684  
 20 09 30 07 15 40.0000000  0 15G15G18G20G 8G27G24G10G13R 4R 3R14R21
                                R13R 5R20
  20854207.855   109589600.29249     -2147.961    20854207.553    85394495.44548
     -1673.738  
  21135955.528   111070188.08749     -2232.304    21135956.014    86548197.01048
     -1739.461  
  20170123.889   105994726.47249      1083.003    20170122.966    82593290.54048
       843.898  
  24672423.527   129654464.01145       736.313    24672427.339   101029461.15344
       573.750  
  24009864.001   126172697.20546     -1119.020    24009867.780    98316383.39244
      -871.972  
  21314984.777   112011017.76348      2257.078    21314987.574    87281337.97847
      1758.761  
  22477764.733   118121471.86248      2773.637    22477767.734    92042725.85448
      2161.273  
  23238617.039   122119744.96647     -3357.891    23238617.361    95158248.07345
     -2616.542  
  19749461.359   105757468.53909     -1472.554    19749463.837    82255819.96407
     -1145.448  
  23245569.527   124435354.53814     -3480.913    23245577.941    96783086.93914
     -2707.386  
  21639572.562   115351091.81105      2838.792    21639577.643    89717535.53404
      2207.949  
  22439547.443   120078571.34407      3058.491    22439550.291    93394454.23306
      2378.827  
  21791913.304   116367600.28404     -1040.957    21791918.286    90508155.24805
      -809.633  
  20169043.285   107815133.33009      1956.313    20169047.368    83856246.67808
      1521.535  
  20470542.960   109465197.84905     -1228.926    20470548.922    85139625.67708
      -955.831  
 20 09 30 07 15 45.0000000  0 15G15G18G20G 8G27G24G10G13R 4R 3R14R21
                                R13R 5R20
  20856253.137   109600348.54049     -2150.124    20856252.876    85402870.69848
     -1675.426  
  21138081.276   111081359.22049     -2234.922    21138081.670    86556901.77947
     -1741.499  
  20169095.157   105989320.79449      1080.491    20169094.375    82589078.32048
       841.938  
  24671724.421   129650791.24745       733.628    24671728.497   101026599.23045
       571.655  
  24010930.907   126178303.14346     -1122.137    24010934.274    98320751.63344
      -874.394  
  21312839.415   111999743.40348      2254.108    21312842.183    87272552.77347
      1756.449  
  22475126.652   118107608.46848      2772.785    22475129.811    92031923.21748
      2160.613  
  23241812.963   122136539.94547     -3358.905    23241813.270    95171335.07045
     -2617.331  
  19750837.865   105764839.26109     -1474.742    19750840.146    82261552.74507
     -1147.023  
  23248821.804   124452764.51504     -3481.983    23248830.786    96796627.98804
     -2708.218  
  21636911.773   115336908.09205      2835.847    21636916.613    89706503.79604
      2205.663  
  22436692.051   120063291.09307      3054.824    22436694.761    93382569.60306
      2375.973  
  21792891.480   116372823.49804     -1046.339    21792896.276    90512217.74705
      -813.823  
  20167214.826   107805359.79709      1954.276    20167219.210    83848645.05308
      1519.991  
  20471695.050   109471358.06105     -1233.526    20471700.883    85144416.95408
      -959.414  
 20 09 30 07 15 50.0000000  0 16G15G18G20G 8G21G27G24G10G13R 4R 3R14
                                R21R13R 5R20
  20858299.001   109611099.91049     -2150.309    20858298.929    85411248.38048
     -1675.569  
  21140208.139   111092536.70648     -2235.761    21140208.781    86565611.50648
     -1742.156  
  20168067.373   105983919.68949      1080.120    20168066.526    82584869.66848
       841.647  
  24671026.890   129647126.57146       732.277    24671030.748   101023743.66044
       570.605  
  25211286.445   132486200.00755      2898.183    25211283.586   103236006.12454
      2258.253  
  24011999.060   126183916.98246     -1123.367    24012002.744    98325126.05945
      -875.355  
  21310695.367   111988476.19948      2253.016    21310698.223    87263773.14647
      1755.597  
  22472488.031   118093742.88748      2773.574    22472491.149    92021118.87147
      2161.226  
  23245008.344   122153331.97048     -3357.808    23245008.448    95184419.75645
     -2616.476  
  19752214.723   105772212.95709     -1474.722    19752216.988    82267287.86507
     -1147.008  
  23252073.156   124470169.00405     -3480.145    23252082.515    96810164.85804
     -2706.776  
  21634252.745   115322733.13405      2834.941    21634257.176    89695478.79103
      2204.949  
  22433838.098   120048019.76607      3053.941    22433840.958    93370691.91306
      2375.289  
  21793872.487   116378061.61804     -1048.754    21793877.136    90516291.82605
      -815.703  
  20165386.920   107795588.56009      1954.288    20165391.299    83841045.20708
      1520.003  
  20472849.818   109477533.90405     -1236.500    20472856.052    85149220.38808
      -961.723  
 20 09 30 07 15 55.0000000  0 16G15G18G20G 8G21G27G24G10G13R 4R 3R14
                                R21R13R 5R20
  20860346.382   109621858.15749     -2153.042    20860346.186    85419631.43048
     -1677.698  
  21142337.072   111103724.26648     -2239.152    21142337.819    86574329.09048
     -1744.797  
  20167041.105   105978526.92649      1077.073    20167040.385    82580667.51348
       839.276  
  24670331.716   129643473.81346       728.508    24670335.607   101020897.36144
       567.667  
  25208529.515   132471712.43245      2896.793    25208526.848   103224717.14943
      2257.246  
  24013069.643   126189542.46646     -1126.917    24013073.326    98329509.53544
      -878.125  
  21308553.221   111977219.95948      2249.320    21308556.205    87255002.03547
      1752.714  
  22469849.723   118079878.83148      2772.097    22469852.910    92010315.72047
      2160.074  
  23248203.913   122170124.79747     -3359.280    23248204.153    95197505.07145
     -2617.624  
  19753593.035   105779593.44309     -1477.441    19753595.354    82273028.24507
     -1149.121  
  23255324.038   124487571.48105     -3480.808    23255333.793    96823700.07404
     -2707.304  
  21631595.775   115308570.70605      2830.655    21631599.878    89684463.52303
      2201.613  
  22430986.688   120032761.16807      3049.608    22430989.749    93358824.11206
      2371.913  
  21794857.082   116383318.48304     -1055.004    21794861.568    90520380.48805
      -820.563  
  20163560.167   107785823.57909      1951.707    20163564.619    83833450.22708
      1517.995  
  20474008.479   109483729.06505     -1241.711    20474014.564    85154038.84508
      -965.776  
 20 09 30 07 16  0.0000000  0 16G15G18G20G 8G21G27G24G10G13R 4R 3R14
                                R21R13R 5R20
  20862396.053   109632629.40649     -2155.183    20862395.898    85428024.59948
     -1679.367  
  21144469.056   111114928.13348     -2242.104    21144469.788    86583059.36848
     -1747.097  
  20166017.700   105973148.74149      1074.492    20166016.913    82576476.72148
       837.262  
  24669640.185   129639839.17146       725.418    24669643.771   101018065.15944
       565.258  
  25205773.034   132457232.52645      2895.398    25205770.990   103213434.05943
      2256.152  
  24014143.486   126195185.83046     -1130.124    24014147.246    98333906.93645
      -880.624  
  21306414.543   111965980.94348      2246.273    21306417.325    87246244.36647
      1750.343  
  22467212.979   118066022.55248      2770.781    22467216.139    91999518.61847
      2159.051  
  23251400.845   122186924.60247     -3360.284    23251400.813    95210595.82845
     -2618.402  
  19754973.780   105786987.14608     -1479.633    19754975.942    82278778.90608
     -1150.823  
  23258575.920   124504978.43604     -3481.601    23258585.381    96837238.82804
     -2707.913  
  21628942.676   115294427.16305      2827.249    21628946.058    89673462.99203
      2198.968  
  22428138.734   120017521.66307      3046.573    22428141.981    93346971.16307
      2369.554  
  21795846.115   116388600.11904     -1058.133    21795850.604    90524488.42805
      -822.996  
  20161735.822   107776071.09809      1949.621    20161740.088    83825864.96608
      1516.370  
  20475171.763   109489950.04305     -1246.101    20475178.080    85158877.37208
      -969.195  
 20 09 30 07 16  5.0000000  0 17G15G18G20G 8G21G27G24G10G13R 4R 3R14
                                R21R13R 5R20R19
  20864447.638   109643410.36949     -2157.168    20864447.562    85436425.35248
     -1680.909  
  21146603.311   111126144.94148     -2244.680    21146604.207    86591799.73848
     -1749.104  
  20164996.386   105967781.82749      1072.124    20164995.615    82572294.70748
       835.417  
  24668951.244   129636219.41945       722.038    24668954.935   101015244.58245
       562.625  
  25203017.911   132442756.91045      2894.676    25203017.167   103202154.42643
      2255.602  
  24015220.196   126200843.69546     -1133.262    24015224.077    98338315.66145
      -883.066  
  21304278.519   111954755.81248      2243.496    21304281.148    87237497.51347
      1748.180  
  22464576.965   118052170.70448      2769.800    22464580.016    91988724.97947
      2158.284  
  23254598.538   122203728.03247     -3360.979    23254598.458    95223689.40345
     -2618.949  
  19756356.167   105794390.57808     -1481.690    19756358.751    82284537.13108
     -1152.426  
  23261828.345   124522386.45404     -3481.566    23261837.572    96850778.43704
     -2707.882  
  21626292.404   115280299.03605      2823.823    21626295.493    89662474.45603
      2196.305  
  22425293.725   120002297.78807      3042.902    22425297.065    93335130.37006
      2366.699  
  21796839.098   116393903.43404     -1062.527    21796843.780    90528613.22205
      -826.410  
  20159913.031   107766327.76509      1947.589    20159917.462    83818286.81108
      1514.788  
  20476339.250   109496193.27905     -1250.996    20476345.703    85163733.22608
      -973.000  
  22874173.073   122361401.11913     -4543.313    22874173.506    95169981.53316
     -3533.690  
 20 09 30 07 16 10.0000000  0 17G15G18G20G 8G21G27G24G10G13R 4R 3R14
                                R21R13R 5R20R19
  20866500.533   109654198.53349     -2158.531    20866500.436    85444831.71348
     -1681.977  
  21148739.886   111137372.18348     -2246.625    21148740.859    86600548.22248
     -1750.621  
  20163976.788   105962423.64449      1070.539    20163976.033    82568119.50248
       834.187  
  24668264.817   129632612.06346       719.594    24668268.491   101012433.64844
       560.723  
  25200263.437   132428283.11546      2894.527    25200266.349   103190876.13142
      2255.477  
  24016299.173   126206513.54146     -1135.401    24016303.002    98342733.70744
      -884.734  
  21302144.579   111943541.94448      2241.563    21302147.149    87228759.42847
      1746.668  
  22461941.346   118038320.74848      2769.612    22461944.344    91977932.80947
      2158.085  
  23257796.251   122220532.59647     -3361.234    23257796.170    95236783.87345
     -2619.144  
  19757740.073   105801801.11109     -1482.965    19757742.496    82290300.88008
     -1153.418  
  23265080.104   124539793.00004     -3481.108    23265089.298    96864316.82604
     -2707.539  
  21623644.362   115266183.91905      2821.574    21623647.565    89651496.03903
      2194.554  
  22422451.157   119987087.04007      3040.745    22422454.502    93323299.80407
      2365.023  
  21797835.742   116399225.80204     -1066.026    21797840.348    90532752.84905
      -829.132  
  20158091.740   107756591.01509      1946.496    20158096.024    83810713.78108
      1513.937  
  20477510.545   109502456.37705     -1254.706    20477516.912    85168604.52608
      -975.883  
  22878419.461   122384118.11604     -4544.460    22878420.433    95187650.27206
     -3534.589  
 20 09 30 07 16 15.0000000  0 16G15G18G20G 8G21G27G24G10G13R 4R 3R14
                                R21R13R 5R20
  20868555.699   109664998.47249     -2161.487    20868555.779    85453247.24948
     -1684.281  
  21150879.107   111148614.46348     -2250.367    21150880.195    86609308.44548
     -1753.535  
  20162959.675   105957078.87149      1067.187    20162958.872    82563954.74448
       831.569  
  24667581.430   129629021.61945       715.777    24667585.200   101009635.90445
       557.745  
  25197509.910   132413815.86045      2892.370    25197511.760   103179602.98841
      2253.804  
  24017381.436   126212200.02546     -1139.043    24017385.189    98347164.73945
      -887.570  
  21300013.697   111932343.98848      2237.547    21300016.131    87220033.76647
      1743.543  
  22459307.029   118024477.37948      2767.581    22459309.949    91967145.77747
      2156.558  
  23260995.085   122237342.89147     -3363.120    23260995.075    95249882.82045
     -2620.613  
  19759126.045   105809223.55808     -1486.148    19759128.618    82296073.90608
     -1155.894  
  23268332.637   124557202.81404     -3482.687    23268341.823    96877857.73303
     -2708.765  
  21620999.523   115252086.53205      2817.254    21621002.706    89640531.34703
      2191.194  
  22419611.921   119971894.27407      3036.473    22419615.620    93311483.21407
      2361.698  
  21798836.702   116404571.96604     -1072.250    21798841.534    90536910.97405
      -833.973  
  20156272.319   107746865.60709      1943.495    20156276.746    83803149.57708
      1511.605  
  20478686.174   109508743.80505     -1260.159    20478692.692    85173494.74608
      -980.124  
 20 09 30 07 16 20.0000000  0 16G15G18G20G 8G21G27G24G10G13R 4R 3R14
                                R21R13R 5R20
  20870613.324   109675811.77049     -2163.386    20870613.533    85461673.18848
     -1685.762  
  21153021.548   111159873.34748     -2253.004    21153022.695    86618081.59048
     -1755.590  
  20161945.617   105951749.02049      1064.968    20161944.636    82559801.61748
       829.847  
  24666901.639   129625449.54546       713.495    24666905.704   101006852.45045
       555.969  
  25194758.486   132399356.68545      2891.429    25194759.812   103168336.06344
      2253.055  
  24018466.942   126217904.68347     -1142.297    24018470.691    98351609.93944
      -890.105  
  21297886.248   111921163.57948      2234.886    21297888.530    87211321.74947
      1741.465  
  22456674.289   118010642.14748      2766.820    22456677.270    91956365.08747
      2155.964  
  23264195.417   122254160.50347     -3363.706    23264195.473    95262987.41645
     -2621.078  
  19760514.671   105816659.46209     -1487.979    19760517.406    82301857.37808
     -1157.320  
  23271586.079   124574617.36504     -3482.184    23271595.045    96891402.47505
     -2708.352  
  21618358.494   115238008.26805      2814.746    21618361.445    89629581.63403
      2189.241  
  22416776.432   119956721.00007      3033.359    22416780.044    93299681.79207
      2359.281  
  21799842.667   116409943.20104     -1076.398    21799847.530    90541088.60505
      -837.199  
  20154455.481   107737153.09709      1941.723    20154459.896    83795595.40808
      1510.230  
  20479867.089   109515057.43805     -1264.882    20479873.426    85178405.35107
      -983.800  
 20 09 30 07 16 25.0000000  0 15G15G18G20G 8G21G27G24G10G13R 4R14R21
                                R13R 5R20
  20872671.158   109686625.85249     -2163.647    20872671.284    85470099.74348
     -1685.964  
  21155164.764   111171136.23948     -2253.847    21155165.913    86626857.86747
     -1756.250  
  20160931.758   105946421.49749      1064.468    20160930.910    82555650.29648
       829.453  
  24666223.000   129621883.52245       712.133    24666227.173   101004073.76244
       554.909  
  25192005.857   132384892.86546      2892.777    25192007.121   103157065.53643
      2254.098  
  24019553.620   126223614.86946     -1143.301    24019557.438    98356059.42343
      -890.886  
  21295759.748   111909988.18148      2233.757    21295761.940    87202613.65847
      1740.590  
  22454040.591   117996802.46748      2767.534    22454043.380    91945580.93147
      2156.520  
  23267394.619   122270972.76448     -3362.440    23267394.558    95276087.88345
     -2620.090  
  19761903.470   105824096.00809     -1488.207    19761906.190    82307641.36408
     -1157.496  
  21615718.438   115223936.69004      2812.655    21615721.308    89618637.11103
      2187.624  
  22413942.053   119941554.41807      3031.602    22413945.889    93287885.56607
      2357.914  
  21800850.764   116415327.00604     -1078.141    21800855.890    90545276.02005
      -838.555  
  20152638.494   107727440.60409      1941.636    20152643.054    83788041.23708
      1510.156  
  20481050.276   109521384.28505     -1267.503    20481056.501    85183326.22307
      -985.840  
 20 09 30 07 16 30.0000000  0 15G15G18G20G 8G21G27G24G10G13R 4R14R21
                                R13R 5R20
  20874731.999   109697455.58049     -2167.828    20874732.190    85478538.49548
     -1689.215  
  21157311.627   111182418.05248     -2258.652    21157312.800    86635648.88448
     -1759.992  
  20159921.341   105941111.28549      1059.921    20159920.304    82551512.46948
       825.909  
  24665548.368   129618338.33745       706.679    24665552.844   101001311.24745
       550.655  
  25189255.308   132370439.57246      2888.906    25189256.156   103145803.29344
      2251.097  
  24020644.304   126229345.57947     -1148.519    24020647.900    98360524.93245
      -894.949  
  21293636.832   111898832.55748      2228.641    21293639.036    87193920.97047
      1736.601  
  22451409.009   117982973.25748      2764.491    22451411.729    91934804.92047
      2154.148  
  23270595.760   122287794.68848     -3365.741    23270595.614    95289195.86345
     -2622.660  
  19763295.015   105831548.48209     -1492.516    19763297.849    82313437.73008
     -1160.847  
  21613082.503   115209886.83105      2807.777    21613085.339    89607709.43303
      2183.827  
  22411111.913   119926409.67207      3026.612    22411115.832    93276106.33107
      2354.031  
  21801864.232   116420738.40004     -1084.726    21801869.118    90549484.87805
      -843.675  
  20150824.523   107717743.51409      1937.581    20150829.117    83780499.05208
      1507.003  
  20482238.772   109527739.45605     -1274.121    20482244.874    85188269.12807
      -990.988  
 20 09 30 07 16 35.0000000  0 15G15G18G20G 8G21G27G24G10G13R 4R14R21
                                R13R 5R20
  20876795.641   109708300.06448     -2169.995    20876795.764    85486988.79848
     -1690.897  
  21159461.733   111193717.87048     -2261.581    21159463.067    86644453.93147
     -1762.276  
  20158913.961   105935817.46949      1057.363    20158912.899    82547387.41048
       823.913  
  24664877.304   129614812.96945       703.598    24664882.101   100998564.22744
       548.254  
  25186506.576   132355995.76146      2888.026    25186507.342   103134548.35941
      2250.401  
  24021738.654   126235095.86047     -1151.632    24021742.100    98365005.62545
      -897.383  
  21291517.712   111887696.03548      2225.617    21291520.009    87185243.15847
      1734.241  
  22448779.213   117969153.67949      2763.281    22448782.004    91924036.41747
      2153.202  
  23273798.638   122304625.33147     -3366.742    23273798.304    95302310.62245
     -2623.441  
  19764689.431   105839015.82709     -1494.668    19764692.333    82319245.61408
     -1162.526  
  21610450.640   115195857.70705      2803.875    21610453.383    89596797.83103
      2180.781  
  22408285.697   119911285.99007      3022.859    22408289.503    93264343.45806
      2351.112  
  21802882.540   116426176.48304     -1090.066    21802887.528    90553714.50405
      -847.828  
  20149013.159   107708060.70209      1935.398    20149017.553    83772967.98308
      1505.309  
  20483432.483   109534122.20305     -1279.023    20483438.338    85193233.49007
      -994.796  
 20 09 30 07 16 40.0000000  0 15G15G18G20G 8G21G27G24G10G13R 4R14R21
                                R13R 5R20
  20878860.971   109719154.04248     -2171.702    20878861.315    85495446.41448
     -1692.237  
  21161614.513   111205030.43248     -2263.878    21161615.806    86653268.91247
     -1764.066  
  20157908.650   105930534.77149      1055.566    20157907.681    82543271.02248
       822.520  
  24664209.318   129611302.33245       700.976    24664214.074   100995828.67445
       546.215  
  25183759.101   132341556.15346      2887.499    25183759.187   103123296.71944
      2249.996  
  24022835.834   126240860.45947     -1154.559    24022839.009    98369497.59644
      -899.648  
  21289401.070   111876573.28848      2223.249    21289403.415    87176576.09247
      1732.401  
  22446150.400   117955338.39149      2762.711    22446153.005    91913271.25947
      2152.758  
  23277002.055   122321459.33747     -3367.058    23277001.723    95315428.02545
     -2623.687  
  19766085.694   105846492.66109     -1496.292    19766088.480    82325060.95208
     -1163.785  
  21607821.713   115181843.98604      2801.242    21607824.739    89585898.27103
      2178.733  
  22405462.406   119896177.95807      3020.105    22405466.194    93252592.77707
      2348.973  
  21803904.886   116431635.91204     -1093.858    21803909.681    90557960.73605
      -850.784  
  20147203.460   107698386.92109      1933.859    20147207.849    83765443.92908
      1504.121  
  20484630.370   109540527.15605     -1282.921    20484636.149    85198215.12107
      -997.832  
 20 09 30 07 16 45.0000000  0 15G15G18G20G 8G21G27G24G10G13R 4R14R21
                                R13R 5R20
  20880928.213   109730018.21849     -2173.840    20880928.821    85503912.00648
     -1693.906  
  21163769.776   111216356.41648     -2266.718    21163771.196    86662094.34247
     -1766.276  
  20156905.598   105925263.94649      1053.144    20156904.443    82539163.89748
       820.633  
  24663544.254   129607807.11945       697.573    24663549.105   100993105.08145
       543.555  
  25181012.256   132327121.54246      2886.905    25181012.640   103112049.00643
      2249.433  
  24023935.842   126246640.06847     -1157.203    24023938.900    98374001.15145
      -901.723  
  21287287.066   111865464.99748      2220.504    21287289.540    87167920.28247
      1730.261  
  22443522.525   117941528.16049      2761.737    22443524.979    91902510.02547
      2152.000  
  23280206.284   122338297.48648     -3368.019    23280205.682    95328548.64045
     -2624.434  
  19767483.838   105853979.74909     -1498.269    19767486.759    82330884.23408
     -1165.324  
  21605196.040   115167846.45104      2797.882    21605199.059    89575011.31602
      2176.132  
  22402642.219   119881086.34806      3016.659    22402645.969    93240854.87207
      2346.293  
  21804931.452   116437117.34304     -1097.808    21804936.349    90562224.07005
      -853.854  
  20145395.596   107688722.78509      1931.805    20145400.029    83757927.39508
      1502.515  
  20485832.327   109546954.84205     -1288.051    20485838.051    85203214.42008
     -1001.820  
 20 09 30 07 16 50.0000000  0 15G15G18G20G 8G21G27G24G10G13R 4R14R21
                                R13R 5R20
  20882997.394   109740892.46449     -2176.559    20882998.003    85512385.43048
     -1696.020  
  21165927.534   111227695.73049     -2269.848    21165929.067    86670930.18548
     -1768.711  
  20155904.820   105920004.88949      1049.996    20155903.652    82535065.92348
       818.176  
  24662882.021   129604327.21346       693.574    24662886.829   100990393.48745
       540.445  
  25178266.278   132312691.92145      2884.805    25178267.281   103100805.12543
      2247.894  
  24025038.487   126252434.63347     -1161.089    24025041.380    98378516.37544
      -904.749  
  21285176.081   111854371.07548      2216.651    21285178.341    87159275.68247
      1727.261  
  22440895.436   117927722.90149      2759.866    22440897.776    91891752.69447
      2150.546  
  23283411.285   122355139.63347     -3369.698    23283410.610    95341672.41145
     -2625.738  
  19768884.032   105861477.06908     -1501.031    19768886.736    82336715.49608
     -1167.472  
  21602573.410   115153865.17105      2794.199    21602576.239    89564136.99703
      2173.266  
  22399824.990   119866011.13207      3012.977    22399828.922    93229129.69107
      2343.422  
  21805962.076   116442620.87804     -1104.203    21805966.947    90566504.60005
      -858.824  
  20143589.659   107679068.33209      1929.128    20143593.894    83750418.36708
      1500.429  
  20487038.840   109553405.13705     -1293.145    20487044.257    85208231.31207
     -1005.781  
 20 09 30 07 16 55.0000000  0 15G15G18G20G 8G21G27G24G10G13R 4R14R21
                                R13R 5R20
  20885069.220   109751780.23548     -2178.257    20885069.867    85520869.43048
     -1697.343  
  21168088.500   111239051.74348     -2272.086    21168090.110    86679779.01348
     -1770.461  
  20154906.902   105914760.97749      1047.941    20154905.838    82530979.75948
       816.577  
  24662223.477   129600866.04446       690.854    24662228.156   100987696.48746
       538.327  
  25175522.052   132298270.57545      2883.999    25175522.783   103089567.70743
      2247.269  
  24026144.720   126258247.42947     -1163.562    24026147.444    98383045.76945
      -906.683  
  21283068.330   111843295.07948      2213.878    21283070.771    87150645.03547
      1725.101  
  22438270.036   117913925.95449      2759.109    22438272.197    91881001.82447
      2149.956  
  23286617.771   122371989.20747     -3370.281    23286616.869    95354801.91245
     -2626.194  
  19770286.495   105868987.94808     -1502.883    19770289.355    82342557.26208
     -1168.914  
  21599954.374   115139903.42205      2791.511    21599957.105    89553277.83301
      2171.168  
  22397011.424   119850955.67307      3009.741    22397015.466    93217419.92807
      2340.914  
  21806997.389   116448149.73604     -1107.535    21807002.275    90570804.80205
      -861.422  
  20141786.087   107669427.01608      1927.554    20141790.158    83742919.56308
      1499.206  
  20488249.799   109559881.80405     -1297.167    20488255.276    85213268.71908
     -1008.914  
 20 09 30 07 17  0.0000000  0 15G15G18G20G 8G21G27G24G10G13R 4R14R21
                                R13R 5R20
  20887142.200   109762674.75648     -2179.941    20887142.971    85529358.69448
     -1698.651  
  21170251.371   111250417.86648     -2274.550    21170252.843    86688635.73048
     -1772.382  
  20153910.714   105909525.60349      1045.765    20153909.702    82526900.24748
       814.882  
  24661566.996   129597416.89846       688.206    24661571.625   100985008.85146
       536.269  
  25172777.918   132283850.92745      2883.503    25172778.480   103078331.65343
      2246.890  
  24027253.139   126264071.89447     -1166.324    24027255.926    98387584.28944
      -908.831  
  21280962.697   111832230.21648      2211.671    21280965.161    87142023.07147
      1723.378  
  22435644.995   117900130.74149      2758.577    22435647.197    91870252.32647
      2149.543  
  23289824.254   122388839.51148     -3370.464    23289823.515    95367932.02845
     -2626.335  
  19771690.467   105876505.68108     -1504.565    19771693.162    82348404.37908
     -1170.227  
  21597337.691   115125954.52905      2788.655    21597340.303    89542428.74603
      2168.952  
  22394200.484   119835913.26207      3006.656    22394204.677    93205720.26407
      2338.512  
  21808036.278   116453697.40504     -1111.359    21808041.094    90575119.66305
      -864.395  
  20139983.490   107659791.97909      1926.210    20139987.582    83735425.64208
      1498.159  
  20489464.600   109566377.85905     -1301.461    20489470.118    85218321.21207
     -1012.245  
 20 09 30 07 17  5.0000000  0 15G15G18G20G 8G21G27G24G10G13R 4R14R21
                                R13R 5R20
  20889217.298   109773579.43849     -2182.155    20889218.015    85537855.80848
     -1700.390  
  21172416.940   111261797.31849     -2277.340    21172418.277    86697502.82047
     -1774.555  
  20152916.796   105904302.02549      1043.469    20152915.550    82522829.92648
       813.090  
  24660913.802   129593983.12546       685.245    24660918.409   100982333.16845
       533.949  
  25170034.918   132269436.24145      2882.296    25170036.064   103067099.45143
      2245.949  
  24028364.588   126269911.22347     -1169.323    24028367.061    98392134.44945
      -911.160  
  21278859.739   111821179.78548      2208.308    21278862.235    87133412.34747
      1720.762  
  22433020.896   117886340.57249      2757.374    22433022.936    91859506.73147
      2148.605  
  23293031.484   122405693.90147     -3371.229    23293030.835    95381065.30945
     -2626.937  
  19773096.289   105884033.64209     -1506.659    19773098.914    82354259.47808
     -1171.843  
  21594723.967   115112021.84305      2784.813    21594726.446    89531592.18303
      2165.960  
  22391392.592   119820887.22906      3003.499    22391396.682    93194033.38307
      2336.058  
  21809079.344   116459267.04205     -1116.319    21809084.068    90579451.59405
      -868.249  
  20138182.956   107650166.75209      1923.866    20138186.985    83727939.35908
      1496.335  
  20490683.808   109572896.67005     -1306.319    20490689.100    85223391.39708
     -1016.027  
 20 09 30 07 17 10.0000000  0 15G15G18G20G 8G21G27G24G10G13R 4R14R21
                                R13R 5R20
  20891294.530   109784495.08149     -2184.191    20891295.250    85546361.49048
     -1701.972  
  21174584.992   111273190.97849     -2280.198    21174586.419    86706380.99948
     -1776.781  
  20151925.147   105899091.15749      1040.984    20151924.117    82518769.51548
       811.152  
  24660263.440   129590565.54146       681.723    24660267.958   100979670.11745
       531.355  
  25167292.990   132255027.40445      2881.109    25167294.157   103055871.73444
      2245.008  
  24029478.847   126275766.38547     -1172.535    24029481.270    98396696.91845
      -913.664  
  21276759.830   111810144.59548      2205.358    21276762.209    87124813.49847
      1718.457  
  22430397.943   117872556.29449      2756.363    22430399.848    91848765.74747
      2147.815  
  23296239.884   122422553.18747     -3372.534    23296239.122    95394202.39745
     -2627.953  
  19774504.142   105891572.66208     -1508.977    19774506.820    82360123.16808
     -1173.648  
  21592113.785   115098106.38804      2780.984    21592115.887    89520769.10303
      2162.988  
  22388587.725   119805878.59907      2999.852    22388592.075    93182360.01207
      2333.215  
  21810126.614   116464859.56205     -1120.554    21810131.320    90583801.35105
      -871.546  
  20136384.291   107640551.94509      1921.973    20136388.314    83720461.17408
      1494.863  
  20491907.369   109579439.16405     -1310.815    20491912.663    85228480.00708
     -1019.526  
 20 09 30 07 17 15.0000000  0 15G15G18G20G 8G21G27G24G10G13R 4R14R21
                                R13R 5R20
  20893373.491   109795420.66149     -2186.543    20893374.198    85554874.93248
     -1703.805  
  21176755.706   111284597.81148     -2282.808    21176757.204    86715269.43947
     -1778.815  
  20150935.604   105893891.98149      1038.543    20150934.878    82514718.21548
       809.253  
  24659616.054   129587163.25646       678.406    24659620.304   100977018.98745
       528.625  
  25164551.931   132240623.38646      2880.230    25164553.430   103044647.85345
      2244.339  
  24030595.995   126281636.34847     -1175.819    24030598.574    98401270.90345
      -916.223  
  21274662.586   111799123.81448      2202.414    21274664.874    87116225.88547
      1716.167  
  22427775.750   117858776.89049      2755.203    22427777.814    91838028.55047
      2146.906  
  23299448.844   122439416.29347     -3373.449    23299448.026    95407342.47745
     -2628.663  
  19775913.869   105899121.65208     -1511.015    19775916.470    82365994.59308
     -1175.238  
  21589506.165   115084206.77604      2778.074    21589508.246    89509958.31101
      2160.727  
  22385786.006   119790886.25407      2996.613    22385790.376    93170699.30407
      2330.699  
  21811177.983   116470473.87304     -1125.312    21811182.636    90588168.02405
      -875.245  
  20134587.458   107630946.75309      1919.862    20134591.406    83712990.47708
      1493.226  
  20493135.072   109586004.21305     -1315.465    20493140.380    85233586.14508
     -1023.145  
 20 09 30 07 17 20.0000000  0 15G15G18G20G 8G21G27G24G10G13R 4R14R21
                                R13R 5R20
  20895454.573   109806356.53749     -2188.097    20895455.347    85563396.39048
     -1705.012  
  21178929.030   111296018.23948     -2285.405    21178930.425    86724168.47748
     -1780.835  
  20149948.509   105888704.91849      1036.445    20149947.801    82510676.36448
       807.621  
  24658971.466   129583776.54946       675.625    24658975.667   100974379.99445
       526.461  
  25161812.058   132226224.59746      2879.327    25161813.736   103033428.01544
      2243.629  
  24031715.968   126287521.37646     -1178.210    24031718.640    98405856.60544
      -918.089  
  21272568.168   111788117.72948      2199.733    21272570.524    87107649.71547
      1714.078  
  22425154.665   117845002.81048      2754.477    22425156.741    91827295.50747
      2146.343  
  23302658.600   122456283.70547     -3373.827    23302657.663    95420485.90745
     -2628.960  
  19777325.661   105906681.14008     -1512.793    19777328.295    82371874.19808
     -1176.616  
  21586901.930   115070323.92304      2774.609    21586903.804    89499160.49701
      2158.027  
  22382987.335   119775910.65406      2993.703    22382991.751    93159051.61007
      2328.437  
  21812233.658   116476110.46205     -1129.422    21812238.047    90592552.04405
      -878.441  
  20132792.533   107621351.53809      1918.187    20132796.485    83705527.54408
      1491.921  
  20494367.037   109592592.14505     -1319.702    20494372.446    85238710.08908
     -1026.441  
 20 09 30 07 17 25.0000000  0 15G15G18G20G 8G21G27G24G10G13R 4R14R21
                                R13R 5R20
  20897537.946   109817304.08049     -2190.667    20897538.429    85571926.95148
     -1707.015  
  21181105.051   111307453.52448     -2288.585    21181106.538    86733079.07847
     -1783.316  
  20148964.073   105883531.26749      1033.378    20148963.166    82506644.94848
       805.230  
  24658330.172   129580406.74246       672.620    24658334.727   100971754.17045
       524.117  
  25159073.574   132211832.39546      2877.813    25159074.923   103022213.28545
      2242.449  
  24032838.964   126293422.94746     -1181.843    24032841.874    98410455.25044
      -920.917  
  21270476.795   111777127.67748      2196.214    21270479.370    87099086.03948
      1711.336  
  22422534.893   117831235.31249      2752.745    22422536.890    91816567.59247
      2144.996  
  23305869.508   122473156.67247     -3374.957    23305868.543    95433633.67245
     -2629.840  
  19778739.497   105914252.38709     -1515.487    19778742.043    82377762.94108
     -1178.718  
  21584300.921   115056458.86204      2771.589    21584303.184    89488376.65902
      2155.688  
  22380192.186   119760953.18607      2989.339    22380196.743    93147418.00507
      2325.038  
  21813293.593   116481770.54904     -1134.593    21813297.813    90596954.34005
      -882.464  
  20130999.629   107611767.62209      1915.875    20131003.719    83698073.37708
      1490.121  
  20495603.513   109599204.41805     -1324.363    20495608.831    85243852.96608
     -1030.062  
 20 09 30 07 17 30.0000000  0 15G15G18G20G 8G21G27G24G10G13R 4R14R21
                                R13R 5R20
  20899622.869   109828260.86449     -2192.516    20899623.479    85580464.72548
     -1708.453  
  21183283.534   111318901.31349     -2290.956    21183284.829    86741999.43947
     -1785.160  
  20147981.557   105878368.67149      1031.094    20147980.972    82502622.15248
       803.449  
  24657691.744   129577051.68646       669.285    24657696.200   100969139.88545
       521.520  
  25156335.906   132197444.35346      2876.858    25156337.063   103011001.89344
      2241.711  
  24033964.699   126299338.56745     -1184.758    24033967.629    98415064.84044
      -923.187  
  21268388.078   111766151.39848      2193.629    21268390.680    87090533.11047
      1709.319  
  22419915.886   117817472.08949      2751.949    22419917.998    91805843.01047
      2144.375  
  23309080.960   122490032.87047     -3375.753    23309079.859    95446783.97445
     -2630.456  
  19780155.009   105921832.95508     -1517.058    19780157.733    82383658.92708
     -1179.937  
  21581702.878   115042609.33404      2768.214    21581705.144    89477604.79502
      2153.054  
  22377399.870   119746011.37407      2987.104    22377404.362    93135796.58007
      2323.301  
  21814357.454   116487451.69605     -1138.175    21814361.656    90601373.00905
      -885.245  
  20129208.439   107602192.56209      1913.854    20129212.619    83690626.11308
      1488.554  
  20496844.030   109605838.71005     -1329.184    20496849.521    85249012.96708
     -1033.812  
 20 09 30 07 17 35.0000000  0 15G15G18G20G 8G21G27G24G10G13R 4R14R21
                                R13R 5R20
  20901710.100   109839228.02349     -2194.323    20901710.452    85589010.56148
     -1709.862  
  21185464.464   111330362.74048     -2293.515    21185465.801    86750930.40547
     -1787.159  
  20147001.528   105873218.20949      1028.976    20147000.709    82498608.79748
       801.800  
  24657056.317   129573712.24546       666.238    24657060.733   100966537.72144
       519.147  
  25153598.981   132183061.61846      2876.305    25153600.361   102999794.55444
      2241.277  
  24035093.258   126305269.43646     -1188.559    24035096.396    98419686.23444
      -926.156  
  21266302.249   111755190.01048      2190.905    21266304.664    87081991.78648
      1707.199  
  22417297.838   117803714.24749      2751.098    22417299.852    91795122.60847
      2143.706  
  23312293.335   122506913.36047     -3376.358    23312292.236    95459937.58945
     -2630.934  
  19781572.592   105929423.98209     -1519.198    19781575.606    82389563.06608
     -1181.597  
  21579107.798   115028776.50004      2765.137    21579110.307    89466845.89902
      2150.655  
  22374610.695   119731086.53307      2983.483    22374615.398    93124188.37707
      2320.487  
  21815425.646   116493155.09705     -1143.051    21815429.406    90605808.99705
      -889.039  
  20127419.102   107592627.56208      1912.140    20127423.208    83683186.67808
      1487.218  
  20498088.925   109612495.90805     -1333.593    20498094.505    85254190.79508
     -1037.238  
 20 09 30 07 17 40.0000000  0 15G15G18G20G 8G21G27G24G10G13R 4R14R21
                                R13R 5R20
  20903799.429   109850207.46149     -2197.008    20903799.644    85597565.95548
     -1711.957  
  21187648.449   111341839.62448     -2296.676    21187649.717    86759873.42647
     -1789.621  
  20146023.986   105868081.81749      1026.051    20146023.394    82494606.41648
       799.520  
  24656424.217   129570390.35046       662.543    24656428.724   100963949.21846
       516.148  
  25150863.616   132168686.08446      2874.714    25150864.291   102988592.83643
      2240.038  
  24036225.082   126311217.21046     -1191.078    24036228.029    98424320.89543
      -928.112  
  21264219.467   111744245.29048      2187.483    21264222.084    87073463.43748
      1704.534  
  22414681.139   117789963.65349      2749.629    22414683.116    91784407.85847
      2142.563  
  23315506.851   122523800.00247     -3377.581    23315505.616    95473095.99945
     -2631.887  
  19782992.591   105937027.42109     -1521.711    19782995.377    82395476.86408
     -1183.554  
  21576516.530   115014962.14604      2761.109    21576519.211    89456101.42302
      2147.531  
  22371825.076   119716180.34206      2979.570    22371829.745    93112594.70506
      2317.449  
  21816498.171   116498882.56604     -1148.430    21816502.059    90610263.69205
      -893.227  
  20125631.987   107583074.56509      1909.636    20125636.154    83675756.57508
      1485.270  
  20499338.661   109619178.05905     -1339.414    20499344.304    85259388.02308
     -1041.766  
 20 09 30 07 17 45.0000000  0 16G15G18G20G 8G21G27G24G10G13R 4R 3R14
                                R21R13R 5R20
  20905890.631   109861196.77049     -2198.792    20905891.043    85606129.03748
     -1713.351  
  21189834.884   111353329.67148     -2299.323    21189836.079    86768826.71347
     -1791.683  
  20145048.900   105862957.23549      1023.737    20145048.255    82490613.22948
       797.715  
  24655794.999   129567083.69446       659.597    24655799.474   100961372.60845
       513.973  
  25148128.979   132154315.50446      2873.590    25148129.677   102977394.95644
      2239.148  
  24037359.517   126317179.80045     -1193.930    24037362.741    98428967.09945
      -930.328  
  21262139.367   111733314.98248      2184.569    21262142.193    87064946.32147
      1702.261  
  22412065.572   117776218.03649      2748.707    22412067.335    91773696.98347
      2141.851  
  23318720.955   122540690.48048     -3378.313    23318719.868    95486257.42045
     -2632.453  
  19784414.272   105944640.92308     -1523.727    19784417.318    82401398.47808
     -1185.120  
  23326937.705   124870923.23615     -3489.214    23326940.939    97121841.62114
     -2713.831  
  21573928.080   115001164.12805      2758.347    21573931.023    89445369.62401
      2145.382  
  22369042.513   119701290.59907      2976.194    22369047.202    93101013.78707
      2314.816  
  21817574.699   116504631.88804     -1151.484    21817578.805    90614735.38605
      -895.598  
  20123846.764   107573531.14709      1907.804    20123850.801    83668333.92108
      1483.848  
  20500592.483   109625882.74405     -1343.003    20500597.965    85264602.78408
     -1044.563  
 20 09 30 07 17 50.0000000  0 16G15G18G20G 8G21G27G24G10G13R 4R 3R14
                                R21R13R 5R20
  20907984.127   109872197.57049     -2201.168    20907984.379    85614701.08748
     -1715.199  
  21192024.192   111364834.46748     -2302.175    21192025.359    86777791.47947
     -1793.906  
  20144076.112   105857845.98449      1021.070    20144075.586    82486630.43648
       795.636  
  24655169.011   129563793.91646       656.523    24655173.556   100958809.14145
       511.577  
  25145395.699   132139951.42546      2872.487    25145396.170   102966202.23344
      2238.308  
  24038497.148   126323158.81046     -1196.890    24038500.542    98433626.04744
      -932.645  
  21260062.510   111722400.86448      2181.563    21260065.226    87056441.82947
      1699.917  
  22409450.967   117762478.94549      2747.362    22409452.981    91762991.20547
      2140.801  
  23321936.165   122557586.46247     -3379.589    23321935.215    95499423.10145
     -2633.448  
  19785838.395   105952266.07309     -1525.984    19785841.394    82407329.14308
     -1186.879  
  23330198.813   124888371.26705     -3489.366    23330201.600    97135412.27404
     -2713.956  
  21571342.975   114987384.03005      2754.144    21571346.322    89434651.75203
      2142.104  
  22366263.390   119686418.91707      2972.813    22366268.028    93089446.92607
      2312.188  
  21818655.814   116510404.73304     -1157.155    21818659.950    90619225.38105
      -900.011  
  20122063.419   107563998.89709      1905.477    20122067.620    83660919.95408
      1482.039  
  20501850.883   109632611.60005     -1347.972    20501856.428    85269836.32908
     -1048.425  
 20 09 30 07 17 55.0000000  0 16G15G18G20G 8G21G27G24G10G13R 4R 3R14
                                R21R13R 5R20
  20910078.940   109883205.54549     -2202.233    20910078.958    85623278.72748
     -1716.030  
  21194215.383   111376349.66148     -2304.059    21194216.612    86786764.35647
     -1795.375  
  20143105.238   105852743.78449      1019.569    20143104.623    82482654.69248
       794.465  
  24654545.454   129560516.69746       653.804    24654549.855   100956255.46945
       509.563  
  25142662.828   132125589.59246      2872.348    25142663.267   102955011.17343
      2238.194  
  24039637.119   126329149.80846     -1198.941    24039640.126    98438294.35943
      -934.234  
  21257987.953   111711498.46648      2179.382    21257990.665    87047946.44347
      1698.214  
  22406837.122   117748742.12649      2747.246    22406838.905    91752287.18647
      2140.707  
  23325151.613   122574483.53447     -3379.358    23325150.622    95512589.62545
     -2633.272  
  19787263.621   105959898.43509     -1527.163    19787266.609    82413265.42508
     -1187.797  
  23333458.156   124905817.96805     -3489.168    23333461.216    97148981.95304
     -2713.796  
  21568760.311   114973617.38804      2752.004    21568764.163    89423944.38903
      2140.444  
  22363487.012   119671561.01907      2970.323    22363491.521    93077890.78806
      2310.253  
  21819740.442   116516196.64904     -1160.605    21819744.641    90623730.19905
      -902.695  
  20120281.565   107554473.45909      1904.484    20120285.939    83653511.28408
      1481.266  
  20503113.006   109639360.20805     -1351.652    20503118.519    85275085.24508
     -1051.288  
 20 09 30 07 18  0.0000000  0 15G15G18G20G 8G21G27G24G10G13R 4R 3R21
                                R13R 5R20
  20912175.649   109894223.19949     -2205.121    20912175.507    85631863.90148
     -1718.280  
  21196409.020   111387877.83348     -2307.535    21196410.274    86795747.34847
     -1798.081  
  20142136.659   105847653.21549      1016.319    20142136.085    82478688.00448
       791.933  
  24653924.799   129557254.50846       650.272    24653929.112   100953713.50846
       506.707  
  25139930.837   132111232.44646      2870.417    25139931.100   102943823.84343
      2236.698  
  24040779.903   126335155.21046     -1202.668    24040782.492    98442973.90843
      -937.144  
  21255916.066   111700610.31248      2175.687    21255918.789    87039462.17747
      1695.340  
  22404224.000   117735010.10949      2745.472    22404225.568    91741586.91647
      2139.328  
  23328367.797   122591384.23047     -3381.094    23328366.903    95525759.00645
     -2634.620  
  19788690.749   105967540.67109     -1530.125    19788693.787    82419209.38408
     -1190.101  
  23336718.284   124923265.81905     -3489.831    23336721.314    97162552.48104
     -2714.320  
  22360713.399   119656719.38707      2966.522    22360718.147    93066347.31406
      2307.297  
  21820829.149   116522010.15604     -1165.460    21820833.212    90628251.81805
      -906.468  
  20118501.401   107544957.52709      1901.633    20118505.914    83646110.00108
      1479.046  
  20504379.294   109646131.15105     -1357.316    20504384.725    85280351.52708
     -1055.694  
 20 09 30 07 18  5.0000000  0 15G15G18G20G 8G21G27G24G10G13R 4R 3R21
                                R13R 5R20
  20914274.439   109905252.97649     -2206.812    20914274.511    85640458.53348
     -1719.597  
  21198605.739   111399421.38948     -2310.128    21198606.916    86804742.32547
     -1800.104  
  20141170.587   105842576.65749      1014.136    20141170.019    82474732.24948
       790.234  
  24653307.265   129554009.84746       647.375    24653311.640   100951185.18645
       504.448  
  25137200.193   132096882.53146      2869.770    25137200.598   102932642.08143
      2236.184  
  24041925.797   126341177.67045     -1206.679    24041928.355    98447666.77443
      -940.257  
  21253847.248   111689738.97348      2172.761    21253850.075    87030991.01347
      1693.063  
  22401612.226   117721285.33449      2744.554    22401613.969    91730892.29147
      2138.612  
  23331585.073   122608291.06747     -3381.796    23331584.190    95538933.16545
     -2635.172  
  19790120.253   105975195.13309     -1531.808    19790123.086    82425162.86308
     -1191.406  
  23339978.856   124940717.41505     -3490.694    23339981.982    97176125.91705
     -2714.992  
  22357943.396   119641896.63407      2963.367    22357948.103    93054818.48607
      2304.835  
  21821922.104   116527847.84804     -1169.784    21821926.659    90632792.25405
      -909.835  
  20116723.528   107535453.49809      1899.901    20116727.786    83638717.97808
      1477.699  
  20505650.206   109652927.07205     -1361.613    20505655.747    85285637.24208
     -1059.035  
 20 09 30 07 18 10.0000000  0 15G15G18G20G 8G21G27G24G10G13R 4R 3R21
                                R13R 5R20
  20916375.107   109916291.59449     -2208.453    20916375.225    85649060.04248
     -1720.874  
  21200804.732   111410977.01748     -2312.168    21200805.792    86813746.69947
     -1801.691  
  20140206.585   105837510.95149      1012.233    20140205.880    82470784.95148
       788.754  
  24652692.695   129550779.57146       644.983    24652696.917   100948668.09445
       502.581  
  25134470.371   132082536.59546      2868.733    25134470.273   102921463.48144
      2235.383  
  24043074.355   126347213.85145     -1208.441    24043076.635    98452370.28943
      -941.640  
  21251781.282   111678881.09448      2170.223    21251783.792    87022530.33647
      1691.081  
  22399001.228   117707564.53649      2743.897    22399002.857    91720200.75547
      2138.097  
  23334802.718   122625200.68647     -3381.995    23334801.988    95552109.48145
     -2635.324  
  19791551.281   105982858.68909     -1533.374    19791554.305    82431123.40308
     -1192.628  
  23343239.197   124958169.40105     -3490.500    23343242.861    97189699.69905
     -2714.836  
  22355176.325   119627089.38507      2960.022    22355180.931    93043301.76306
      2302.242  
  21823019.286   116533706.11504     -1174.015    21823023.745    90637348.67505
      -913.124  
  20114947.300   107525958.04109      1898.301    20114951.548    83631332.62708
      1476.453  
  20506925.072   109659744.41505     -1364.858    20506930.594    85290939.62008
     -1061.562  
 20 09 30 07 18 15.0000000  0 15G15G18G20G 8G21G27G24G10G13R 4R 3R21
                                R13R 5R20
  20918477.864   109927341.06449     -2210.952    20918477.906    85657670.01348
     -1722.823  
  21203006.257   111422546.76648     -2315.332    21203007.625    86822762.08647
     -1804.159  
  20139245.231   105832458.06249      1009.305    20139244.453    82466847.63148
       786.469  
  24652081.160   129547565.56046       641.801    24652085.075   100946163.66945
       500.101  
  25131741.614   132068196.56746      2867.788    25131741.107   102910289.43843
      2234.645  
  24044225.907   126353265.61445     -1211.668    24044227.799    98457085.99244
      -944.151  
  21249717.972   111668038.66948      2167.038    21249720.428    87014081.70447
      1688.602  
  22396391.372   117693849.74649      2742.300    22396392.987    91709513.89847
      2136.854  
  23338021.485   122642115.04847     -3383.410    23338020.784    95565289.50645
     -2636.421  
  19792984.533   105990533.22309     -1536.034    19792987.427    82437092.49108
     -1194.695  
  23346499.845   124975623.61905     -3490.926    23346503.958    97203275.16705
     -2715.172  
  22352412.490   119612299.70507      2956.074    22352417.138    93031798.69907
      2299.167  
  21824120.604   116539587.21604     -1178.551    21824125.202    90641922.87705
      -916.652  
  20113172.927   107516473.24609      1895.913    20113177.252    83623955.56708
      1474.601  
  20508204.350   109666585.32005     -1370.983    20508209.987    85296260.30608
     -1066.323  
 20 09 30 07 18 20.0000000  0 16G15G18G20G 8G21G27G24G10G13R 4R 3R14
                                R21R13R 5R20
  20920582.535   109938401.11949     -2213.034    20920582.518    85666288.23548
     -1724.440  
  21205210.655   111434130.36249     -2318.050    21205211.876    86831788.25047
     -1806.277  
  20138286.016   105827417.63649      1006.824    20138285.453    82462920.02848
       784.534  
  24651472.764   129544367.63246       638.265    24651476.472   100943671.79245
       497.351  
  25129014.011   132053862.32546      2866.035    25129013.311   102899119.85344
      2233.269  
  24045380.339   126359332.88145     -1214.613    24045382.487    98461813.65044
      -946.465  
  21247657.702   111657211.44049      2163.925    21247659.969    87005644.90847
      1686.175  
  22393782.654   117680140.68748      2741.159    22393784.348    91698831.52247
      2135.965  
  23341240.818   122659033.91147     -3384.026    23341240.526    95578473.02945
     -2636.909  
  19794419.633   105998218.52108     -1538.000    19794422.516    82443069.93008
     -1196.227  
  23349760.803   124993079.97204     -3490.840    23349765.386    97216852.35704
     -2715.098  
  21555893.992   114905045.04114      2735.015           0.000           0.0000 
         0.000  
  22349652.058   119597527.32207      2952.905    22349656.653    93020309.08906
      2296.707  
  21825226.259   116545491.04204     -1183.702    21825230.898    90646514.71705
      -920.663  
  20111400.420   107506998.80509      1893.891    20111404.870    83616586.55908
      1473.026  
  20509488.094   109673449.45205     -1375.171    20509493.719    85301599.07508
     -1069.581  
 20 09 30 07 18 25.0000000  0 16G15G18G20G 8G21G27G24G10G13R 4R 3R14
                                R21R13R 5R20
  20922689.093   109949471.65649     -2215.245    20922689.071    85674914.65448
     -1726.164  
  21207417.566   111445727.66549     -2321.093    21207418.823    86840825.11147
     -1808.644  
  20137329.249   105822389.63249      1004.073    20137328.640    82459002.10148
       782.390  
  24650867.311   129541185.58346       634.305    24650871.087   100941192.27945
       494.261  
  25126287.365   132039533.70346      2864.594    25126286.888   102887954.76341
      2232.151  
  24046537.706   126365415.44944     -1217.754    24046540.095    98466553.29944
      -948.906  
  21245600.283   111646399.32249      2160.707    21245602.492    86997219.88447
      1683.668  
  22391175.063   117666437.26249      2740.012    22391176.683    91688153.53547
      2135.073  
  23344461.326   122675957.20147     -3385.070    23344460.749    95591659.99245
     -2637.727  
  19795856.797   106005914.46908     -1540.507    19795859.748    82449055.64008
     -1198.179  
  23353022.265   125010538.30005     -3492.401    23353027.252    97230431.09305
     -2716.309  
  21553330.110   114891379.98404      2730.789           0.000           0.0000 
         0.000  
  22346894.742   119582772.15107      2949.223    22346898.981    93008832.84406
      2293.840  
  21826336.147   116551417.24904     -1187.992    21826340.701    90651123.98805
      -923.996  
  20109629.975   107497534.57909      1891.625    20109634.370    83609225.50408
      1471.265  
  20510776.038   109680336.70005     -1379.531    20510781.496    85306955.82208
     -1072.972  
 20 09 30 07 18 30.0000000  0 15G15G18G20G 8G21G27G24G10G13R 4R 3R21
                                R13R 5R20
  20924797.757   109960552.60549     -2217.112    20924797.813    85683549.13248
     -1727.624  
  21209627.118   111457338.62249     -2323.594    21209628.228    86849872.59947
     -1810.598  
  20136374.961   105817374.00249      1001.976    20136373.968    82455093.81948
       780.761  
  24650264.850   129538019.34546       631.558    24650268.557   100938725.08245
       492.121  
  25123561.860   132025210.66947      2864.101    25123561.683   102876793.93943
      2231.761  
  24047698.024   126371513.30245     -1221.065    24047700.053    98471304.91542
      -951.480  
  21243545.737   111635602.32449      2157.848    21243547.955    86988806.64847
      1681.440  
  22388568.389   117652739.44349      2738.979    22388569.973    91677479.93447
      2134.269  
  23347682.312   122692884.87947     -3385.796    23347682.350    95604850.37645
     -2638.293  
  19797295.796   106013620.99408     -1542.223    19797298.926    82455049.63908
     -1199.507  
  23356283.743   125027998.56104     -3491.828    23356289.170    97244011.26304
     -2715.875  
  22344140.641   119568034.21407      2945.573    22344144.991    92997370.01706
      2291.003  
  21827450.044   116557365.70804     -1191.804    21827454.765    90655750.55005
      -926.964  
  20107861.432   107488080.63809      1889.770    20107865.785    83601872.43908
      1469.819  
  20512068.236   109687246.97205     -1383.878    20512073.858    85312330.48208
     -1076.351  
 20 09 30 07 18 35.0000000  0 15G15G18G20G 8G21G27G24G10G13R 4R 3R21
                                R13R 5R20
  20926908.111   109971642.49349     -2218.761    20926908.046    85692190.59248
     -1728.910  
  21211838.975   111468961.72748     -2325.777    21211840.092    86858929.56247
     -1812.297  
  20135422.536   105812369.28949       999.737    20135421.725    82451194.04248
       779.016  
  24649665.024   129534867.52246       628.957    24649668.837   100936269.11345
       490.093  
  25120837.125   132010891.77946      2863.378    25120837.076   102865636.38243
      2231.199  
  24048860.828   126377624.72445     -1222.324    24048862.777    98476067.04345
      -952.464  
  21241493.637   111624818.93549      2155.367    21241496.037    86980404.01247
      1679.507  
  22385962.490   117639045.75949      2738.276    22385964.252    91666809.53547
      2133.722  
  23350904.130   122709815.36347     -3386.323    23350904.071    95618042.97345
     -2638.695  
  19798736.685   106021336.48408     -1543.832    19798739.776    82461050.57208
     -1200.758  
  23359545.772   125045459.39904     -3491.601    23359551.188    97257591.91104
     -2715.695  
  22341389.419   119553311.98907      2942.940    22341393.654    92985919.38906
      2288.949  
  21828567.881   116563334.99304     -1195.621    21828572.535    90660393.34605
      -929.926  
  20106094.553   107478635.25209      1888.215    20106098.934    83594526.02008
      1468.609  
  20513364.387   109694178.73105     -1388.304    20513370.113    85317721.83708
     -1079.797  
 20 09 30 07 18 40.0000000  0 14G15G18G20G 8G21G24G10G13R 4R 3R21R13
                                R 5R20
  20929020.195   109982741.03949     -2220.461    20929019.977    85700838.81448
     -1730.229  
  21214053.086   111480596.77448     -2328.011    21214054.127    86867995.82147
     -1814.038  
  20134472.209   105807375.22749       998.038    20134471.204    82447302.56548
       777.690  
  24649067.886   129531729.75846       626.093    24649071.658   100933824.10846
       487.867  
  25118113.137   131996576.72046      2863.000    25118112.976   102854481.76941
      2230.906  
  21239444.216   111614048.96949      2152.895    21239446.380    86972011.82047
      1677.577  
  22383357.378   117625355.92949      2737.862    22383359.263    91656142.13347
      2133.397  
  23354126.353   122726748.44547     -3386.581    23354126.601    95631237.57345
     -2638.897  
  19800179.050   106029060.87508     -1545.714    19800182.310    82467058.42808
     -1202.222  
  23362808.052   125062920.16704     -3492.222    23362813.355    97271172.49204
     -2716.172  
  22338641.298   119538605.21207      2940.034    22338645.279    92974480.80606
      2286.694  
  21829689.676   116569324.97104     -1200.030    21829694.131    90665052.22205
      -933.358  
  20104329.173   107469198.59809      1886.730    20104333.554    83587186.40908
      1467.457  
  20514664.547   109701131.99205     -1392.602    20514670.435    85323129.91708
     -1083.137  
 20 09 30 07 18 45.0000000  0 14G15G18G20G 8G21G24G10G13R 4R 3R21R13
                                R 5R20
  20931134.150   109993850.07449     -2223.151    20931134.090    85709495.22148
     -1732.327  
  21216269.880   111492245.57348     -2331.558    21216270.834    86877072.80447
     -1816.804  
  20133524.150   105802393.70149       994.547    20133523.115    82443420.86448
       774.968  
  24648473.804   129528607.93146       622.441    24648477.510   100931391.51345
       485.020  
  25115390.253   131982267.43246      2861.022    25115389.953   102843331.75943
      2229.378  
  21237397.834   111603294.31748      2148.988    21237399.860    86963631.57047
      1674.530  
  22380753.417   117611671.89449      2735.758    22380755.288    91645479.26047
      2131.758  
  23357349.282   122743685.99247     -3388.191    23357349.804    95644435.67545
     -2640.148  
  19801623.472   106036795.97108     -1548.516    19801626.779    82473074.62008
     -1204.406  
  23366070.438   125080383.09904     -3493.022    23366075.398    97284754.77504
     -2716.796  
  22335896.098   119523915.87107      2935.347    22335900.251    92963055.74806
      2283.043  
  21830815.746   116575337.27504     -1204.809    21830819.788    90669728.46305
      -937.073  
  20102565.828   107459772.16509      1883.746    20102570.078    83579854.74008
      1465.136  
  20515969.304   109708108.42505     -1398.362    20515975.318    85328556.02708
     -1087.620  
 20 09 30 07 18 50.0000000  0 14G15G18G20G 8G21G24G10G13R 4R 3R21R13
                                R 5R20
  20933250.425   110004971.64149     -2225.770    20933250.399    85718161.37348
     -1734.371  
  21218489.697   111503910.13348     -2334.699    21218490.701    86886162.06847
     -1819.249  
  20132578.943   105797426.67249       991.855    20132577.935    82439550.44748
       772.875  
  24647883.451   129525504.19947       618.905    24647886.936   100928973.02645
       482.266  
  25112668.696   131967965.92547      2858.944    25112668.453   102832187.70341
      2227.754  
  21235354.464   111592556.86548      2145.754    21235356.554    86955264.73147
      1672.016  
  22378151.007   117597995.57549      2734.406    22378152.761    91634822.37947
      2130.703  
  23360573.542   122760629.93447     -3389.434    23360574.266    95657638.74545
     -2641.117  
  19803070.287   106044543.75508     -1550.874    19803073.622    82479100.66908
     -1206.237  
  23369333.550   125097850.11004     -3493.901    23369338.396    97298340.18904
     -2717.487  
  22333154.559   119509245.93707      2932.108    22333158.839    92951645.77306
      2280.523  
  21831946.143   116581373.97105     -1209.980    21831950.077    90674423.66205
      -941.102  
  20100804.756   107450358.19309      1881.354    20100809.029    83572532.76008
      1463.276  
  20517278.469   109715109.89905     -1402.749    20517284.518    85334001.62408
     -1091.027  
 20 09 30 07 18 55.0000000  0 13G15G18G20G 8G21G24G10G13R 4R21R13R 5
                                R20
  20935368.964   110016104.26449     -2227.121    20935368.898    85726836.14548
     -1735.418  
  21220712.004   111515588.96849     -2336.761    21220713.031    86895262.45148
     -1820.855  
  20131636.171   105792472.80449       989.901    20131635.247    82435690.29648
       771.352  
  24647296.069   129522417.04946       616.397    24647299.325   100926567.44945
       480.305  
  25109948.520   131953670.71147      2858.906    25109948.247   102821048.57043
      2227.714  
  21233314.316   111581835.25049      2143.288    21233316.436    86946910.22848
      1670.093  
  22375549.696   117584325.62349      2733.976    22375551.424    91624170.46547
      2130.367  
  23363798.723   122777578.90547     -3390.038    23363799.650    95670845.71445
     -2641.594  
  19804519.185   106052302.88508     -1552.422    19804522.628    82485135.54008
     -1207.441  
  22330416.371   119494593.96407      2929.022    22330420.846    92940249.83806
      2278.133  
  21833081.224   116587433.77104     -1214.063    21833084.805    90679136.83005
      -944.273  
  20099045.689   107440955.15808      1880.035    20099050.141    83565219.29308
      1462.249  
  20518592.435   109722135.23305     -1407.281    20518598.303    85339465.76208
     -1094.554  
 20 09 30 07 19  0.0000000  0 13G15G18G20G 8G21G24G10G13R 4R21R13R 5
                                R20
  20937489.038   110027245.73749     -2229.136    20937488.829    85735517.81748
     -1736.987  
  21222936.797   111527279.93049     -2339.296    21222937.770    86904372.29447
     -1822.832  
  20130695.494   105787529.95449       987.655    20130694.541    82431838.73148
       769.602  
  24646711.315   129519344.30246       613.109    24646714.675   100924173.09145
       477.742  
  25107229.056   131939379.67447      2857.863    25107228.897   102809912.69142
      2226.906  
  21231276.644   111571127.43148      2140.229    21231278.783    86938566.47247
      1667.706  
  22372949.154   117570659.80749      2732.918    22372950.789    91613521.79847
      2129.546  
  23367024.511   122794530.56847     -3390.531    23367025.510    95684054.79245
     -2641.976  
  19805969.782   106060070.98408     -1554.378    19805973.288    82491177.39408
     -1208.965  
  22327681.251   119479957.88007      2925.710    22327686.031    92928866.22507
      2275.555  
  21834220.137   116593514.34904     -1218.327    21834223.697    90683866.16605
      -947.593  
  20097288.167   107431560.76009      1878.144    20097292.689    83557912.54808
      1460.777  
  20519909.987   109729181.93305     -1411.495    20519916.161    85344946.52608
     -1097.836  
 20 09 30 07 19  5.0000000  0 13G15G18G20G 8G21G24G10G13R 4R21R13R 5
                                R20
  20939611.006   110038396.06549     -2230.690    20939610.702    85744206.37548
     -1738.203  
  21225164.095   111538983.02049     -2341.637    21225164.730    86913491.57247
     -1824.656  
  20129756.924   105782597.98749       985.569    20129756.041    82427995.63848
       767.976  
  24646129.214   129516285.96646       610.409    24646132.665   100921790.01645
       475.699  
  25104510.307   131925092.80547      2857.211    25104510.751   102798780.09044
      2226.397  
  21229241.618   111560433.29848      2137.613    21229243.790    86930233.39147
      1665.671  
  22370349.583   117556998.15949      2732.082    22370351.179    91602876.36247
      2128.894  
  23370250.834   122811485.07147     -3390.945    23370252.001    95697266.10645
     -2642.296  
  19807422.233   106067848.16808     -1556.297    19807425.600    82497226.31808
     -1210.456  
  22324949.181   119465337.58407      2922.601    22324953.877    92917494.84207
      2273.124  
  21835362.734   116599615.72205     -1222.257    21835366.206    90688611.68405
      -950.647  
  20095532.440   107422175.11108      1876.488    20095536.910    83550612.60208
      1459.492  
  20521231.848   109736250.23705     -1416.039    20521238.111    85350444.09108
     -1101.367  
 20 09 30 07 19 10.0000000  0 13G15G18G20G 8G21G24G10G13R 4R21R13R 5
                                R20
  20941734.700   110049556.31249     -2233.207    20941734.335    85752902.67248
     -1740.164  
  21227393.658   111550699.23549     -2344.733    21227394.361    86922621.10047
     -1827.065  
  20128820.664   105777677.96649       982.629    20128819.725    82424161.86248
       765.683  
  24645550.372   129513243.06446       606.504    24645553.179   100919418.93045
       472.602  
  25101792.725   131910811.15546      2855.984    25101792.845   102787651.50143
      2225.434  
  21227209.273   111549753.75548      2134.077    21227211.466    86921911.67348
      1662.918  
  22367750.757   117543341.73549      2730.671    22367752.256    91592234.98747
      2127.796  
  23373477.736   122828443.37147     -3392.105    23373478.980    95710480.36045
     -2643.202  
  19808876.340   106075635.43908     -1558.659    19808879.839    82503283.07908
     -1212.297  
  22322220.335   119450734.13307      2918.796    22322225.081    92906136.59307
      2270.171  
  21836509.323   116605738.87905     -1226.809    21836513.007    90693374.14905
      -954.184  
  20093778.430   107412799.32908      1873.890    20093783.022    83543320.32908
      1457.469  
  20522557.874   109743341.06305     -1420.594    20522564.160    85355959.17308
     -1104.909  
 20 09 30 07 19 15.0000000  0 14G15G18G20G 8G21G24G10G13R 4R 3R21R13
                                R 5R20
  20943860.485   110060727.35449     -2235.366    20943860.134    85761607.37148
     -1741.847  
  21229625.903   111562429.47949     -2347.395    21229626.412    86931761.53847
     -1829.141  
  20127886.855   105772770.83049       980.058    20127886.134    82420338.12048
       763.683  
  24644974.393   129510216.52346       603.401    24644977.211   100917060.56145
       470.180  
  25099075.965   131896535.64546      2854.148    25099076.452   102776527.76144
      2224.022  
  21225179.984   111539089.95648      2131.203    21225182.358    86913602.22348
      1660.679  
  22365153.265   117529691.41549      2729.429    22365154.801    91581598.37647
      2126.827  
  23376705.594   122845406.40847     -3393.187    23376706.985    95723698.31145
     -2644.046  
  19810332.532   106083433.68808     -1560.870    19810336.041    82509348.38708
     -1214.016  
  23385652.854   125185230.33815     -3495.781    23385654.241    97366296.95414
     -2718.940  
  22319494.606   119436148.51807      2915.320    22319499.623    92894792.23806
      2267.473  
  21837660.334   116611884.74405     -1231.624    21837663.920    90698154.25305
      -957.933  
  20092026.455   107403434.20508      1871.831    20092031.037    83536036.34708
      1455.866  
  20523888.202   109750455.30205     -1425.296    20523894.514    85361492.47408
     -1108.566  
 20 09 30 07 19 20.0000000  0 14G15G18G20G 8G21G24G10G13R 4R 3R21R13
                                R 5R20
  20945987.995   110071907.84049     -2237.198    20945987.635    85770319.44348
     -1743.273  
  21231860.605   111574172.41849     -2349.937    21231860.912    86940911.88147
     -1831.124  
  20126955.348   105767875.26049       977.878    20126954.480    82416523.40348
       761.983  
  24644401.179   129507204.98746       600.656    24644404.033   100914713.93045
       468.038  
  25096360.229   131882264.94646      2853.230    25096360.731   102765407.71241
      2223.288  
  21223153.527   111528440.44748      2128.335    21223155.674    86905303.91547
      1658.444  
  22362556.529   117516045.88549      2728.530    22362558.077    91570965.50647
      2126.129  
  23379934.041   122862372.82447     -3393.848    23379935.502    95736918.89245
     -2644.559  
  19811790.603   106091241.55908     -1562.565    19811794.187    82515421.17208
     -1215.332  
  23388917.455   125202705.50104     -3496.073    23388918.771    97379888.74804
     -2719.167  
  22316772.052   119421579.39407      2912.050    22316777.004    92883460.69507
      2264.926  
  21838815.164   116618051.94005     -1236.015    21838818.592    90702950.97205
      -961.343  
  20090276.179   107394078.41308      1870.116    20090280.768    83528759.61808
      1454.530  
  20525222.668   109757591.72705     -1429.285    20525229.172    85367043.01608
     -1111.671  
 20 09 30 07 19 25.0000000  0 16G15G18G20G 8G21G27G24G10G13R 4R 3R21
                                R13R 5R20R19
  20948117.594   110083098.54849     -2238.461    20948117.083    85779039.48748
     -1744.254  
  21234097.767   111585928.81549     -2352.022    21234098.087    86950072.70747
     -1832.749  
  20126026.144   105762992.03949       976.008    20126025.271    82412718.28748
       760.522  
  24643831.249   129504209.23346       598.308    24643833.822   100912379.57745
       466.210  
  25093645.579   131867999.77046      2853.085    25093645.959   102754291.98944
      2223.188  
  24060646.495   126439549.91755     -1252.371    24060651.281    98524343.37252
      -975.870  
  21221129.912   111517806.02548      2125.961    21221132.126    86897017.35748
      1656.593  
  22359960.933   117502405.93649      2727.944    22359962.367    91560336.97547
      2125.671  
  23383163.521   122879343.35647     -3393.776    23383164.927    95750142.66245
     -2644.504  
  19813250.582   106099059.77608     -1563.983    19813254.283    82521502.01408
     -1216.433  
  23392182.305   125220182.47104     -3494.727    23392183.674    97393481.91004
     -2718.128  
  22314052.650   119407027.57607      2909.258    22314057.673    92872142.61906
      2262.758  
  21839974.222   116624241.31205     -1240.258    21839977.516    90707764.91205
      -964.648  
  20088527.797   107384732.81208      1868.793    20088532.503    83521490.82208
      1453.503  
  20526561.420   109764750.94605     -1433.613    20526567.894    85372611.30408
     -1115.030  
  23044776.028   123274016.38613     -4580.879    23044778.000    95879796.56316
     -3562.906  
 20 09 30 07 19 30.0000000  0 16G15G18G20G 8G21G27G24G10G13R 4R 3R14
                                R21R13R 5R20
  20950249.831   110094303.06249     -2242.468    20950249.238    85787770.27748
     -1747.379  
  21236338.345   111597702.28649     -2356.476    21236338.449    86959246.83347
     -1836.218  
  20125099.795   105758124.82649       971.718    20125098.963    82408925.65048
       757.179  
  24643264.591   129501232.92645       593.105    24643267.525   100910060.33945
       462.151  
  25090932.694   131853743.90346      2850.292    25090933.266   102743183.58843
      2221.004  
  24061841.789   126445829.28944     -1257.562    24061846.357    98529236.38344
      -979.922  
  21219109.733   111507190.44348      2121.155    21219111.982    86888745.48648
      1652.847  
  22357367.285   117488775.19149      2725.085    22357368.628    91549715.60947
      2123.441  
  23386394.293   122896321.67947     -3396.640    23386395.834    95763372.53045
     -2646.738  
  19814713.325   106106892.19508     -1568.015    19814716.744    82527593.89408
     -1219.570  
  23395447.994   125237664.96004     -3497.191    23395449.991    97407079.39204
     -2720.042  
  21520290.008   114715254.08514      2686.016    21520294.458    89222995.41513
      2089.129  
  22311337.217   119392496.74307      2903.839    22311342.145    92860840.87506
      2258.543  
  21841138.063   116630456.52804     -1246.124    21841141.269    90712598.97505
      -969.210  
  20086782.010   107375400.95608      1864.883    20086786.880    83514232.72508
      1450.464  
  20527905.196   109771936.75205     -1439.887    20527911.652    85378200.26208
     -1119.914  
 20 09 30 07 19 35.0000000  0 15G15G18G20G 8G21G27G24G10G13R 4R14R21
                                R13R 5R20
  20952383.621   110105516.45349     -2243.022    20952382.877    85796507.98548
     -1747.812  
  21238580.966   111609487.90348     -2357.738    21238581.266    86968430.41847
     -1837.202  
  20124175.754   105753268.67349       970.598    20124174.870    82405141.64648
       756.309  
  24642701.064   129498271.07146       591.085    24642703.884   100907752.41945
       460.585  
  25088220.755   131839492.28747      2850.616    25088221.500   102732078.42543
      2221.272  
  24063039.157   126452122.46945     -1259.586    24063043.675    98534140.23043
      -981.491  
  21217092.215   111496588.66149      2119.472    21217094.571    86880484.36848
      1651.538  
  22354774.130   117475148.72748      2725.309    22354775.641    91539097.57547
      2123.612  
  23389625.707   122913302.81148     -3395.909    23389627.236    95776604.58045
     -2646.163  
  19816177.570   106114733.63308     -1568.526    19816181.159    82533692.78808
     -1219.965  
  21517772.361   114701826.48205      2684.858    21517775.124    89212551.71204
      2088.218  
  22308624.877   119377981.90308      2901.859    22308629.803    92849551.54607
      2256.996  
  21842305.918   116636692.55904     -1248.656    21842309.161    90717449.22605
      -971.176  
  20085038.116   107366078.09008      1864.300    20085042.920    83506981.60408
      1450.011  
  20529253.288   109779144.04305     -1443.261    20529259.258    85383805.93608
     -1122.534  
 20 09 30 07 19 40.0000000  0 15G15G18G20G 8G21G27G24G10G13R 4R14R21
                                R13R 5R20
  20954520.235   110116744.02849     -2246.680    20954519.458    85805256.73948
     -1750.663  
  21240827.034   111621290.91349     -2362.062    21240827.283    86977627.57547
     -1840.565  
  20123254.793   105748428.86949       966.546    20123253.955    82401370.36948
       753.151  
  24642141.013   129495328.95146       586.983    24642143.890   100905459.86645
       457.387  
  25085510.524   131825250.29947      2847.905    25085511.273   102720980.77744
      2219.148  
  24064240.264   126458434.76645     -1264.515    24064245.146    98539058.89741
      -985.339  
  21215078.514   111486006.05749      2114.874    21215080.832    86872238.19548
      1647.953  
  22352182.857   117461531.83848      2722.718    22352184.603    91528487.01947
      2121.598  
  23392858.846   122930292.04148     -3398.358    23392860.030    95789842.92645
     -2648.073  
  19817644.594   106122589.60508     -1572.487    19817648.185    82539802.99208
     -1223.050  
  21515258.482   114688420.03204      2679.690    21515260.486    89202124.53704
      2084.211  
  22305916.599   119363488.48708      2896.770    22305921.259    92838278.89907
      2253.043  
  21843478.556   116642954.63105     -1254.617    21843481.689    90722319.73005
      -975.813  
  20083296.630   107356769.35108      1860.612    20083301.610    83499741.47508
      1447.145  
  20530606.053   109786378.23005     -1449.159    20530612.087    85389432.52608
     -1127.125  
 20 09 30 07 19 45.0000000  0 15G15G18G20G 8G21G27G24G10G13R 4R14R21
                                R13R 5R20
  20956657.991   110127978.14149     -2247.534    20956657.277    85814010.59448
     -1751.323  
  21243075.026   111633103.72449     -2363.522    21243075.256    86986832.37047
     -1841.710  
  20122335.537   105743597.83349       965.266    20122334.500    82397605.91748
       752.152  
  24641583.660   129492399.04046       584.851    24641586.352   100903176.78245
       455.723  
  25082800.648   131811010.30546      2847.422    25082801.455   102709884.65043
      2218.762  
  24065443.716   126464758.29745     -1266.211    24065447.886    98543986.29344
      -986.664  
  21213066.721   111475434.92349      2113.078    21213068.999    86864000.95048
      1646.554  
  22349591.986   117447916.93849      2722.871    22349593.817    91517878.02547
      2121.718  
  23396091.790   122947281.74747     -3398.167    23396093.018    95803081.66044
     -2647.925  
  19819112.936   106130452.31908     -1573.214    19819116.657    82545918.43908
     -1223.613  
  21512746.771   114675027.04104      2677.925    21512748.050    89191707.77804
      2082.831  
  22303210.692   119349008.66208      2894.660    22303215.323    92827016.82306
      2251.402  
  21844654.787   116649235.26605     -1258.121    21844657.894    90727204.66305
      -978.542  
  20081556.497   107347467.21408      1859.823    20081561.477    83492506.48508
      1446.530  
  20531962.267   109793631.57705     -1452.694    20531968.574    85395074.01408
     -1129.879  
 20 09 30 07 19 50.0000000  0 15G15G18G20G 8G21G27G24G10G13R 4R14R21
                                R13R 5R20
  20958797.050   110139219.43749     -2249.297    20958796.579    85822770.05148
     -1752.698  
  21245324.897   111644926.93649     -2365.827    21245325.191    86996045.25847
     -1843.507  
  20121418.182   105738776.16249       963.198    20121417.013    82393848.77448
       750.542  
  24641028.405   129489481.84446       581.840    24641031.245   100900903.67845
       453.386  
  25080091.135   131796772.81546      2847.332    25080092.122   102698790.47843
      2218.688  
  24066649.467   126471093.93546     -1268.069    24066653.184    98548923.13144
      -988.105  
  21211057.616   111464876.03349      2110.386    21211059.824    86855773.24447
      1644.456  
  22347001.664   117434304.64248      2722.012    22347003.488    91507271.03147
      2121.042  
  23399325.113   122964272.53548     -3398.444    23399326.379    95816321.23045
     -2648.144  
  19820582.604   106138322.26508     -1574.858    19820586.314    82552039.50808
     -1224.890  
  21510237.502   114661648.38304      2674.124    21510238.184    89181302.13803
      2079.866  
  22300507.566   119334543.22008      2891.418    22300511.961    92815765.93406
      2248.878  
  21845834.530   116655534.93305     -1262.320    21845837.748    90732104.40705
      -981.808  
  20079817.686   107338172.08909      1858.187    20079822.542    83485276.94608
      1445.258  
  20533322.393   109800904.68905     -1456.836    20533328.434    85400730.87708
     -1133.098  
 20 09 30 07 19 55.0000000  0 16G15G18G20G 8G21G27G24G10G13R 4R 3R14
                                R21R13R 5R20
  20960937.823   110150469.77749     -2250.812    20960937.346    85831536.54148
     -1753.883  
  21247577.254   111656762.40248     -2368.184    21247577.344    87005267.69847
     -1845.340  
  20120502.732   105733965.72349       961.101    20120501.692    82390100.37448
       748.905  
  24640476.113   129486579.34446       579.237    24640478.920   100898641.93845
       451.401  
  25077382.515   131782539.79346      2846.352    25077383.332   102687699.84542
      2217.944  
  24067858.199   126477443.39546     -1272.124    24067861.271    98553870.76243
      -991.266  
  21209050.755   111454330.97049      2107.727    21209053.051    86847556.31547
      1642.383  
  22344412.102   117420696.80649      2721.241    22344413.902    91496667.54647
      2120.495  
  23402558.984   122981266.29848     -3398.980    23402560.098    95829563.11245
     -2648.558  
  19822053.954   106146201.52408     -1576.574    19822057.652    82558167.82708
     -1226.222  
  23411779.850   125325090.16215     -3496.968    23411784.176    97475087.64015
     -2719.867  
  21507731.074   114648285.52504      2671.895    21507731.256    89170908.77504
      2078.140  
  22297807.398   119320094.07708      2888.297    22297811.663    92804527.70106
      2246.449  
  21847018.259   116661855.60704     -1266.140    21847021.530    90737020.49805
      -984.776  
  20078080.355   107328885.99709      1856.401    20078085.519    83478054.41708
      1443.862  
  20534686.603   109808199.51305     -1461.113    20534692.662    85406404.62508
     -1136.426  
 20 09 30 07 20  0.0000000  0 16G15G18G20G 8G21G27G24G10G13R 4R 3R14
                                R21R13R 5R20
  20963080.507   110161729.09649     -2253.030    20963080.035    85840310.02648
     -1755.613  
  21249831.828   111668610.11348     -2371.007    21249831.940    87014499.67447
     -1847.543  
  20119589.545   105729166.51849       958.422    20119588.337    82386360.74448
       746.820  
  24639926.546   129483691.47346       576.019    24639929.652   100896391.65446
       448.897  
  25074674.844   131768311.29346      2845.069    25074675.903   102676612.74942
      2216.952  
  24069069.013   126483806.67245     -1274.367    24069072.708    98558829.17744
      -993.011  
  21207046.969   111443800.06949      2104.554    21207049.019    86839350.42047
      1639.914  
  22341823.489   117407093.46048      2719.905    22341825.254    91486067.53047
      2119.378  
  23405793.246   122998262.92648     -3399.820    23405794.419    95842807.24245
     -2649.210  
  19823527.169   106154090.02708     -1578.902    19823530.893    82564303.32408
     -1228.039  
  23415046.199   125342576.84004     -3497.898    23415050.877    97488688.37905
     -2720.586  
  21505227.252   114634938.83604      2667.457    21505227.515    89160528.00205
      2074.684  
  22295110.259   119305661.11108      2884.741    22295114.594    92793302.06106
      2243.684  
  21848205.942   116668197.35805     -1270.792    21848209.141    90741952.96005
      -988.394  
  20076344.901   107319608.90709      1854.246    20076349.919    83470838.90008
      1442.188  
  20536054.724   109815515.90805     -1465.327    20536060.991    85412095.14908
     -1139.703  
 20 09 30 07 20  5.0000000  0 16G15G18G20G 8G21G27G24G10G13R 4R 3R14
                                R21R13R 5R20
  20965225.458   110173001.54349     -2255.359    20965224.894    85849093.74148
     -1757.426  
  21252089.453   111680474.20148     -2374.132    21252089.715    87023744.41547
     -1849.977  
  20118679.200   105724382.68649       955.566    20118678.180    82382633.08748
       744.597  
  24639380.600   129480822.47645       572.293    24639383.887   100894156.08444
       445.940  
  25071968.729   131754091.46746      2843.766    25071969.487   102665532.33442
      2215.917  
  24070283.374   126490187.86746     -1277.433    24070287.327    98563801.55844
      -995.391  
  21205046.394   111433287.22549      2100.968    21205048.402    86831158.60248
      1637.117  
  22339236.443   117393498.69449      2718.464    22339238.318    91475474.20747
      2118.285  
  23409029.078   123015266.65548     -3400.913    23409029.906    95856056.89545
     -2650.062  
  19825002.650   106161991.84508     -1581.343    19825006.506    82570449.17108
     -1229.938  
  23418313.528   125360068.38904     -3498.319    23418318.300    97502292.90805
     -2720.922  
  21502727.129   114621612.46004      2663.559    21502727.292    89150163.00104
      2071.648  
  22292416.851   119291248.54507      2881.046    22292421.036    92782092.28706
      2240.812  
  21849398.320   116674564.12104     -1275.914    21849401.602    90746904.90805
      -992.379  
  20074612.068   107310345.04309      1851.698    20074617.012    83463633.67408
      1440.211  
  20537427.801   109822858.12005     -1470.804    20537433.894    85417805.75708
     -1143.965  
 20 09 30 07 20 10.0000000  0 16G15G18G20G 8G21G27G24G10G13R 4R 3R14
                                R21R13R 5R20
  20967372.331   110184283.78249     -2257.621    20967371.957    85857885.10448
     -1759.183  
  21254349.567   111692351.33548     -2376.991    21254349.942    87032999.32447
     -1852.207  
  20117771.135   105719610.92649       952.938    20117769.993    82378914.83848
       742.546  
  24638837.615   129477968.94646       568.663    24638840.800   100891932.51744
       443.109  
  25069263.847   131739877.06246      2842.210    25069264.034   102654456.20543
      2214.711  
  24071500.761   126496583.77946     -1281.249    24071504.844    98568785.36745
      -998.379  
  21203048.692   111422789.35749      2097.777    21203050.687    86822978.44948
      1634.633  
  22336650.597   117379909.29349      2717.031    22336652.379    91464885.06347
      2117.163  
  23412265.654   123032274.09848     -3401.874    23412266.351    95869309.44045
     -2650.816  
  19826480.185   106169903.79308     -1583.640    19826483.806    82576602.91508
     -1231.723  
  23421581.113   125377561.31104     -3499.402    23421586.058    97515898.48404
     -2721.976  
  21500230.396   114608302.90604      2660.550    21500230.364    89139811.22204
      2069.323  
  22289726.835   119276853.19308      2877.038    22289730.504    92770895.88706
      2237.690  
  21850594.707   116680952.63504     -1280.171    21850598.133    90751873.76105
      -995.687  
  20072880.935   107301091.02409      1849.457    20072886.062    83456436.11308
      1438.464  
  20538804.757   109830222.72705     -1475.257    20538811.090    85423533.78708
     -1147.421  
 20 09 30 07 20 15.0000000  0 16G15G18G20G 8G21G27G24G10G13R 4R 3R14
                                R21R13R 5R20
  20969521.278   110195576.07349     -2259.141    20969520.753    85866684.28448
     -1760.374  
  21256612.140   111704241.77048     -2379.179    21256612.601    87042264.59447
     -1853.910  
  20116865.550   105714851.54649       950.891    20116864.497    82375206.23348
       740.952  
  24638297.875   129475131.12446       566.331    24638300.930   100889721.21343
       441.292  
  25066559.873   131725668.27246      2841.569    25066559.933   102643384.39541
      2214.207  
  24072721.020   126502994.59846     -1283.863    24072724.793    98573780.85244
     -1000.418  
  21201053.849   111412306.66548      2095.352    21201055.942    86814810.11348
      1632.742  
  22334065.686   117366325.46449      2716.558    22334067.423    91454300.25947
      2116.801  
  23415502.784   123049285.55348     -3402.343    23415503.516    95882565.12045
     -2651.176  
  19827959.765   106177826.03008     -1585.199    19827963.248    82582764.64708
     -1232.937  
  23424849.231   125395055.95904     -3498.581    23424854.077    97529505.43304
     -2721.124  
  21497736.908   114595010.64804      2656.890    21497737.018    89129472.76504
      2066.465  
  22287039.974   119262475.29008      2874.160    22287043.566    92759713.07006
      2235.452  
  21851795.201   116687363.20605     -1284.558    21851798.759    90756859.74705
      -999.105  
  20071151.676   107291847.11009      1847.999    20071156.736    83449246.40108
      1437.331  
  20540186.242   109837610.18305     -1479.770    20540192.658    85429279.59008
     -1150.937  
 20 09 30 07 20 20.0000000  0 16G15G18G20G 8G21G27G24G10G13R 4R 3R14
                                R21R13R 5R20
  20971671.753   110206877.39549     -2261.300    20971671.249    85875490.51748
     -1762.050  
  21258877.217   111716144.48349     -2381.808    21258877.703    87051539.43647
     -1855.956  
  20115962.044   105710103.49349       948.331    20115960.918    82371506.44748
       738.957  
  24637760.797   129472308.04146       563.145    24637763.604   100887521.42445
       438.808  
  25063856.925   131711464.12046      2840.293    25063856.625   102632316.24143
      2213.218  
  24073943.892   126509419.27146     -1286.141    24073947.866    98578787.07344
     -1002.190  
  21199061.838   111401838.16949      2092.137    21199063.644    86806652.86248
      1630.238  
  22331481.754   117352746.21349      2715.229    22331483.431    91443719.02647
      2115.761  
  23418740.519   123066299.96248     -3403.315    23418741.250    95895823.10045
     -2651.934  
  19829440.845   106185757.55508     -1587.211    19829444.418    82588933.60508
     -1234.499  
  23428117.681   125412551.16505     -3499.297    23428122.099    97543112.82604
     -2721.676  
  21495245.960   114581734.52504      2653.207    21495246.780    89119146.91204
      2063.608  
  22284356.157   119248113.73408      2870.688    22284359.437    92748542.97606
      2232.758  
  21852999.639   116693794.62104     -1288.116    21853003.179    90761861.95505
     -1001.870  
  20069424.060   107282612.29509      1845.968    20069429.055    83442063.77608
      1435.753  
  20541571.859   109845019.26305     -1484.124    20541578.311    85435042.19808
     -1154.324  
 20 09 30 07 20 25.0000000  0 16G15G18G20G 8G21G27G24G10G13R 4R 3R14
                                R21R13R 5R20
  20973824.331   110218189.36549     -2263.250    20973823.952    85884305.03748
     -1763.573  
  21261144.968   111728061.00049     -2384.573    21261145.495    87060825.03747
     -1858.109  
  20115061.016   105705368.31049       946.012    20115059.788    82367816.68948
       737.148  
  24637226.724   129469501.28446       559.840    24637229.700   100885334.33044
       436.234  
  25061155.028   131697266.11746      2839.336    25061153.708   102621252.93243
      2212.472  
  24075169.631   126515859.35446     -1289.034    24075173.479    98583805.28344
     -1004.448  
  21197072.697   111391385.35149      2089.050    21197074.524    86798507.80948
      1627.831  
  22328898.966   117339173.07449      2714.219    22328900.429    91433142.56247
      2114.977  
  23421979.191   123083318.89148     -3404.250    23421979.692    95909084.57545
     -2652.672  
  19830923.966   106193699.91208     -1589.434    19830927.742    82595111.00208
     -1236.226  
  23431386.180   125430048.60105     -3499.874    23431390.507    97556721.92204
     -2722.129  
  21492758.404   114568476.17304      2650.004    21492759.856    89108834.82804
      2061.109  
  22281675.879   119233770.12208      2867.019    22281678.907    92737386.83406
      2229.901  
  21854208.193   116700248.57904     -1292.663    21854211.948    90766881.69805
     -1005.409  
  20067698.514   107273388.16509      1843.945    20067703.527    83434889.45108
      1434.237  
  20542961.656   109852451.60005     -1488.511    20542967.986    85440822.90808
     -1157.729  
 20 09 30 07 20 30.0000000  0 16G15G18G20G 8G21G27G24G10G13R 4R 3R14
                                R21R13R 5R20
  20975979.013   110229512.54349     -2265.800    20975978.598    85893128.29848
     -1765.559  
  21263415.186   111739991.98549     -2387.551    21263415.701    87070121.90347
     -1860.433  
  20114162.452   105700646.67149       942.913    20114161.322    82364137.49548
       734.737  
  24636696.008   129466711.41046       555.894    24636698.823   100883160.41644
       433.164  
  25058454.317   131683074.94446      2837.867    25058452.823   102610175.82351
      2211.323  
  24076398.315   126522315.53945     -1292.976    24076401.926    98588836.13144
     -1007.516  
  21195086.609   111380948.82849      2085.789    21195088.613    86790375.46248
      1625.289  
  22326317.267   117325606.93249      2712.690    22326318.877    91422571.53947
      2113.781  
  23425218.806   123100342.93448     -3405.387    23425219.293    95922350.07544
     -2653.547  
  19832409.337   106201653.72808     -1591.913    19832412.976    82601297.29308
     -1238.160  
  23434655.472   125447548.97005     -3500.483    23434659.478    97570333.33404
     -2722.597  
  21490274.498   114555236.27604      2646.042    21490276.264    89098537.15304
      2058.034  
  22278998.981   119219445.21708      2863.218    22279002.079    92726245.24907
      2226.948  
  21855421.022   116706725.64204     -1297.866    21855425.088    90771919.40905
     -1009.456  
  20065975.062   107264175.35909      1841.512    20065979.910    83427723.93908
      1432.284  
  20544356.101   109859907.75905     -1493.359    20544362.470    85446622.14808
     -1161.504  
 20 09 30 07 20 35.0000000  0 16G15G18G20G 8G21G27G24G10G13R 4R 3R14
                                R21R13R 5R20
  20978135.226   110240843.48949     -2266.882    20978134.729    85901957.60648
     -1766.406  
  21265687.878   111751934.00149     -2389.496    21265688.334    87079427.36347
     -1861.949  
  20113265.982   105695935.15849       941.257    20113264.821    82360466.19248
       733.448  
  24636167.842   129463935.10146       554.355    24636170.514   100880997.08145
       431.965  
  25055754.524   131668887.21646      2837.382    25055753.139   102599120.53941
      2210.964  
  24077629.355   126528784.38745     -1294.625    24077632.721    98593876.71644
     -1008.808  
  21193103.195   111370525.25949      2083.425    21193105.143    86782253.20348
      1623.449  
  22323736.326   117312043.96649      2712.433    22323737.731    91412002.99247
      2113.452  
  23428458.775   123117368.71148     -3405.218    23428458.855    95935616.88145
     -2653.425  
  19833896.178   106209615.59508     -1593.042    19833899.639    82607489.85008
     -1239.039  
  23437924.724   125465048.65405     -3500.140    23437928.304    97583944.20104
     -2722.335  
  21487793.531   114542011.45204      2643.984    21487795.225    89088251.21905
      2056.440  
  22276324.868   119205135.43908      2860.300    22276327.887    92715115.42006
      2224.676  
  21856637.747   116713222.38204     -1301.058    21856641.793    90776972.42505
     -1011.937  
  20064253.111   107254970.45309      1840.301    20064257.989    83420564.57608
      1431.344  
  20545754.293   109867384.33305     -1497.562    20545760.550    85452437.25408
     -1164.773  
 20 09 30 07 20 40.0000000  0 16G15G18G20G 8G21G27G24G10G13R 4R 3R14
                                R21R13R 5R20
  20980293.569   110252185.06349     -2269.765    20980293.056    85910795.18948
     -1768.652  
  21267962.852   111763889.84849     -2393.128    21267963.425    87088743.60547
     -1864.780  
  20112371.786   105691236.62449       937.957    20112370.514    82356804.99648
       730.871  
  24635642.657   129461175.08146       549.987    24635645.134   100878846.39245
       428.559  
  25053055.776   131654705.76446      2834.979    25053053.660   102588070.05942
      2209.085  
  24078863.227   126535268.58145     -1298.699    24078866.449    98598929.34745
     -1011.973  
  21191122.642   111360117.57349      2079.425    21191124.620    86774143.32348
      1620.331  
  22321156.720   117298487.20349      2710.159    22321158.088    91401439.28447
      2111.813  
  23431699.507   123134398.99648     -3406.977    23431699.600    95948887.22145
     -2654.788  
  19835385.084   106217588.40208     -1596.156    19835388.482    82613690.92208
     -1241.456  
  23441194.240   125482550.53705     -3500.801    23441197.586    97597556.78104
     -2722.844  
  21485316.272   114528804.39204      2638.382    21485317.907    89077979.09105
      2052.081  
  22273654.095   119190843.81208      2856.093    22273657.051    92703999.71707
      2221.405  
  21857858.391   116719741.77604     -1306.276    21857862.817    90782043.06705
     -1015.995  
  20062533.188   107245776.29209      1837.301    20062537.958    83413413.57008
      1429.012  
  20547156.859   109874884.20205     -1502.641    20547162.958    85458270.48707
     -1168.722  
 20 09 30 07 20 45.0000000  0 16G15G18G20G 8G21G27G24G10G13R 4R 3R14
                                R21R13R 5R20
  20982453.990   110263538.03149     -2270.832    20982453.357    85919641.66548
     -1769.480  
  21270240.860   111775860.36249     -2394.593    21270241.421    87098071.27347
     -1865.922  
  20111480.255   105686551.87849       936.480    20111479.118    82353154.53948
       729.722  
  24635120.627   129458432.25946       548.104    24635123.189   100876709.14644
       427.094  
  25050358.532   131640531.40046      2834.913    25050356.006   102577024.99542
      2209.003  
  24080100.278   126541769.17545     -1300.694    24080103.002    98603994.63844
     -1013.546  
  21189145.322   111349726.46649      2077.569    21189147.259    86766046.36248
      1618.886  
  22318578.247   117284937.48549      2710.011    22318579.720    91390881.07947
      2111.753  
  23434941.389   123151434.76448     -3406.758    23434941.150    95962161.86045
     -2654.616  
  19836876.054   106225572.91808     -1597.190    19836879.715    82619901.10508
     -1242.262  
  23444464.372   125500055.59106     -3500.281    23444467.628    97611171.80704
     -2722.445  
  21482842.505   114515616.16304      2636.620    21482843.896    89067721.63705
      2050.711  
  22270987.050   119176571.09908      2853.613    22270989.879    92692898.73107
      2219.477  
  21859083.521   116726284.55504     -1310.270    21859087.973    90787131.90205
     -1019.102  
  20060815.344   107236593.71009      1836.188    20060820.114    83406271.56308
      1428.141  
  20548563.897   109882408.08005     -1506.007    20548569.933    85464122.39807
     -1171.340  
 20 09 30 07 20 50.0000000  0 16G15G18G20G 8G21G27G24G10G13R 4R 3R14
                                R21R13R 5R20
  20984615.548   110274897.40349     -2273.050    20984615.139    85928493.11548
     -1771.210  
  21272520.617   111787840.50549     -2397.433    21272521.140    87107406.43747
     -1868.132  
  20110590.437   105681875.91849       933.652    20110589.230    82349510.93648
       727.519  
  24634600.910   129455701.72346       544.167    24634603.450   100874581.43145
       424.023  
  25047661.661   131626359.08746      2833.753    25047659.436   102565981.70843
      2208.140  
  24081339.243   126548280.97645     -1303.965    24081342.156    98609068.76643
     -1016.089  
  21187170.273   111339347.01549      2074.151    21187172.139    86757958.48148
      1616.223  
  22316000.147   117271389.76049      2708.745    22316001.650    91380324.40547
      2110.707  
  23438183.249   123168470.82248     -3408.042    23438182.909    95975436.69344
     -2655.620  
  19838368.530   106233564.05908     -1599.378    19838371.913    82626116.42908
     -1243.964  
  23447734.203   125517558.59805     -3501.074    23447737.486    97624785.25304
     -2723.063  
  21480371.242   114502441.56804      2633.081    21480372.490    89057474.73805
      2047.956  
  22268322.414   119162312.22008      2849.789    22268325.373    92681808.49607
      2216.500  
  21860312.114   116732845.64004     -1313.973    21860316.724    90792234.94805
     -1021.984  
  20059098.839   107227417.59909      1833.780    20059103.495    83399134.58908
      1426.270  
  20549974.564   109889951.01705     -1511.878    20549980.501    85469989.13007
     -1175.909  
 20 09 30 07 20 55.0000000  0 16G15G18G20G 8G21G27G24G10G13R 4R 3R14
                                R21R13R 5R20
  20986779.415   110286268.47649     -2275.082    20986778.907    85937353.69748
     -1772.792  
  21274803.210   111799835.58149     -2400.315    21274803.766    87116753.24947
     -1870.378  
  20109703.453   105677214.09449       931.108    20109702.288    82345878.34148
       725.534  
  24634084.517   129452988.52745       541.070    24634087.114   100872467.31145
       421.617  
  25044965.986   131612194.13046      2832.687    25044965.135   102554944.08844
      2207.277  
  24082581.685   126554809.24146     -1306.930    24082584.271    98614155.79944
     -1018.382  
  21185198.272   111328984.35749      2070.862    21185200.164    86749883.69948
      1613.660  
  22313423.519   117257849.42449      2707.313    22313424.992    91369773.48547
      2109.590  
  23441426.246   123185512.48448     -3408.722    23441425.588    95988715.89145
     -2656.152  
  19839863.075   106241567.15309     -1601.641    19839866.548    82632341.06408
     -1245.718  
  23451004.452   125535064.99505     -3501.184    23451007.730    97638401.33604
     -2723.148  
  21477903.395   114489286.11703      2629.276    21477904.696    89047242.68605
      2044.987  
  22265661.375   119148072.58508      2846.316    22265664.546    92670733.23107
      2213.800  
  21861545.193   116739430.43304     -1319.789    21861549.996    90797356.45905
     -1026.508  
  20057384.545   107218253.37309      1831.874    20057389.015    83392006.85008
      1424.789  
  20551389.692   109897518.25305     -1515.269    20551395.368    85475874.74407
     -1178.547  
 20 09 30 07 21  0.0000000  0 16G15G18G20G 8G21G27G24G10G13R 4R 3R14
                                R21R13R 5R20
  20988945.000   110297648.51549     -2277.257    20988944.596    85946221.26548
     -1774.488  
  21277088.077   111811842.88549     -2403.003    21277088.588    87126109.58847
     -1872.473  
  20108818.394   105672563.67249       928.710    20108817.312    82342254.63748
       723.668  
  24633570.908   129450290.14945       537.965    24633573.451   100870364.66444
       419.199  
  25042271.326   131598034.00346      2831.188    25042270.112   102543910.14043
      2206.109  
  24083826.610   126561351.40046     -1310.168    24083829.370    98619253.58543
     -1020.909  
  21183229.090   111318636.11548      2068.046    21183231.118    86741820.12948
      1611.464  
  22310847.653   117244313.72148      2706.495    22310849.349    91359226.18947
      2108.953  
  23444669.787   123202557.05847     -3409.726    23444669.124    96001997.37945
     -2656.929  
  19841359.270   106249579.49208     -1603.695    19841362.623    82638572.88008
     -1247.323  
  23454275.149   125552572.01005     -3501.602    23454277.743    97652017.86304
     -2723.473  
  21475438.465   114476146.93504      2626.219    21475439.898    89037023.33805
      2042.612  
  22263003.492   119133849.62408      2842.718    22263006.586    92659670.92907
      2211.003  
  21862782.083   116746036.04304     -1323.402    21862787.147    90802494.14605
     -1029.316  
  20055671.905   107209098.29809      1829.905    20055676.476    83384886.24308
      1423.261  
  20552809.029   109905107.14705     -1520.315    20552814.590    85481777.21708
     -1182.473  
 20 09 30 07 21  5.0000000  0 15G15G18G20G 8G21G27G24G10G13R 4R 3R21
                                R13R 5R20
  20991112.846   110309040.15349     -2280.070    20991112.259    85955097.86148
     -1776.680  
  21279375.778   111823864.99448     -2406.452    21279376.287    87135477.46047
     -1875.163  
  20107936.174   105667927.23149       925.422    20107934.995    82338641.82048
       721.104  
  24633060.645   129447609.04646       533.934    24633063.140   100868275.52644
       416.055  
  25039578.008   131583881.11246      2829.590    25039576.729   102532881.96743
      2204.875  
  24085074.531   126567909.92246     -1314.026    24085077.426    98624364.10144
     -1023.925  
  21181262.968   111308304.66649      2064.022    21181265.020    86733769.65948
      1608.327  
  22308273.278   117230785.28848      2704.379    22308274.882    91348684.55247
      2107.309  
  23447914.297   123219607.07848     -3410.948    23447913.658    96015283.10945
     -2657.886  
  19842857.720   106257603.81309     -1606.641    19842861.378    82644814.02008
     -1249.609  
  23457545.832   125570082.23604     -3502.343    23457548.716    97665636.92205
     -2724.055  
  22260349.191   119119645.83208      2838.151    22260352.559    92648623.56107
      2207.452  
  21864023.582   116752665.39204     -1328.328    21864028.621    90807650.31505
     -1033.145  
  20053961.550   107199955.00609      1826.922    20053965.861    83377774.79408
      1420.937  
  20554232.715   109912720.23405     -1525.207    20554238.159    85487698.52508
     -1186.272  
 20 09 30 07 21 10.0000000  0 15G15G18G20G 8G21G27G24G10G13R 4R 3R21
                                R13R 5R20
  20993282.987   110320444.79049     -2281.640    20993282.580    85963984.58748
     -1777.905  
  21281666.677   111835903.30948     -2408.676    21281666.924    87144857.95647
     -1876.894  
  20107056.810   105663306.20749       923.254    20107055.867    82335041.03248
       719.417  
  24632553.837   129444946.81146       531.214    24632556.530   100866201.01245
       413.929  
  25036886.158   131569736.97045      2828.687    25036884.404   102521860.56441
      2204.163  
  24086326.090   126574486.31746     -1317.418    24086328.495    98629488.55143
     -1026.563  
  21179300.430   111297991.42748      2061.479    21179302.576    86725733.37448
      1606.347  
  22305700.441   117217265.50048      2703.508    22305702.143    91338149.67747
      2106.656  
  23451159.978   123236663.99748     -3411.253    23451159.317    96028574.19744
     -2658.128  
  19844358.789   106265641.40308     -1608.124    19844362.298    82651065.48408
     -1250.769  
  23460817.745   125587597.22705     -3502.770    23460820.880    97679259.59404
     -2724.391  
  22257698.704   119105462.66307      2835.233    22257702.313    92637592.20907
      2205.183  
  21865269.625   116759319.72304     -1333.601    21865274.678    90812825.89305
     -1037.253  
  20052253.399   107190824.89709      1825.219    20052257.960    83370673.59608
      1419.609  
  20555661.026   109920358.99605     -1529.781    20555666.578    85493639.78108
     -1189.832  
 20 09 30 07 21 15.0000000  0 15G15G18G20G 8G21G27G24G10G13R 4R 3R21
                                R13R 5R20
  20995454.464   110331855.29649     -2282.539    20995453.845    85972875.89648
     -1778.601  
  21283959.096   111847950.77148     -2410.426    21283959.570    87154245.58247
     -1878.257  
  20106178.986   105658693.55349       921.784    20106177.938    82331446.74948
       718.269  
  24632049.508   129442296.20246       528.852    24632051.931   100864135.60844
       412.094  
  25034194.961   131555594.47945      2828.457    25034192.720   102510840.44743
      2203.988  
  24087579.616   126581073.38946     -1318.483    24087582.127    98634621.31043
     -1027.397  
  21177339.977   111287689.52149      2059.425    21177342.081    86717705.91348
      1604.745  
  22303127.983   117203747.33049      2703.604    22303129.880    91327616.03447
      2106.706  
  23454405.822   123253720.89548     -3411.233    23454405.073    96041865.27545
     -2658.108  
  19845860.972   106273685.14908     -1609.214    19845864.418    82657321.73008
     -1251.616  
  23464089.076   125605109.67205     -3501.558    23464092.371    97692880.43504
     -2723.437  
  22255050.882   119091293.04308      2832.668    22255054.420    92626571.39807
      2203.188  
  21866519.107   116765991.85604     -1336.683    21866524.286    90818015.31705
     -1039.647  
  20050546.574   107181700.87209      1824.180    20050551.297    83363577.13908
      1418.805  
  20557093.162   109928016.05205     -1533.144    20557098.627    85499595.26208
     -1192.449  
 20 09 30 07 21 20.0000000  0 14G15G18G20G 8G21G27G24G10G13R 4R 3R21
                                R 5R20
  20997627.664   110343275.66249     -2285.038    20997627.076    85981774.88348
     -1780.550  
  21286254.165   111860011.35048     -2413.344    21286254.632    87163643.41547
     -1880.530  
  20105303.617   105654093.26849       918.847    20105302.702    82327862.11448
       715.980  
  24631548.013   129439661.38946       525.004    24631550.497   100862082.50545
       409.089  
  25031504.648   131541457.75645      2826.999    25031502.594   102499824.73442
      2202.840  
  24088835.930   126587675.27046     -1321.937    24088838.273    98639765.61143
     -1030.094  
  21175382.382   111277402.75948      2055.840    21175384.737    86709690.25848
      1601.953  
  22300556.496   117190234.76048      2702.043    22300558.396    91317086.76947
      2105.488  
  23457652.453   123270781.49348     -3412.448    23457651.599    96055159.25944
     -2659.051  
  19847365.065   106281739.06209     -1611.770    19847368.428    82663585.87908
     -1253.598  
  23467360.874   125622623.82805     -3503.151    23467364.077    97706502.51305
     -2724.684  
  22252405.972   119077140.93807      2828.698    22252409.958    92615564.21607
      2200.093  
  20048841.580   107172586.92609      1821.816    20048846.310    83356488.52608
      1416.945  
  20558529.144   109935695.85905     -1538.585    20558534.845    85505568.45508
     -1196.680  
 20 09 30 07 21 25.0000000  0 15G15G18G20G 8G21G27G24G10G13R 4R 3R14
                                R21R 5R20
  20999802.935   110354706.82149     -2287.015    20999802.516    85990682.29048
     -1782.089  
  21288551.751   111872085.93048     -2416.074    21288552.401    87173052.17547
     -1882.659  
  20104430.744   105649506.26149       916.293    20104429.664    82324287.82448
       713.991  
  24631049.727   129437043.19446       522.073    24631052.446   100860042.35145
       406.866  
  25028815.842   131527327.60946      2825.180    25028814.108   102488814.30441
      2201.438  
  24090095.178   126594292.72546     -1324.844    24090097.622    98644922.02844
     -1032.355  
  21173428.005   111267132.09549      2052.668    21173430.337    86701687.16248
      1599.479  
  22297986.355   117176728.76748      2700.906    22297988.333    91306562.63547
      2104.602  
  23460899.824   123287846.82547     -3413.241    23460898.817    96068456.91445
     -2659.667  
  19848871.212   106289804.10209     -1613.968    19848874.574    82669858.70408
     -1255.309  
  23470633.235   125640140.28605     -3503.151    23470636.475    97720126.40705
     -2724.679  
  21463163.484   114410739.69113      2608.370    21463165.751    88986139.33715
      2028.729  
  22249764.911   119063007.30608      2825.020    22249768.872    92604571.39107
      2197.237  
  20047138.850   107163484.10509      1819.569    20047143.476    83349408.55008
      1415.219  
  20559969.858   109943399.00305     -1542.839    20559975.392    85511559.78108
     -1199.991  
 20 09 30 07 21 30.0000000  0 15G15G18G20G 8G21G27G24G10G13R 4R 3R14
                                R21R 5R20
  21001979.917   110366146.68849     -2288.746    21001979.405    85999596.47548
     -1783.438  
  21290851.812   111884172.52448     -2418.472    21290852.378    87182470.29147
     -1884.527  
  20103559.941   105644930.50549       914.194    20103559.054    82320722.29348
       712.354  
  24630554.141   129434439.62345       519.648    24630556.794   100858013.58345
       404.913  
  25026127.754   131513201.99045      2825.030    25026126.177   102477807.36144
      2201.063  
  24091357.046   126600923.79546     -1326.895    24091359.310    98650089.08744
     -1033.949  
  21171476.129   111256875.63548      2049.987    21171478.607    86693695.12148
      1597.395  
  22295417.181   117163227.26049      2700.105    22295418.968    91296041.98347
      2103.976  
  23464147.727   123304914.73347     -3413.433    23464146.762    96081756.58145
     -2659.820  
  19850378.980   106297878.09809     -1615.604    19850382.410    82676138.47508
     -1256.585  
  23473905.443   125657657.20006     -3503.117    23473908.975    97733750.69705
     -2724.644  
  21460718.373   114397705.24904      2606.027    21460720.737    88976001.42005
      2026.902  
  22247126.876   119048890.20608      2821.968    22247130.891    92593591.43007
      2194.862  
  20045437.604   107154390.15608      1818.113    20045442.283    83342335.49408
      1414.090  
  20561414.295   109951123.49705     -1546.676    20561419.995    85517567.72408
     -1202.972  
 20 09 30 07 21 35.0000000  0 14G15G18G20G 8G21G27G24G10G13R 4R 3R21
                                R 5R20
  21004158.975   110377597.65049     -2290.863    21004158.470    86008519.28648
     -1785.094  
  21293154.537   111896273.42349     -2421.253    21293155.026    87191899.56247
     -1886.695  
  20102691.779   105640368.34149       911.429    20102690.897    82317167.36748
       710.198  
  24630061.869   129431853.02845       516.070    24630064.648   100855998.04545
       402.137  
  25023441.128   131499083.48645      2823.121    25023439.654   102466805.90643
      2199.839  
  24092622.009   126607570.84547     -1330.741    24092624.046    98655268.65744
     -1036.937  
  21169527.493   111246635.67049      2046.785    21169529.739    86685715.92848
      1594.897  
  22292849.163   117149732.63949      2698.671    22292851.100    91285526.67947
      2102.797  
  23467396.578   123321987.74747     -3414.645    23467395.730    96095060.22144
     -2660.765  
  19851888.836   106305963.62008     -1617.800    19851892.389    82682427.20608
     -1258.292  
  23477178.362   125675177.01505     -3503.715    23477182.041    97747377.19005
     -2725.120  
  22244492.215   119034791.95007      2817.979    22244496.568    92582626.13207
      2191.762  
  20043738.410   107145307.61908      1815.753    20043743.229    83335271.29908
      1412.254  
  20562863.218   109958871.85205     -1551.901    20562869.122    85523594.20408
     -1207.039  
 20 09 30 07 21 40.0000000  0 14G15G18G20G 8G21G27G24G10G13R 4R 3R21
                                R 5R20
  21006340.122   110389059.15349     -2293.405    21006339.512    86017450.32248
     -1787.074  
  21295459.928   111908388.08348     -2424.344    21295460.324    87201339.55747
     -1889.101  
  20101826.093   105635819.22549       908.440    20101825.153    82313622.60048
       707.871  
  24629572.505   129429282.68446       512.636    24629575.517   100853995.20145
       399.452  
  25020755.684   131484971.22645      2821.613    25020754.629   102455809.36544
      2198.663  
  24093890.070   126614233.23647     -1334.460    24093891.873    98660460.06943
     -1039.848  
  21167581.921   111236411.65649      2043.190    21167584.298    86677749.17148
      1592.098  
  22290282.413   117136244.31248      2697.034    22290284.388    91275016.29847
      2101.581  
  23470646.361   123339065.09747     -3416.008    23470645.503    96108367.24644
     -2661.827  
  19853400.918   106314060.06108     -1620.323    19853404.323    82688724.44808
     -1260.253  
  23480451.543   125692698.95605     -3504.621    23480455.327    97761005.37705
     -2725.816  
  22241861.218   119020712.08008      2814.175    22241865.558    92571675.12307
      2188.801  
  20042041.322   107136235.86608      1813.198    20042046.072    83328215.48608
      1410.262  
  20564316.518   109966643.39305     -1557.140    20564322.313    85529638.74208
     -1211.027  
 20 09 30 07 21 45.0000000  0 14G15G18G20G 8G21G27G24G10G13R 4R 3R21
                                R 5R20
  21008522.990   110400530.08149     -2294.780    21008522.259    86026388.71248
     -1788.140  
  21297767.621   111920515.43648     -2426.323    21297768.102    87210789.43147
     -1890.644  
  20100962.702   105631282.10849       906.484    20100961.858    82310087.17948
       706.348  
  24629086.296   129426727.70046       510.199    24629089.359   100852004.27645
       397.554  
  25018071.280   131470864.40245      2820.652    25018069.531   102444816.96445
      2197.722  
  24095160.566   126620909.89446     -1336.980    24095162.239    98665662.66143
     -1041.809  
  21165639.208   111226202.53449      2040.641    21165641.541    86669794.00147
      1590.105  
  22287716.618   117122761.24548      2696.383    22287718.683    91264510.04047
      2101.077  
  23473896.543   123356145.88747     -3416.352    23473895.757    96121676.93045
     -2662.101  
  19854914.704   106322166.22409     -1621.801    19854918.131    82695029.25208
     -1261.401  
  23483725.122   125710222.08505     -3504.855    23483728.853    97774634.46705
     -2725.999  
  22239233.213   119006649.40507      2810.952    22239237.566    92560737.48907
      2186.296  
  20040346.068   107127173.85609      1811.815    20040350.853    83321167.26808
      1409.190  
  20565773.828   109974436.88005     -1560.444    20565779.781    85535700.34708
     -1213.679  
 20 09 30 07 21 50.0000000  0 14G15G18G20G 8G21G27G24G10G13R 4R 3R21
                                R 5R20
  21010707.568   110412010.05549     -2297.128    21010706.973    86035334.15748
     -1789.969  
  21300077.764   111932655.07148     -2429.391    21300078.092    87220248.88847
     -1893.031  
  20100101.411   105626756.58549       903.699    20100100.523    82306560.81048
       704.179  
  24628602.886   129424187.80346       506.183    24628606.121   100850025.12245
       394.422  
  25015387.836   131456762.43345      2819.683    25015386.325   102433828.46544
      2197.148  
  24096433.948   126627600.47046     -1339.851    24096435.517    98670876.08744
     -1044.043  
  21163699.183   111216007.88249      2037.272    21163701.458    86661850.12247
      1587.480  
  22285151.814   117109283.05049      2695.108    22285153.741    91254007.56347
      2099.968  
  23477147.518   123373229.59348     -3417.102    23477146.735    96134988.92445
     -2662.676  
  19856430.143   106330281.67409     -1624.309    19856433.595    82701341.26107
     -1263.355  
  23486998.553   125727745.92304     -3504.777    23487002.702    97788264.06305
     -2725.948  
  22236608.387   118992603.61908      2807.301    22236612.893    92549813.00707
      2183.456  
  20038652.727   107118121.16709      1809.284    20038657.340    83314126.29508
      1407.223  
  20567235.320   109982252.01005     -1565.051    20567241.097    85541778.77408
     -1217.262  
 20 09 30 07 21 55.0000000  0 14G15G18G20G 8G21G27G24G10G13R 4R 3R21
                                R 5R20
  21012893.853   110423499.87249     -2298.754    21012893.384    86044287.23748
     -1791.241  
  21302390.192   111944807.77448     -2431.703    21302390.736    87229718.53047
     -1894.832  
  20099242.606   105622243.50649       901.426    20099241.866    82303044.12948
       702.410  
  24628122.554   129421663.57747       503.656    24628125.769   100848058.22445
       392.280  
  25012705.406   131442666.29345      2818.840    25012704.666   102422844.42341
      2196.499  
  24097709.990   126634305.70647     -1342.620    24097711.222    98676100.97844
     -1046.199  
  21161762.174   111205828.52248      2034.492    21161764.276    86653918.15447
      1585.319  
  22282587.973   117095810.59749      2693.972    22282589.988    91243509.51647
      2099.109  
  23480399.254   123390317.14848     -3417.765    23480398.476    96148303.91645
     -2663.195  
  19857947.629   106338407.33508     -1625.933    19857950.975    82707661.21908
     -1264.616  
  23490272.339   125745271.32204     -3505.362    23490276.541    97801894.96105
     -2726.390  
  22233986.959   118978575.54508      2803.801    22233991.311    92538902.27107
      2180.730  
  20036961.068   107109078.65308      1807.664    20036965.759    83307093.23308
      1405.961  
  20568700.952   109990089.65005     -1569.047    20568706.752    85547874.71408
     -1220.374  
 20 09 30 07 22  0.0000000  0 14G15G18G20G 8G21G27G24G10G13R 4R 3R21
                                R 5R20
  21015082.238   110434999.72449     -2300.897    21015081.754    86053248.15248
     -1792.910  
  21304705.291   111956973.79748     -2434.472    21304705.826    87239198.53047
     -1896.995  
  20098386.272   105617743.09349       898.711    20098385.366    82299537.31348
       700.289  
  24627645.322   129419155.33046       500.324    24627648.559   100846103.72244
       389.855  
  25010024.138   131428576.19745      2817.602    25010023.701   102411865.22643
      2195.550  
  24098988.845   126641025.88747     -1345.694    24098990.041    98681337.46543
     -1048.593  
  21159827.982   111195664.71248      2031.241    21159830.037    86645998.30148
      1582.780  
  22280025.450   117082344.00949      2692.715    22280027.400    91233016.08447
      2098.218  
  23483651.599   123407408.70848     -3418.520    23483650.931    96161621.98745
     -2663.785  
  19859466.970   106346543.49608     -1628.104    19859470.284    82713989.33908
     -1266.309  
  23493546.285   125762798.48004     -3505.844    23493551.120    97815527.21805
     -2726.766  
  22231368.915   118964565.42507      2800.285    22231373.134    92528005.48607
      2177.992  
  20035271.487   107100046.62509      1805.387    20035276.078    83300068.32008
      1404.227  
  20570170.983   109997949.94105     -1573.581    20570176.794    85553988.27208
     -1223.901  
 20 09 30 07 22  5.0000000  0 15G15G18G20G 8G21G27G24G10G13R 4R 3R21
                                R13R 5R20
  21017272.531   110446509.82349     -2302.964    21017272.109    86062217.07148
     -1794.523  
  21307023.050   111969153.26448     -2437.249    21307023.641    87248689.03547
     -1899.156  
  20097532.241   105613255.50649       896.300    20097531.321    82296040.48348
       698.413  
  24627171.143   129416663.15946       497.094    24627174.504   100844161.76444
       387.347  
  25007344.106   131414492.19145      2816.737    25007343.700   102400890.66441
      2194.852  
  24100270.707   126647761.15046     -1348.555    24100271.678    98686585.71444
     -1050.824  
  21157896.831   111185516.50648      2028.309    21157898.738    86638090.61147
      1580.496  
  22277463.887   117068883.53249      2691.641    22277465.840    91222527.42647
      2097.383  
  23486904.884   123424504.43448     -3419.358    23486904.435    96174943.32644
     -2664.440  
  19860988.369   106354690.17608     -1630.370    19860991.577    82720325.65708
     -1268.065  
  23496820.692   125780327.66604     -3505.852    23496826.071    97829161.02505
     -2726.769  
  22228754.151   118950573.45507      2796.664    22228758.238    92517122.85507
      2175.184  
  21879239.586   116833918.31714     -1380.816    21879245.778    90870851.55015
     -1073.965  
  20033583.953   107091025.06909      1803.437    20033588.320    83293051.55808
      1402.672  
  20571645.240   110005833.20805     -1578.496    20571650.937    85560119.70208
     -1227.722  
 20 09 30 07 22 10.0000000  0 15G15G18G20G 8G21G27G24G10G13R 4R 3R21
                                R13R 5R20
  21019464.748   110458029.65849     -2304.679    21019464.176    86071193.56548
     -1795.858  
  21309343.073   111981345.69148     -2439.527    21309343.659    87258189.62147
     -1900.933  
  20096680.674   105608780.30549       894.016    20096679.740    82292553.30848
       696.632  
  24626699.796   129414186.74546       493.988    24626703.567   100842232.10644
       384.926  
  25004665.163   131400414.12144      2814.691    25004665.031   102389920.71445
      2193.250  
  24101555.157   126654511.04146     -1351.554    24101556.141    98691845.34044
     -1053.167  
  21155968.548   111175383.68848      2025.269    21155970.412    86630194.90447
      1578.129  
  22274903.470   117055428.73049      2690.492    22274905.561    91212043.16847
      2096.484  
  23490158.749   123441603.85548     -3420.051    23490158.350    96188267.53145
     -2664.984  
  19862511.464   106362846.96608     -1632.195    19862514.715    82726669.81708
     -1269.488  
  23500095.608   125797858.23804     -3506.367    23500100.952    97842795.94805
     -2727.176  
  22226142.819   118936599.15407      2793.413    22226146.724    92506253.95907
      2172.656  
  21880534.132   116840831.40103     -1384.621    21880540.450    90876228.41705
     -1076.929  
  20031898.065   107082013.59209      1801.464    20031902.531    83286042.63908
      1401.140  
  20573123.575   110013738.87305     -1583.250    20573129.384    85566268.56408
     -1231.418  
 20 09 30 07 22 15.0000000  0 15G15G18G20G 8G21G27G24G10G13R 4R 3R21
                                R13R 5R20
  21021658.659   110469558.07949     -2306.520    21021657.944    86080176.74048
     -1797.292  
  21311665.388   111993549.97948     -2441.941    21311666.089    87267699.45747
     -1902.815  
  20095831.160   105604316.32949       891.729    20095830.143    82289074.88248
       694.852  
  24626231.357   129411724.89347       491.254    24626235.023   100840313.78045
       382.792  
  25001987.089   131386340.40645      2814.559    25001987.439   102378954.17341
      2193.176  
  24102842.110   126661274.24246     -1353.952    24102843.187    98697115.39144
     -1055.027  
  21154042.890   111165264.94248      2022.460    21154045.033    86622310.17448
      1575.944  
  22272343.974   117041978.39848      2689.684    22272345.944    91201562.36947
      2095.852  
  23493413.209   123458705.78648     -3420.554    23493412.744    96201593.73144
     -2665.367  
  19864036.380   106371012.69808     -1633.925    19864039.519    82733020.94708
     -1270.832  
  23503370.494   125815389.05304     -3505.812    23503375.940    97856430.93905
     -2726.757  
  22223534.365   118922641.41807      2789.832    22223538.367    92495397.94907
      2169.866  
  21881832.585   116847765.00704     -1388.358    21881838.891    90881621.21905
     -1079.835  
  20030214.044   107073011.03508      1799.633    20030218.347    83279040.64308
      1399.742  
  20574606.024   110021665.72305     -1587.468    20574611.668    85572433.88608
     -1234.702  
 20 09 30 07 22 20.0000000  0 14G15G18G20G 8G21G27G24G10G13R 4R21R13
                                R 5R20
  21023854.108   110481095.92949     -2309.187    21023853.684    86089167.27048
     -1799.371  
  21313990.183   112005766.88648     -2445.144    21313991.064    87277219.12347
     -1905.308  
  20094983.944   105599864.42749       888.629    20094982.955    82285605.88348
       692.438  
  24625765.938   129409278.44747       487.207    24625769.764   100838407.43545
       379.633  
  24999310.096   131372272.27645      2812.027    24999309.790   102367991.96043
      2191.234  
  24104131.595   126668051.78646     -1357.515    24104132.898    98702396.57344
     -1057.812  
  21152120.320   111155161.29949      2018.776    21152122.360    86614437.21248
      1573.074  
  22269785.431   117028533.40948      2688.081    22269787.338    91191085.77447
      2094.608  
  23496668.416   123475811.01448     -3421.863    23496667.862    96214922.45644
     -2666.391  
  19865563.186   106379188.17408     -1636.547    19865566.289    82739379.64108
     -1272.875  
  22220929.205   118908701.02307      2785.991    22220933.342    92484555.43507
      2166.882  
  21883134.813   116854719.86304     -1393.484    21883141.229    90887030.54805
     -1083.823  
  20028531.697   107064018.33408      1797.124    20028536.099    83272046.31908
      1397.766  
  20576092.601   110029614.52605     -1592.101    20576098.294    85578616.29608
     -1238.301  
 20 09 30 07 22 25.0000000  0 14G15G18G20G 8G21G27G24G10G13R 4R21R13
                                R 5R20
  21026052.217   110492646.35249     -2311.218    21026051.573    86098167.60248
     -1800.948  
  21316318.021   112017999.60448     -2448.007    21316318.945    87286751.09447
     -1907.547  
  20094139.579   105595427.79249       885.960    20094138.706    82282148.76048
       690.355  
  24625304.003   129406850.52247       484.042    24625307.927   100836515.53745
       377.175  
  24996634.584   131358212.64545      2811.133    24996634.518   102357036.54541
      2190.503  
  24105424.383   126674846.71446     -1360.199    24105426.039    98707691.33544
     -1059.894  
  21150200.987   111145075.76348      2015.444    21150203.162    86606578.35648
      1570.477  
  22267228.394   117015096.93249      2686.616    22267230.456    91180615.80047
      2093.469  
  23499924.596   123492922.73048     -3422.758    23499924.252    96228256.26544
     -2667.086  
  19867092.254   106387376.60908     -1638.784    19867095.461    82745748.43008
     -1274.613  
  22218327.824   118894781.41607      2781.917    22218332.087    92473729.04807
      2163.710  
  21884441.762   116861699.33404     -1398.698    21884448.275    90892459.05805
     -1087.875  
  20026851.776   107055038.56909      1794.738    20026856.243    83265062.06608
      1395.905  
  20577583.745   110037588.56205     -1597.004    20577589.454    85584818.31308
     -1242.116  
 20 09 30 07 22 30.0000000  0 15G15G18G20G 8G21G27G24G10G13R 4R 3R21
                                R13R 5R20
  21028251.994   110504206.32249     -2312.539    21028251.446    86107175.37348
     -1801.976  
  21318648.364   112030245.07449     -2450.026    21318649.255    87296293.01147
     -1909.117  
  20093297.689   105591003.35049       884.022    20093296.929    82278701.13948
       688.844  
  24624845.123   129404438.31147       481.473    24624848.901   100834635.93744
       375.172  
  24993960.216   131344158.62244      2810.835    24993960.027   102346085.29444
      2190.261  
  24106720.082   126681656.12546     -1363.180    24106722.003    98712997.33945
     -1062.230  
  21148284.692   111135005.24948      2012.797    21148286.954    86598731.21048
      1568.414  
  22264672.542   117001665.93849      2685.977    22264674.851    91170150.08947
      2092.969  
  23503181.542   123510037.91048     -3422.851    23503181.056    96241592.77344
     -2667.156  
  19868623.164   106395574.93508     -1640.409    19868626.246    82752124.90808
     -1275.875  
  23513197.749   125867988.30215     -3507.422    23513203.336    97897348.95115
     -2727.992  
  22215729.812   118880879.33507      2778.972    22215733.975    92462916.33507
      2161.421  
  21885752.921   116868700.38404     -1401.418    21885759.149    90897904.34205
     -1089.991  
  20025173.674   107046068.68408      1793.269    20025178.085    83258085.49808
      1394.766  
  20579079.012   110045584.74105     -1601.327    20579084.687    85591037.55408
     -1245.479  
 20 09 30 07 22 35.0000000  0 15G15G18G20G 8G21G27G24G10G13R 4R 3R21
                                R13R 5R20
  21030453.279   110515774.62049     -2314.930    21030452.820    86116189.63148
     -1803.843  
  21320980.810   112042502.10149     -2453.004    21320981.477    87305843.94547
     -1911.433  
  20092457.677   105586589.92949       881.175    20092457.114    82275262.11148
       686.624  
  24624388.856   129402040.20747       477.738    24624392.840   100832767.28444
       372.261  
  24991286.848   131330109.10445      2809.160    24991286.224   102335137.57743
      2188.949  
  24108018.125   126688478.60746     -1366.449    24108020.378    98718313.56144
     -1064.762  
  21146370.866   111124948.77648      2009.284    21146373.411    86590895.01048
      1565.675  
  22262117.671   116988239.24849      2684.625    22262119.716    91159687.73647
      2091.914  
  23506439.021   123527155.26648     -3424.113    23506438.302    96254930.96145
     -2668.144  
  19870155.740   106403781.96808     -1642.770    19870158.987    82758508.15908
     -1277.711  
  23516473.856   125885525.90205     -3507.851    23516479.524    97910989.28005
     -2728.335  
  22213134.816   118866993.60807      2775.109    22213139.036    92452116.36207
      2158.417  
  21887067.672   116875721.73404     -1406.863    21887073.949    90903365.36905
     -1094.230  
  20023497.286   107037107.52508      1790.948    20023501.571    83251115.70408
      1392.960  
  20580578.282   110053601.85505     -1606.305    20580584.006    85597273.09708
     -1249.351  
 20 09 30 07 22 40.0000000  0 15G15G18G20G 8G21G27G24G10G13R 4R 3R21
                                R13R 5R20
  21032656.684   110527353.84149     -2316.800    21032656.334    86125212.40148
     -1805.304  
  21323315.901   112054773.24348     -2455.522    21323316.627    87315405.86947
     -1913.398  
  20091620.555   105582190.10849       878.754    20091619.711    82271833.68048
       684.737  
  24623935.693   129399658.91147       474.836    24623939.461   100830911.71244
       370.000  
  24988614.581   131316066.46545      2807.995    24988613.979   102324195.33844
      2188.065  
  24109319.285   126695316.81146     -1368.812    24109321.963    98723642.02145
     -1066.605  
  21144460.304   111114908.79648      2006.589    21144462.791    86583071.65447
      1563.577  
  22259563.953   116974819.43149      2683.515    22259566.028    91149230.75147
      2091.050  
  23509697.227   123544277.44148     -3424.875    23509696.427    96268272.91144
     -2668.733  
  19871690.568   106412000.24808     -1644.664    19871693.647    82764900.15008
     -1279.188  
  23519750.696   125903066.23905     -3507.913    23519756.200    97924631.77105
     -2728.378  
  22210543.395   118853126.83207      2771.581    22210547.648    92441331.07307
      2155.671  
  21888386.878   116882765.87704     -1411.874    21888393.072    90908844.16405
     -1098.124  
  20021822.985   107028157.73608      1788.922    20021827.247    83244154.76608
      1391.383  
  20582082.110   110061642.43305     -1610.438    20582087.429    85603526.87108
     -1252.565  
 20 09 30 07 22 45.0000000  0 15G15G18G20G 8G21G27G24G10G13R 4R 3R21
                                R13R 5R20
  21034861.970   110538942.20049     -2318.820    21034861.574    86134242.27348
     -1806.874  
  21325653.303   112067056.74949     -2458.066    21325654.221    87324977.42747
     -1915.379  
  20090785.519   105577802.15249       876.281    20090784.756    82268414.49248
       682.816  
  24623485.517   129397292.75347       471.723    24623489.238   100829067.93545
       367.570  
  24985943.550   131302029.03845      2806.613    24985942.845   102313257.05641
      2186.972  
  24110623.345   126702169.03246     -1371.706    24110625.963    98728981.43645
     -1068.867  
  21142552.581   111104883.58348      2003.581    21142555.079    86575259.79948
      1561.230  
  22257011.210   116961404.77249      2682.347    22257013.389    91138777.74647
      2090.133  
  23512956.002   123561402.70047     -3425.667    23512955.454    96281617.26644
     -2669.354  
  19873227.051   106420228.10408     -1646.694    19873230.050    82771299.58908
     -1280.766  
  23523027.286   125920607.58305     -3508.444    23523033.423    97938275.03805
     -2728.788  
  22207955.368   118839277.40307      2768.023    22207959.345    92430559.28007
      2152.902  
  21889710.165   116889831.15904     -1415.254    21889716.013    90914339.34305
     -1100.762  
  20020150.556   107019217.45808      1786.996    20020154.842    83237201.20908
      1389.809  
  20583589.600   110069704.88204     -1615.026    20583595.206    85609797.65708
     -1256.136  
 20 09 30 07 22 50.0000000  0 14G15G18G20G 8G27G24G10G13R 4R 3R21R13
                                R 5R20
  21037068.960   110550540.19349     -2320.819    21037068.502    86143279.68248
     -1808.429  
  21327993.361   112079353.11549     -2460.797    21327994.231    87334559.00247
     -1917.508  
  20089952.733   105573426.58249       873.598    20089952.000    82265004.96448
       680.726  
  24623038.413   129394942.32747       468.219    24623042.235   100827236.43944
       364.848  
  24111929.868   126709035.73446     -1374.945    24111932.677    98734332.08544
     -1071.387  
  21140647.721   111094873.72548      2000.132    21140650.285    86567459.92247
      1558.547  
  22254459.586   116947995.74149      2680.917    22254461.935    91128329.15447
      2089.026  
  23516215.529   123578531.53347     -3426.261    23516215.052    96294964.39945
     -2669.816  
  19874765.241   106428465.91608     -1648.895    19874768.395    82777706.77408
     -1282.477  
  23526304.616   125938150.20205     -3508.914    23526310.538    97951919.25906
     -2729.163  
  22205370.578   118825445.76008      2764.147    22205374.406    92419801.36507
      2149.898  
  21891037.329   116896918.07504     -1419.332    21891043.078    90919851.37405
     -1103.929  
  20018479.985   107010287.26609      1784.683    20018484.159    83230255.50208
      1388.081  
  20585101.604   110077789.43004     -1619.070    20585107.083    85616085.62008
     -1259.281  
 20 09 30 07 22 55.0000000  0 15G15G18G20G 8G21G27G24G10G13R 4R 3R21
                                R13R 5R20
  21039277.835   110562148.91249     -2322.609    21039277.619    86152325.42848
     -1809.828  
  21330335.920   112091663.44049     -2463.245    21330336.708    87344151.45747
     -1919.418  
  20089122.630   105569064.61048       871.081    20089122.181    82261606.02448
       678.766  
  24622594.355   129392608.54146       465.519    24622598.129   100825417.90245
       362.738  
  24980604.605   131273963.82015      2804.714           0.000           0.0000 
         0.000  
  24113239.592   126715918.03946     -1378.104    24113242.281    98739694.94443
     -1073.851  
  21138746.065   111084880.17948      1997.304    21138748.668    86559672.74547
      1556.335  
  22251909.264   116934593.51749      2680.163    22251911.448    91117885.86847
      2088.437  
  23519476.017   123595665.10847     -3426.812    23519475.622    96308315.23345
     -2670.246  
  19876305.687   106436714.87508     -1650.800    19876308.921    82784122.63508
     -1283.956  
  23529582.212   125955695.36705     -3509.445    23529588.115    97965565.50305
     -2729.573  
  22202789.460   118811633.02108      2760.883    22202793.127    92409058.15207
      2147.351  
  21892368.632   116904027.62804     -1424.535    21892374.503    90925381.04305
     -1107.976  
  20016811.494   107001368.29008      1782.852    20016815.619    83223318.51708
      1386.660  
  20586617.907   110085897.44105     -1624.168    20586623.301    85622391.85808
     -1263.245  
 20 09 30 07 23  0.0000000  0 15G15G18G20G 8G21G27G24G10G13R 4R 3R21
                                R13R 5R20
  21041488.615   110573766.20249     -2324.672    21041488.197    86161377.87348
     -1811.433  
  21332680.773   112103985.53749     -2465.949    21332681.618    87353753.09947
     -1921.520  
  20088294.628   105564713.93248       868.718    20088294.078    82258215.89448
       676.921  
  24622153.099   129390289.44246       462.015    24622156.857   100823610.81045
       360.012  
  24977936.790   131259943.76504      2802.957           0.000           0.0000 
         0.000  
  24114551.527   126722813.70845     -1380.620    24114554.810    98745068.21845
     -1075.805  
  21136847.106   111074901.04848      1993.913    21136849.771    86551896.79647
      1553.699  
  22249359.692   116921195.86649      2678.698    22249362.213    91107446.14747
      2087.297  
  23522736.879   123612801.17847     -3428.109    23522736.351    96321667.99744
     -2671.258  
  19877847.783   106444972.66308     -1652.987    19877851.109    82790545.35608
     -1285.660  
  23532859.867   125973240.88005     -3510.015    23532865.906    97979212.00706
     -2730.015  
  22200211.196   118797836.99008      2757.046    22200214.724    92398327.90706
      2144.370  
  21893703.969   116911157.75404     -1429.465    21893709.549    90930926.68805
     -1111.804  
  20015144.697   106992458.33509      1780.680    20015148.823    83216388.56408
      1384.972  
  20588137.837   110094026.56805     -1627.824    20588143.578    85628714.50708
     -1266.085  
 20 09 30 07 23  5.0000000  0 15G15G18G20G 8G21G27G24G10G13R 4R 3R21
                                R13R 5R20
  21043701.489   110585395.43449     -2326.531    21043701.213    86170439.61648
     -1812.882  
  21335028.475   112116322.79849     -2468.558    21335029.212    87363366.54047
     -1923.555  
  20087469.519   105560377.95249       866.273    20087469.195    82254837.19948
       675.020  
  24621715.324   129387988.32446       458.710    24621718.904   100821817.77644
       357.444  
  24975270.431   131245931.85745      2802.292    24975272.228   102269552.94152
      2183.604  
  24115866.893   126729726.18946     -1384.492    24115870.293    98750454.52845
     -1078.827  
  21134951.391   111064939.62548      1991.027    21134954.292    86544134.65948
      1551.448  
  22246811.797   116907806.21048      2677.671    22246814.197    91097012.66447
      2086.496  
  23525998.872   123629943.03547     -3428.464    23525998.462    96335025.26645
     -2671.538  
  19879392.158   106453242.94108     -1654.835    19879395.459    82796977.79908
     -1287.097  
  23536138.181   125990790.01405     -3509.715    23536144.193    97992861.32905
     -2729.781  
  22197637.005   118784061.25508      2753.598    22197640.440    92387613.46107
      2141.687  
  21895043.797   116918311.79704     -1432.449    21895049.136    90936490.94605
     -1114.132  
  20013480.114   106983560.84309      1778.909    20013484.416    83209468.29508
      1383.597  
  20589662.669   110102180.27605     -1633.047    20589668.379    85635056.28608
     -1270.148  
 20 09 30 07 23 10.0000000  0 16G15G18G20G 8G21G27G24G10G13R 4R 3R21
                                R13R 5R20R19
  21045915.722   110597031.15149     -2327.941    21045915.461    86179506.40448
     -1813.979  
  21337378.068   112128669.64849     -2470.358    21337378.716    87372987.45947
     -1924.961  
  20086646.283   105556051.12949       864.309    20086645.761    82251465.65248
       673.483  
  24621279.744   129385699.71346       456.104    24621283.620   100820034.45444
       355.406  
  24972604.701   131231922.50844      2801.831    24972599.396   102258636.61244
      2183.249  
  24117184.119   126736649.79245     -1386.171    24117188.024    98755849.54043
     -1080.132  
  21133058.144   111054990.23248      1988.688    21133060.994    86536381.88848
      1549.625  
  22244264.098   116894418.99649      2677.155    22244266.868    91086581.05748
      2086.097  
  23529260.927   123647085.22247     -3428.538    23529260.409    96348382.83344
     -2671.589  
  19880937.817   106461519.81508     -1656.175    19880941.268    82803415.35508
     -1288.141  
  23539416.089   126008337.28505     -3509.593    23539422.195    98006509.18406
     -2729.688  
  22195065.280   118770299.99808      2750.901    22195068.832    92376910.27907
      2139.590  
  21896387.091   116925484.13104     -1437.022    21896392.463    90942069.42305
     -1117.687  
  20011817.064   106974670.16909      1777.444    20011821.150    83202553.32808
      1382.457  
  20591190.896   110110352.86305     -1636.659    20591196.541    85641412.73308
     -1272.960  
  23238257.099   124309005.52613     -4615.921    23238261.779    96684801.93514
     -3590.168  
 20 09 30 07 23 15.0000000  0 16G15G18G20G 8G21G27G24G10G13R 4R 3R21
                                R13R 5R20R19
  21048131.287   110608674.58449     -2329.547    21048131.147    86188579.20748
     -1815.233  
  21339729.760   112141027.49849     -2472.882    21339730.192    87382616.95347
     -1926.925  
  20085824.787   105551734.85949       862.015    20085824.532    82248102.32748
       671.694  
  24620846.821   129383424.87546       453.362    24620850.693   100818261.84745
       353.269  
  24969939.725   131217917.24845      2799.796    24969937.597   102247712.49051
      2181.659  
  24118504.076   126743586.08545     -1388.690    24118508.115    98761254.46844
     -1082.102  
  21131167.382   111045054.46148      1985.722    21131170.410    86528639.73248
      1547.312  
  22241717.373   116881035.67648      2676.237    22241720.049    91076152.51348
      2085.378  
  23532523.368   123664229.09148     -3429.000    23532522.794    96361741.66144
     -2671.957  
  19882485.018   106469804.91008     -1657.844    19882488.521    82809859.32608
     -1289.433  
  23542694.006   126025884.07905     -3509.522    23542699.882    98020156.69506
     -2729.628  
  22192496.723   118756554.78708      2747.476    22192500.045    92366219.55506
      2136.921  
  21897733.757   116932676.16004     -1440.754    21897739.393    90947663.23905
     -1120.585  
  20010155.333   106965787.70009      1775.522    20010159.292    83195644.75008
      1380.960  
  20592722.981   110118545.76705     -1640.527    20592728.601    85647784.98508
     -1275.969  
  23242572.452   124332089.63104     -4616.343    23242577.403    96702756.24305
     -3590.491  
 20 09 30 07 23 20.0000000  0 16G15G18G20G 8G21G27G24G10G13R 4R 3R21
                                R13R 5R20R19
  21050349.122   110620329.88649     -2332.272    21050349.028    86197661.24548
     -1817.358  
  21342084.313   112153400.44549     -2476.004    21342084.836    87392258.20447
     -1929.358  
  20085006.329   105547433.27249       858.828    20085005.980    82244750.43248
       669.211  
  24620417.550   129381168.03946       449.438    24620421.563   100816503.28745
       350.210  
  24967276.231   131203920.08644      2798.371    24967279.690   102236805.58441
      2180.550  
  24119827.011   126750539.15745     -1392.132    24119831.449    98766672.39245
     -1084.788  
  21129280.076   111035136.31848      1981.961    21129283.224    86520911.30048
      1544.382  
  22239172.217   116867660.38749      2674.293    22239174.864    91065730.21547
      2083.859  
  23535786.770   123681378.72547     -3430.266    23535786.333    96375105.02744
     -2672.934  
  19884034.583   106478102.32108     -1660.808    19884037.920    82816312.86108
     -1291.741  
  23545972.581   126043434.61005     -3510.441    23545978.548    98033807.06206
     -2730.351  
  22189931.940   118742829.86708      2742.913    22189935.198    92355544.60907
      2133.375  
  21899085.171   116939892.01104     -1446.543    21899090.640    90953275.57505
     -1125.093  
  20008496.046   106956917.76509      1772.699    20008499.836    83188745.91008
      1378.762  
  20594259.775   110126763.25505     -1646.108    20594265.493    85654176.36508
     -1280.312  
  23246889.076   124355179.56504     -4618.770    23246893.994    96720715.07605
     -3592.378  
 20 09 30 07 23 25.0000000  0 16G15G18G20G 8G21G27G24G10G13R 4R 3R21
                                R13R 5R20R19
  21052569.072   110631995.86749     -2333.843    21052568.869    86206751.62148
     -1818.578  
  21344441.497   112165787.31449     -2478.438    21344441.992    87401910.30147
     -1931.253  
  20084190.378   105543145.23349       856.504    20084190.102    82241409.10848
       667.406  
  24619991.166   129378927.93746       446.948    24619995.217   100814757.78545
       348.273  
  24964613.972   131189929.78944      2797.914    24964616.338   102225904.00945
      2180.195  
  24121152.924   126757507.75046     -1394.874    24121157.653    98772102.44644
     -1086.921  
  21127395.800   111025234.72448      1978.948    21127398.946    86513195.78048
      1542.039  
  22236628.208   116854291.90349      2673.069    22236630.882    91055313.22447
      2082.910  
  23539051.087   123698532.98447     -3430.953    23539050.384    96388471.98844
     -2673.468  
  19885585.989   106486410.87308     -1662.620    19885589.768    82822775.06708
     -1293.152  
  23549251.618   126060987.61305     -3509.960    23549257.479    98047459.38006
     -2729.976  
  22187370.697   118729123.98008      2739.285    22187373.951    92344884.48807
      2130.555  
  21900440.518   116947130.58204     -1450.745    21900446.202    90958905.55605
     -1128.362  
  20006839.022   106948059.02309      1770.972    20006842.566    83181855.77908
      1377.417  
  20595800.825   110135004.09905     -1650.379    20595806.475    85660585.91008
     -1283.632  
  23251206.457   124378273.86204     -4618.031    23251211.263    96738677.29105
     -3591.805  
 20 09 30 07 23 30.0000000  0 16G15G18G20G 8G21G27G24G10G13R 4R 3R21
                                R13R 5R20R19
  21054790.759   110643670.97049     -2335.938    21054790.681    86215849.10548
     -1820.210  
  21346800.967   112178186.56748     -2481.090    21346801.629    87411572.05747
     -1933.320  
  20083376.712   105538869.20149       853.898    20083376.423    82238077.13848
       665.374  
  24619567.919   129376703.16646       443.410    24619571.850   100813024.20145
       345.515  
  24961952.986   131175945.05804      2796.241           0.000           0.0000 
         0.000  
  24122481.611   126764490.30046     -1398.039    24122486.552    98777543.40644
     -1089.383  
  21125514.569   111015348.13548      1975.789    21125517.576    86505491.94748
      1539.573  
  22234085.326   116840928.72049      2672.039    22234087.856    91044900.36448
      2082.109  
  23542316.146   123715690.36147     -3432.050    23542315.404    96401841.38544
     -2674.324  
  19887139.296   106494728.98308     -1664.472    19887143.062    82829244.70008
     -1294.594  
  23552530.845   126078541.66305     -3510.937    23552536.673    98061112.50806
     -2730.738  
  22184812.804   118715435.58508      2735.875    22184815.901    92334237.95207
      2127.898  
  21901800.146   116954390.20004     -1453.840    21901805.690    90964551.93405
     -1130.765  
  20005183.502   106939209.97709      1768.781    20005187.251    83174973.18808
      1375.714  
  20597345.829   110143266.61805     -1654.945    20597351.794    85667012.31008
     -1287.184  
  23255524.542   124401371.14304     -4619.827    23255528.999    96756641.82605
     -3593.203  
 20 09 30 07 23 35.0000000  0 16G15G18G20G 8G21G27G24G10G13R 4R 3R21
                                R13R 5R20R19
  21057014.351   110655355.71249     -2337.843    21057014.192    86224954.10248
     -1821.699  
  21349162.902   112190598.71049     -2483.746    21349163.433    87421243.84347
     -1935.390  
  20082565.308   105534605.71349       851.473    20082564.934    82234754.94248
       663.484  
  24619147.543   129374494.07346       440.234    24619151.257   100811302.81745
       343.039  
  24959292.805   131161966.20904      2795.223           0.000           0.0000 
         0.000  
  24123813.098   126771487.34146     -1400.859    24123818.079    98782995.69344
     -1091.581  
  21123635.959   111005476.93848      1972.621    21123639.373    86497800.11148
      1537.105  
  22231543.555   116827571.37049      2670.805    22231546.066    91034492.03347
      2081.147  
  23545581.777   123732851.33347     -3432.582    23545580.872    96415213.55743
     -2674.741  
  19888694.636   106503057.10308     -1666.694    19888698.467    82835722.12608
     -1296.323  
  23555810.453   126096097.16105     -3511.272    23555816.123    98074766.76506
     -2730.995  
  22182258.320   118701765.27508      2732.292    22182261.405    92323605.49107
      2125.117  
  21903163.703   116961671.48504     -1458.515    21903169.508    90970215.14305
     -1134.405  
  20003530.186   106930371.08309      1766.827    20003533.640    83168098.49208
      1374.199  
  20598895.249   110151551.34605     -1658.921    20598900.983    85673455.98908
     -1290.272  
  23259843.040   124424471.91604     -4619.898    23259847.676    96774609.08405
     -3593.257  
 20 09 30 07 23 40.0000000  0 16G15G18G20G 8G21G27G24G10G13R 4R 3R21
                                R13R 5R20R19
  21059239.862   110667050.25849     -2339.801    21059239.374    86234066.72748
     -1823.227  
  21351527.314   112203023.84149     -2486.270    21351527.933    87430925.76247
     -1937.354  
  20081756.384   105530354.91549       848.901    20081756.118    82231442.63348
       661.479  
  24618730.095   129372300.87046       436.733    24618734.026   100809593.85845
       340.312  
  24956633.869   131147993.44044      2794.409    24956634.845   102193251.31753
      2177.390  
  24125147.310   126778499.08146     -1403.555    24125152.471    98788459.33644
     -1093.688  
  21121760.600   110995621.39448      1969.511    21121763.858    86490120.47447
      1534.680  
  22229002.952   116814220.00449      2669.577    22229005.267    91024088.38848
      2080.191  
  23548847.930   123750015.99047     -3433.309    23548847.187    96428588.60244
     -2675.309  
  19890251.660   106511395.51908     -1668.784    19890255.544    82842207.54808
     -1297.948  
  23559090.295   126113654.22905     -3511.930    23559096.111    98088422.23206
     -2731.507  
  22179707.181   118688113.17508      2728.617    22179710.300    92312987.20507
      2122.258  
  21904531.306   116968974.53704     -1462.522    21904537.167    90975895.27205
     -1137.527  
  20001878.587   106921542.62609      1764.710    20001881.939    83161231.92408
      1372.555  
  20600448.783   110159858.59905     -1664.050    20600454.729    85679917.18408
     -1294.261  
  23264162.430   124447576.30104     -4620.796    23264166.816    96792579.14905
     -3593.957  
 20 09 30 07 23 45.0000000  0 17G15G18G20G 8G21G27G24G10G13R 4R 3R14
                                R21R13R 5R20R19
  21061466.889   110678753.86449     -2342.121    21061466.521    86243186.42548
     -1825.031  
  21353894.175   112215461.25148     -2489.019    21353894.814    87440617.24847
     -1939.500  
  20080949.924   105526116.06349       846.164    20080949.507    82228139.63448
       659.347  
  24618315.601   129370122.87746       433.418    24618319.723   100807896.72945
       337.729  
  24953976.138   131134026.18545      2792.460    24953975.569   102182367.87243
      2175.949  
  24126484.098   126785524.63746     -1407.184    24126489.472    98793933.85144
     -1096.508  
  21119887.898   110985780.74948      1966.230    21119891.225    86482452.45048
      1532.129  
  22226463.120   116800873.87949      2668.448    22226465.376    91013688.80147
      2079.308  
  23552114.789   123767183.73047     -3434.594    23552114.230    96441966.06345
     -2676.312  
  19891810.612   106519743.38508     -1670.929    19891814.524    82848700.33208
     -1299.612  
  23562370.300   126131212.16205     -3512.222    23562376.165    98102078.41006
     -2731.729  
  21395949.542   114052448.05714      2509.862    21395951.623    88707468.86415
      1952.117  
  22177159.170   118674478.47608      2724.914    22177162.317    92302382.44606
      2119.374  
  21905902.832   116976298.53204     -1467.011    21905908.635    90981591.71605
     -1141.011  
  20000228.837   106912723.82509      1762.503    20000232.221    83154372.84908
      1370.831  
  20602006.321   110168187.39305     -1667.707    20602012.315    85686395.13108
     -1297.109  
  23268482.201   124470683.32004     -4621.577    23268486.500    96810551.25505
     -3594.565  
 20 09 30 07 23 50.0000000  0 17G15G18G20G 8G21G27G24G10G13R 4R 3R14
                                R21R13R 5R20R19
  21063696.033   110690467.81649     -2343.917    21063695.636    86252314.18448
     -1826.434  
  21356263.525   112227912.24049     -2491.585    21356264.111    87450319.30747
     -1941.499  
  20080145.747   105521890.45749       843.608    20080145.302    82224846.95448
       657.354  
  24617904.316   129367961.37446       430.581    24617908.568   100806212.43145
       335.515  
  24951319.504   131120065.54645      2790.714    24951317.464   102171489.34241
      2174.573  
  24127823.877   126792565.41146     -1409.445    24127829.610    98799420.15044
     -1098.273  
  21118018.420   110975956.23148      1963.163    21118021.502    86474796.99448
      1529.737  
  22223924.758   116787534.29249      2667.156    22223926.968    91003294.31947
      2078.230  
  23555382.461   123784355.80647     -3434.773    23555381.924    96455346.91144
     -2676.445  
  19893371.569   106528102.11708     -1672.823    19893375.356    82855201.57708
     -1301.085  
  23565650.685   126148772.32005     -3512.395    23565656.784    98115736.28406
     -2731.866  
  21393597.216   114039909.39504      2506.152    21393600.291    88697716.53805
      1949.222  
  22174614.739   118660862.61808      2721.233    22174617.909    92291792.34606
      2116.515  
  21907278.439   116983644.78904     -1471.597    21907284.486    90987305.46505
     -1144.578  
  19998581.098   106903915.87408      1760.366    19998584.670    83147522.22008
      1369.176  
  20603568.149   110176539.12805     -1672.913    20603573.913    85692890.92208
     -1301.160  
  23272802.511   124493794.53504     -4623.104    23272806.890    96828526.64605
     -3595.754  
 20 09 30 07 23 55.0000000  0 16G15G18G20G 8G27G24G10G13R 4R 3R14R21
                                R13R 5R20R19
  21065926.714   110702189.15449     -2345.335    21065926.017    86261447.69448
     -1827.535  
  21358634.781   112240373.80149     -2493.711    21358635.358    87460029.60447
     -1943.156  
  20079343.675   105517675.13749       841.711    20079343.299    82221562.29248
       655.874  
  24617495.546   129365813.45946       427.801    24617499.884   100804538.75245
       333.363  
  24129166.021   126799618.42346     -1412.034    24129171.346    98804915.98844
     -1100.288  
  21116151.235   110966144.97848      1960.687    21116154.540    86467151.88048
      1527.809  
  22221386.983   116774198.32148      2666.535    22221389.094    90992902.64747
      2077.815  
  23558650.471   123801529.09747     -3434.859    23558650.033    96468728.65044
     -2676.527  
  19894933.875   106536468.56708     -1674.390    19894937.604    82861708.81708
     -1302.304  
  23568930.879   126166331.58305     -3511.956    23568937.005    98129393.47006
     -2731.527  
  21391247.498   114027386.48205      2502.476    21391251.478    88687976.40605
      1946.352  
  22172073.288   118647262.61208      2718.054    22172076.340    92281214.56106
      2114.038  
  21908657.827   116991010.43004     -1475.788    21908663.922    90993034.28605
     -1147.840  
  19996934.858   106895115.87209      1758.944    19996938.359    83140677.78208
      1368.070  
  20605133.519   110184910.77005     -1676.406    20605139.586    85699402.19608
     -1303.874  
  23277123.290   124516906.78604     -4623.315    23277127.481    96846502.80505
     -3595.918  
 20 09 30 07 24  0.0000000  0 16G15G18G20G 8G27G24G10G13R 4R 3R14R21
                                R13R 5R20R19
  21068160.074   110713925.54349     -2348.445    21068159.311    86270592.93848
     -1829.956  
  21361009.683   112252853.65449     -2497.523    21361010.209    87469754.16047
     -1946.125  
  20078544.825   105513477.83949       838.035    20078544.467    82218291.67748
       653.015  
  24617090.784   129363686.83146       423.765    24617095.208   100802881.64146
       330.207  
  24130511.771   126806691.32545     -1416.386    24130517.204    98810427.36744
     -1103.672  
  21114288.251   110956354.80848      1956.168    21114291.672    86459523.18247
      1524.284  
  22218851.313   116760873.65848      2664.098    22218853.462    90982519.81848
      2075.922  
  23561919.989   123818711.40447     -3436.905    23561919.834    96482117.43644
     -2678.116  
  19896499.129   106544850.58708     -1677.668    19896503.036    82868228.16208
     -1304.854  
  23572212.397   126183897.83304     -3513.405    23572218.641    98143056.05106
     -2732.660  
  21388902.110   114014886.74904      2497.973    21388906.874    88678254.38205
      1942.862  
  22169536.250   118633686.31608      2713.198    22169539.269    92270655.18806
      2110.262  
  21910042.281   116998403.27204     -1481.784    21910048.350    90998784.27905
     -1152.503  
  19995291.584   106886331.69208      1755.659    19995295.182    83133845.65308
      1365.512  
  20606704.449   110193310.21205     -1682.476    20606710.374    85705935.08108
     -1308.598  
  23281445.652   124540027.97604     -4625.604    23281449.770    96864485.93805
     -3597.695  
 20 09 30 07 24  5.0000000  0 16G15G18G20G 8G27G24G10G13R 4R 3R14R21
                                R13R 5R20R19
  21070395.099   110725670.86449     -2349.371    21070394.614    86279745.13148
     -1830.687  
  21363386.835   112265345.61249     -2499.089    21363387.322    87479488.16747
     -1947.343  
  20077748.445   105509292.42749       836.484    20077748.064    82215030.32348
       651.805  
  24616689.046   129361575.27646       421.433    24616693.542   100801236.26046
       328.390  
  24131859.967   126813777.92645     -1417.809    24131865.407    98815949.37744
     -1104.793  
  21112428.117   110946579.45648      1954.030    21112431.462    86451906.02948
      1522.621  
  22216316.730   116747554.18048      2663.738    22216318.809    90972140.99247
      2075.637  
  23565190.154   123835896.45847     -3437.116    23565190.115    96495508.37744
     -2678.277  
  19898066.084   106553241.93808     -1678.676    19898069.928    82874754.77408
     -1305.637  
  23575493.994   126201464.75905     -3513.000    23575500.230    98156719.27306
     -2732.332  
  21386559.951   114002404.28403      2493.995    21386565.447    88668545.93305
      1939.789  
  22167002.428   118620127.44708      2710.352    22167005.366    92260109.43706
      2108.050  
  21911430.499   117005816.90704     -1484.832    21911436.651    91004550.45005
     -1154.871  
  19993650.009   106877556.97308      1754.272    19993653.630    83127020.87508
      1364.434  
  20608279.245   110201731.00605     -1686.050    20608284.978    85712484.59308
     -1311.374  
  23285768.534   124563151.57404     -4624.163    23285772.545    96882470.93705
     -3596.577  
 20 09 30 07 24 10.0000000  0 16G15G18G20G 8G27G24G10G13R 4R 3R14R21
                                R13R 5R20R19
  21072631.465   110737422.07749     -2351.219    21072630.661    86288901.90148
     -1832.120  
  21365765.752   112277846.68149     -2501.589    21365766.119    87489229.25447
     -1949.293  
  20076953.588   105505115.89449       834.039    20076953.126    82211775.87148
       649.898  
  24616289.478   129359475.78046       418.147    24616294.018   100799600.30544
       325.828  
  24133210.542   126820875.37045     -1420.964    24133215.732    98821479.85745
     -1107.253  
  21110570.104   110936815.93748      1951.055    21110573.456    86444298.08648
      1520.297  
  22213782.349   116734236.85549      2662.647    22213784.707    90961763.86448
      2074.789  
  23568460.357   123853081.33347     -3437.339    23568460.416    96508899.18344
     -2678.449  
  19899634.377   106561639.57608     -1680.500    19899638.241    82881286.24308
     -1307.059  
  23578775.280   126219029.43104     -3513.441    23578781.283    98170380.64506
     -2732.680  
  21384220.940   113989936.00905      2491.813    21384226.448    88658848.33305
      1938.073  
  22164471.276   118606582.95908      2707.089    22164474.235    92249574.81306
      2105.512  
  21912822.480   117013248.31704     -1487.796    21912828.369    91010330.44105
     -1157.179  
  19992009.745   106868788.81808      1752.590    19992013.517    83120201.20708
      1363.124  
  20609857.414   110210170.18805     -1690.035    20609863.166    85719048.41308
     -1314.473  
  23290091.063   124586274.84604     -4625.633    23290095.283    96900455.68905
     -3597.722  
 20 09 30 07 24 15.0000000  0 15G15G18G20G 8G27G24G10G13R 4R 3R14R21
                                R13R 5R20
  21074869.711   110749184.38949     -2353.569    21074869.138    86298067.34248
     -1833.953  
  21368147.508   112290362.08149     -2504.480    21368147.611    87498981.50647
     -1951.546  
  20076161.607   105500953.47349       831.121    20076161.112    82208532.42448
       647.620  
  24615893.306   129357393.63346       414.496    24615897.647   100797977.82844
       323.156  
  24134564.112   126827988.64846     -1424.156    24134569.195    98827022.65543
     -1109.733  
  21108715.521   110927069.54248      1947.487    21108718.638    86436703.50848
      1517.523  
  22211249.508   116720926.93549      2661.163    22211252.069    90951392.51047
      2073.648  
  23571731.535   123870271.24047     -3438.433    23571731.468    96522293.90644
     -2679.305  
  19901204.696   106570048.81308     -1682.851    19901208.481    82887826.76608
     -1308.883  
  23582057.192   126236597.10805     -3514.141    23582063.019    98184044.39005
     -2733.222  
  21381885.354   113977487.39405      2487.710    21381890.855    88649166.07604
      1934.882  
  22161943.957   118593058.20208      2703.023    22161946.994    92239055.57206
      2102.352  
  21914218.384   117020702.77405     -1493.690    21914224.470    91016128.35605
     -1161.766  
  19990371.722   106860032.45809      1750.069    19990375.317    83113390.70708
      1361.160  
  20611440.107   110218633.18205     -1694.973    20611445.702    85725630.72608
     -1318.316  
 20 09 30 07 24 20.0000000  0 16G15G18G20G 8G21G27G24G10G13R 4R 3R14
                                R21R13R 5R20
  21077109.879   110760956.36449     -2355.207    21077109.361    86307240.30348
     -1835.230  
  21370531.538   112302890.36949     -2506.773    21370531.574    87508743.80947
     -1953.327  
  20075371.914   105496803.73449       828.823    20075371.267    82205298.86248
       645.835  
  24615500.186   129355327.30546       412.023    24615504.639   100796367.71245
       321.058  
  24935404.424   131036434.92254      2785.137    24935402.626   102106306.71151
      2170.277  
  24135920.618   126835116.50846     -1426.813    24135925.577    98832576.87244
     -1111.800  
  21106863.747   110917338.81048      1944.815    21106866.966    86429121.12747
      1515.441  
  22208718.015   116707623.00649      2660.340    22208720.409    90941025.81448
      2072.938  
  23575003.304   123887464.72347     -3438.816    23575003.388    96535691.43644
     -2679.598  
  19902777.069   106578468.23208     -1684.723    19902780.875    82894375.20108
     -1310.344  
  23585339.372   126254166.15405     -3513.128    23585344.983    98197709.23705
     -2732.433  
  21379553.387   113965056.73105      2484.729    21379558.506    88639497.76804
      1932.562  
  22159419.842   118579551.81108      2699.578    22159423.109    92228550.61006
      2099.672  
  21915618.387   117028178.87004     -1497.769    21915624.626    91021943.07605
     -1164.938  
  19988735.557   106851286.34809      1748.206    19988739.283    83106588.18508
      1359.715  
  20613026.824   110227118.35005     -1699.190    20613032.561    85732230.30208
     -1321.597  
 20 09 30 07 24 25.0000000  0 16G15G18G20G 8G21G27G24G10G13R 4R 3R14
                                R21R13R 5R20
  21079351.575   110772736.18249     -2356.827    21079351.064    86316419.39148
     -1836.488  
  21372917.642   112315429.71249     -2508.987    21372917.737    87518514.71747
     -1955.059  
  20074584.306   105492664.82849       826.582    20074583.639    82202073.74948
       644.090  
  24615109.529   129353274.97947       408.813    24615114.142   100794768.50644
       318.632  
  24932755.813   131022515.12645      2783.245    24932754.952   102095465.02451
      2168.762  
  24137279.381   126842256.97946     -1429.531    24137284.086    98838140.80444
     -1113.930  
  21105014.863   110907622.04748      1941.949    21105017.717    86421549.63648
      1513.207  
  22206187.119   116694323.24349      2659.425    22206189.718    90930662.37147
      2072.280  
  23578275.612   123904660.03447     -3439.363    23578275.614    96549090.37044
     -2680.027  
  19904350.759   106586895.90008     -1686.483    19904354.709    82900930.06908
     -1311.710  
  23588621.382   126271734.98105     -3513.441    23588626.830    98211373.85206
     -2732.680  
  21377224.389   113952642.39205      2481.409    21377229.326    88629842.12704
      1929.972  
  22156898.922   118566061.76108      2696.331    22156902.373    92218058.34606
      2097.145  
  21917022.089   117035674.83704     -1501.124    21917028.357    91027773.27405
     -1167.546  
  19987100.899   106842548.72409      1746.444    19987104.737    83099792.25508
      1358.344  
  20614617.277   110235623.93805     -1702.969    20614623.042    85738845.75108
     -1324.535  
 20 09 30 07 24 30.0000000  0 16G15G18G20G 8G21G27G24G10G13R 4R 3R14
                                R21R13R 5R20
  21081595.139   110784526.22249     -2359.148    21081594.701    86325606.42948
     -1838.300  
  21375306.412   112327982.47249     -2512.016    21375306.621    87528296.07847
     -1957.417  
  20073799.374   105488539.16949       823.706    20073798.453    82198858.95148
       641.851  
  24614722.275   129351239.13646       405.109    24614726.875   100793182.15045
       315.979  
  24930108.327   131008602.11705      2781.226           0.000           0.0000 
         0.000  
  24138641.241   126849412.60546     -1432.671    24138645.714    98843716.69344
     -1116.366  
  21103168.823   110897921.51048      1938.378    21103171.630    86413990.78147
      1510.425  
  22203657.556   116681030.02149      2657.918    22203660.215    90920304.01148
      2071.026  
  23581548.529   123921859.42247     -3440.391    23581548.646    96562492.48344
     -2680.827  
  19905926.653   106595334.17508     -1688.750    19905930.457    82907493.16108
     -1313.476  
  23591904.137   126289306.01204     -3515.730    23591909.317    98225040.22205
     -2734.460  
  21374898.810   113940246.77504      2477.199    21374903.687    88620201.13704
      1926.715  
  22154381.593   118552590.65408      2691.987    22154384.941    92207580.83406
      2093.769  
  21918430.119   117043193.10804     -1506.601    21918436.180    91033620.80605
     -1171.804  
  19985468.529   106833822.02109      1744.055    19985472.114    83093004.81808
      1356.487  
  20616212.301   110244152.30805     -1707.569    20616217.854    85745478.93408
     -1328.108  
 20 09 30 07 24 35.0000000  0 16G15G18G20G 8G21G27G24G10G13R 4R 3R14
                                R21R13R 5R20
  21083840.784   110796327.31949     -2360.933    21083840.536    86334802.09048
     -1839.688  
  21377697.852   112340549.54149     -2514.641    21377697.940    87538088.59747
     -1959.465  
  20073016.890   105484427.62349       821.112    20073016.183    82195655.15548
       639.828  
  24614337.978   129349220.57746       402.378    24614342.786   100791609.24345
       313.543  
  24927462.141   130994696.69344      2780.371    24927463.646   102073794.32451
      2166.495  
  24140006.144   126856584.06247     -1435.304    24140010.056    98849304.79044
     -1118.421  
  21101326.244   110888238.00549      1935.379    21101328.980    86406445.18848
      1508.085  
  22201129.333   116667744.27249      2656.675    22201131.908    90909951.48547
      2070.136  
  23584822.330   123939063.83247     -3440.854    23584822.715    96575898.52944
     -2681.191  
  19907504.645   106603784.09508     -1690.816    19907508.384    82914065.32708
     -1315.077  
  23595187.230   126306879.94804     -3514.238    23595192.047    98238708.82106
     -2733.304  
  21372576.986   113927870.83604      2472.883    21372581.487    88610575.40605
      1923.352  
  22151868.059   118539139.35008      2688.675    22151871.407    92197118.70207
      2091.188  
  21919842.345   117050734.28604     -1510.542    21919848.564    91039486.16105
     -1174.870  
  19983838.220   106825107.14709      1742.219    19983841.906    83086226.58008
      1355.054  
  20617811.520   110252704.36405     -1712.491    20617817.244    85752130.53308
     -1331.938  
 20 09 30 07 24 40.0000000  0 17G15G18G20G 8G21G27G24G10G13R 4R 3R14
                                R21R13R 5R20R19
  21086087.944   110808136.91449     -2362.742    21086087.847    86344004.35848
     -1841.102  
  21380091.554   112353128.24948     -2516.793    21380091.694    87547890.18447
     -1961.141  
  20072236.727   105480327.58849       818.863    20072235.872    82192460.31848
       638.070  
  24613956.599   129347216.79346       399.438    24613961.367   100790047.83545
       311.246  
  24924816.829   130980796.23544      2779.241    24924816.815   102062962.74341
      2165.617  
  24141373.333   126863768.87647     -1438.448    24141377.259    98854903.34944
     -1120.875  
  21099486.342   110878569.15949      1932.249    21099489.038    86398911.02647
      1505.645  
  22198602.087   116654463.32149      2655.875    22198604.601    90899602.70748
      2069.512  
  23588096.702   123956270.65047     -3441.554    23588097.181    96589306.42245
     -2681.738  
  19909084.138   106612242.89708     -1692.483    19909087.947    82920644.37008
     -1316.382  
  23598470.111   126324453.99804     -3514.855    23598475.069    98252377.51605
     -2733.776  
  21370258.118   113915511.71805      2470.522    21370262.637    88600962.75104
      1921.516  
  22149357.655   118525705.17008      2685.145    22149360.966    92186669.91406
      2088.444  
  21921258.347   117058295.81304     -1515.477    21921264.609    91045367.37205
     -1178.703  
  19982209.625   106816401.50009      1740.273    19982213.353    83079455.53208
      1353.547  
  20619414.758   110261277.38305     -1716.859    20619420.472    85758798.43808
     -1335.339  
  23316041.350   124725099.60414     -4628.785    23316044.669    97008424.61015
     -3600.171  
 20 09 30 07 24 45.0000000  0 17G15G18G20G 8G21G27G24G10G13R 4R 3R14
                                R21R13R 5R20R19
  21088336.632   110819953.72749     -2364.316    21088336.593    86353212.25348
     -1842.327  
  21382487.116   112365717.38848     -2519.015    21382487.113    87557699.90047
     -1962.875  
  20071458.455   105476237.86749       816.671    20071457.517    82189273.52248
       636.363  
  24613577.898   129345226.45446       396.479    24613582.651   100788496.89845
       308.938  
  24922172.329   130966899.54345      2779.148    24922173.496   102052134.32441
      2165.581  
  24142742.970   126870965.67747     -1440.593    24142746.579    98860511.23744
     -1122.538  
  21097648.939   110868913.60149      1929.637    21097651.552    86391387.23448
      1503.613  
  22196075.601   116641186.01549      2654.886    22196078.028    90889256.75147
      2068.742  
  23591371.241   123973478.59447     -3441.745    23591371.901    96602715.19745
     -2681.887  
  19910665.304   106620709.37508     -1694.285    19910668.975    82927229.42008
     -1317.777  
  23601753.173   126342027.20204     -3514.780    23601757.732    98266045.55405
     -2733.723  
  21367942.595   113903168.36305      2465.843    21367947.034    88591362.37005
      1917.879  
  22146850.059   118512286.98808      2681.961    22146853.595    92176233.55806
      2085.968  
  21922677.899   117065876.45504     -1519.401    21922684.233    91051263.42205
     -1181.761  
  19980582.530   106807703.71309      1738.590    19980586.211    83072690.57308
      1352.234  
  20621021.721   110269870.18905     -1720.964    20621027.294    85765481.72507
     -1338.531  
  23320368.146   124748244.10404     -4628.667    23320371.135    97026425.87105
     -3600.078  
 20 09 30 07 24 50.0000000  0 16G15G18G20G 8G21G27G24G10G13R 4R 3R14
                                R21R 5R20R19
  21090586.841   110831778.40149     -2365.824    21090586.790    86362426.28148
     -1843.504  
  21384884.768   112378317.63348     -2521.229    21384884.987    87567518.26047
     -1964.597  
  20070682.447   105472159.10849       814.527    20070681.394    82186095.27148
       634.690  
  24613201.919   129343250.20346       393.858    24613206.713   100786956.96444
       306.897  
  24919528.808   130953007.40544      2777.323    24919528.506   102041309.18643
      2164.141  
  24144115.102   126878175.25147     -1443.464    24144118.511    98866129.13444
     -1124.777  
  21095814.377   110859272.00749      1926.952    21095816.732    86383874.29947
      1501.519  
  22193549.693   116627912.96649      2654.073    22193552.358    90878914.11947
      2068.144  
  23594646.171   123990688.34347     -3442.371    23594646.778    96616125.36344
     -2682.374  
  19912247.995   106629184.17808     -1695.905    19912251.413    82933820.93708
     -1319.042  
  23605036.031   126359600.19404     -3514.804    23605040.424    98279713.43605
     -2733.737  
  21365630.318   113890841.43605      2463.605    21365634.164    88581774.79104
      1916.141  
  22144345.785   118498885.35808      2678.429    22144349.332    92165810.07306
      2083.222  
  19978957.111   106799014.57409      1736.706    19978960.727    83065932.35008
      1350.770  
  20622632.495   110278483.34505     -1724.780    20622637.937    85772180.84607
     -1341.500  
  23324694.901   124771389.95404     -4628.805    23324698.103    97044428.18905
     -3600.183  
 20 09 30 07 24 55.0000000  0 15G15G18G20G 8G21G27G24G10G13R 4R14R21
                                R 5R20R19
  21092839.523   110843616.04449     -2369.206    21092839.390    86371650.42348
     -1846.136  
  21387285.616   112390934.02248     -2525.132    21387285.768    87577349.21547
     -1967.641  
  20069909.312   105468096.41349       810.699    20069908.211    82182929.53048
       631.711  
  24612829.465   129341293.16546       389.272    24612834.628   100785432.02744
       303.332  
  24916886.931   130939124.81004      2775.383           0.000           0.0000 
         0.000  
  24145490.498   126885402.62946     -1447.809    24145493.500    98871760.85744
     -1128.163  
  21093983.246   110849649.44449      1922.331    21093985.597    86376376.19947
      1497.917  
  22191025.855   116614649.29649      2651.390    22191028.127    90868578.78647
      2066.019  
  23597922.220   124007904.94147     -3444.089    23597922.874    96629540.89645
     -2683.711  
  19913833.096   106637672.53908     -1699.304    19913836.499    82940422.98608
     -1321.781  
  21363321.816   113878536.13305      2458.734    21363325.110    88572203.99804
      1912.347  
  22141845.422   118485505.63408      2673.395    22141848.835    92155403.64006
      2079.308  
  19977334.306   106790339.12409      1733.410    19977337.645    83059184.77008
      1348.203  
  20624248.021   110287122.22705     -1730.558    20624253.420    85778899.96908
     -1345.992  
  23329022.925   124794542.46404     -4632.500    23329026.035    97062435.67305
     -3603.059  
 20 09 30 07 25  0.0000000  0 15G15G18G20G 8G21G27G24G10G13R 4R14R21
                                R 5R20R19
  21095094.475   110855466.24049     -2370.819    21095094.444    86380884.33848
     -1847.395  
  21389689.334   112403566.17448     -2527.551    21389689.462    87587192.44147
     -1969.523  
  20069139.230   105464049.35449       808.258    20069137.943    82179775.97448
       629.809  
  24612460.604   129339355.03746       386.012    24612465.729   100783921.79044
       300.789  
  24914246.934   130925251.24945      2774.499    24914249.585   102019674.85654
      2161.949  
  24146869.275   126892647.34047     -1450.301    24146872.107    98877406.02144
     -1130.112  
  21092155.702   110840045.57349      1919.261    21092157.859    86368892.66847
      1495.527  
  22188503.524   116601394.63849      2650.496    22188505.960    90858250.49447
      2065.320  
  23601199.841   124025128.04747     -3444.957    23601200.376    96642961.50144
     -2684.383  
  19915420.621   106646173.97608     -1701.262    19915424.247    82947035.21008
     -1323.202  
  21361017.366   113866252.12106      2454.690    21361020.067    88562649.74504
      1909.199  
  22139349.220   118472147.26408      2669.960    22139352.383    92145013.79106
      2076.637  
  19975713.730   106781676.99809      1731.581    19975717.246    83052447.56408
      1346.781  
  20625868.345   110295786.23405     -1735.183    20625873.791    85785638.64307
     -1349.590  
  23333352.367   124817701.24804     -4632.229    23333355.353    97080448.05205
     -3602.852  
 20 09 30 07 25  5.0000000  0 15G15G18G20G 8G21G27G24G10G13R 4R14R21
                                R 5R20R19
  21097350.942   110867324.46449     -2372.441    21097350.981    86390124.51148
     -1848.660  
  21392095.163   112416209.54848     -2529.753    21392095.356    87597044.42347
     -1971.241  
  20068371.221   105460013.43649       806.012    20068370.138    82176631.09348
       628.059  
  24612094.378   129337431.19647       383.362    24612099.541   100782422.68944
       298.723  
  24911607.737   130911382.54744      2773.038    24911608.047   102008868.10842
      2160.761  
  24148250.316   126899904.91547     -1452.605    24148253.072    98883061.31445
     -1131.894  
  21090330.845   110830455.94949      1916.551    21090333.063    86361420.24847
      1493.417  
  22185982.143   116588144.44149      2649.604    22185984.510    90847925.67148
      2064.628  
  23604477.576   124042353.12847     -3445.285    23604478.224    96656383.64945
     -2684.637  
  19917009.745   106654683.88208     -1702.914    19917013.458    82953654.03208
     -1324.492  
  21358716.108   113853984.71506      2451.847    21358718.214    88553108.40204
      1906.987  
  22136855.954   118458805.82408      2666.401    22136859.253    92134637.11306
      2073.867  
  19974095.030   106773023.68509      1729.840    19974098.530    83045717.20308
      1345.426  
  20627492.450   110304470.77405     -1739.065    20627497.962    85792393.27807
     -1352.609  
  23337682.023   124840861.57803     -4632.464    23337684.674    97098461.63205
     -3603.030  
 20 09 30 07 25 10.0000000  0 16G15G18G20G 8G21G27G24G10G13R 4R14R21
                                R13R 5R20R19
  21099608.921   110879190.97049     -2374.027    21099609.202    86399371.13948
     -1849.895  
  21394503.269   112428864.38848     -2532.015    21394503.483    87606905.33047
     -1973.003  
  20067605.308   105455988.91249       803.871    20067604.310    82173495.09748
       626.391  
  24611730.808   129335521.93247       380.465    24611736.263   100780934.97044
       296.468  
  24908969.468   130897518.60444      2771.453    24908965.865   101998065.09444
      2159.573  
  24149634.068   126907175.61147     -1455.387    24149636.328    98888726.76544
     -1134.069  
  21088508.821   110820880.80049      1913.664    21088510.965    86353959.09147
      1491.164  
  22183461.535   116574898.96349      2648.695    22183464.048    90837604.52148
      2063.914  
  23607755.698   124059580.33847     -3445.620    23607756.519    96669807.43745
     -2684.902  
  19918600.568   106663202.48108     -1704.382    19918604.085    82960279.59308
     -1325.637  
  21356417.978   113841734.13705      2449.253    21356419.802    88543580.20104
      1904.977  
  22134366.095   118445481.42908      2663.229    22134369.076    92124273.69806
      2071.401  
  21929838.492   117104114.53014     -1540.289    21929844.789    91081003.56916
     -1198.008  
  19972478.006   106764379.32309      1728.000    19972481.311    83038993.81008
      1343.996  
  20629120.550   110313176.05205     -1742.871    20629125.960    85799164.04607
     -1355.570  
  23342011.834   124864023.74404     -4633.651    23342014.547    97116476.62905
     -3603.957  
 20 09 30 07 25 15.0000000  0 16G15G18G20G 8G21G27G24G10G13R 4R14R21
                                R13R 5R20R19
  21101868.614   110891065.14549     -2374.120    21101868.630    86408623.74848
     -1849.964  
  21396913.452   112441530.07548     -2532.819    21396913.642    87616774.68647
     -1973.629  
  20066841.669   105451975.24349       803.159    20066840.437    82170367.56948
       625.835  
  24611370.202   129333626.75047       379.046    24611375.880   100779458.19944
       295.358  
  24906331.931   130883658.97303      2772.789           0.000           0.0000 
         0.000  
  24151020.142   126914458.75847     -1456.214    24151022.245    98894401.92744
     -1134.714  
  21086689.463   110811319.38749      1912.352    21086691.329    86346508.64247
      1490.144  
  22180941.902   116561657.67249      2649.316    22180944.333    90827286.64448
      2064.401  
  23611034.179   124076809.18847     -3444.565    23611035.074    96683232.57144
     -2684.069  
  19920192.826   106671729.32208     -1704.551    19920196.374    82966911.57608
     -1325.766  
  21354122.374   113829499.99605      2446.507    21354124.535    88534064.75804
      1902.840  
  22131879.187   118432173.60908      2661.276    22131882.301    92113923.18807
      2069.883  
  21931282.307   117111824.35704     -1542.441    21931288.856    91087000.10406
     -1199.679  
  19970862.495   106755743.49009      1727.855    19970866.002    83032277.04708
      1343.882  
  20630752.245   110321901.45505     -1746.116    20630757.512    85805950.47107
     -1358.094  
  23346342.219   124887187.16204     -4630.905    23346344.687    97134492.61305
     -3601.820  
 20 09 30 07 25 20.0000000  0 16G15G18G20G 8G21G27G24G10G13R 4R14R21
                                R13R 5R20R19
  21104130.028   110902949.70449     -2378.789    21104130.241    86417884.44748
     -1853.604  
  21399326.152   112454209.37048     -2538.035    21399326.462    87626654.65647
     -1977.694  
  20066080.456   105447975.13649       797.991    20066079.265    82167250.60348
       621.813  
  24611012.785   129331748.16347       373.089    24611018.461   100777994.34444
       290.711  
  24903695.924   130869806.53544      2769.031    24903692.352   101976441.34953
      2157.840  
  24152409.214   126921757.16347     -1462.160    24152411.328    98900089.01844
     -1139.347  
  21084873.121   110801774.59949      1906.491    21084875.109    86339071.15147
      1485.578  
  22178423.591   116548423.23449      2645.410    22178426.078    90816974.09448
      2061.358  
  23614313.404   124094042.31847     -3447.581    23614314.415    96696660.92644
     -2686.433  
  19921787.141   106680267.02408     -1709.343    19921790.583    82973551.99608
     -1329.492  
  21351830.738   113817284.84605      2440.577    21351833.072    88524564.08504
      1898.223  
  22129396.020   118418885.11708      2655.078    22129398.848    92103587.69306
      2065.058  
  21932730.363   117119556.42804     -1549.555    21932736.723    91093013.91906
     -1205.214  
  19969249.003   106747118.76409      1723.000    19969252.345    83025568.93308
      1340.108  
  20632388.111   110330649.91405     -1752.569    20632393.419    85812754.82607
     -1363.112  
  23350673.073   124910354.56304     -4635.366    23350675.583    97152511.68405
     -3605.293  
 20 09 30 07 25 25.0000000  0 15G15G18G20G 8G27G24G10G13R 4R14R21R13
                                R 5R20R19
  21106394.290   110914848.01349     -2379.961    21106394.305    86427155.84648
     -1854.519  
  21401742.098   112466905.59548     -2539.930    21401742.404    87636547.81547
     -1979.168  
  20065322.284   105443991.98049       795.941    20065321.259    82164146.85348
       620.211  
  24610659.000   129329889.67046       370.762    24610664.571   100776546.19343
       288.909  
  24153801.741   126929074.16347     -1464.457    24153803.675    98905790.54245
     -1141.144  
  21083060.594   110792249.98849      1903.948    21083062.523    86331649.38148
      1483.597  
  22175907.188   116535199.10449      2644.707    22175909.534    90806669.57948
      2060.812  
  23617594.103   124111283.13246     -3447.723    23617595.375    96710095.31344
     -2686.547  
  19923384.113   106688819.05008     -1710.969    19923387.683    82980203.57808
     -1330.753  
  21349543.433   113805092.38006      2437.085    21349545.958    88515081.13204
      1895.520  
  22126916.916   118405619.33708      2651.960    22126919.799    92093269.87106
      2062.637  
  21934183.202   117127314.44104     -1553.265    21934189.625    91099047.93006
     -1208.098  
  19967638.335   106738508.79309      1721.694    19967641.851    83018872.28608
      1339.059  
  20634028.907   110339424.77005     -1756.574    20634034.354    85819579.71407
     -1366.227  
  23355005.580   124933529.30503     -4635.105    23355007.981    97170536.47105
     -3605.085  
 20 09 30 07 25 30.0000000  0 15G15G18G20G 8G27G24G10G13R 4R14R21R13
                                R 5R20R19
  21108659.327   110926751.36449     -2381.382    21108659.604    86436431.18348
     -1855.624  
  21404159.764   112479610.08148     -2541.690    21404160.105    87646447.39947
     -1980.543  
  20064566.013   105440017.06049       794.026    20064564.979    82161049.51148
       618.722  
  24610307.435   129328042.55946       368.340    24610312.967   100775106.83943
       287.012  
  24155196.135   126936401.03247     -1466.515    24155197.921    98911499.80645
     -1142.737  
  21081250.362   110782736.59449      1901.453    21081252.215    86324236.34747
      1481.651  
  22173390.929   116521976.54248      2644.160    22173393.470    90796366.28048
      2060.378  
  23620874.490   124128522.93247     -3448.102    23620875.871    96723528.95945
     -2686.831  
  19924982.045   106697376.59108     -1712.145    19924985.724    82986859.42708
     -1331.671  
  21347258.499   113792913.64906      2434.266    21347260.928    88505608.69504
      1893.304  
  22124440.467   118392367.57608      2648.937    22124443.321    92082962.93306
      2060.280  
  21935639.295   117135089.27504     -1556.495    21935645.917    91105095.02205
     -1210.612  
  19966028.733   106729904.51309      1720.069    19966032.326    83012180.07308
      1337.804  
  20635673.205   110348217.01005     -1760.487    20635678.620    85826418.11107
     -1369.273  
  23359337.407   124956702.46704     -4634.765    23359340.000    97188560.02205
     -3604.819  
 20 09 30 07 25 35.0000000  0 15G15G18G20G 8G27G24G10G13R 4R14R21R13
                                R 5R20R19
  21110926.271   110938664.04749     -2383.034    21110926.381    86445713.78748
     -1856.914  
  21406579.723   112492327.11248     -2544.309    21406579.969    87656356.77147
     -1982.581  
  20063811.855   105436054.71349       791.539    20063810.877    82157961.96548
       616.781  
  24609959.030   129326211.20846       365.098    24609964.487   100773679.84344
       284.488  
  24156593.192   126943742.05447     -1469.331    24156595.190    98917220.07745
     -1144.938  
  21079442.979   110773238.76049      1898.262    21079444.822    86316835.43947
      1479.159  
  22170875.788   116508759.88649      2643.090    22170878.353    90786067.61048
      2059.551  
  23624155.694   124145765.96447     -3448.648    23624157.335    96736965.09744
     -2687.253  
  19926582.057   106705944.05008     -1714.199    19926585.677    82993523.01808
     -1333.265  
  21344977.214   113780753.11406      2430.757    21344979.523    88496150.50704
      1890.585  
  22121967.490   118379134.11508      2645.211    22121970.340    92072670.24306
      2057.383  
  21937099.150   117142885.41405     -1560.726    21937105.769    91111158.68006
     -1213.902  
  19964420.990   106721310.55109      1718.062    19964424.492    83005495.89008
      1336.269  
  20637321.479   110357031.16605     -1764.718    20637326.775    85833273.56407
     -1372.563  
  23363669.908   124979878.58403     -4635.288    23363672.284    97206585.86405
     -3605.234  
 20 09 30 07 25 40.0000000  0 15G15G18G20G 8G27G24G10G13R 4R14R21R13
                                R 5R20R19
  21113194.940   110950586.95349     -2385.831    21113195.345    86455004.37748
     -1859.090  
  21409002.140   112505057.59148     -2547.574    21409002.467    87666276.62247
     -1985.125  
  20063060.341   105432105.82549       788.226    20063059.484    82154884.91848
       614.202  
  24609613.623   129324396.42446       361.594    24609618.740   100772265.78343
       281.659  
  24157993.101   126951098.18647     -1472.956    24157995.250    98922952.12244
     -1147.765  
  21077638.816   110763757.44948      1894.433    21077640.607    86309447.41947
      1476.184  
  22168362.185   116495550.03349      2641.132    22168364.686    90775774.21748
      2058.038  
  23627437.806   124163013.23447     -3450.179    23627439.342    96750404.52744
     -2688.453  
  19928183.980   106714522.21408     -1717.030    19928187.352    83000194.93708
     -1335.468  
  21342699.319   113768611.56007      2426.335    21342701.670    88486707.01204
      1887.137  
  22119497.917   118365919.99308      2640.714    22119500.926    92062392.58507
      2053.887  
  21938563.346   117150703.70004     -1566.020    21938569.924    91117239.55205
     -1218.020  
  19962815.358   106712727.65409      1715.304    19962819.113    82998820.31808
      1334.124  
  20638974.020   110365868.13705     -1769.722    20638979.191    85840146.76207
     -1376.452  
  23368003.108   125003058.41004     -4636.163    23368005.661    97224614.60105
     -3605.910  
 20 09 30 07 25 45.0000000  0 15G15G18G20G 8G27G24G10G13R 4R14R21R13
                                R 5R20R19
  21115465.710   110962519.49349     -2387.413    21115466.002    86464302.46148
     -1860.324  
  21411427.046   112517800.90448     -2549.796    21411427.409    87676206.47847
     -1986.854  
  20062311.307   105428169.81349       786.034    20062310.524    82151817.89448
       612.491  
  24609271.314   129322597.64346       358.440    24609276.221   100770864.07143
       279.301  
  24159395.568   126958468.73547     -1475.351    24159397.853    98928695.42145
     -1149.624  
  21075837.683   110754292.02348      1891.633    21075839.307    86302071.77048
      1473.999  
  22165849.496   116482346.41649      2640.276    22165851.974    90765485.70747
      2057.363  
  23630720.474   124180264.01847     -3450.262    23630721.960    96763846.67244
     -2688.519  
  19929787.735   106723110.52908     -1718.698    19929791.183    83006874.74108
     -1336.766  
  21340424.952   113756488.56206      2423.019    21340427.077    88477278.03304
      1884.565  
  22117032.094   118352724.56608      2637.308    22117035.055    92052129.48406
      2051.237  
  21940031.465   117158543.68504     -1570.188    21940038.213    91123337.31406
     -1221.261  
  19961211.768   106704155.26309      1713.484    19961215.401    82992152.89508
      1332.711  
  20640630.674   110374727.29405     -1773.917    20640635.996    85847037.22107
     -1379.714  
  23372336.788   125026241.45403     -4637.249    23372339.468    97242645.84205
     -3606.758  
 20 09 30 07 25 50.0000000  0 15G15G18G20G 8G27G24G10G13R 4R14R21R13
                                R 5R20R19
  21117738.176   110974461.35049     -2389.363    21117738.356    86473607.80848
     -1861.839  
  21413854.395   112530556.68048     -2552.460    21413854.797    87686146.04047
     -1988.933  
  20061564.733   105424246.35449       783.383    20061564.029    82148760.65648
       610.425  
  24608931.939   129320814.46346       355.195    24608936.368   100769474.61743
       276.772  
  24160800.955   126965853.43647     -1478.461    24160803.176    98934449.73445
     -1152.047  
  21074039.420   110744842.24549      1888.261    21074041.237    86294708.31747
      1471.371  
  22163337.976   116469148.66749      2638.749    22163340.485    90755201.73647
      2056.167  
  23634003.799   124197518.07047     -3451.101    23634005.467    96777291.39944
     -2689.175  
  19931393.388   106731708.69808     -1720.585    19931396.939    83013562.18908
     -1338.238  
  21338153.943   113744383.70806      2419.269    21338155.998    88467863.12204
      1881.645  
  22114569.580   118339547.46708      2633.430    22114572.640    92041880.64406
      2048.222  
  21941503.652   117166404.80105     -1574.429    21941510.292    91129451.50406
     -1224.559  
  19959609.867   106695592.99609      1711.319    19959613.827    82985493.36408
      1331.027  
  20642291.479   110383608.24105     -1778.597    20642296.633    85853944.61407
     -1383.359  
  23376671.251   125049427.31504     -4637.727    23376673.983    97260679.27905
     -3607.128  
 20 09 30 07 25 55.0000000  0 16G15G18G20G 8G21G27G24G10G13R 4R14R21
                                R13R 5R20R19
  21120012.382   110986412.10249     -2391.078    21120012.675    86482920.07848
     -1863.179  
  21416284.050   112543324.53948     -2554.757    21416284.372    87696095.02347
     -1990.718  
  20060820.472   105420335.07849       780.953    20060819.713    82145712.90048
       608.530  
  24608595.525   129319046.59647       352.035    24608599.359   100768097.02843
       274.305  
  24885277.036   130773013.43954      2760.558    24885282.550   101901072.00253
      2151.085  
  24162208.657   126973251.86846     -1481.194    24162211.045    98940214.75445
     -1154.184  
  21072244.004   110735407.70849      1885.461    21072245.851    86287356.73148
      1469.190  
  22160827.608   116455956.43949      2637.781    22160830.201    90744922.07447
      2055.409  
  23637287.477   124214774.91547     -3451.581    23637289.474    96790738.26345
     -2689.547  
  19933000.956   106740316.27508     -1722.574    19933004.129    83020256.98808
     -1339.780  
  21335886.309   113732296.63306      2416.011    21335888.456    88458462.12804
      1879.128  
  22112110.422   118326388.32708      2629.804    22112113.579    92031645.76306
      2045.402  
  21942979.782   117174286.65704     -1578.441    21942986.277    91135581.82106
     -1227.679  
  19958010.049   106687040.52209      1709.487    19958013.946    82978841.43508
      1329.598  
  20643956.160   110392510.60005     -1782.288    20643961.389    85860868.67307
     -1386.226  
  23381006.023   125072615.54704     -4637.926    23381008.779    97278714.54106
     -3607.285  
 20 09 30 07 26  0.0000000  0 15G15G18G20G 8G21G27G24G10G13R 4R14R21
                                R13R 5R20
  21122288.865   110998375.60249     -2394.027    21122289.177    86492242.28548
     -1865.480  
  21418716.746   112556108.35048     -2558.265    21418716.963    87706056.42047
     -1993.457  
  20060079.083   105416439.83449       777.526    20060078.583    82142677.65648
       605.866  
  24608262.750   129317297.82046       347.948    24608266.226   100766734.40243
       271.129  
  24882651.068   130759213.94645      2758.819    24882660.392   101890319.05041
      2149.706  
  24163619.772   126980667.82447     -1484.434    24163622.231    98945993.38745
     -1156.710  
  21070452.403   110725992.25049      1881.242    21070454.387    86280020.01548
      1465.901  
  22158318.963   116442773.57549      2635.823    22158321.382    90734649.72347
      2053.890  
  23640572.700   124232038.47647     -3453.335    23640574.635    96804190.41544
     -2690.910  
  19934610.914   106748937.25008     -1725.594    19934614.210    83026962.16808
     -1342.137  
  21333622.862   113720231.18806      2411.234    21333624.782    88449077.88904
      1875.406  
  22109655.416   118313251.19008      2625.293    22109658.546    92021427.98906
      2041.891  
  21944460.503   117182193.31705     -1583.312    21944467.007    91141731.47105
     -1231.465  
  19956412.682   106678501.80309      1706.375    19956416.734    82972200.22608
      1327.180  
  20645625.700   110401438.28405     -1788.309    20645630.987    85867812.43007
     -1390.905  
 20 09 30 07 26  5.0000000  0 15G15G18G20G 8G21G27G24G10G13R 4R14R21
                                R13R 5R20
  21124567.060   111010347.25049     -2395.043    21124567.114    86501570.83948
     -1866.266  
  21421151.508   112568903.51548     -2560.108    21421151.747    87716026.67647
     -1994.894  
  20059340.208   105412556.07949       775.656    20059339.629    82139651.35748
       604.405  
  24607932.740   129315563.73046       345.602    24607935.975   100765383.14343
       269.296  
  24880026.340   130745419.62545      2758.191    24880029.332   101879570.32843
      2149.258  
  24165033.419   126988096.80947     -1486.933    24165035.799    98951782.18044
     -1158.655  
  21068663.472   110716591.47449      1878.762    21068665.374    86272694.74448
      1463.968  
  22155811.268   116429595.51649      2635.417    22155813.843    90724381.11548
      2053.573  
  23643858.343   124249304.17547     -3453.261    23643860.242    96817644.17844
     -2690.858  
  19936222.359   106757566.84008     -1726.563    19936225.695    83033674.07008
     -1342.887  
  21331362.562   113708183.01206      2407.926    21331364.740    88439707.08305
      1872.828  
  22107203.632   118300131.29208      2622.335    22107206.860    92011223.61506
      2039.593  
  21945945.014   117190120.02004     -1587.085    21945951.347    91147896.68105
     -1234.397  
  19954817.200   106669972.13609      1705.184    19954821.172    82965566.03508
      1326.250  
  20647299.014   110410386.65205     -1792.070    20647304.493    85874772.25407
     -1393.835  
 20 09 30 07 26 10.0000000  0 15G15G18G20G 8G21G27G24G10G13R 4R14R21
                                R13R 5R20
  21126847.546   111022331.25449     -2399.351    21126847.739    86510909.02348
     -1869.629  
  21423589.326   112581714.17848     -2565.051    21423589.711    87726009.01147
     -1998.745  
  20058604.011   105408687.93149       770.632    20058603.575    82136637.21448
       600.487  
  24607606.431   129313848.37346       339.664    24607609.353   100764046.46144
       264.663  
  24877403.405   130731634.41504      2754.769           0.000           0.0000 
         0.000  
  24166450.284   126995542.92247     -1492.301    24166452.780    98957584.35544
     -1162.835  
  21066878.145   110707209.36649      1873.229    21066880.241    86265384.01848
      1459.660  
  22153305.316   116416426.46349      2631.636    22153307.804    90714119.52348
      2050.625  
  23647145.169   124266576.09547     -3456.227    23647146.797    96831102.82444
     -2693.167  
  19937836.419   106766209.33708     -1731.218    19937839.572    83040396.03008
     -1346.504  
  21329106.282   113696156.08706      2401.719    21329108.314    88430352.83105
      1868.003  
  22104755.749   118287032.98808      2616.113    22104759.270    92001036.03806
      2034.749  
  21947433.986   117198071.11204     -1593.953    21947440.284    91154080.85305
     -1239.745  
  19953223.981   106661455.77909      1700.625    19953228.012    82958942.20308
      1322.706  
  20648976.954   110419359.82405     -1798.809    20648982.502    85881751.40007
     -1399.073  
 20 09 30 07 26 15.0000000  0 14G15G18G20G 8G27G24G10G13R 4R14R21R13
                                R 5R20
  21129128.407   111034317.44649     -2396.796    21129128.350    86520248.90048
     -1867.636  
  21426028.113   112594530.21548     -2563.124    21426028.385    87735995.53547
     -1997.242  
  20057869.166   105404825.29649       772.479    20057868.494    82133627.36748
       601.934  
  24607281.551   129312141.64846       341.328    24607284.621   100762716.58143
       265.965  
  24167868.788   127002996.02547     -1490.522    24167871.116    98963392.01445
     -1161.445  
  21065094.374   110697835.83549      1874.418    21065096.326    86258079.96447
      1460.582  
  22150799.211   116403256.26349      2634.741    22150801.736    90703857.03047
      2053.042  
  23650431.207   124283844.12247     -3452.784    23650432.833    96844558.43544
     -2690.479  
  19939450.864   106774854.49309     -1728.547    19939453.974    83047120.02008
     -1344.434  
  21326851.987   113684140.30106      2402.577    21326854.350    88421007.25304
      1868.671  
  22102310.084   118273945.89408      2616.898    22102313.566    91990857.18706
      2035.366  
  21948925.618   117206036.21704     -1593.749    21948931.749    91160275.93605
     -1239.585  
  19951631.521   106652942.41509      1702.940    19951635.315    82952320.70408
      1324.512  
  20650657.759   110428347.65405     -1798.581    20650663.110    85888741.92007
     -1398.901  
 20 09 30 07 26 20.0000000  0 14G15G18G20G 8G27G24G10G13R 4R14R21R13
                                R 5R20
  21131410.778   111046311.10849     -2400.194    21131410.675    86529594.60948
     -1870.284  
  21428468.800   112607356.92548     -2567.198    21428469.312    87745990.38047
     -2000.417  
  20057136.201   105400973.50849       768.558    20057135.372    82130625.98248
       598.874  
  24606959.428   129310448.78546       336.530    24606962.215   100761397.44743
       262.227  
  24169289.429   127010461.45247     -1495.147    24169291.536    98969209.21244
     -1165.051  
  21063313.432   110688476.17049      1869.952    21063315.349    86250786.72348
      1457.104  
  22148293.843   116390090.27449      2631.941    22148296.142    90693597.82447
      2050.859  
  23653717.422   124301113.63947     -3454.819    23653719.052    96858015.17144
     -2692.070  
  19941066.849   106783507.61008     -1732.155    19941069.822    83053850.22008
     -1347.238  
  21324600.728   113672140.94806      2397.171    21324603.255    88411674.35604
      1864.460  
  22099867.603   118260875.52808      2611.761    22099871.063    91980691.34906
      2031.366  
  21950420.796   117214020.78904     -1600.047    21950427.090    91166486.14605
     -1244.484  
  19950040.527   106644437.48509      1699.390    19950044.305    82945705.75108
      1321.746  
  20652342.223   110437355.49005     -1804.683    20652347.775    85895748.03207
     -1403.645  
 20 09 30 07 26 25.0000000  0 14G15G18G20G 8G27G24G10G13R 4R14R21R13
                                R 5R20
  21133695.658   111058318.79749     -2402.456    21133695.695    86538951.25948
     -1872.043  
  21430912.951   112620200.83648     -2570.086    21430913.492    87755998.60647
     -2002.667  
  20056406.619   105397139.09049       765.546    20056405.897    82127638.12248
       596.527  
  24606641.240   129308776.38447       333.113    24606643.949   100760094.32544
       259.565  
  24170713.749   127017945.67847     -1498.366    24170715.828    98975041.07545
     -1167.558  
  21061536.102   110679136.95649      1866.218    21061538.235    86243509.42648
      1454.194  
  22145790.403   116376934.98549      2630.379    22145792.628    90683346.94747
      2049.641  
  23657005.390   124318391.21947     -3455.938    23657006.854    96871478.23244
     -2692.937  
  19942685.611   106792175.47608     -1734.520    19942688.349    83060591.89108
     -1349.074  
  21322353.834   113660164.76806      2393.386    21322356.592    88402359.51805
      1861.512  
  22097429.411   118247828.49208      2607.293    22097432.771    91970543.65606
      2027.895  
  21951920.993   117222031.38404     -1604.597    21951926.968    91172716.60405
     -1248.023  
  19948452.345   106635947.64909      1696.840    19948456.157    82939102.53908
      1319.761  
  20654031.648   110446389.73105     -1808.437    20654037.039    85902774.64407
     -1406.565  
 20 09 30 07 26 30.0000000  0 15G15G18G20G 8G21G27G24G10G13R 4R14R21
                                R13R 5R20
  21135982.447   111070335.54649     -2404.019    21135982.162    86548314.95748
     -1873.266  
  21433359.414   112633056.99148     -2572.078    21433360.081    87766016.38547
     -2004.215  
  20055679.312   105393317.07149       763.374    20055678.379    82124659.93348
       594.836  
  24606326.026   129307119.57846       330.227    24606328.597   100758803.29444
       257.315  
  24866918.015   130676536.00854      2752.574    24866918.610   101825879.95854
      2144.863  
  24172140.698   127025443.84647     -1501.070    24172142.458    98980883.76144
     -1169.671  
  21059761.996   110669813.27849      1863.409    21059764.038    86236244.23348
      1452.007  
  22143288.296   116363785.51049      2629.483    22143290.332    90673100.58647
      2048.945  
  23660293.704   124335671.76847     -3456.405    23660295.193    96884943.58744
     -2693.308  
  19944306.033   106800852.91808     -1736.195    19944309.069    83067341.00608
     -1350.379  
  21320110.381   113648206.65006      2390.320    21320113.519    88393058.78305
      1859.136  
  22094994.556   118234799.83908      2604.176    22094998.104    91960410.27707
      2025.469  
  21953425.036   117230062.79404     -1607.684    21953430.910    91178963.25605
     -1250.426  
  19946866.019   106627467.82909      1695.257    19946869.931    82932507.13408
      1318.531  
  20655725.138   110455445.70405     -1812.886    20655730.658    85909818.18607
     -1410.023  
 20 09 30 07 26 35.0000000  0 13G15G18G20G 8G27G24G10G13R 4R14R21R 5
                                R20
  21138270.738   111082360.15949     -2405.995    21138270.392    86557684.78348
     -1874.805  
  21435808.150   112645924.22148     -2574.699    21435808.629    87776042.81147
     -2006.262  
  20054954.115   105389506.38049       760.827    20054953.263    82121690.54948
       592.847  
  24606013.567   129305477.18846       327.034    24606016.060   100757523.53844
       254.840  
  24173570.030   127032954.65947     -1503.491    24173571.721    98986736.38545
     -1171.546  
  21057990.332   110660503.93448      1860.313    21057992.457    86228990.18247
      1449.589  
  22140786.939   116350640.63649      2628.327    22140788.772    90662857.83747
      2048.046  
  23663582.571   124352954.03647     -3456.621    23663584.015    96898410.26445
     -2693.480  
  19945928.062   106809538.71908     -1738.172    19945931.000    83074096.66608
     -1351.910  
  21317870.171   113636265.57006      2386.082    21317873.724    88383771.26605
      1855.835  
  22092563.070   118221788.31408      2600.426    22092566.617    91950290.18906
      2022.554  
  19945281.363   106618996.83909      1693.120    19945285.114    82925918.58307
      1316.870  
  20657422.599   110464522.01105     -1817.352    20657427.849    85916877.52007
     -1413.500  
 20 09 30 07 26 40.0000000  0 13G15G18G20G 8G27G24G10G13R 4R14R21R 5
                                R20
  21140560.924   111094395.57349     -2408.129    21140560.814    86567063.02248
     -1876.469  
  21438259.354   112658805.44848     -2577.628    21438260.148    87786080.12147
     -2008.546  
  20054231.562   105385709.90549       758.108    20054230.887    82118732.25848
       590.733  
  24605704.156   129303851.94447       323.397    24605707.198   100756257.11143
       251.996  
  24175002.334   127040481.18646     -1506.805    24175004.132    98992601.21344
     -1174.140  
  21056222.128   110651211.93049      1856.710    21056224.060    86221749.67547
      1446.789  
  22138287.074   116337503.34749      2626.843    22138288.652    90652620.98047
      2046.886  
  23666872.172   124370241.00447     -3457.479    23666873.444    96911880.64444
     -2694.140  
  19947552.157   106818235.92408     -1740.487    19947555.313    83080861.12408
     -1353.719  
  21315633.644   113624344.37206      2382.390    21315637.578    88374499.25305
      1852.973  
  22090135.139   118208796.99208      2596.210    22090138.700    91940185.83806
      2019.270  
  19943698.942   106610537.67409      1690.668    19943702.725    82919339.22408
      1314.961  
  20659124.140   110473621.63405     -1822.624    20659129.594    85923955.01307
     -1417.601  
 20 09 30 07 26 45.0000000  0 13G15G18G20G 8G27G24G10G13R 4R14R21R 5
                                R20
  21142853.023   111106440.98249     -2409.733    21142852.956    86576449.05348
     -1877.719  
  21440713.046   112671699.84048     -2579.699    21440713.812    87796127.68647
     -2010.160  
  20053511.635   105381926.81549       755.773    20053510.898    82115784.39848
       588.914  
  24605398.272   129302243.23247       320.526    24605400.800   100755003.52544
       249.757  
  24176437.332   127048022.43346     -1508.874    24176439.026    98998477.48844
     -1175.749  
  21054457.150   110641936.49948      1853.940    21054459.082    86214522.07447
      1444.628  
  22135788.354   116324372.83149      2626.027    22135790.043    90642389.43747
      2046.253  
  23670162.390   124387531.90547     -3457.859    23670163.923    96925354.07445
     -2694.437  
  19949178.317   106826943.75008     -1742.069    19949181.323    83087633.89508
     -1354.945  
  21313400.686   113612442.35607      2379.104    21313404.998    88365242.11405
      1850.409  
  22087711.141   118195825.03608      2592.999    22087714.766    91930096.53007
      2016.773  
  19942118.575   106602089.51609      1688.987    19942122.234    82912768.44308
      1313.655  
  20660829.988   110482743.72805     -1826.348    20660835.243    85931049.99407
     -1420.491  
 20 09 30 07 26 50.0000000  0 13G15G18G20G 8G27G24G10G13R 4R14R21R 5
                                R20
  21145146.822   111118494.13349     -2411.358    21145146.541    86585841.12148
     -1878.984  
  21443168.999   112684605.14848     -2582.140    21443169.597    87806183.77547
     -2012.059  
  20052793.830   105378154.91349       753.223    20052793.072    82112845.24048
       586.922  
  24605094.837   129300648.70346       317.312    24605097.767   100753761.06244
       247.258  
  24177874.750   127055576.23947     -1512.132    24177876.472    99004363.61844
     -1178.281  
  21052694.801   110632675.41748      1850.676    21052696.561    86207305.65648
      1442.086  
  22133290.585   116311246.87449      2624.555    22133292.171    90632161.41447
      2045.104  
  23673453.176   124404824.44947     -3459.000    23673454.401    96938828.81245
     -2695.324  
  19950805.975   106835659.94008     -1744.214    19950809.239    83094413.14208
     -1356.616  
  21311170.902   113600557.23106      2375.284    21311175.599    88355998.10206
      1847.440  
  22085290.227   118182870.10908      2589.117    22085293.944    91920020.48807
      2013.758  
  19940539.875   106593650.08709      1686.882    19940543.474    82906204.44908
      1312.020  
  20662539.514   110491885.95605     -1830.496    20662544.864    85938160.61507
     -1423.723  
 20 09 30 07 26 55.0000000  0 14G15G18G20G 8G27G24G10G13R 4R14R21R13
                                R 5R20
  21147442.328   111130557.38149     -2413.680    21147442.109    86595241.05848
     -1880.792  
  21445627.236   112697523.73848     -2584.960    21445628.066    87816250.20447
     -2014.258  
  20052078.672   105374396.51349       750.297    20052077.738    82109916.63048
       584.647  
  24604794.646   129299070.84547       314.047    24604797.587   100752531.56243
       244.710  
  24179314.921   127063145.01746     -1515.516    24179316.771    99010261.31243
     -1180.925  
  21050935.510   110623430.96949      1847.324    21050937.499    86200102.18648
      1439.468  
  22130794.156   116298127.76849      2623.230    22130795.502    90621938.72147
      2044.070  
  23676744.718   124422121.02347     -3459.742    23676745.972    96952306.61844
     -2695.914  
  19952435.682   106844386.69608     -1746.395    19952438.808    83101200.64308
     -1358.312  
  21308944.686   113588691.33806      2371.238    21308949.867    88346769.11005
      1844.301  
  22082872.810   118169934.74308      2585.093    22082876.809    91909959.66807
      2010.629  
  21961005.023   117270541.25314     -1629.952    21961009.653    91210440.40915
     -1267.741  
  19938963.044   106585221.83609      1684.507    19938966.841    82899649.14508
      1310.172  
  20664253.418   110501050.78405     -1835.234    20664258.642    85945288.81207
     -1427.409  
 20 09 30 07 27  0.0000000  0 14G15G18G20G 8G27G24G10G13R 4R14R21R13
                                R 5R20
  21149739.754   111142630.27949     -2415.433    21149739.364    86604648.49448
     -1882.159  
  21448088.122   112710455.15848     -2587.488    21448088.803    87826326.63648
     -2016.229  
  20051366.003   105370651.22649       747.859    20051365.065    82106998.22748
       582.742  
  24604497.660   129297509.26247       310.608    24604500.563   100751314.73844
       242.034  
  24180757.789   127070728.21146     -1517.866    24180759.808    99016170.30744
     -1182.753  
  21049179.469   110614202.75548      1844.171    21049181.398    86192911.36947
      1437.012  
  22128299.048   116285015.17049      2622.026    22128300.407    90611721.13147
      2043.137  
  23680036.869   124439421.23547     -3460.390    23680038.078    96965787.27544
     -2696.417  
  19954067.254   106853123.75308     -1748.371    19954070.531    83107996.12108
     -1359.847  
  21306722.135   113576844.45407      2367.488    21306727.535    88337554.86505
      1841.374  
  22080459.108   118157018.47008      2581.703    22080463.192    91899913.64507
      2007.988  
  21962533.096   117278700.48204     -1634.015    21962537.419    91216786.47905
     -1270.902  
  19937388.434   106576804.35709      1682.538    19937392.224    82893102.22408
      1308.637  
  20665971.487   110510237.78805     -1839.335    20665976.811    85952434.27107
     -1430.593  
 20 09 30 07 27  5.0000000  0 14G15G18G20G 8G27G24G10G13R 4R14R21R13
                                R 5R20
  21152038.925   111154712.03549     -2417.328    21152038.380    86614062.86348
     -1883.633  
  21450551.100   112723398.59948     -2590.081    21450551.918    87836412.42847
     -2018.249  
  20050655.599   105366918.27749       745.215    20050654.595    82104089.43948
       580.684  
  24604203.349   129295962.86847       307.836    24604206.487   100750109.73343
       239.867  
  24182203.278   127078325.12146     -1521.440    24182205.296    99022089.99444
     -1185.539  
  21047426.307   110604989.82648      1840.937    21047428.221    86185732.46847
      1434.492  
  22125804.896   116271908.28149      2620.550    22125806.081    90601507.96947
      2041.988  
  23683329.617   124456724.18347     -3460.976    23683330.635    96979270.08843
     -2696.867  
  19955700.695   106861870.28708     -1750.409    19955703.737    83114798.99108
     -1361.430  
  21304502.991   113565015.57207      2364.039    21304508.728    88328354.61405
      1838.690  
  22078048.782   118144120.54908      2577.542    22078052.918    91889881.94507
      2004.754  
  21964064.882   117286880.63804     -1638.313    21964069.093    91223148.83905
     -1274.242  
  19935815.502   106568396.72909      1680.355    19935819.232    82886562.96408
      1306.940  
  20667693.564   110519446.16705     -1844.484    20667698.801    85959596.34007
     -1434.601  
 20 09 30 07 27 10.0000000  0 14G15G18G20G 8G27G24G10G13R 4R14R21R13
                                R 5R20
  21154339.600   111166802.47549     -2419.031    21154339.128    86623483.97648
     -1884.965  
  21453016.371   112736353.87448     -2592.167    21453017.230    87846507.44047
     -2019.875  
  20049947.489   105363197.48049       742.929    20049946.612    82101190.11948
       578.902  
  24603912.036   129294431.69747       304.695    24603915.189   100748916.63344
       237.421  
  24183651.337   127085935.44146     -1523.362    24183653.498    99028020.10643
     -1187.031  
  21045676.207   110595792.20949      1838.077    21045677.957    86178565.49147
      1432.269  
  22123311.683   116258806.92149      2619.874    22123313.171    90591299.11047
      2041.456  
  23686622.640   124474029.82547     -3461.684    23686623.528    96992754.99745
     -2697.422  
  19957335.755   106870626.05208     -1752.121    19957339.084    83121609.02508
     -1362.765  
  21302287.241   113553204.69107      2360.417    21302293.295    88319168.38205
      1835.879  
  22075641.786   118131240.73008      2574.195    22075646.240    91879864.30007
      2002.148  
  21965600.642   117295081.31904     -1641.663    21965604.816    91229527.14005
     -1276.852  
  19934244.454   106559998.82709      1678.710    19934248.418    82880031.26108
      1305.659  
  20669419.330   110528675.70605     -1847.792    20669424.668    85966774.87908
     -1437.172  
 20 09 30 07 27 15.0000000  0 14G15G18G20G 8G27G24G10G13R 4R14R21R13
                                R 5R20
  21156642.184   111178902.35449     -2421.007    21156641.839    86632912.44248
     -1886.504  
  21455484.113   112749321.78848     -2594.780    21455485.011    87856612.30847
     -2021.910  
  20049241.892   105359489.60749       740.191    20049240.852    82098300.86648
       576.770  
  24603623.757   129292916.56246       301.609    24603626.791   100747735.97344
       235.011  
  24185102.262   127093560.01346     -1526.438    24185104.205    99033961.35344
     -1189.430  
  21043928.944   110586610.62349      1834.710    21043930.886    86171411.02847
      1429.644  
  22120819.790   116245711.84149      2618.421    22120821.167    90581095.14347
      2040.323  
  23689916.456   124491338.81747     -3461.910    23689917.541    97006242.49444
     -2697.602  
  19958972.497   106879391.85408     -1754.219    19958975.828    83128426.85208
     -1364.395  
  21300075.033   113541412.53507      2356.804    21300081.080    88309996.71105
      1833.069  
  22073238.342   118118379.85208      2570.229    22073242.885    91869861.39506
      1999.063  
  21967140.397   117303303.24304     -1646.690    21967144.120    91235921.97205
     -1280.761  
  19932675.458   106551611.48609      1676.461    19932679.352    82873507.76208
      1303.910  
  20671149.476   110537927.26005     -1852.863    20671154.925    85973970.52008
     -1441.121  
 20 09 30 07 27 20.0000000  0 14G15G18G20G 8G27G24G10G13R 4R14R21R13
                                R 5R20
  21158946.478   111191011.50249     -2422.836    21158946.263    86642348.14448
     -1887.929  
  21457954.323   112762302.11348     -2597.375    21457954.978    87866726.84747
     -2023.934  
  20048538.770   105355794.51749       737.793    20048537.784    82095421.57748
       574.898  
  24603338.440   129291417.24146       298.292    24603341.376   100746567.65444
       232.437  
  24186555.652   127101198.72046     -1529.047    24186557.687    99039913.55745
     -1191.469  
  21042184.711   110577444.93148      1831.487    21042186.479    86164268.94147
      1427.133  
  22118329.031   116232622.93749      2617.175    22118330.349    90570896.00347
      2039.354  
  23693211.067   124508651.01946     -3462.820    23693211.847    97019732.53445
     -2698.301  
  19960611.292   106888167.50008     -1756.195    19960614.743    83135252.34408
     -1365.934  
  21297866.383   113529639.03207      2352.835    21297872.452    88300839.53405
      1829.980  
  22070838.448   118105537.81408      2566.479    22070843.099    91859873.15607
      1996.147  
  21968684.027   117311546.30004     -1650.425    21968687.809    91242333.20205
     -1283.667  
  19931108.371   106543234.54409      1674.362    19931112.446    82866992.36708
      1302.281  
  20672883.642   110547200.37605     -1857.180    20672889.091    85981182.94708
     -1444.476  
 20 09 30 07 27 25.0000000  0 14G15G18G20G 8G27G24G10G13R 4R14R21R13
                                R 5R20
  21161252.698   111203130.73749     -2424.559    21161252.376    86651791.69648
     -1889.269  
  21460426.811   112775295.71748     -2599.820    21460427.632    87876851.73347
     -2025.836  
  20047838.321   105352113.03849       735.090    20047837.122    82092552.89148
       572.793  
  24603056.142   129289934.62946       295.034    24603059.091   100745412.40144
       229.895  
  24188012.180   127108852.29546     -1532.152    24188014.178    99045877.39644
     -1193.886  
  21040443.905   110568296.15249      1828.312    21040445.713    86157140.01148
      1424.656  
  22115839.794   116219541.03549      2615.871    22115840.799    90560702.30647
      2038.340  
  23696506.272   124525967.15847     -3463.335    23696506.928    97033225.58944
     -2698.711  
  19962251.917   106896953.91008     -1758.102    19962255.549    83142086.24308
     -1367.413  
  21295661.169   113517884.87707      2348.819    21295667.410    88291697.41206
      1826.855  
  22068442.281   118092715.34508      2562.683    22068446.889    91849900.14706
      1993.203  
  21970231.671   117319811.57204     -1655.460    21970235.449    91248761.75205
     -1287.582  
  19929543.322   106534868.70809      1672.284    19929547.416    82860485.61508
      1300.667  
  20674621.974   110556496.23605     -1861.515    20674627.754    85988413.05308
     -1447.848  
 20 09 30 07 27 30.0000000  0 14G15G18G20G 8G27G24G10G13R 4R14R21R13
                                R 5R20
  21163560.601   111215258.63049     -2426.487    21163560.205    86661241.99648
     -1890.773  
  21462901.798   112788301.17648     -2602.414    21462902.490    87886985.86147
     -2027.858  
  20047139.974   105348443.76549       732.566    20047138.914    82089693.72048
       570.832  
  24602776.947   129288467.23147       291.870    24602779.465   100744268.97243
       227.434  
  24189471.140   127116519.37147     -1534.698    24189473.002    99051851.66044
     -1195.882  
  21038705.782   110559162.72049      1825.160    21038707.625    86150023.05347
      1422.202  
  22113351.304   116206464.74549      2614.504    22113352.194    90550512.97947
      2037.272  
  23699801.751   124543285.92647     -3464.429    23699802.597    97046720.77244
     -2699.555  
  19963894.465   106905749.55308     -1760.210    19963898.056    83148927.29108
     -1369.059  
  21293459.554   113506148.84307      2345.496    21293465.816    88282569.40205
      1824.272  
  22066049.489   118079911.12908      2558.979    22066054.055    91839941.31107
      1990.315  
  21971783.130   117328097.27204     -1659.354    21971787.144    91255206.17105
     -1290.612  
  19927980.180   106526512.75709      1669.977    19927984.290    82853986.53308
      1298.867  
  20676364.353   110565813.05305     -1865.472    20676369.998    85995659.45308
     -1450.926  
 20 09 30 07 27 35.0000000  0 14G15G18G20G 8G27G24G10G13R 4R14R21R13
                                R 5R20
  21165870.191   111227395.73549     -2428.559    21165869.942    86670699.48248
     -1892.383  
  21465378.896   112801318.97648     -2604.988    21465379.794    87897129.60347
     -2029.863  
  20046444.300   105344787.25249       729.858    20046443.178    82086844.48348
       568.719  
  24602500.557   129287015.50947       288.520    24602502.932   100743137.77143
       224.819  
  24190932.817   127124200.47046     -1537.804    24190934.445    99057836.96444
     -1198.289  
  21036970.882   110550045.10349      1821.757    21036972.532    86142918.41647
      1419.547  
  22110864.125   116193394.56149      2613.327    22110865.033    90540328.44147
      2036.358  
  23703097.990   124560607.74546     -3465.124    23703098.797    97060218.28445
     -2700.102  
  19965538.680   106914554.99908     -1762.250    19965542.234    83155775.95308
     -1370.644  
  21291261.477   113494431.35207      2341.332    21291267.614    88273455.79505
      1821.035  
  22063660.094   118067125.74008      2555.069    22063664.814    91829997.12006
      1987.273  
  21973338.731   117336404.19304     -1663.219    21973342.845    91261667.10605
     -1293.617  
  19926419.077   106518167.14009      1667.840    19926423.047    82847495.49708
      1297.202  
  20678110.733   110575151.57705     -1869.929    20678116.301    86002922.73908
     -1454.395  
 20 09 30 07 27 40.0000000  0 14G15G18G20G 8G27G24G10G13R 4R14R21R13
                                R 5R20
  21168181.684   111239542.21249     -2429.727    21168181.394    86680164.27248
     -1893.293  
  21467858.601   112814349.31948     -2606.882    21467859.498    87907283.10847
     -2031.340  
  20045750.941   105341143.68949       727.870    20045749.883    82084005.33848
       567.167  
  24602227.250   129285579.89846       285.605    24602229.864   100742019.10444
       222.749  
  24192397.204   127131895.71946     -1540.140    24192398.789    99063833.26944
     -1200.109  
  21035238.812   110540943.57949      1819.160    21035240.646    86135826.32348
      1417.526  
  22108378.111   116180330.71949      2612.479    22108378.887    90530148.83647
      2035.746  
  23706394.770   124577932.88146     -3464.785    23706395.553    97073718.35344
     -2699.840  
  19967184.945   106923370.45708     -1763.621    19967188.550    83162632.42608
     -1371.706  
  21289066.748   113482732.71407      2338.476    21289073.004    88264356.86206
      1818.816  
  22061274.479   118054359.39608      2551.948    22061278.946    91820067.74606
      1984.848  
  21974898.209   117344732.30804     -1667.152    21974902.330    91268144.53505
     -1296.679  
  19924859.676   106509831.99809      1666.344    19924863.711    82841012.60808
      1296.043  
  20679861.126   110584511.96105     -1874.171    20679866.971    86010203.02908
     -1457.690  
 20 09 30 07 27 45.0000000  0 14G15G18G20G 8G27G24G10G13R 4R14R21R13
                                R 5R20
  21170494.515   111251696.90549     -2431.972    21170494.331    86689635.45748
     -1895.046  
  21470340.408   112827391.08448     -2609.616    21470341.159    87917445.53047
     -2033.469  
  20045059.848   105337511.93849       725.085    20045058.747    82081175.40748
       565.000  
  24601957.039   129284159.05446       282.652    24601959.198   100740911.96044
       220.188  
  24193864.196   127139604.00246     -1543.190    24193865.390    99069839.69044
     -1202.492  
  21033509.574   110531856.90449      1815.559    21033511.430    86128745.81548
      1414.722  
  22105893.248   116167272.08149      2610.965    22105893.942    90519973.27847
      2034.520  
  23709692.109   124595260.26146     -3465.690    23709692.898    97087220.18143
     -2700.546  
  19968832.681   106932194.78608     -1765.832    19968836.324    83169495.78208
     -1373.429  
  21286875.362   113471051.73707      2334.444    21286881.897    88255271.67306
      1815.679  
  22058892.039   118041610.94608      2547.671    22058896.743    91810152.28307
      1981.519  
  21976461.535   117353080.50804     -1671.460    21976465.664    91274637.57805
     -1300.022  
  19923302.315   106501506.35709      1663.964    19923306.252    82834537.11908
      1294.195  
  20681615.485   110593893.06105     -1878.813    20681621.214    86017499.43008
     -1461.300  
 20 09 30 07 27 50.0000000  0 14G15G18G20G 8G27G24G10G13R 4R14R21R13
                                R 5R20
  21172809.806   111263863.00149     -2434.164    21172809.509    86699115.53648
     -1896.749  
  21472824.913   112840447.40448     -2612.663    21472825.784    87927619.27847
     -2035.848  
  20044371.770   105333895.19049       721.956    20044370.571    82078357.16348
       562.558  
  24601690.065   129282756.25446       278.613    24601692.148   100739818.83844
       217.101  
  24195333.976   127147328.43546     -1546.366    24195335.198    99075858.77744
     -1204.957  
  21031783.945   110522788.38149      1812.039    21031785.901    86121679.43747
      1411.976  
  22103409.740   116154221.84549      2609.593    22103410.473    90509804.26347
      2033.444  
  23712990.174   124612592.95946     -3466.844    23712991.331    97100726.18245
     -2701.441  
  19970482.876   106941031.25508     -1768.269    19970486.494    83176368.59008
     -1375.324  
  21284688.013   113459391.68506      2329.960    21284694.634    88246202.76305
      1812.191  
  22056513.640   118028883.65608      2543.488    22056518.332    91800253.28506
      1978.270  
  21978029.362   117361452.05303     -1675.480    21978033.336    91281148.76305
     -1303.155  
  19921747.210   106493193.27209      1661.512    19921751.020    82828071.38608
      1292.284  
  20683374.084   110603297.85905     -1882.840    20683379.997    86024814.27507
     -1464.433  
 20 09 30 07 27 55.0000000  0 14G15G18G20G 8G27G24G10G13R 4R14R21R13
                                R 5R20
  21175126.620   111276038.28549     -2435.977    21175126.403    86708602.76748
     -1898.167  
  21475311.905   112853516.04048     -2614.996    21475312.577    87937802.62447
     -2037.664  
  20043686.000   105330291.19349       719.569    20043684.610    82075548.85848
       560.702  
  24601426.121   129281369.12446       275.937    24601428.534   100738738.00944
       215.019  
  24196806.458   127155066.88046     -1549.016    24196807.909    99081888.75145
     -1207.023  
  21030061.170   110513735.82348      1808.875    21030063.295    86114625.49848
      1409.512  
  22100927.541   116141177.74149      2608.211    22100928.251    90499640.00747
      2032.367  
  23716288.966   124629928.66745     -3467.335    23716290.161    97114234.55844
     -2701.815  
  19972134.733   106949877.47108     -1770.270    19972138.543    83183249.00208
     -1376.874  
  21282504.138   113447750.27607      2326.465    21282510.880    88237148.34305
      1809.473  
  22054138.784   118016175.10008      2539.734    22054143.286    91790368.86107
      1975.348  
  21979600.736   117369844.63404     -1679.425    21979605.099    91287676.34605
     -1306.219  
  19920193.982   106484890.43809      1659.444    19920197.750    82821613.62508
      1290.679  
  20685137.003   110612724.23105     -1886.823    20685142.571    86032145.88908
     -1467.534  
 20 09 30 07 28  0.0000000  0 13G15G18G20G 8G27G24G10G13R 4R14R21R 5
                                R20
  21177445.171   111288222.00849     -2437.449    21177444.973    86718096.58148
     -1899.315  
  21477800.972   112866596.27248     -2617.077    21477801.812    87947995.00047
     -2039.284  
  20043002.486   105326699.27249       717.538    20043001.089    82072749.95348
       559.117  
  24601164.948   129279997.12246       273.136    24601167.288   100737668.90544
       212.827  
  24198281.586   127162818.57646     -1551.113    24198283.176    99087929.00445
     -1208.668  
  21028341.462   110504698.44548      1806.184    21028343.637    86107583.38048
      1407.410  
  22098446.511   116128139.12449      2607.305    22098447.100    90489480.07847
      2031.663  
  23719588.023   124647266.86046     -3467.249    23719589.318    97127744.80544
     -2701.758  
  19973788.348   106958732.68908     -1771.776    19973792.109    83190136.39008
     -1378.051  
  21280323.455   113436126.85507      2323.229    21280330.131    88228107.87606
      1806.952  
  22051767.106   118003484.67908      2536.336    22051771.878    91780498.54707
      1972.707  
  19918642.594   106476597.16509      1657.895    19918646.443    82815163.30308
      1289.468  
  20686903.635   110622171.67305     -1892.074    20686909.206    86039493.89208
     -1471.617  
 20 09 30 07 28  5.0000000  0 13G15G18G20G 8G27G24G10G13R 4R14R21R 5
                                R20
  21179765.263   111300414.32749     -2439.625    21179765.260    86727597.08048
     -1901.007  
  21480292.323   112879688.28348     -2619.824    21480293.009    87958196.57047
     -2041.425  
  20042321.253   105323119.65149       714.383    20042320.037    82069960.62948
       556.656  
  24600906.757   129278640.38146       269.668    24600909.335   100736611.69544
       210.128  
  24199759.138   127170583.69546     -1554.823    24199760.449    99093979.72144
     -1211.558  
  21026624.613   110495676.46748      1802.616    21026626.884    86100553.28047
      1404.637  
  22095966.416   116115106.16849      2605.906    22095966.927    90479324.52947
      2030.577  
  23722887.729   124664607.59046     -3468.253    23722889.452    97141257.08345
     -2702.530  
  19975443.863   106967597.18209     -1774.124    19975447.345    83197030.98208
     -1379.879  
  21278146.394   113424521.54807      2318.918    21278152.860    88219081.55205
      1803.601  
  22049398.973   117990812.72908      2532.469    22049403.866    91770642.58307
      1969.694  
  19917092.885   106468313.86409      1655.402    19917096.747    82808720.74408
      1287.535  
  20688674.193   110631639.92605     -1896.104    20688680.045    86046858.09908
     -1474.750  
 20 09 30 07 28 10.0000000  0 13G15G18G20G 8G27G24G10G13R 4R14R21R 5
                                R20
  21182087.259   111312616.49849     -2441.688    21182087.251    86737105.27848
     -1902.613  
  21482786.182   112892793.28549     -2622.629    21482786.854    87968408.26047
     -2043.609  
  20041642.687   105319553.51349       711.621    20041641.380    82067181.83148
       554.511  
  24600651.748   129277300.08046       266.464    24600654.403   100735567.32444
       207.641  
  24201239.633   127178363.40446     -1557.632    24201240.952    99100041.85445
     -1213.738  
  21024910.997   110486671.16648      1799.167    21024913.337    86093536.15548
      1401.944  
  22093487.639   116102080.07249      2604.272    22093488.240    90469174.31347
      2029.301  
  23726188.282   124681952.08246     -3469.647    23726189.834    97154772.25143
     -2703.625  
  19977101.276   106976472.20709     -1776.409    19977104.715    83203933.80708
     -1381.648  
  21275972.902   113412935.61207      2314.895    21275979.217    88210070.26706
      1800.473  
  22047034.670   117978160.36708      2528.090    22047039.444    91760801.84607
      1966.293  
  19915545.410   106460041.56509      1653.063    19915549.227    82802286.73408
      1285.711  
  20690449.043   110641130.65505     -1900.753    20690454.742    86054239.78807
     -1478.362  
 20 09 30 07 28 15.0000000  0 13G15G18G20G 8G27G24G10G13R 4R14R21R 5
                                R20
  21184411.153   111324828.30249     -2442.909    21184410.957    86746620.96548
     -1903.569  
  21485282.524   112905911.12248     -2624.563    21485282.897    87978629.95247
     -2045.113  
  20040966.564   105316000.71349       709.640    20040965.450    82064413.41648
       552.961  
  24600399.842   129275976.14646       263.672    24600402.522   100734535.69545
       205.457  
  24202722.684   127186157.57646     -1560.094    24202724.477    99106115.26545
     -1215.652  
  21023200.422   110477682.44248      1796.601    21023202.695    86086531.95748
      1399.945  
  22091009.970   116089060.74149      2603.507    22091010.765    90459029.37447
      2028.703  
  23729489.324   124699300.14145     -3469.484    23729491.076    97168290.25344
     -2703.491  
  19978760.541   106985357.52609     -1777.737    19978764.046    83210844.61108
     -1382.688  
  21273803.020   113401368.98407      2311.637    21273808.954    88201073.99806
      1797.937  
  22044673.872   117965527.53808      2525.050    22044678.903    91750976.31907
      1963.929  
  19913999.998   106451780.29609      1651.687    19914003.860    82795861.29708
      1284.640  
  20692228.068   110650643.46805     -1904.539    20692233.716    86061638.64407
     -1481.308  
 20 09 30 07 28 20.0000000  0 13G15G18G20G 8G27G24G10G13R 4R14R21R 5
                                R20
  21186736.564   111337048.16849     -2445.003    21186736.364    86756142.93148
     -1905.202  
  21487780.949   112919040.15148     -2627.128    21487781.417    87988860.37947
     -2047.112  
  20040292.716   105312459.64949       706.901    20040291.716    82061654.15148
       550.832  
  24600150.678   129274666.93746       260.229    24600153.621   100733515.54944
       202.776  
  24204208.297   127193964.61946     -1562.995    24204210.303    99112198.66145
     -1217.925  
  21021492.695   110468708.62048      1793.104    21021495.208    86079539.39548
      1397.227  
  22088533.446   116076046.52149      2602.203    22088534.290    90448888.43647
      2027.691  
  23732790.647   124716650.24145     -3470.387    23732792.682    97181809.74944
     -2704.206  
  19980421.460   106994251.55009     -1779.878    19980425.033    83217762.16008
     -1384.354  
  21271636.673   113389820.04107      2307.895    21271642.363    88192091.48006
      1795.022  
  22042316.458   117952912.48008      2520.952    22042321.483    91741164.59907
      1960.737  
  19912456.253   106443528.12809      1649.327    19912459.949    82789442.94608
      1282.766  
  20694010.758   110660176.68805     -1908.680    20694016.513    86069053.36907
     -1484.526  
 20 09 30 07 28 25.0000000  0 13G15G18G20G 8G27G24G10G13R 4R14R21R 5
                                R20
  21189063.660   111349277.17449     -2446.477    21189063.675    86765672.03548
     -1906.344  
  21490281.646   112932181.46748     -2629.363    21490282.110    87999100.36047
     -2048.859  
  20039621.327   105308931.41149       704.569    20039620.162    82058904.87448
       549.016  
  24599904.783   129273373.59647       257.292    24599907.572   100732507.73744
       200.483  
  24205696.534   127201785.61046     -1565.590    24205698.733    99118292.90745
     -1219.949  
  21019788.012   110459750.73349      1790.051    21019790.646    86072559.21848
      1394.839  
  22086058.114   116063038.56049      2601.211    22086059.073    90438752.36647
      2026.918  
  23736092.601   124734003.34845     -3471.063    23736094.912    97195331.67145
     -2704.726  
  19982084.325   107003155.39709     -1781.434    19982087.705    83224687.37708
     -1385.563  
  21269473.504   113378289.88507      2304.362    21269479.265    88183123.57406
      1792.277  
  22039962.611   117940316.44108      2517.457    22039967.627    91731367.67807
      1958.019  
  19910914.387   106435286.43909      1647.499    19910918.192    82783032.73808
      1281.387  
  20695797.535   110669731.60405     -1913.452    20695803.156    86076484.96207
     -1488.246  
 20 09 30 07 28 30.0000000  0 13G15G18G20G 8G27G24G10G13R 4R14R21R 5
                                R20
  21191392.105   111361513.86149     -2448.727    21191392.193    86775207.11448
     -1908.097  
  21492784.436   112945333.59348     -2632.047    21492784.808    88009348.77147
     -2050.948  
  20038952.057   105305414.56349       701.702    20038951.066    82056164.47548
       546.781  
  24599661.571   129272094.54146       254.242    24599664.469   100731511.05445
       198.132  
  24207187.221   127209619.00546     -1568.038    24207189.325    99124396.85444
     -1221.852  
  21018086.167   110450807.41449      1786.659    21018088.744    86065590.40148
      1392.203  
  22083583.729   116050035.36549      2599.789    22083584.849    90428620.01947
      2025.808  
  23739394.999   124751358.09645     -3472.180    23739397.346    97208854.83744
     -2705.597  
  19983748.660   107012067.49209     -1783.781    19983752.027    83231619.00208
     -1387.390  
  21267313.928   113366777.00507      2300.340    21267319.518    88174169.12006
      1789.152  
  22037612.010   117927737.90108      2513.375    22037617.093    91721584.36907
      1954.843  
  19909374.167   106427053.64109      1645.218    19909378.062    82776629.45308
      1279.613  
  20697588.076   110679306.40205     -1917.757    20697593.804    86083932.02807
     -1491.593  
 20 09 30 07 28 35.0000000  0 13G15G18G20G 8G27G24G10G13R 4R14R21R 5
                                R20
  21193723.003   111373762.18849     -2450.901    21193722.883    86784751.27648
     -1909.793  
  21495290.081   112958500.50148     -2634.894    21495290.430    88019608.68647
     -2053.168  
  20038285.819   105301913.05249       698.730    20038284.866    82053436.03148
       544.465  
  24599421.761   129270833.79646       250.117    24599424.623   100730528.67344
       194.897  
  24208680.638   127217468.83946     -1571.672    24208683.340    99130513.59545
     -1224.683  
  21016387.774   110441882.57949      1782.980    21016390.244    86058635.98448
      1389.331  
  22081110.862   116037040.92149      2598.020    22081112.104    90418494.48047
      2024.394  
  23742698.365   124768718.46345     -3472.938    23742700.967    97222382.42342
     -2706.184  
  19985415.227   107020991.94309     -1786.199    19985418.530    83238560.24008
     -1389.270  
  21265158.065   113355285.50707      2295.984    21265163.654    88165231.29906
      1785.766  
  22035265.420   117915180.98208      2509.097    22035270.422    91711817.88407
      1951.520  
  19907836.391   106418833.81609      1642.559    19907840.345    82770236.26008
      1277.547  
  20699383.016   110688905.31305     -1921.944    20699388.525    86091397.84607
     -1494.851  
 20 09 30 07 28 40.0000000  0 13G15G18G20G 8G27G24G10G13R 4R14R21R 5
                                R20
  21196055.424   111386019.26449     -2452.219    21196055.265    86794302.24248
     -1910.824  
  21497797.989   112971679.27048     -2636.749    21497798.251    88029877.85747
     -2054.612  
  20037621.707   105298423.99649       696.706    20037620.859    82050717.28148
       542.883  
  24599184.985   129269588.37446       247.608    24599187.828   100729558.25844
       192.941  
  24210176.862   127225332.26945     -1574.144    24210179.596    99136640.94845
     -1226.608  
  21014692.418   110432973.36349      1780.530    21014694.925    86051693.74648
      1387.426  
  22078639.295   116024052.37249      2597.140    22078640.552    90408373.54447
      2023.745  
  23746002.372   124786081.39145     -3472.848    23746004.875    97235911.93944
     -2706.116  
  19987083.632   107029925.77109     -1787.648    19987086.717    83245508.77508
     -1390.398  
  21263005.749   113343812.45407      2293.016    21263011.273    88156307.82106
      1783.456  
  22032922.450   117902642.68008      2505.800    22032927.356    91702065.87407
      1948.957  
  19906300.649   106410624.05009      1641.159    19906304.329    82763850.89108
      1276.456  
  20701181.956   110698525.27005     -1925.500    20701187.581    86098880.03307
     -1497.613  
 20 09 30 07 28 45.0000000  0 14G15G18G20G 8G21G27G24G10G13R 4R14R21
                                R 5R20
  21198389.540   111398285.16149     -2454.535    21198389.339    86803860.07148
     -1912.629  
  21500308.174   112984870.03849     -2639.733    21500308.520    88040156.36647
     -2056.941  
  20036960.263   105294947.52049       693.645    20036959.298    82048008.33048
       540.500  
  24598951.032   129268358.57146       244.238    24598953.840   100728599.92644
       190.309  
  24796652.440   130307287.32554      2716.680    24796654.815   101538157.87152
      2116.890  
  24211675.707   127233209.21846     -1576.897    24211678.665    99142778.79544
     -1228.757  
  21012999.915   110424079.82348      1776.687    21013002.554    86044763.71048
      1384.429  
  22076168.668   116011069.82949      2595.441    22076170.199    90398257.26947
      2022.417  
  23749307.005   124803447.19545     -3473.965    23749309.459    97249443.74944
     -2706.984  
  19988753.916   107038869.09509     -1789.988    19988756.818    83252464.68408
     -1392.219  
  21260856.845   113332357.99307      2288.809    21260862.534    88147398.78806
      1780.179  
  22030583.010   117890123.14508      2501.633    22030587.888    91692328.46207
      1945.714  
  19904766.615   106402424.44609      1638.464    19904770.516    82757473.43208
      1274.363  
  20702984.921   110708166.53405     -1930.730    20702990.262    86106378.80207
     -1501.679  
 20 09 30 07 28 50.0000000  0 14G15G18G20G 8G21G27G24G10G13R 4R14R21
                                R 5R20
  21200725.750   111410562.65249     -2456.023    21200725.401    86813426.94648
     -1913.788  
  21502821.014   112998075.57048     -2641.882    21502821.502    88050446.38847
     -2058.612  
  20036301.688   105291486.46749       691.285    20036300.674    82045311.40948
       538.664  
  24598720.723   129267147.13046       241.066    24598723.337   100727655.93245
       187.730  
  24794067.786   130293705.25345      2716.465    24794070.675   101527574.46843
      2116.723  
  24213177.684   127241102.63046     -1579.508    24213180.706    99148929.52646
     -1230.785  
  21011311.025   110415204.92748      1773.750    21011313.849    86037848.21348
      1382.145  
  22073699.949   115998096.06049      2594.573    22073701.299    90388147.85047
      2021.746  
  23752612.650   124820818.57146     -3474.121    23752614.940    97262979.92245
     -2707.104  
  19990426.244   107047824.80708     -1791.758    19990429.335    83259430.22108
     -1393.594  
  21258711.979   113320924.90107      2285.151    21258717.943    88138506.39306
      1777.339  
  22028247.446   117877625.32108      2498.042    22028252.258    91682607.93107
      1942.917  
  19903235.039   106394237.79609      1636.538    19903239.117    82751106.03908
      1272.863  
  20704792.294   110717831.99905     -1935.452    20704797.782    86113896.38307
     -1505.354  
 20 09 30 07 28 55.0000000  0 14G15G18G20G 8G21G27G24G10G13R 4R14R21
                                R 5R20
  21203063.294   111422846.99449     -2457.586    21203063.130    86822999.15048
     -1915.007  
  21505335.933   113011291.09449     -2644.222    21505336.400    88060744.19247
     -2060.437  
  20035645.188   105288036.03549       688.933    20035644.004    82042622.76448
       536.827  
  24598492.882   129265949.28646       238.230    24598495.589   100726722.55845
       185.683  
  24791484.062   130280127.43844      2715.941    24791487.047   101516994.34943
      2116.316  
  24214681.913   127249007.65545     -1582.148    24214685.167    99155089.29245
     -1232.840  
  21009624.825   110406343.88548      1770.710    21009627.580    86030943.50548
      1379.773  
  22071231.784   115985126.35949      2593.594    22071233.341    90378041.59947
      2020.964  
  23755918.439   124838190.79746     -3474.711    23755920.571    97276516.64841
     -2707.578  
  19992100.049   107056787.98508     -1793.402    19992103.062    83266401.58208
     -1394.870  
  21256570.349   113309508.49207      2281.848    21256576.177    88129626.95906
      1774.769  
  22025915.001   117865144.28308      2494.472    22025919.970    91672900.46507
      1940.145  
  19901705.144   106386059.19509      1634.934    19901708.909    82744744.91008
      1271.612  
  20706603.482   110727516.57705     -1938.820    20706608.717    86121428.82207
     -1507.977  
 20 09 30 07 29  0.0000000  0 14G15G18G20G 8G21G27G24G10G13R 4R14R21
                                R 5R20
  21205402.549   111435139.21049     -2459.171    21205402.092    86832577.49547
     -1916.241  
  21507852.775   113024517.62248     -2646.331    21507853.271    88071050.57747
     -2062.081  
  20034990.756   105284597.25349       686.734    20034989.772    82039943.20248
       535.116  
  24598267.764   129264765.87846       235.108    24598270.498   100725800.38044
       183.195  
  24788901.549   130266555.05445      2714.039    24788904.514   101506418.49441
      2114.831  
  24216188.738   127256925.29646     -1584.543    24216191.829    99161258.88145
     -1234.711  
  21007941.490   110397497.71548      1767.863    21007944.266    86024050.39448
      1377.555  
  22068764.623   115972161.74849      2592.519    22068766.385    90367939.29647
      2020.140  
  23759224.592   124855564.78145     -3475.102    23759226.610    97290054.82744
     -2707.871  
  19993775.509   107065759.71808     -1795.202    19993778.463    83273379.59908
     -1396.270  
  21254431.912   113298109.60907      2278.184    21254438.009    88120761.16006
      1771.921  
  22023585.927   117852681.15508      2490.895    22023590.803    91663206.93007
      1937.363  
  19900176.742   106377889.81909      1633.046    19900180.627    82738390.94808
      1270.144  
  20708418.371   110737221.35405     -1943.387    20708423.484    86128976.98107
     -1511.527  
 20 09 30 07 29  5.0000000  0 14G15G18G20G 8G21G27G24G10G13R 4R14R21
                                R 5R20
  21207743.154   111447439.38749     -2460.929    21207742.792    86842162.05548
     -1917.609  
  21510371.938   113037755.28949     -2648.773    21510372.281    88081365.62647
     -2063.983  
  20034338.644   105281170.29149       684.113    20034337.504    82037272.83548
       533.069  
  24598045.594   129263597.33746       232.262    24598048.022   100724889.87744
       180.909  
  24786320.041   130252988.17044      2712.859    24786322.637   101495846.85941
      2113.917  
  24217697.753   127264855.75446     -1587.667    24217701.174    99167438.46045
     -1237.144  
  21006261.018   110388666.55748      1764.578    21006263.668    86017168.97148
      1374.992  
  22066298.603   115959202.34949      2591.198    22066300.441    90357841.07147
      2019.117  
  23762531.102   124872940.73446     -3475.609    23762533.142    97303594.58443
     -2708.265  
  19995452.702   107074740.07108     -1797.085    19995455.542    83280364.32308
     -1397.733  
  21252296.776   113286728.63207      2274.456    21252302.913    88111909.31506
      1769.023  
  22021260.105   117840235.93108      2487.022    22021265.254    91653527.32207
      1934.351  
  19898650.230   106369729.77209      1630.937    19898654.237    82732044.25608
      1268.508  
  20710237.041   110746946.47305     -1946.949    20710242.152    86136540.96007
     -1514.297  
 20 09 30 07 29 10.0000000  0 13G15G18G20G 8G27G24G10G13R 4R14R21R 5
                                R20
  21210085.659   111459749.08449     -2462.604    21210085.240    86851754.01848
     -1918.917  
  21512893.361   113051005.58149     -2651.128    21512893.743    88091690.52947
     -2065.819  
  20033689.001   105277756.67049       681.695    20033687.939    82034612.88148
       531.190  
  24597826.460   129262445.02946       229.015    24597828.613   100723991.93644
       178.448  
  24219209.676   127272800.46046     -1590.335    24219213.259    99173629.13345
     -1239.222  
  21004583.607   110379851.95048      1761.551    21004586.448    86010300.44248
      1372.632  
  22063833.726   115946249.70949      2590.113    22063835.672    90347748.10147
      2018.269  
  23765838.340   124890320.01146     -3476.539    23765840.339    97317136.84544
     -2708.991  
  19997131.477   107083730.61908     -1798.784    19997134.309    83287356.98508
     -1399.055  
  21250165.429   113275367.01206      2270.827    21250171.320    88103072.49706
      1766.199  
  22018938.177   117827810.38908      2483.280    22018943.295    91643863.00607
      1931.441  
  19897125.770   106361580.59309      1629.109    19897129.847    82725706.00508
      1267.086  
  20712059.859   110756693.59105     -1951.637    20712065.187    86144122.03807
     -1517.944  
 20 09 30 07 29 15.0000000  0 15G15G18G20G 8G21G27G24G10G13R 4R15R14
                                R21R 5R20
  21212429.307   111472065.91449     -2464.434    21212428.888    86861351.55148
     -1920.340  
  21515416.882   113064266.21148     -2653.597    21515417.155    88102023.48147
     -2067.742  
  20033041.636   105274354.05949       679.069    20033040.544    82031961.50148
       529.145  
  24597609.681   129261306.72246       225.761    24597611.820   100723104.98645
       175.913  
  24781160.505   130225876.06155      2710.140    24781163.889   101474721.21253
      2111.789  
  24220723.915   127280757.18846     -1593.003    24220727.317    99179829.16645
     -1241.304  
  21002909.028   110371051.60548      1758.378    21002911.874    86003443.02848
      1370.164  
  22061369.795   115933301.47749      2588.789    22061371.590    90337658.56348
      2017.234  
  23769145.553   124907700.40745     -3476.348    23769147.731    97330680.00144
     -2708.847  
  19998811.993   107092729.08008     -1800.941    19998814.783    83294355.78508
     -1400.734  
  23577834.980   125992809.95616      4424.492           0.000           0.0000 
         0.000  
  21248037.103   113264022.49006      2266.895    21248042.997    88094248.98306
      1763.137  
  22016619.406   117815402.08108      2479.313    22016624.462    91634212.10307
      1928.355  
  19895602.841   106353439.97809      1626.800    19895606.909    82719374.41408
      1265.289  
  20713886.416   110766460.19605     -1954.944    20713891.548    86151718.29307
     -1520.512  
 20 09 30 07 29 20.0000000  0 16G15G18G20G 8G21G27G24G10G13R 4R15R14
                                R21R13R 5R20
  21214775.254   111484393.66649     -2466.241    21214774.764    86870957.58347
     -1921.749  
  21517942.867   113077540.88248     -2655.831    21517943.225    88112367.37947
     -2069.484  
  20032396.913   105270966.23449       676.601    20032395.858    82029321.62048
       527.218  
  24597396.586   129260186.02646       223.172    24597398.797   100722231.72444
       173.901  
  24778582.755   130212329.27145      2708.836    24778585.659   101464165.28945
      2110.789  
  24222240.993   127288729.57946     -1595.198    24222244.396    99186041.38244
     -1243.023  
  21001237.888   110362269.26548      1755.315    21001240.484    85996599.65548
      1367.777  
  22058907.372   115920361.48149      2587.616    22058909.215    90327575.48848
      2016.324  
  23772453.769   124925085.69945     -3476.964    23772455.699    97344226.95544
     -2709.336  
  20000494.544   107101739.12808     -1802.508    20000497.440    83301363.58708
     -1401.952  
  23573694.169   125970690.68206      4424.296    23573702.036    97977222.81416
      3441.120  
  21245912.664   113252698.78506      2263.086    21245918.782    88085441.65806
      1760.180  
  22014304.423   117803014.88808      2475.819    22014309.440    91624577.62307
      1925.637  
  22006916.865   117515708.21114     -1751.250    22006921.294    91401124.42415
     -1362.081  
  19894082.319   106345311.67009      1624.926    19894086.366    82713052.41008
      1263.832  
  20715717.130   110776250.09705     -1959.675    20715722.194    86159332.65007
     -1524.194  
 20 09 30 07 29 25.0000000  0 16G15G18G20G 8G21G27G24G10G13R 4R15R14
                                R21R13R 5R20
  21217122.904   111496730.65149     -2468.460    21217122.390    86880570.81348
     -1923.480  
  21520471.291   113090827.90248     -2658.925    21520471.502    88122720.90447
     -2071.890  
  20031754.650   105267591.46749       673.441    20031753.631    82026691.93248
       524.754  
  24597186.351   129259081.42146       219.219    24597188.619   100721370.92345
       170.809  
  24776006.239   130198789.33745      2706.480    24776008.163   101453614.75043
      2108.957  
  24223760.725   127296715.94846     -1598.938    24223764.143    99192264.55645
     -1245.925  
  20999569.729   110353503.12648      1751.316    20999572.280    85989768.88748
      1364.659  
  22056446.071   115907427.97549      2585.847    22056448.096    90317497.43148
      2014.944  
  23775762.705   124942474.12246     -3478.684    23775764.535    97357776.42644
     -2710.656  
  20002178.897   107110759.13308     -1805.476    20002182.036    83308379.15308
     -1404.261  
  23569555.656   125948573.78506      4422.894    23569563.275    97960020.79406
      3440.023  
  21243791.997   113241394.31106      2258.499    21243798.051    88076649.30706
      1756.608  
  22011993.349   117790647.02308      2471.241    22011998.300    91614958.17907
      1922.078  
  22008558.848   117524476.49404     -1756.371    22008563.378    91407944.19205
     -1366.069  
  19892563.865   106337194.00409      1622.297    19892567.746    82706738.67708
      1261.784  
  20717551.769   110786061.64505     -1964.582    20717556.882    86166963.85307
     -1528.011  
 20 09 30 07 29 30.0000000  0 16G15G18G20G 8G21G27G24G10G13R 4R15R14
                                R21R13R 5R20
  21219472.661   111509078.52049     -2470.542    21219472.235    86890192.53848
     -1925.101  
  21523002.377   113104128.91548     -2661.477    21523002.754    88133085.33547
     -2073.878  
  20031115.230   105264231.44949       670.698    20031114.317    82024073.73648
       522.621  
  24596979.584   129257994.38446       215.667    24596981.820   100720523.92844
       168.059  
  24773431.311   130185257.84244      2704.781    24773432.414   101443070.70642
      2107.625  
  24225283.501   127304717.94346     -1601.729    24225286.711    99198499.84244
     -1248.108  
  20997904.827   110344754.97348      1748.042    20997907.731    85982952.15248
      1362.112  
  22053986.520   115894502.63349      2584.405    22053988.389    90307425.74747
      2013.824  
  23779072.506   124959867.33446     -3478.913    23779074.379    97371329.52844
     -2710.852  
  20003865.344   107119790.76108     -1807.434    20003868.560    83315403.74608
     -1405.784  
  23565417.789   125926460.75106      4422.491    23565424.576    97942821.77606
      3439.714  
  21241674.961   113230110.63306      2254.812    21241681.239    88067873.11306
      1753.738  
  22009686.039   117778300.23208      2467.390    22009690.896    91605355.12607
      1919.082  
  22010205.031   117533267.52204     -1760.738    22010209.531    91414781.67305
     -1369.465  
  19891047.433   106329088.58909      1620.136    19891051.564    82700434.46108
      1260.074  
  20719391.004   110795896.42105     -1969.003    20719396.108    86174613.11607
     -1531.453  
 20 09 30 07 29 35.0000000  0 16G15G18G20G 8G21G27G24G10G13R 4R15R14
                                R21R13R 5R20
  21221823.942   111521434.43049     -2472.085    21221823.553    86899820.50848
     -1926.304  
  21525535.751   113117441.10048     -2663.620    21525535.954    88143458.45847
     -2075.554  
  20030478.116   105260883.38849       668.292    20030477.209    82021464.85648
       520.742  
  24596775.625   129256922.29045       212.934    24596778.052   100719688.50143
       165.914  
  24770857.439   130171731.99145      2704.417    24770858.563   101432531.09242
      2107.339  
  24226808.700   127312732.82346     -1604.281    24226812.014    99204745.20345
     -1250.094  
  20996242.968   110336021.93948      1744.995    20996245.876    85976147.19348
      1359.738  
  22051527.907   115881582.69149      2583.348    22051529.883    90297358.26347
      2012.999  
  23782382.696   124977262.53046     -3479.402    23782384.419    97384884.18444
     -2711.234  
  20005553.669   107128831.13508     -1809.129    20005557.002    83322435.14208
     -1407.105  
  23561280.607   125904348.90106      4422.194    23561286.692    97925623.68007
      3439.484  
  21239561.529   113218845.07106      2251.207    21239567.825    88059111.00906
      1750.937  
  22007382.109   117765971.69008      2463.780    22007386.872    91595766.26507
      1916.272  
  22011854.952   117542078.35004     -1764.917    22011859.580    91421634.52505
     -1372.719  
  19889532.881   106320992.69009      1618.164    19889537.045    82694137.65308
      1258.565  
  20721233.985   110805751.67205     -1973.062    20721238.990    86182278.30107
     -1534.608  
 20 09 30 07 29 40.0000000  0 16G15G18G20G 8G21G27G24G10G13R 4R15R14
                                R21R13R 5R20
  21224176.750   111533798.61349     -2473.753    21224176.348    86909454.93548
     -1927.604  
  21528071.004   113130764.72848     -2665.960    21528071.371    88153840.50547
     -2077.375  
  20029843.267   105257547.48749       665.858    20029842.531    82018865.45648
       518.851  
  24596574.374   129255865.27245       209.820    24596577.007   100718864.78544
       163.534  
  24768284.802   130158212.06645      2703.402    24768285.615   101421996.08344
      2106.543  
  24228336.284   127320760.70446     -1606.883    24228339.540    99211000.69945
     -1252.117  
  20994584.140   110327304.36948      1741.824    20994586.963    85969354.28748
      1357.266  
  22049070.470   115868668.36749      2582.137    22049072.349    90287295.16747
      2012.055  
  23785693.261   124994659.95246     -3480.043    23785694.807    97398440.63743
     -2711.727  
  20007243.491   107137880.49608     -1810.882    20007246.890    83329473.52908
     -1408.468  
  23557143.337   125882238.37006      4421.964    23557149.173    97908426.63207
      3439.304  
  21237451.340   113207597.69906      2247.809    21237457.830    88050363.07706
      1748.296  
  22005081.702   117753661.52608      2460.047    22005086.235    91586191.69007
      1913.370  
  22013508.785   117550909.31804     -1768.597    22013513.495    91428503.05805
     -1375.578  
  19888020.246   106312906.50709      1616.238    19888024.439    82687848.39808
      1257.069  
  20723080.784   110815627.52205     -1977.620    20723085.745    86189959.50607
     -1538.152  
 20 09 30 07 29 45.0000000  0 16G15G18G20G 8G21G27G24G10G13R 4R15R14
                                R21R13R 5R20
  21226531.443   111546172.04449     -2475.175    21226531.088    86919096.57748
     -1928.706  
  21530608.742   113144100.72248     -2668.069    21530609.245    88164232.17547
     -2079.020  
  20029210.903   105254224.76549       663.554    20029210.315    82016276.32348
       517.054  
  24596376.236   129254824.23644       207.780    24596379.228   100718053.60244
       161.901  
  24765713.368   130144699.12345      2701.957    24765714.216   101411466.50943
      2105.414  
  24229866.597   127328802.64946     -1609.429    24229870.042    99217267.16045
     -1254.101  
  20992928.349   110318603.06248      1738.961    20992931.243    85962574.04548
      1355.031  
  22046614.181   115855760.67049      2581.214    22046615.973    90277237.21847
      2011.332  
  23789004.667   125012060.63346     -3480.503    23789006.162    97411999.61444
     -2712.081  
  20008935.155   107146939.86908     -1812.438    20008938.674    83336519.71708
     -1409.672  
  23553006.366   125860130.11806      4421.570    23553011.636    97891231.32206
      3438.999  
  21235344.898   113196369.65006      2244.145    21235351.492    88041630.11907
      1745.441  
  22002784.829   117741370.93308      2456.582    22002789.428    91576632.33507
      1910.672  
  22015166.348   117559761.45504     -1772.461    22015171.291    91435388.05305
     -1378.586  
  19886509.652   106304831.01809      1614.276    19886513.790    82681567.46508
      1255.613  
  20724931.631   110825524.95805     -1981.363    20724936.646    86197657.51207
     -1541.063  
 20 09 30 07 29 50.0000000  0 16G15G18G20G 8G21G27G24G10G13R 4R15R14
                                R21R13R 5R20
  21228887.456   111558553.78949     -2477.227    21228887.285    86928744.68548
     -1930.308  
  21533148.779   113157448.14648     -2670.727    21533149.054    88174632.76947
     -2081.089  
  20028580.985   105250914.30449       660.809    20028580.304    82013696.75148
       514.914  
  24596180.902   129253798.37345       203.539    24596184.068   100717254.23545
       158.597  
  24763143.051   130131192.14245      2700.640    24763143.735   101400941.63244
      2104.397  
  24231399.307   127336857.62446     -1612.269    24231402.754    99223543.76543
     -1256.316  
  20991275.408   110309917.23948      1735.684    20991278.205    85955805.88048
      1352.480  
  22044159.016   115842858.62749      2579.780    22044160.543    90267183.67447
      2010.246  
  23792316.454   125029463.56546     -3480.781    23792317.913    97425560.30544
     -2712.304  
  20010628.720   107156008.27508     -1814.667    20010632.125    83343572.91208
     -1411.414  
  23548869.450   125838023.38006      4421.343    23548874.481    97874037.22306
      3438.827  
  21233241.781   113185159.94606      2239.913    21233248.513    88032911.46507
      1742.152  
  22000491.504   117729098.92108      2452.496    22000496.026    91567087.43607
      1907.491  
  22016827.826   117568633.59604     -1776.074    22016832.674    91442288.60205
     -1381.390  
  19885000.732   106296765.22209      1612.093    19885005.066    82675294.06708
      1253.851  
  20726786.503   110835442.97905     -1985.464    20726791.389    86205371.53107
     -1544.250  
 20 09 30 07 29 55.0000000  0 16G15G18G20G 8G21G27G24G10G13R 4R15R14
                                R21R13R 5R20
  21231245.568   111570945.65949     -2479.437    21231245.429    86938400.67548
     -1932.031  
  21535691.091   113170808.77148     -2673.456    21535691.548    88185043.63847
     -2083.218  
  20027953.578   105247617.85449       657.859    20027953.216    82011128.08748
       512.617  
  24595988.702   129252789.42244       199.937    24595992.398   100716468.03746
       155.727  
  24760574.080   130117692.95145      2698.680    24760575.035   101390422.76643
      2102.871  
  24232934.918   127344927.50446     -1615.469    24232938.443    99229831.96944
     -1258.812  
  20989625.714   110301248.65948      1731.862    20989628.833    85949051.13648
      1349.499  
  22041705.388   115829964.07149      2578.022    22041706.603    90257135.98147
      2008.848  
  23795629.003   125046870.43946     -3481.511    23795630.393    97439124.10544
     -2712.870  
  20012324.132   107165087.47008     -1817.074    20012327.734    83350634.50008
     -1413.285  
  23544733.147   125815919.91906      4420.301    23544737.823    97856845.66006
      3438.016  
  21231142.696   113173970.32506      2235.925    21231149.354    88024208.42707
      1739.050  
  21998202.104   117716847.34408      2448.105    21998206.529    91557558.44507
      1904.082  
  22018493.352   117577527.75204     -1780.464    22018498.343    91449206.29605
     -1384.805  
  19883494.051   106288711.05509      1609.563    19883498.226    82669029.72008
      1251.883  
  20728645.532   110845383.48105     -1989.976    20728650.432    86213103.02907
     -1547.761  
 20 09 30 07 30  0.0000000  0 16G15G18G20G 8G21G27G24G10G13R 4R15R14
                                R21R13R 5R20
  21233605.185   111583345.62149     -2480.762    21233605.082    86948062.99648
     -1933.063  
  21538235.711   113184180.62348     -2675.464    21538236.158    88195463.26547
     -2084.777  
  20027328.621   105244333.46249       655.637    20027328.071    82008568.81748
       510.883  
  24595799.341   129251795.38244       197.793    24595802.983   100715693.44545
       154.108  
  24758006.537   130104199.57845      2697.875    24758007.263   101379908.45044
      2102.250  
  24234473.018   127353010.23945     -1617.871    24234476.732    99236130.19346
     -1260.683  
  20987979.062   110292595.51148      1729.190    20987982.152    85942308.43748
      1347.421  
  22039252.746   115817075.03749      2577.249    22039253.949    90247092.58347
      2008.242  
  23798941.934   125064279.41346     -3482.101    23798942.911    97452689.59744
     -2713.315  
  20014021.255   107174175.39308     -1818.449    20014024.795    83357702.88508
     -1414.352  
  23540597.350   125793817.84606      4420.323    23540601.610    97839655.16406
      3438.030  
  21229046.815   113162798.94506      2232.418    21229053.556    88015519.60807
      1736.324  
  21995916.084   117704614.14408      2444.852    21995920.367    91548043.73907
      1901.550  
  22020162.713   117586441.98604     -1784.488    22020167.647    91456139.58605
     -1387.937  
  19881989.077   106280666.45309      1607.914    19881993.290    82662772.82008
      1250.582  
  20730508.199   110855344.46805     -1994.339    20730513.146    86220850.45007
     -1551.155  
 20 09 30 07 30  5.0000000  0 16G15G18G20G 8G21G27G24G10G13R 4R15R14
                                R21R13R 5R20
  21235966.548   111595754.42149     -2482.609    21235966.664    86957732.18748
     -1934.503  
  21540782.597   113197564.44448     -2677.906    21540782.962    88205892.22147
     -2086.684  
  20026705.966   105241061.88749       653.109    20026705.603    82006019.53948
       508.918  
  24595613.048   129250817.09344       194.690    24595617.045   100714931.15145
       151.602  
  24755440.071   130090712.73845      2697.090    24755440.644   101369399.29145
      2101.641  
  24236013.483   127361106.53546     -1620.804    24236017.420    99242438.96044
     -1262.969  
  20986335.485   110283958.32748      1725.897    20986338.605    85935578.16848
      1344.854  
  22036801.217   115804192.26049      2575.839    22036802.581    90237054.04747
      2007.147  
  23802255.514   125081691.08246     -3482.405    23802256.293    97466257.05843
     -2713.574  
  20015720.087   107183272.97008     -1820.383    20015723.716    83364778.77108
     -1415.855  
  23536461.896   125771717.76606      4420.031    23536465.836    97822466.21406
      3437.801  
  21226954.747   113151646.51606      2228.468    21226961.418    88006845.49407
      1733.249  
  21993633.673   117692400.06308      2440.772    21993637.831    91538543.90807
      1898.379  
  22021835.785   117595376.87903     -1789.526    22021840.824    91463088.93205
     -1391.859  
  19880486.145   106272632.23009      1605.702    19880490.292    82656523.97708
      1248.874  
  20732374.696   110865326.65405     -1998.246    20732379.904    86228614.37607
     -1554.195  
