     2.11           OBSERVATION DATA    M                   RINEX VERSION / TYPE
LEICA GEO OFFICE 8.4                    30-9-20 21:26       PGM / RUN BY / DATE
                                                            OBSERVER / AGENCY
SAYA                                                        MARKER NAME
SAYA                                                        MARKER NUMBER
352348              LEICA GX1220GG      4.10                REC # / TYPE / VERS
                    LEIAX1202GG                             ANT # / TYPE
 -1197356.7969  3781141.3944  4979341.0668                  APPROX POSITION XYZ
        1.8580        0.0000        0.0000                  ANTENNA: DELTA H/E/N
L1PhaOff:   0.0644  L2PhaOff:   0.0640                      COMMENT
     1     1                                                WAVELENGTH FACT L1/2
     6    C1    L1    D1    P2    L2    D2                  # / TYPES OF OBSERV
  2020     9    30     5    39   45.0000000     GPS         TIME OF FIRST OBS
  2020     9    30     7    10   45.0000000     GPS         TIME OF LAST OBS
    18                                                      LEAP SECONDS
    21                                                      # OF SATELLITES
          C1    L1    D1    P2    L2    D2                  COMMENT
   G 1     0     0     0     0     0     0                  PRN / # OF OBS
   G 2     0     0     0     0     0     0                  PRN / # OF OBS
   G 3     0     0     0     0     0     0                  PRN / # OF OBS
   G 4     0     0     0     0     0     0                  PRN / # OF OBS
   G 5   483   483   483   462   462   462                  PRN / # OF OBS
   G 6     0     0     0     0     0     0                  PRN / # OF OBS
   G 7     0     0     0     0     0     0                  PRN / # OF OBS
   G 8    24    24    24    23    23    23                  PRN / # OF OBS
   G 9     0     0     0     0     0     0                  PRN / # OF OBS
   G10   804   804   804   803   803   803                  PRN / # OF OBS
   G11     0     0     0     0     0     0                  PRN / # OF OBS
   G12     0     0     0     0     0     0                  PRN / # OF OBS
   G13  1093  1093  1093  1093  1093  1093                  PRN / # OF OBS
   G14     0     0     0     0     0     0                  PRN / # OF OBS
   G15  1093  1093  1093  1093  1093  1093                  PRN / # OF OBS
   G16     0     0     0     0     0     0                  PRN / # OF OBS
   G17     0     0     0     0     0     0                  PRN / # OF OBS
   G18  1093  1093  1093  1093  1093  1093                  PRN / # OF OBS
   G19     0     0     0     0     0     0                  PRN / # OF OBS
   G20  1093  1093  1093  1093  1093  1093                  PRN / # OF OBS
   G21     0     0     0     0     0     0                  PRN / # OF OBS
   G22     0     0     0     0     0     0                  PRN / # OF OBS
   G23     0     0     0     0     0     0                  PRN / # OF OBS
   G24   913   913   913   913   913   913                  PRN / # OF OBS
   G25     0     0     0     0     0     0                  PRN / # OF OBS
   G26     0     0     0     0     0     0                  PRN / # OF OBS
   G27   990   990   990   986   986   986                  PRN / # OF OBS
   G28     0     0     0     0     0     0                  PRN / # OF OBS
   G29   354   354   354   354   354   354                  PRN / # OF OBS
   G30   362   362   362   352   352   352                  PRN / # OF OBS
   G31     0     0     0     0     0     0                  PRN / # OF OBS
   G32     0     0     0     0     0     0                  PRN / # OF OBS
   R 1     0     0     0     0     0     0                  PRN / # OF OBS
   R 2     0     0     0     0     0     0                  PRN / # OF OBS
   R 3  1093  1093  1093  1093  1093  1093                  PRN / # OF OBS
   R 4  1093  1093  1093  1093  1093  1093                  PRN / # OF OBS
   R 5  1070  1070  1070  1068  1068  1068                  PRN / # OF OBS
   R 6     0     0     0     0     0     0                  PRN / # OF OBS
   R 7     0     0     0     0     0     0                  PRN / # OF OBS
   R 8     0     0     0     0     0     0                  PRN / # OF OBS
   R 9     0     0     0     0     0     0                  PRN / # OF OBS
   R10     0     0     0     0     0     0                  PRN / # OF OBS
   R11     0     0     0     0     0     0                  PRN / # OF OBS
   R12   797   797   797   793   793   793                  PRN / # OF OBS
   R13   597   597   597   597   597   597                  PRN / # OF OBS
   R14   238   238   238   226   226   226                  PRN / # OF OBS
   R15     0     0     0     0     0     0                  PRN / # OF OBS
   R16     0     0     0     0     0     0                  PRN / # OF OBS
   R17     0     0     0     0     0     0                  PRN / # OF OBS
   R18   460   460   460   460   460   460                  PRN / # OF OBS
   R19   957   957   957   948   948   948                  PRN / # OF OBS
   R20  1091  1091  1091  1091  1091  1091                  PRN / # OF OBS
   R21   212   212   212   211   211   211                  PRN / # OF OBS
   R22     0     0     0     0     0     0                  PRN / # OF OBS
   R23     0     0     0     0     0     0                  PRN / # OF OBS
   R24     0     0     0     0     0     0                  PRN / # OF OBS
                                                            END OF HEADER
 20 09 30 05 39 45.0000000  0 12G15G18G20G29G 5G30G13R 4R 3R18R12R19
  20189011.364   106093969.73359      1158.277    20189011.518    82670627.34958
       902.551  
  20638267.441   108454827.97459      1322.663    20638267.486    84510255.71758
      1030.645  
  22544509.652   118472198.12558      2961.894    22544508.864    92315993.62255
      2307.965  
  23520879.049   123603056.59257     -3498.030    23520878.214    96314065.99055
     -2725.741  
  22804287.586   119837336.53557     -3020.468    22804287.694    93379743.10057
     -2353.616  
  24031953.542   126288767.68257     -1290.965    24031956.191    98406840.21255
     -1005.940  
  20622462.576   108371772.69459      -958.191    20622462.163    84445535.24757
      -746.647  
  19673088.918   105348495.73919      1472.699    19673091.174    81937729.83518
      1145.433  
  20021139.130   107174722.53919     -2176.296    20021142.604    83358135.78518
     -1692.679  
  21710600.607   115892655.02017     -4127.375    21710607.581    90138762.12417
     -3210.183  
  22611245.701   120785215.57217       406.719    22611250.979    93944080.57817
       316.336  
  19528891.427   104466398.63316      -923.823    19528893.675    81251653.53417
      -718.534  
 20 09 30 05 39 50.0000000  0 12G15G18G20G29G 5G30G13R 4R 3R18R12R19
  20187913.204   106088198.79649      1150.938    20187913.339    82666130.51948
       896.835  
  20637012.650   108448233.60049      1315.819    20637012.741    84505117.24748
      1025.316  
  22541694.305   118457403.34248      2956.766    22541693.662    92304465.21646
      2303.969  
  23524210.249   123620561.76147     -3503.543    23524209.412    96327706.37345
     -2730.042  
  22807164.061   119852452.07647     -3025.315    22807163.618    93391521.43247
     -2357.395  
  24033185.552   126295241.03247     -1297.699    24033187.853    98411884.35245
     -1011.203  
  20623378.132   108376583.75549      -965.582    20623377.701    84449284.13147
      -752.402  
  19671717.421   105341151.65409      1465.651    19671719.681    81932017.77208
      1139.949  
  20023175.252   107185622.46908     -2182.707    20023178.830    83366613.52708
     -1697.659  
  21714469.732   115913309.23707     -4133.499    21714476.657    90154826.49607
     -3214.949  
  22610869.466   120783205.38207       398.296    22610874.611    93942517.11506
       309.784  
  19529759.286   104471039.40606      -932.297    19529761.542    81255263.02507
      -725.125  
 20 09 30 05 39 55.0000000  0 13G15G18G20G29G 5G30G13R 4R 3R18R12R20
                                R19
  20186816.717   106082436.50349      1150.660    20186816.895    82661640.42048
       896.613  
  20635758.979   108441645.72949      1315.894    20635758.989    84499983.84248
      1025.366  
  22538878.268   118442605.78148      2958.648    22538877.690    92292934.65646
      2305.440  
  23527541.322   123638065.47847     -3501.679    23527539.864    96341345.61245
     -2728.586  
  22810039.677   119867564.88447     -3022.929    22810039.183    93403297.64247
     -2355.531  
  24034418.736   126301721.73547     -1298.116    24034421.211    98416934.21345
     -1011.530  
  20624295.368   108381403.48849      -965.835    20624294.720    84453039.76347
      -752.601  
  19670347.188   105333814.02609      1465.776    19670349.423    81926310.72408
      1140.051  
  20025211.959   107196525.74708     -2182.145    20025215.532    83375093.84808
     -1697.227  
  21718339.675   115933966.03407     -4132.676    21718346.240    90170892.88307
     -3214.309  
  22610495.688   120781209.57407       396.574    22610500.686    93940964.83406
       308.351  
  21932372.891   117282252.40915      3516.413    21932379.263    91219556.04717
      2734.987  
  19530629.811   104475695.75306      -933.715    19530632.071    81258884.62607
      -726.226  
 20 09 30 05 40  0.0000000  0 13G15G18G20G29G 5G30G13R 4R 3R18R12R20
                                R19
  20185725.195   106076700.01549      1144.526    20185725.318    82657170.43948
       891.840  
  20634509.818   108435081.53049      1310.246    20634509.853    84494868.89948
      1020.973  
  22536065.144   118427822.65648      2954.854    22536064.742    92281415.35446
      2302.484  
  23530875.255   123655584.97747     -3505.715    23530873.842    96354997.16546
     -2731.729  
  22812918.534   119882692.22347     -3026.843    22812917.615    93415085.18247
     -2358.578  
  24035656.768   126308226.91847     -1303.468    24035659.375    98422003.19445
     -1015.694  
  20625217.556   108386249.08649      -972.137    20625216.882    84456815.54947
      -757.511  
  19668981.287   105326500.40609      1460.210    19668983.859    81920622.35508
      1135.715  
  20027252.510   107207449.63208     -2187.086    20027256.402    83383590.17908
     -1701.070  
  21722213.133   115954642.87807     -4137.671    21722219.733    90186974.87507
     -3218.190  
  22610128.101   120779245.67507       389.358    22610133.212    93939437.35006
       302.831  
  21929086.835   117264684.51605      3510.589    21929094.076    91205892.13207
      2730.456  
  19531506.337   104480385.13706      -941.305    19531508.821    81262531.91907
      -732.129  
 20 09 30 05 40  5.0000000  0 14G15G18G20G29G 5G30G13R 4R 3R18R12R 5
                                R20R19
  20184637.284   106070983.91249      1141.726    20184637.673    82652716.34148
       889.655  
  20633264.137   108428535.53149      1307.843    20633264.349    84489768.11448
      1019.097  
  22533253.763   118413048.46648      2954.539    22533253.281    92269902.98646
      2302.233  
  23534211.176   123673114.76847     -3506.444    23534209.863    96368656.76844
     -2732.297  
  22815798.759   119897828.53247     -3027.741    22815797.850    93426879.70247
     -2359.285  
  24036898.524   126314751.20546     -1306.133    24036901.060    98427087.06345
     -1017.766  
  20626143.569   108391115.06649      -974.727    20626142.964    84460607.23247
      -759.526  
  19667618.897   105319205.27409      1457.667    19667621.666    81914948.37008
      1133.742  
  20029295.828   107218388.70408     -2188.687    20029299.948    83392098.36608
     -1702.312  
  21726089.538   115975334.11407     -4139.226    21726096.221    90203068.05507
     -3219.401  
  22609765.696   120777308.08307       385.612    22609770.348    93937930.33406
       299.917  
  23303736.863   124571832.31815      3689.133           0.000           0.0000 
         0.000  
  21925804.605   117247133.89305      3508.930    21925812.031    91192241.65607
      2729.167  
  19532388.081   104485101.87206      -945.819    19532390.670    81266200.49107
      -735.640  
 20 09 30 05 40 10.0000000  0 14G15G18G20G29G 5G30G13R 4R 3R18R12R 5
                                R20R19
  20183552.786   106065284.17649      1138.229    20183552.921    82648274.99248
       886.933  
  20632021.152   108422003.72349      1304.789    20632021.287    84484678.39048
      1016.714  
  22530443.289   118398279.23348      2952.965    22530442.975    92258394.50446
      2301.011  
  23537548.208   123690650.70847     -3507.800    23537546.898    96382321.11846
     -2733.354  
  22818679.904   119912969.86647     -3029.249    22818679.366    93438678.12246
     -2360.456  
  24038142.862   126321290.49647     -1309.374    24038145.311    98432182.62645
     -1020.296  
  20627072.583   108395997.37949      -978.147    20627071.956    84464411.64347
      -762.194  
  19666259.136   105311924.50309      1454.683    19666262.034    81909285.55008
      1131.418  
  20031341.302   107229338.72508     -2191.094    20031345.733    83400615.03708
     -1704.187  
  21729967.492   115996035.67507     -4141.542    21729974.102    90219169.26407
     -3221.202  
  22609407.173   120775392.67307       380.608    22609411.417    93936440.56606
       296.026  
  23300287.040   124553389.41705      3687.277    23300293.761    96874879.19713
      2867.883  
  21922525.334   117229596.47005      3505.913    21922532.707    91178601.43607
      2726.819  
  19533274.553   104489842.02306      -950.301    19533276.858    81269887.27207
      -739.125  
 20 09 30 05 40 15.0000000  0 14G15G18G20G29G 5G30G13R 4R 3R18R12R 5
                                R20R19
  20182471.330   106059601.11849      1135.132    20182471.600    82643846.63548
       884.519  
  20630781.018   108415486.46449      1302.202    20630781.178    84479600.00648
      1014.698  
  22527633.796   118383515.24648      2952.418    22527633.560    92246890.10646
      2300.586  
  23540886.686   123708193.24848     -3509.074    23540885.043    96395990.60945
     -2734.347  
  22821562.004   119928116.49547     -3029.762    22821561.558    93450480.68446
     -2360.858  
  24039390.321   126327845.09147     -1312.354    24039392.866    98437290.09045
     -1022.612  
  20628004.823   108400896.33549      -981.355    20628004.374    84468229.01947
      -764.691  
  19664902.165   105304658.36409      1451.878    19664905.233    81903634.11408
      1129.233  
  20033389.076   107240300.17908     -2193.293    20033393.410    83409140.61108
     -1705.898  
  21733847.569   116016747.97507     -4143.285    21733854.033    90235278.82907
     -3222.559  
  22609052.932   120773499.75307       376.328    22609057.070    93934968.31306
       292.699  
  23296837.615   124534951.82505      3687.468    23296843.970    96860538.83004
      2868.026  
  21919248.155   117212072.63705      3503.977    21919255.587    91164971.78907
      2725.315  
  19534164.904   104494605.80106      -955.042    19534167.404    81273592.43407
      -742.815  
 20 09 30 05 40 20.0000000  0 14G15G18G20G29G 5G30G13R 4R 3R18R12R 5
                                R20R19
  20181392.570   106053932.54149      1132.370    20181392.961    82639429.56848
       882.366  
  20629543.147   108408981.53249      1299.886    20629543.248    84474531.23548
      1012.897  
  22524824.841   118368754.33648      2951.929    22524824.647    92235388.10746
      2300.202  
  23544225.772   123725740.07447     -3509.602    23544224.151    96409663.45045
     -2734.757  
  22824444.776   119943266.16047     -3030.090    22824444.294    93462285.60046
     -2361.112  
  24040640.091   126334412.83347     -1314.965    24040642.540    98442407.82844
     -1024.648  
  20628939.744   108405809.72249      -983.961    20628939.269    84472057.63347
      -766.722  
  19663547.422   105297404.61709      1449.586    19663550.570    81897992.30608
      1127.452  
  20035438.230   107251270.71208     -2194.874    20035442.998    83417673.23808
     -1707.129  
  21737729.174   116037468.53007     -4144.805    21737735.725    90251394.80107
     -3223.745  
  22608702.524   120771627.18707       372.647    22608706.342    93933511.87606
       289.835  
  23293387.232   124516517.48404      3686.054    23293395.944    96846201.02003
      2866.930  
  21915972.713   117194559.91205      3501.637    21915980.608    91151350.79907
      2723.495  
  19535059.744   104499391.00106      -959.113    19535061.961    81277314.25607
      -745.977  
 20 09 30 05 40 25.0000000  0 14G15G18G20G29G 5G30G13R 4R 3R18R12R 5
                                R20R19
  20180316.838   106048279.50349      1128.680    20180317.262    82635024.60348
       879.487  
  20628307.753   108402489.99049      1296.593    20628307.795    84469472.88348
      1010.331  
  22522016.636   118353997.56148      2950.589    22522016.391    92223889.33346
      2299.160  
  23547565.802   123743292.30047     -3511.440    23547564.350    96423340.50445
     -2736.190  
  22827328.210   119958419.89647     -3031.714    22827327.924    93474093.70746
     -2362.374  
  24041892.704   126340994.70347     -1317.832    24041894.986    98447536.54245
     -1026.887  
  20629877.685   108410738.63649      -987.813    20629877.347    84475898.34347
      -769.726  
  19662195.434   105290164.44309      1446.229    19662198.467    81892361.06308
      1124.848  
  20037489.585   107262251.40108     -2197.621    20037494.210    83426213.78308
     -1709.262  
  21741612.545   116058198.51007     -4147.262    21741619.274    90267518.10907
     -3225.651  
  22608355.945   120769776.01207       367.644    22608360.231    93932072.08906
       285.945  
  23289938.897   124498087.50404      3684.559    23289948.185    96831866.60303
      2865.770  
  21912700.222   117177059.52105      3497.421    21912708.041    91137739.39807
      2720.219  
  19535958.152   104504198.78206      -963.961    19535960.598    81281053.64207
      -749.745  
 20 09 30 05 40 30.0000000  0 14G15G18G20G29G 5G30G13R 4R 3R18R12R 5
                                R20R19
  20179244.333   106042643.97849      1125.749    20179244.973    82630633.29048
       877.206  
  20627075.420   108396013.85349      1294.121    20627075.527    84464426.54948
      1008.406  
  22519209.605   118339246.88848      2950.105    22519209.422    92212395.29246
      2298.781  
  23550907.270   123760851.86648     -3512.332    23550905.898    96437023.27345
     -2736.886  
  22830213.009   119973579.68247     -3032.340    22830212.936    93485906.50546
     -2362.867  
  24043148.362   126347592.79547     -1320.757    24043150.395    98452677.88945
     -1029.164  
  20630819.041   108415685.05449      -990.609    20630818.572    84479752.69247
      -771.905  
  19660846.151   105282939.78009      1443.676    19660848.975    81886741.88208
      1122.859  
  20039543.178   107273244.28808     -2199.456    20039547.818    83434763.80208
     -1710.691  
  21745497.983   116078939.99407     -4148.910    21745504.731    90283650.36607
     -3226.934  
  22608013.849   120767948.34407       363.698    22608018.145    93930650.56006
       283.008  
  23286491.221   124479663.76004      3684.441    23286502.315    96817537.00403
      2865.675  
  21909430.514   117159573.67404      3496.995    21909437.920    91124139.29807
      2719.887  
  19536861.589   104509031.15606      -968.336    19536864.073    81284812.16007
      -753.148  
 20 09 30 05 40 35.0000000  0 14G15G18G20G29G 5G30G13R 4R 3R18R12R 5
                                R20R19
  20178174.703   106037022.94449      1122.133    20178175.350    82626253.26848
       874.391  
  20625845.517   108389550.10449      1291.047    20625845.457    84459389.86448
      1006.008  
  22516403.354   118324499.31348      2948.660    22516402.932    92200903.68846
      2297.656  
  23554249.626   123778415.75047     -3513.750    23554248.195    96450709.38846
     -2737.995  
  22833098.300   119988742.58147     -3033.578    22833098.288    93497721.72746
     -2363.836  
  24044406.643   126354204.01347     -1324.371    24044408.529    98457829.48645
     -1031.980  
  20631762.886   108420645.93449      -994.222    20631762.719    84483618.31347
      -774.723  
  19659499.393   105275727.60609      1440.698    19659502.123    81881132.41708
      1120.543  
  20041598.460   107284246.18608     -2201.847    20041603.147    83443320.83308
     -1712.551  
  21749385.211   116099689.81007     -4151.425    21749392.003    90299789.13207
     -3228.886  
  22607675.615   120766141.02707       358.645    22607679.935    93929244.84806
       279.098  
  23283045.358   124461243.33804      3683.430    23283056.021    96803209.99004
      2864.883  
  21906162.952   117142099.14505      3492.933    21906169.900    91110548.00107
      2716.726  
  19537768.727   104513884.88606      -973.484    19537771.435    81288587.28807
      -757.155  
 20 09 30 05 40 40.0000000  0 13G15G18G20G29G 5G30G13R 4R 3R18R12R20
                                R19
  20177108.507   106031419.10649      1119.358    20177108.899    82621886.64448
       872.227  
  20624618.287   108383101.43849      1288.382    20624618.331    84454364.92848
      1003.929  
  22513598.080   118309757.55948      2947.984    22513597.709    92189416.61246
      2297.129  
  23557593.195   123795986.60847     -3514.589    23557591.604    96464400.96546
     -2738.645  
  22835984.844   120003911.22347     -3034.043    22835984.811    93509541.43246
     -2364.190  
  24045667.746   126360831.02547     -1326.594    24045669.668    98462993.39045
     -1033.715  
  20632710.157   108425623.94049      -997.031    20632710.018    84487497.28547
      -776.905  
  19658155.392   105268530.60409      1438.120    19658157.946    81875534.74908
      1118.534  
  20043655.975   107295260.07108     -2203.690    20043660.863    83451887.17708
     -1713.983  
  21753274.443   116120450.76507     -4152.878    21753281.167    90315936.53207
     -3230.020  
  22607341.566   120764356.69307       355.159    22607346.223    93927857.01506
       276.229  
  21902897.717   117124638.68905      3490.851    21902904.396    91096967.63507
      2715.102  
  19538680.532   104518762.86706      -977.867    19538683.368    81292381.27307
      -760.566  
 20 09 30 05 40 45.0000000  0 13G15G18G20G29G 5G30G13R 4R 3R18R12R20
                                R19
  20176044.961   106025830.32249      1116.120    20176045.360    82617531.75548
       869.702  
  20623393.507   108376665.67549      1285.738    20623393.875    84449350.04848
      1001.871  
  22510793.551   118295019.41048      2947.124    22510793.187    92177932.34645
      2296.456  
  23560937.697   123813562.26947     -3515.640    23560936.371    96478096.28846
     -2739.460  
  22838871.999   120019083.44747     -3034.819    22838871.897    93521363.94346
     -2364.800  
  24046931.263   126367471.69547     -1329.534    24046933.085    98468167.96345
     -1035.995  
  20633660.292   108430616.89949     -1000.093    20633660.025    84491387.90347
      -779.293  
  19656813.780   105261346.67609      1435.359    19656816.473    81869947.24708
      1116.386  
  20045715.223   107306283.45108     -2205.828    20045720.042    83460460.92108
     -1715.644  
  21757165.424   116141220.46107     -4154.968    21757171.980    90332090.71707
     -3231.648  
  22607011.515   120762593.34007       350.636    22607016.120    93926485.51906
       272.718  
  21899634.812   117107190.21705      3488.480    21899641.316    91083396.60207
      2713.261  
  19539596.531   104523662.72106      -982.176    19539599.441    81296192.26807
      -763.917  
 20 09 30 05 40 50.0000000  0 13G15G18G20G29G 5G30G13R 4R 3R18R12R20
                                R19
  20174984.466   106020257.25749      1112.922    20174984.992    82613189.10148
       867.206  
  20622171.433   108370243.53649      1282.976    20622171.632    84444345.79148
       999.723  
  22507989.750   118280285.58748      2946.206    22507989.409    92166451.43446
      2295.741  
  23564283.125   123831143.45747     -3517.077    23564281.879    96491795.89746
     -2740.589  
  22841759.927   120034259.95647     -3035.976    22841759.941    93533189.81146
     -2365.698  
  24048197.584   126374126.66747     -1332.410    24048199.444    98473353.64945
     -1038.245  
  20634613.444   108435625.49549     -1003.270    20634613.183    84495290.70947
      -781.770  
  19655474.772   105254176.44709      1432.578    19655477.470    81864370.40808
      1114.226  
  20047776.483   107317317.06808     -2207.749    20047781.342    83469042.62708
     -1717.141  
  21761058.082   116161999.70307     -4156.891    21761064.693    90348252.35107
     -3233.141  
  22606685.392   120760851.59007       346.117    22606690.163    93925130.81606
       269.163  
  21896374.253   117089754.32305      3485.887    21896380.631    91069835.37307
      2711.246  
  19540516.767   104528585.36206      -986.784    19540519.599    81300020.98107
      -767.504  
 20 09 30 05 40 55.0000000  0 13G15G18G20G29G 5G30G13R 4R 3R18R12R20
                                R19
  20173927.016   106014700.10449      1109.851    20173927.289    82608858.85848
       864.816  
  20620951.980   108363835.20749      1280.184    20620952.282    84439352.29048
       997.546  
  22505186.923   118265556.31948      2945.308    22505186.584    92154974.08645
      2295.046  
  23567629.686   123848730.28347     -3518.190    23567628.682    96505499.90346
     -2741.452  
  22844648.745   120049440.86147     -3036.628    22844648.999    93545019.05546
     -2366.211  
  24049466.754   126380796.16747     -1335.391    24049468.414    98478550.64944
     -1040.563  
  20635569.496   108440649.92849     -1006.641    20635569.285    84499205.84947
      -784.397  
  19654138.328   105247020.03709      1429.754    19654141.137    81858804.31508
      1112.030  
  20049839.638   107328361.17208     -2209.964    20049844.509    83477632.47508
     -1718.867  
  21764952.604   116182788.76507     -4158.616    21764959.160    90364421.61107
     -3234.484  
  22606363.326   120759131.57707       341.647    22606368.382    93923793.04906
       265.726  
  21893115.933   117072331.24805      3483.500    21893122.439    91056284.07307
      2709.386  
  19541441.257   104533530.91306      -991.371    19541444.329    81303867.52607
      -771.069  
 20 09 30 05 41  0.0000000  0 14G15G18G20G29G 5G30G13R 4R 3R18R12R 5
                                R20R19
  20172872.235   106009157.94149      1106.598    20172872.756    82604540.28448
       862.280  
  20619734.847   108357439.78449      1277.394    20619735.151    84434368.84148
       995.371  
  22502384.654   118250830.67248      2944.237    22502384.307    92143499.57346
      2294.210  
  23570976.925   123866321.86447     -3519.391    23570976.301    96519207.62546
     -2742.387  
  22847538.346   120064625.25547     -3037.718    22847538.433    93556851.05446
     -2367.055  
  24050738.362   126387479.26447     -1338.199    24050740.133    98483758.28644
     -1042.758  
  20636528.578   108445689.28149     -1009.706    20636528.278    84503132.60947
      -786.788  
  19652804.207   105239876.59609      1426.973    19652807.212    81853248.31708
      1109.866  
  20051904.493   107339414.87709     -2212.133    20051909.350    83486229.79708
     -1720.551  
  21768848.754   116203586.39607     -4160.772    21768855.349    90380597.55407
     -3236.156  
  22606045.044   120757432.46907       337.312    22606050.231    93922471.49505
       262.351  
  23265827.910   124369181.55314      3677.858    23265837.826    96731631.35713
      2860.550  
  21889860.058   117054920.11905      3481.108    21889866.472    91042742.09507
      2707.530  
  19542370.087   104538498.21406      -995.847    19542372.852    81307730.97607
      -774.550  
 20 09 30 05 41  5.0000000  0 14G15G18G20G29G 5G30G13R 4R 3R18R12R 5
                                R20R19
  20171821.069   106003633.83849      1102.988    20171821.394    82600235.79048
       859.472  
  20618520.962   108351060.34149      1274.328    20618521.169    84429397.84948
       992.984  
  22499583.702   118236111.69448      2943.034    22499583.509    92132030.24246
      2293.272  
  23574325.921   123883921.11247     -3520.749    23574325.420    96532921.30245
     -2743.449  
  22850429.083   120079816.26947     -3038.719    22850429.113    93568688.18446
     -2367.839  
  24052012.992   126394178.98747     -1341.848    24052014.689    98488978.84545
     -1045.593  
  20637490.903   108450746.58349     -1013.257    20637490.636    84507073.36347
      -789.550  
  19651473.311   105232749.27109      1423.690    19651476.227    81847704.84408
      1107.315  
  20053971.936   107350481.15508     -2214.507    20053976.586    83494836.90208
     -1722.397  
  21772747.259   116224396.03707     -4163.355    21772753.784    90396782.81807
     -3238.167  
  22605731.349   120755757.32707       332.401    22605736.711    93921168.61506
       258.565  
  23262387.729   124350790.78104      3677.895    23262396.124    96717327.46701
      2860.594  
  21886607.071   117037524.06305      3477.569    21886613.147    91029211.81807
      2704.772  
  19543303.408   104543490.66706     -1001.277    19543306.161    81311613.99507
      -778.769  
 20 09 30 05 41 10.0000000  0 13G15G18G20G29G 5G30G13R 4R 3R18R12R20
                                R19
  20170772.931   105998125.40049      1100.094    20170773.190    82595943.50648
       857.215  
  20617309.547   108344694.46649      1271.727    20617309.858    84424437.42048
       990.952  
  22496783.696   118221397.00448      2942.543    22496783.425    92120564.24246
      2292.891  
  23577675.688   123901525.69647     -3521.405    23577675.528    96546639.15046
     -2743.957  
  22853320.574   120095011.47147     -3039.660    22853320.446    93580528.61747
     -2368.565  
  24053290.464   126400892.93046     -1344.465    24053292.331    98494210.48346
     -1047.641  
  20638456.270   108455819.43249     -1016.176    20638455.971    84511026.24947
      -791.824  
  19650144.815   105225635.54609      1421.301    19650147.853    81842171.93208
      1105.453  
  20056041.039   107361557.69308     -2216.312    20056045.686    83503451.98208
     -1723.800  
  21776647.200   116245214.97007     -4164.487    21776654.073    90412975.31407
     -3239.051  
  22605421.558   120754103.70107       328.633    22605427.203    93919882.46806
       255.602  
  21883356.340   117020140.56905      3474.918    21883362.531    91015691.34407
      2702.715  
  19544240.869   104548505.60806     -1005.081    19544243.717    81315514.49707
      -781.734  
 20 09 30 05 41 15.0000000  0 13G15G18G20G29G 5G30G13R 4R 3R18R12R20
                                R19
  20169727.850   105992633.05549      1096.593    20169727.894    82591663.75648
       854.484  
  20616100.773   108338342.56849      1268.648    20616100.993    84419487.88548
       988.554  
  22493984.244   118206686.96748      2941.116    22493984.135    92109101.89946
      2291.781  
  23581026.606   123919135.97947     -3523.074    23581026.516    96560361.41945
     -2745.257  
  22856213.062   120110211.19447     -3040.647    22856212.759    93592372.56146
     -2369.340  
  24054570.777   126407621.49146     -1347.656    24054572.667    98499453.55745
     -1050.116  
  20639424.694   108460908.19149     -1019.520    20639424.236    84514991.51047
      -794.434  
  19648818.979   105218535.88409      1418.218    19648822.102    81836649.97408
      1103.055  
  20058112.186   107372644.64308     -2218.668    20058116.981    83512075.17708
     -1725.628  
  21780549.216   116266043.75907     -4167.191    21780556.088    90429175.47507
     -3241.152  
  22605116.172   120752472.00607       323.707    22605121.778    93918613.38106
       251.855  
  21880108.235   117002770.24205      3472.770    21880114.306    91002181.09207
      2701.043  
  19545182.707   104553543.52306     -1010.194    19545185.370    81319432.88607
      -785.706  
 20 09 30 05 41 20.0000000  0 13G15G18G20G29G 5G30G13R 4R 3R18R12R20
                                R19
  20168685.820   105987157.34149      1093.640    20168685.792    82587396.96048
       852.184  
  20614894.846   108332005.22249      1266.195    20614895.073    84414549.68548
       986.641  
  22491186.127   118191982.23148      2940.691    22491185.973    92097643.67446
      2291.448  
  23584378.861   123936752.45147     -3523.769    23584378.807    96574088.55446
     -2745.792  
  22859106.496   120125416.07547     -3041.211    22859106.118    93604220.50746
     -2369.773  
  24055853.940   126414365.21546     -1350.163    24055855.871    98504708.40645
     -1052.074  
  20640396.138   108466013.44549     -1022.555    20640395.650    84518969.62847
      -796.800  
  19647495.935   105211450.75709      1415.805    19647499.252    81831139.32108
      1101.176  
  20060185.452   107383742.87408     -2220.434    20060190.222    83520707.12508
     -1727.008  
  21784453.085   116286882.87907     -4168.617    21784459.971    90445383.67407
     -3242.261  
  22604814.726   120750862.86307       319.582    22604820.520    93917361.82305
       248.577  
  21876862.361   116985413.43805      3470.405    21876868.536    90988681.33707
      2699.199  
  19546128.982   104558605.08506     -1014.882    19546131.567    81323369.65207
      -789.354  
 20 09 30 05 41 25.0000000  0 13G15G18G20G29G 5G30G13R 4R 3R18R12R20
                                R19
  20167646.457   105981695.79349      1091.171    20167646.586    82583141.21148
       850.261  
  20613691.049   108325679.94249      1264.034    20613691.352    84409620.89948
       984.961  
  22488388.416   118177280.31948      2940.323    22488388.309    92086187.64546
      2291.160  
  23587731.791   123954372.71847     -3524.301    23587731.876    96587818.65246
     -2746.206  
  22862000.290   120140623.59347     -3041.270    22862000.043    93616070.52346
     -2369.824  
  24057139.424   126421121.66546     -1352.358    24057141.659    98509973.14845
     -1053.788  
  20641370.257   108471132.72749     -1025.172    20641369.720    84522958.66147
      -798.840  
  19646175.105   105204377.77409      1413.530    19646178.500    81825638.12308
      1099.413  
  20062260.359   107394849.60708     -2221.902    20062264.902    83529345.69108
     -1728.148  
  21788358.476   116307729.68507     -4169.992    21788365.222    90461597.86407
     -3243.327  
  22604517.205   120749273.71407       316.105    22604523.087    93916125.81105
       245.909  
  21873618.653   116968067.80905      3468.699    21873624.932    90975190.30307
      2697.879  
  19547079.092   104563687.56306     -1018.331    19547081.578    81327322.69407
      -792.038  
 20 09 30 05 41 30.0000000  0 13G15G18G20G29G 5G30G13R 4R 3R18R12R20
                                R19
  20166609.933   105976248.82449      1087.313    20166609.843    82578896.82648
       847.258  
  20612489.928   108319367.16549      1260.645    20612490.090    84404701.86948
       982.320  
  22485591.304   118162581.61748      2938.757    22485591.348    92074734.08845
      2289.938  
  23591085.648   123971997.19847     -3525.938    23591085.815    96601552.00545
     -2747.483  
  22864894.852   120155834.08747     -3042.914    22864894.500    93627922.87146
     -2371.104  
  24058427.641   126427891.22947     -1355.745    24058429.821    98515248.14745
     -1056.429  
  20642347.237   108476266.44749     -1028.820    20642346.476    84526958.96847
      -801.679  
  19644856.673   105197317.28809      1410.198    19644859.884    81820146.63008
      1096.815  
  20064336.890   107405965.34508     -2224.530    20064341.453    83537991.26908
     -1730.194  
  21792265.347   116328584.79407     -4172.656    21792272.180    90477818.48607
     -3245.402  
  22604223.468   120747704.93607       311.198    22604229.519    93914905.67205
       242.042  
  21870377.246   116950733.86105      3465.145    21870383.466    90961708.35407
      2695.112  
  19548033.224   104568791.55706     -1023.711    19548035.660    81331292.45407
      -796.223  
 20 09 30 05 41 35.0000000  0 13G15G18G20G29G 5G30G13R 4R 3R18R12R20
                                R19
  20165576.857   105970819.81449      1084.172    20165576.788    82574666.42048
       844.805  
  20611291.654   108313070.28849      1257.944    20611292.000    84399795.20548
       980.215  
  22482795.505   118147889.43848      2937.905    22482795.338    92063285.64446
      2289.273  
  23594440.906   123989629.35547     -3526.917    23594440.907    96615291.35746
     -2748.249  
  22867790.654   120171051.06847     -3044.034    22867790.299    93639780.24646
     -2371.979  
  24059718.908   126434677.25847     -1358.694    24059720.944    98520535.95245
     -1058.727  
  20643327.450   108481417.93849     -1032.082    20643326.880    84530973.12247
      -804.222  
  19643541.080   105190272.81709      1407.534    19643544.422    81814667.59408
      1094.746  
  20066415.649   107417093.51308     -2226.609    20066420.132    83546646.51308
     -1731.813  
  21796174.473   116349451.44007     -4174.453    21796181.214    90494048.10206
     -3246.797  
  22603934.453   120746160.10307       306.336    22603940.492    93913704.12105
       238.258  
  21867138.605   116933414.83305      3462.203    21867144.582    90948237.98507
      2692.820  
  19548992.028   104573920.47806     -1028.073    19548994.333    81335281.62707
      -799.612  
 20 09 30 05 41 40.0000000  0 13G15G18G20G29G 5G30G13R 4R 3R18R12R20
                                R19
  20164546.611   105965405.92949      1081.022    20164546.414    82570447.80548
       842.352  
  20610095.861   108306786.48149      1255.229    20610096.103    84394898.73848
       978.102  
  22480000.459   118133201.02748      2936.956    22480000.277    92051840.11946
      2288.535  
  23597797.095   124007266.08847     -3527.867    23597797.036    96629034.23846
     -2748.992  
  22870686.984   120186271.57247     -3044.570    22870686.697    93651640.38446
     -2372.390  
  24061012.586   126441476.92547     -1361.293    24061014.963    98525834.40345
     -1060.746  
  20644310.719   108486584.39449     -1035.108    20644309.754    84534998.92147
      -806.582  
  19642228.090   105183241.34509      1404.874    19642231.339    81809198.67808
      1092.679  
  20068496.300   107428231.27508     -2228.753    20068500.739    83555309.22608
     -1733.477  
  21800085.070   116370326.85107     -4176.289    21800091.749    90510284.51207
     -3248.233  
  22603649.195   120744636.24207       302.371    22603654.930    93912518.93005
       235.176  
  21863902.320   116916108.11905      3460.066    21863908.326    90934777.20507
      2691.160  
  19549954.947   104579071.38306     -1032.839    19549957.164    81339287.88207
      -803.324  
 20 09 30 05 41 45.0000000  0 13G15G18G20G29G 5G30G13R 4R 3R18R12R20
                                R19
  20163519.614   105960008.49249      1077.761    20163519.508    82566242.01448
       839.812  
  20608902.896   108300517.09449      1252.344    20608903.173    84390013.48348
       975.848  
  22477206.169   118118517.68448      2936.218    22477205.933    92040398.56046
      2287.960  
  23601154.225   124024908.89547     -3529.199    23601154.014    96642781.87746
     -2750.027  
  22873584.459   120201497.06347     -3045.441    22873584.065    93663504.37546
     -2373.074  
  24062309.284   126448291.55547     -1364.628    24062311.784    98531144.47944
     -1063.351  
  20645297.044   108491767.13149     -1038.327    20645296.065    84539037.41547
      -809.089  
  19640917.756   105176224.31409      1401.789    19640920.926    81803740.98008
      1090.277  
  20070578.865   107439379.93808     -2230.968    20070583.245    83563980.40608
     -1735.198  
  21803997.733   116391212.37707     -4178.108    21804004.200    90526528.81607
     -3249.640  
  22603368.036   120743134.77807       297.733    22603373.980    93911351.12305
       231.565  
  21860668.387   116898815.04505      3457.202    21860674.454    90921327.05707
      2688.937  
  19550922.175   104584245.55706     -1037.270    19550924.548    81343312.23607
      -806.770  
 20 09 30 05 41 50.0000000  0 14G15G18G20G29G 5G30G13R 4R 3R18R12R 5
                                R20R19
  20162495.478   105954626.83849      1074.444    20162495.260    82562048.51848
       837.226  
  20607712.394   108294261.43249      1249.461    20607712.684    84385138.94448
       973.605  
  22474412.843   118103838.78448      2935.257    22474412.613    92028960.47346
      2287.214  
  23604512.471   124042556.94347     -3530.512    23604512.549    96656533.61046
     -2751.051  
  22876482.549   120216726.75347     -3046.805    22876482.144    93675371.67846
     -2374.132  
  24063608.701   126455120.47347     -1367.476    24063611.218    98536465.72645
     -1065.565  
  20646286.205   108496965.45949     -1041.542    20646285.321    84543088.06647
      -811.593  
  19639610.016   105169221.02409      1399.058    19639613.146    81798293.99708
      1088.156  
  20072663.461   107450538.81808     -2233.163    20072667.696    83572659.53108
     -1736.910  
  21807912.087   116412107.18507     -4180.031    21807918.591    90542780.32607
     -3251.141  
  22603091.041   120741654.90107       293.336    22603096.681    93910200.07905
       228.148  
  23231467.897   124185509.09314      3669.437           0.000           0.0000 
         0.000  
  21857436.822   116881534.79105      3454.331    21857442.792    90907886.85007
      2686.702  
  19551893.675   104589442.48906     -1042.105    19551896.077    81347354.30407
      -810.527  
 20 09 30 05 41 55.0000000  0 13G15G18G20G29G 5G30G13R 4R 3R18R12R20
                                R19
  20161474.583   105949261.53249      1071.844    20161474.210    82557867.76848
       835.203  
  20606524.735   108288020.05149      1247.203    20606525.105    84380275.53548
       971.848  
  22471620.490   118089164.86848      2934.729    22471620.281    92017526.28046
      2286.809  
  23607871.908   124060210.84247     -3530.870    23607872.013    96670289.86345
     -2751.336  
  22879381.717   120231961.26847     -3046.535    22879381.055    93687242.73646
     -2373.926  
  24064910.949   126461964.21146     -1369.832    24064913.593    98541798.51645
     -1067.402  
  20647278.389   108502179.92049     -1044.070    20647277.530    84547151.27947
      -813.566  
  19638304.919   105162232.09809      1396.812    19638308.268    81792858.16508
      1086.410  
  20074750.050   107461708.43208     -2234.613    20074754.343    83581347.01708
     -1738.030  
  21811828.102   116433011.92007     -4181.675    21811834.643    90559039.55006
     -3252.417  
  22602818.367   120740197.29307       289.813    22602823.633    93909066.41505
       225.410  
  21854207.734   116864267.93505      3452.953    21854214.003    90894457.09307
      2685.629  
  19552869.468   104594662.63706     -1046.120    19552871.918    81351414.40507
      -813.651  
 20 09 30 05 42  0.0000000  0 13G15G18G20G29G 5G30G13R 4R 3R18R12R20
                                R19
  20160456.315   105943910.21549      1068.484    20160455.867    82553697.91648
       832.585  
  20605339.154   108281790.62849      1244.332    20605339.693    84375421.44048
       969.609  
  22468828.722   118074493.58848      2933.620    22468828.390    92006094.10846
      2285.937  
  23611232.086   124077868.19647     -3532.245    23611232.181    96684048.84646
     -2752.398  
  22882281.278   120247198.18847     -3048.238    22882280.601    93699115.64146
     -2375.254  
  24066215.455   126468820.40646     -1372.848    24066218.165    98547140.95546
     -1069.758  
  20648273.452   108507408.16749     -1047.339    20648272.435    84551225.24947
      -816.109  
  19637001.833   105155254.94409      1393.875    19637005.311    81787431.48708
      1084.125  
  20076838.174   107472886.38808     -2236.909    20076842.188    83590040.95808
     -1739.823  
  21815745.759   116453924.10807     -4183.387    21815752.107    90575304.57306
     -3253.754  
  22602549.221   120738759.59608       285.121    22602554.159    93907948.19004
       221.710  
  21850980.951   116847012.28205      3449.577    21850987.133    90881036.03708
      2683.004  
  19553849.250   104599903.52706     -1050.711    19553851.564    81355490.65207
      -817.223  
 20 09 30 05 42  5.0000000  0 13G15G18G20G29G 5G30G13R 4R 3R18R12R20
                                R19
  20159441.107   105938575.85949      1065.395    20159440.909    82549541.27248
       830.171  
  20604156.636   108275576.14349      1241.563    20604157.015    84370578.97748
       967.449  
  22466037.867   118059827.92348      2932.741    22466037.545    91994666.31746
      2285.253  
  23614593.383   124095532.02147     -3533.348    23614593.549    96697812.86846
     -2753.262  
  22885181.770   120262440.50147     -3048.852    22885181.061    93710992.75945
     -2375.730  
  24067523.066   126475692.07146     -1375.749    24067525.795    98552495.51545
     -1072.011  
  20649271.552   108512653.09349     -1050.425    20649270.564    84555312.20147
      -818.511  
  19635701.746   105148292.78809      1391.230    19635705.221    81782016.47408
      1082.062  
  20078928.372   107484075.72008     -2238.746    20078932.443    83598743.77708
     -1741.245  
  21819665.096   116474846.79707     -4185.332    21819671.497    90591577.77807
     -3255.257  
  22602284.354   120737344.63208       280.987    22602288.790    93906847.65004
       218.542  
  21847756.664   116829770.57005      3447.168    21847762.698    90867625.82407
      2681.129  
  19554833.436   104605168.23006     -1054.984    19554835.797    81359585.41707
      -820.543  
 20 09 30 05 42 10.0000000  0 13G15G18G20G29G 5G30G13R 4R 3R18R12R20
                                R19
  20158429.506   105933259.32849      1061.395    20158429.164    82545398.53148
       827.063  
  20602977.018   108269377.45949      1237.969    20602977.484    84365748.83848
       964.647  
  22463248.324   118045168.74448      2930.879    22463247.911    91983243.57446
      2283.801  
  23617956.016   124113203.09347     -3535.625    23617956.337    96711582.51646
     -2755.035  
  22888083.537   120277689.16947     -3050.641    22888082.788    93722874.81345
     -2377.129  
  24068833.727   126482580.01747     -1379.098    24068836.491    98557862.75246
     -1074.624  
  20650272.899   108517915.67649     -1054.597    20650271.879    84559412.91847
      -821.766  
  19634404.637   105141346.42109      1387.430    19634408.010    81776613.75808
      1079.112  
  20081020.989   107495277.26008     -2241.789    20081025.129    83607456.09208
     -1743.612  
  21823586.731   116495780.84307     -4188.113    21823593.011    90607859.80206
     -3257.425  
  22602023.954   120735953.49507       275.585    22602028.183    93905765.64205
       214.339  
  21844535.157   116812544.06905      3443.753    21844541.281    90854227.44907
      2678.476  
  19555822.171   104610457.79606     -1060.823    19555824.596    81363699.52907
      -825.090  
 20 09 30 05 42 15.0000000  0 13G15G18G20G29G 5G30G13R 4R 3R18R12R20
                                R19
  20157420.944   105927959.63949      1058.172    20157420.560    82541268.90648
       824.551  
  20601800.267   108263193.61749      1235.227    20601800.883    84360930.26348
       962.516  
  22460459.848   118030515.11248      2930.070    22460459.531    91971825.18546
      2283.172  
  23621319.729   124130880.48846     -3536.098    23621320.385    96725357.10746
     -2755.406  
  22890986.237   120292943.08747     -3051.374    22890985.436    93734760.98545
     -2377.699  
  24070147.216   126489483.29346     -1382.433    24070149.940    98563241.91945
     -1077.227  
  20651277.467   108523194.84149     -1057.578    20651276.570    84563526.55347
      -824.085  
  19633110.153   105134414.89509      1384.757    19633113.665    81771222.57608
      1077.034  
  20083115.475   107506489.99008     -2243.616    20083119.709    83616177.10308
     -1745.039  
  21827510.471   116516725.22307     -4189.992    21827516.453    90624149.86407
     -3258.887  
  22601767.868   120734585.18507       271.230    22601771.955    93904701.42605
       211.007  
  21841316.188   116795331.67005      3440.690    21841322.486    90840840.03807
      2676.094  
  19556815.533   104615771.08006     -1065.090    19556817.955    81367832.07607
      -828.405  
 20 09 30 05 42 20.0000000  0 13G15G18G20G29G 5G30G13R 4R 3R18R12R20
                                R19
  20156415.625   105922676.09249      1055.109    20156415.140    82537151.84848
       822.159  
  20600626.180   108257023.93749      1232.473    20600626.715    84356122.70748
       960.362  
  22457672.131   118015866.28048      2929.262    22457671.898    91960410.51546
      2282.542  
  23624684.651   124148563.46447     -3537.272    23624685.454    96739136.06446
     -2756.315  
  22893889.674   120308201.53247     -3051.961    22893889.072    93746650.70246
     -2378.152  
  24071463.588   126496401.12247     -1385.034    24071466.389    98568632.43246
     -1079.253  
  20652285.087   108528489.92249     -1060.516    20652284.227    84567652.58647
      -826.378  
  19631818.472   105127497.50309      1382.101    19631821.912    81765842.37708
      1074.964  
  20085212.248   107517713.30409     -2245.526    20085216.180    83624906.33408
     -1746.522  
  21831435.905   116537679.27007     -4191.683    21831441.882    90640447.45407
     -3260.202  
  22601515.755   120733238.82008       267.046    22601519.976    93903654.26405
       207.702  
  21838099.906   116778132.54505      3438.339    21838105.891    90827462.93307
      2674.262  
  19557812.981   104621107.25406     -1069.515    19557815.384    81371982.43507
      -831.844  
 20 09 30 05 42 25.0000000  0 13G15G18G20G29G 5G30G13R 4R 3R18R12R20
                                R19
  20155412.984   105917407.01949      1052.440    20155412.667    82533046.07448
       820.082  
  20599454.581   108250866.70649      1230.257    20599454.975    84351324.87748
       958.641  
  22454884.970   118001220.61848      2929.039    22454884.994    91948998.32846
      2282.367  
  23628050.321   124166250.33647     -3537.504    23628051.234    96752918.02845
     -2756.500  
  22896793.684   120323462.92847     -3052.710    22896793.091    93758542.67245
     -2378.742  
  24072782.305   126503331.93447     -1387.511    24072785.409    98574033.06746
     -1081.183  
  20653295.552   108533799.22949     -1063.188    20653294.549    84571789.71647
      -828.457  
  19630529.021   105120592.48809      1379.742    19630532.293    81760471.81708
      1073.133  
  20087310.489   107528945.28908     -2247.323    20087314.335    83633642.33008
     -1747.918  
  21835362.860   116558641.14808     -4193.413    21835368.718    90656751.13606
     -3261.547  
  22601267.546   120731912.80907       263.223    22601271.692    93902622.89405
       204.727  
  21834885.979   116760945.14205      3435.995    21834891.564    90814094.95207
      2672.438  
  19558814.418   104626464.79706     -1073.972    19558816.942    81376149.41107
      -835.312  
 20 09 30 05 42 30.0000000  0 14G15G18G20G29G 5G30G13R 4R 3R18R12R 5
                                R20R19
  20154413.038   105912152.70749      1049.281    20154412.667    82528951.80748
       817.620  
  20598285.470   108244722.23749      1227.426    20598285.659    84346536.97648
       956.438  
  22452098.598   117986578.41448      2927.956    22452098.516    91937588.82346
      2281.523  
  23631416.768   124183941.38147     -3538.554    23631417.708    96766703.24046
     -2757.320  
  22899698.503   120338727.41547     -3053.448    22899697.993    93770437.07545
     -2379.315  
  24074103.681   126510275.90747     -1389.988    24074106.627    98579443.95345
     -1083.112  
  20654308.639   108539123.00849     -1066.094    20654307.813    84575938.11047
      -830.727  
  19629241.994   105113700.17209      1376.972    19629245.307    81755111.12608
      1070.976  
  20089410.444   107540186.41608     -2249.391    20089414.213    83642385.43008
     -1749.527  
  21839291.326   116579611.19407     -4194.863    21839296.928    90673061.18206
     -3262.675  
  22601023.326   120730607.44608       258.867    22601027.602    93901607.63806
       201.340  
  23204041.206   124038897.08615      3661.691    23204046.844    96474723.15814
      2847.983  
  21831674.002   116743769.75605      3433.559    21831679.687    90800736.31607
      2670.546  
  19559819.970   104631843.79106     -1078.222    19559822.587    81380333.07807
      -838.616  
 20 09 30 05 42 35.0000000  0 14G15G18G20G29G 5G30G13R 4R 3R18R12R 5
                                R20R19
  20153415.952   105906912.98649      1046.098    20153415.612    82524868.90948
       815.137  
  20597118.631   108238590.36549      1224.687    20597118.765    84341758.89748
       954.301  
  22449312.839   117971939.46548      2926.894    22449312.837    91926181.84046
      2280.695  
  23634784.041   124201636.45947     -3539.933    23634784.859    96780491.59846
     -2758.398  
  22902603.658   120353994.85847     -3054.035    22902603.137    93782333.77944
     -2379.772  
  24075427.508   126517232.94447     -1393.125    24075430.685    98584865.02745
     -1085.555  
  20655324.383   108544461.12049     -1069.378    20655323.475    84580097.67347
      -833.285  
  19627957.225   105106820.32409      1374.453    19627960.439    81749760.13608
      1069.019  
  20091512.068   107551436.35608     -2251.214    20091515.792    83651135.36708
     -1750.948  
  21843221.190   116600589.32707     -4196.937    21843226.698    90689377.48307
     -3264.289  
  22600782.801   120729322.54107       254.262    22600787.323    93900608.24205
       197.859  
  23200616.893   124020589.92005      3660.813    23200622.060    96460484.26604
      2847.296  
  21828464.332   116726606.17705      3431.020    21828469.787    90787386.87207
      2668.565  
  19560829.694   104637244.29106     -1082.710    19560832.079    81384533.46807
      -842.109  
 20 09 30 05 42 40.0000000  0 14G15G18G20G29G 5G30G13R 4R 3R18R12R 5
                                R20R19
  20152422.098   105901689.43549      1043.214    20152421.726    82520798.61148
       812.890  
  20595954.479   108232472.63949      1222.222    20595954.578    84336991.83948
       952.382  
  22446528.050   117957305.30048      2926.761    22446528.084    91914778.61346
      2280.593  
  23638152.319   124219336.97147     -3540.250    23638153.284    96794284.20246
     -2758.641  
  22905509.780   120369266.85247     -3054.465    22905509.461    93794234.03445
     -2380.105  
  24076754.191   126524204.49147     -1395.433    24076757.262    98590297.39145
     -1087.354  
  20656343.169   108549815.09749     -1072.245    20656342.365    84584269.60647
      -835.515  
  19626675.048   105099954.63509      1371.824    19626678.232    81744420.16408
      1066.972  
  20093615.542   107562696.79408     -2253.000    20093619.293    83659893.49108
     -1752.332  
  21847152.785   116621576.85407     -4198.367    21847158.433    90705701.13107
     -3265.398  
  22600546.339   120728059.65507       250.479    22600551.180    93899626.03506
       194.819  
  23197193.410   124002287.72305      3659.840    23197198.170    96446249.24004
      2846.542  
  21825257.228   116709456.00405      3429.054    21825262.503    90774047.83707
      2667.039  
  19561843.409   104642667.70406     -1086.577    19561845.899    81388751.67907
      -845.117  
 20 09 30 05 42 45.0000000  0 14G15G18G20G29G 5G30G13R 4R 3R18R12R 5
                                R20R19
  20151431.295   105896482.76049      1039.844    20151431.019    82516741.45548
       810.265  
  20594793.189   108226369.80249      1219.316    20594793.362    84332236.38348
       950.113  
  22443744.234   117942676.71448      2925.395    22443744.339    91903379.70846
      2279.523  
  23641521.963   124237043.73047     -3541.772    23641522.657    96808081.69246
     -2759.823  
  22908417.023   120384544.07647     -3055.320    22908416.574    93806138.36445
     -2380.772  
  24078083.746   126531191.35147     -1398.569    24078086.698    98595741.70745
     -1089.800  
  20657365.009   108555185.62249     -1075.352    20657364.370    84588454.42347
      -837.941  
  19625395.655   105093103.70309      1369.077    19625398.681    81739091.65908
      1064.840  
  20095721.263   107573968.38508     -2255.168    20095724.914    83668660.28708
     -1754.022  
  21851086.480   116642574.59008     -4200.215    21851091.900    90722032.68607
     -3266.836  
  22600314.237   120726819.58707       246.097    22600319.165    93898661.50806
       191.401  
  23193770.937   123983991.29705      3658.984    23193774.974    96432018.73104
      2845.883  
  21822052.804   116692320.04405      3426.180    21822057.887    90760719.86707
      2664.801  
  19562861.611   104648114.83206     -1091.164    19562864.280    81392988.33607
      -848.684  
 20 09 30 05 42 50.0000000  0 14G15G18G20G29G 5G30G13R 4R 3R18R12R 5
                                R20R19
  20150443.526   105891291.62249      1036.227    20150443.210    82512696.41948
       807.449  
  20593634.569   108220280.52349      1216.070    20593634.572    84327491.49148
       947.582  
  22440961.361   117928052.27648      2924.026    22440961.561    91891984.04046
      2278.461  
  23644892.502   124254755.37447     -3543.184    23644893.033    96821882.97245
     -2760.926  
  22911324.869   120399825.16547     -3057.019    22911324.404    93818045.69045
     -2382.098  
  24079415.991   126538192.12447     -1401.785    24079418.841    98601196.83146
     -1092.304  
  20658389.912   108560571.39749     -1079.116    20658389.302    84592651.12847
      -840.875  
  19624118.900   105086266.20709      1365.617    19624121.765    81733773.60008
      1062.145  
  20097828.656   107585249.79708     -2257.487    20097832.233    83677434.71508
     -1755.828  
  21855021.848   116663581.28707     -4202.640    21855027.267    90738371.22807
     -3268.723  
  22600086.019   120725600.95907       241.229    22600091.179    93897713.69105
       187.555  
  23190349.065   123965699.33705      3657.183    23190352.401    96417791.68204
      2844.480  
  21818850.485   116675196.96105      3423.074    21818855.628    90747401.92107
      2662.390  
  19563884.172   104653584.25106     -1096.629    19563886.751    81397242.32307
      -852.937  
 20 09 30 05 42 55.0000000  0 14G15G18G20G29G 5G30G13R 4R 3R18R12R 5
                                R20R19
  20149458.978   105886117.53849      1033.335    20149458.595    82508664.67748
       805.194  
  20592478.777   108214206.29649      1213.608    20592478.760    84322758.31948
       945.664  
  22438179.429   117913433.62648      2923.039    22438179.435    91880592.88546
      2277.688  
  23648264.026   124272473.38147     -3544.062    23648264.783    96835689.19245
     -2761.608  
  22914233.687   120415111.66747     -3057.604    22914233.450    93829957.24945
     -2382.551  
  24080751.091   126545208.34047     -1404.409    24080754.177    98606664.02645
     -1094.343  
  20659417.870   108565973.91549     -1081.953    20659417.189    84596860.87347
      -843.086  
  19622844.763   105079443.73009      1363.108    19622847.805    81728467.22808
      1060.190  
  20099938.327   107596542.46808     -2259.339    20099941.707    83686217.89608
     -1757.269  
  21858959.066   116684598.39608     -4204.301    21858964.340    90754717.85007
     -3270.019  
  22599862.293   120724405.38607       237.179    22599867.525    93896783.77606
       184.464  
  23186928.259   123947413.23305      3656.366    23186931.128    96403569.19705
      2843.844  
  21815651.234   116658088.21905      3421.004    21815656.401    90734095.11707
      2660.776  
  19564911.021   104659077.54306     -1100.534    19564913.513    81401514.88107
      -855.977  
 20 09 30 05 43  0.0000000  0 14G15G18G20G29G 5G30G13R 4R 3R18R12R 5
                                R20R19
  20148477.247   105880958.97649      1030.265    20148477.089    82504645.01448
       802.801  
  20591325.463   108208145.62449      1210.828    20591325.317    84318035.72848
       943.503  
  22435398.515   117898819.10648      2922.886    22435398.306    91869204.93945
      2277.570  
  23651636.652   124290196.21647     -3544.816    23651637.394    96849499.19046
     -2762.198  
  22917143.448   120430402.03347     -3058.246    22917142.988    93841871.82045
     -2383.050  
  24082088.852   126552238.48247     -1407.589    24082091.990    98612142.05546
     -1096.827  
  20660448.896   108571391.61949     -1084.887    20660448.230    84601082.46947
      -845.371  
  19621573.225   105072634.66809      1360.616    19621576.240    81723171.29608
      1058.257  
  20102049.704   107607844.96008     -2261.348    20102053.096    83695008.73908
     -1758.823  
  21862897.907   116705624.28907     -4205.761    21862903.331    90771071.30907
     -3271.152  
  22599642.426   120723231.08307       232.711    22599647.886    93895870.44905
       180.996  
  23183508.234   123929131.45804      3656.241    23183511.217    96389350.03105
      2843.741  
  21812454.198   116640992.38705      3418.406    21812459.238    90720798.36707
      2658.762  
  19565942.148   104664593.09906     -1105.272    19565944.636    81405804.76907
      -859.656  
 20 09 30 05 43  5.0000000  0 14G15G18G20G29G 5G30G13R 4R 3R18R12R 5
                                R20R19
  20147498.762   105875816.12649      1026.793    20147498.280    82500637.60848
       800.097  
  20590174.792   108202098.74049      1207.901    20590174.574    84313323.87648
       941.223  
  22432618.378   117884209.04248      2921.358    22432618.110    91857820.47046
      2276.378  
  23655010.264   124307924.13447     -3546.172    23655010.883    96863313.16045
     -2763.249  
  22920053.756   120445696.55747     -3059.218    22920053.588    93853789.64745
     -2383.808  
  24083429.222   126559282.70347     -1410.214    24083432.415    98617631.05646
     -1098.866  
  20661482.782   108576824.72849     -1088.289    20661482.222    84605316.05447
      -848.015  
  19620304.244   105065839.39408      1357.671    19620307.295    81717886.09308
      1055.968  
  20104163.113   107619157.32808     -2263.691    20104166.444    83703807.23508
     -1760.652  
  21866838.453   116726659.12907     -4208.007    21866843.783    90787431.74507
     -3272.913  
  22599426.559   120722078.45907       228.097    22599432.033    93894973.94505
       177.405  
  23180089.109   123910854.55804      3655.164    23180092.184    96375134.66805
      2842.905  
  21809259.672   116623909.60505      3415.237    21809264.487    90707511.76907
      2656.296  
  19566977.346   104670131.24306     -1110.019    19566980.100    81410112.21907
      -863.352  
 20 09 30 05 43 10.0000000  0 14G15G18G20G29G 5G30G13R 4R 3R18R12R 5
                                R20R19
  20146522.924   105870688.65749      1024.020    20146522.650    82496642.19148
       797.937  
  20589026.789   108196065.29149      1205.394    20589026.530    84308622.48348
       939.266  
  22429839.001   117869603.09648      2920.769    22429838.678    91846439.22446
      2275.921  
  23658384.604   124325656.69447     -3546.995    23658385.125    96877130.70946
     -2763.898  
  22922964.817   120460994.78347     -3060.305    22922964.924    93865710.33245
     -2384.651  
  24084772.275   126566340.71247     -1412.769    24084775.232    98623130.79245
     -1100.863  
  20662519.512   108582272.87249     -1091.031    20662518.924    84609561.36247
      -850.155  
  19619037.744   105059057.37809      1355.065    19619040.777    81712611.18308
      1053.938  
  20106278.212   107630479.37208     -2265.191    20106281.491    83712613.27808
     -1761.815  
  21870780.464   116747702.69807     -4209.207    21870785.947    90803798.94007
     -3273.831  
  22599214.766   120720947.13207       223.835    22599220.546    93894094.02005
       174.145  
  23176670.688   123892581.82604      3653.979    23176673.945    96360922.61005
      2841.991  
  21806067.358   116606839.55105      3412.637    21806072.408    90694235.07107
      2654.272  
  19568016.679   104675691.56306     -1114.374    19568019.376    81414436.90307
      -866.737  
 20 09 30 05 43 15.0000000  0 14G15G18G20G29G 5G30G13R 4R 3R18R12R 5
                                R20R19
  20145550.317   105865577.79349      1020.608    20145549.984    82492659.69548
       795.281  
  20587881.445   108190046.46849      1202.219    20587881.155    84303932.49048
       936.788  
  22427060.571   117855002.34848      2919.621    22427060.278    91835062.01646
      2275.031  
  23661760.299   124343395.05747     -3548.137    23661760.632    96890952.81645
     -2764.785  
  22925876.837   120476297.95847     -3061.233    22925876.895    93877634.89745
     -2385.378  
  24086118.224   126573413.69447     -1416.191    24086121.322    98628642.21245
     -1103.530  
  20663559.473   108587737.22149     -1094.257    20663558.763    84613819.30147
      -852.667  
  19617773.830   105052289.86509      1352.000    19617776.918    81707347.56708
      1051.550  
  20108395.298   107641812.20308     -2267.597    20108398.454    83721427.70008
     -1763.690  
  21874724.495   116768756.07607     -4211.859    21874729.990    90820173.78207
     -3275.895  
  22599007.168   120719838.33706       219.723    22599012.878    93893231.65205
       170.898  
  23173253.515   123874314.51305      3653.316    23173256.448    96346714.70005
      2841.468  
  21802877.664   116589783.57605      3409.535    21802882.691    90680969.31907
      2651.859  
  19569060.534   104681275.14306     -1119.207    19569063.244    81418779.69407
      -870.496  
 20 09 30 05 43 20.0000000  0 14G15G18G20G29G 5G30G13R 4R 3R18R12R 5
                                R20R19
  20144580.930   105860483.56949      1017.358    20144580.709    82488690.17648
       792.746  
  20586738.944   108184042.33349      1199.550    20586738.492    84299253.94648
       934.711  
  22424283.290   117840407.01348      2918.804    22424282.872    91823689.03546
      2274.394  
  23665136.886   124361139.29746     -3549.214    23665137.292    96904779.48745
     -2765.624  
  22928790.020   120491606.08947     -3061.472    22928790.137    93889563.32045
     -2385.563  
  24087467.038   126580501.63347     -1419.085    24087470.071    98634165.27046
     -1105.785  
  20664602.274   108593217.89349     -1097.534    20664601.522    84618089.94447
      -855.226  
  19616512.776   105045536.97509      1349.265    19616515.956    81702095.33108
      1049.430  
  20110514.286   107653155.81408     -2269.667    20110517.614    83730250.49308
     -1765.300  
  21878670.210   116789819.35407     -4213.495    21878675.970    90836556.32307
     -3277.168  
  22598803.909   120718752.09406       214.878    22598809.405    93892386.77105
       167.120  
  23169837.510   123856053.00906      3651.711    23169840.250    96332511.31304
      2840.214  
  21799690.551   116572741.64805      3406.973    21799695.651    90667714.48307
      2649.862  
  19570108.714   104686882.19706     -1123.265    19570111.414    81423140.72707
      -873.655  
 20 09 30 05 43 25.0000000  0 14G15G18G20G29G 5G30G13R 4R 3R18R12R 5
                                R20R19
  20143614.403   105855404.68449      1014.401    20143614.156    82484732.61448
       790.445  
  20585598.913   108178051.58749      1196.968    20585598.567    84294585.83048
       932.698  
  22421506.524   117825815.69948      2917.827    22421506.168    91812319.17846
      2273.633  
  23668514.321   124378888.12347     -3550.054    23668514.750    96918609.73846
     -2766.281  
  22931703.603   120506917.88447     -3062.347    22931703.737    93901494.55944
     -2386.253  
  24088818.562   126587603.25047     -1421.547    24088821.619    98639699.01045
     -1107.703  
  20665648.125   108598713.50349     -1100.563    20665647.472    84622372.24447
      -857.582  
  19615254.311   105038797.26709      1346.702    19615257.371    81696853.33608
      1047.438  
  20112635.106   107664508.97908     -2271.504    20112638.485    83739080.75108
     -1766.727  
  21882617.649   116810891.17307     -4215.094    21882623.435    90852945.49807
     -3278.409  
  22598604.347   120717686.97306       211.218    22598609.900    93891558.37904
       164.284  
  23166421.880   123837795.50905      3650.839    23166424.690    96318311.07905
      2839.547  
  21796505.890   116555712.49305      3405.313    21796510.978    90654469.58507
      2648.573  
  19571160.929   104692511.24606     -1127.706    19571163.708    81427518.85707
      -877.109  
 20 09 30 05 43 30.0000000  0 14G15G18G20G29G 5G30G13R 4R 3R18R12R 5
                                R20R19
  20142650.551   105850339.98449      1011.312    20142650.513    82480786.09348
       788.034  
  20584461.358   108172073.09849      1194.335    20584461.068    84289927.27548
       930.652  
  22418730.530   117811227.28348      2917.538    22418729.915    91800951.60346
      2273.406  
  23671892.397   124396640.31146     -3551.077    23671892.906    96932442.56546
     -2767.077  
  22934617.984   120522232.18247     -3063.336    22934617.923    93913427.78744
     -2387.015  
  24090172.349   126594717.38747     -1423.909    24090175.326    98645242.46145
     -1109.546  
  20666696.432   108604222.98649     -1103.445    20666695.868    84626665.34647
      -859.832  
  19613997.931   105032069.69009      1344.128    19614000.945    81691620.77308
      1045.433  
  20114757.578   107675870.48508     -2273.183    20114761.021    83747917.46908
     -1768.035  
  21886566.421   116831970.32907     -4216.598    21886572.296    90869340.40506
     -3279.574  
  22598408.692   120716641.97807       206.659    22598413.833    93890745.55104
       160.684  
  23163007.012   123819541.14505      3650.609    23163009.833    96304113.27004
      2839.367  
  21793323.396   116538694.92405      3402.671    21793328.466    90641233.70607
      2646.526  
  19572217.106   104698161.17306     -1132.016    19572220.040    81431913.25607
      -880.460  
 20 09 30 05 43 35.0000000  0 14G15G18G20G29G 5G30G13R 4R 3R18R12R 5
                                R20R19
  20141689.930   105845291.88349      1007.729    20141689.794    82476852.51748
       785.246  
  20583326.439   108166109.31149      1191.046    20583326.258    84285280.16848
       928.089  
  22415955.499   117796644.27148      2915.612    22415954.882    91789588.21346
      2271.902  
  23675271.572   124414398.31046     -3552.429    23675271.978    96946279.98844
     -2768.129  
  22937533.113   120537551.31947     -3064.238    22937532.996    93925364.77544
     -2387.723  
  24091529.001   126601846.48747     -1427.629    24091531.935    98650797.61446
     -1112.441  
  20667747.972   108609748.71049     -1107.078    20667747.477    84630971.10347
      -862.660  
  19612744.337   105025356.74709      1340.852    19612747.434    81686399.60208
      1042.882  
  20116881.940   107687242.77108     -2275.878    20116885.480    83756762.57108
     -1770.133  
  21890517.087   116853059.25207     -4219.038    21890522.736    90885742.89907
     -3281.480  
  22598217.408   120715619.54807       202.167    22598222.281    93889950.32504
       157.233  
  23159593.081   123801292.32206      3649.020    23159595.985    96289919.74705
      2838.128  
  21790143.699   116521691.46605      3398.805    21790148.636    90628008.79207
      2643.515  
  19573277.641   104703834.60006     -1137.109    19573280.488    81436325.90207
      -884.422  
 20 09 30 05 43 40.0000000  0 14G15G18G20G29G 5G30G13R 4R 3R18R12R 5
                                R20R19
  20140732.713   105840261.61649      1004.659    20140732.490    82472932.82948
       782.848  
  20582194.578   108160161.40549      1188.258    20582194.396    84280645.44148
       925.914  
  22413181.626   117782067.81648      2914.711    22413180.807    91778229.93446
      2271.198  
  23678652.183   124432163.32146     -3553.394    23678652.655    96960122.85745
     -2768.879  
  22940449.365   120552876.61148     -3065.352    22940449.365    93937306.56745
     -2388.585  
  24092888.748   126608991.72447     -1430.343    24092891.667    98656365.33246
     -1114.558  
  20668802.715   108615291.86249     -1110.140    20668802.238    84635290.45547
      -865.043  
  19611493.750   105018659.47409      1338.332    19611496.809    81681190.60408
      1040.922  
  20119008.706   107698627.01408     -2277.664    20119012.116    83765616.98808
     -1771.515  
  21894469.884   116874159.23808     -4220.972    21894475.367    90902153.99206
     -3282.930  
  22598030.399   120714620.86307       197.823    22598034.952    93889173.58404
       153.867  
  23156180.425   123783050.34605      3648.215    23156183.458    96275731.56305
      2837.500  
  21786966.877   116504703.23105      3396.477    21786971.772    90614795.75007
      2641.702  
  19574342.852   104709532.70206     -1141.797    19574345.740    81440757.75907
      -888.066  
 20 09 30 05 43 45.0000000  0 14G15G18G20G29G 5G30G13R 4R 3R18R12R 5
                                R20R19
  20139778.582   105835247.12449      1001.215    20139778.348    82469025.43348
       780.167  
  20581065.375   108154227.34149      1185.262    20581065.204    84276021.49648
       923.582  
  22410408.730   117767495.83548      2913.730    22410407.970    91766875.13146
      2270.434  
  23682033.609   124449933.20645     -3554.397    23682034.200    96973969.50045
     -2769.663  
  22943366.404   120568205.97147     -3066.852    22943366.499    93949251.52445
     -2389.753  
  24094251.336   126616151.01747     -1433.437    24094253.935    98661943.99746
     -1116.969  
  20669860.530   108620850.37049     -1113.308    20669859.951    84639621.76747
      -867.512  
  19610245.576   105011975.99809      1335.151    19610248.779    81675992.35308
      1038.448  
  20121137.164   107710021.13008     -2279.789    20121140.901    83774479.07208
     -1773.171  
  21898424.351   116895268.04808     -4223.219    21898429.684    90918571.96007
     -3284.726  
  22597847.511   120713643.87507       193.051    22597851.815    93888413.72604
       150.152  
  23152768.563   123764812.98605      3646.808    23152771.860    96261546.95905
      2836.406  
  21783792.385   116487728.35605      3393.730    21783797.582    90601593.07407
      2639.565  
  19575412.254   104715253.21706     -1146.413    19575415.295    81445207.04507
      -891.659  
 20 09 30 05 43 50.0000000  0 14G15G18G20G29G 5G30G13R 4R 3R18R12R 5
                                R20R19
  20138827.874   105830251.21049       997.457    20138827.614    82465132.52548
       777.237  
  20579939.224   108148309.93949      1181.937    20579939.183    84271410.53448
       920.991  
  22407637.363   117752931.14148      2912.378    22407636.435    91755526.03446
      2269.386  
  23685416.463   124467710.88347     -3555.995    23685417.203    96987822.23545
     -2770.910  
  22946284.995   120583542.17947     -3068.007    22946284.768    93961201.81744
     -2390.651  
  24095616.923   126623327.22247     -1437.140    24095619.593    98667535.82746
     -1119.851  
  20670921.759   108626427.00949     -1116.980    20670921.284    84643967.18747
      -870.379  
  19609000.555   105005308.96809      1331.801    19609003.622    81670806.87908
      1035.840  
  20123268.058   107721428.03108     -2282.531    20123271.850    83783351.10408
     -1775.300  
  21902380.913   116916388.59908     -4224.988    21902386.432    90934999.05007
     -3286.105  
  22597669.348   120712691.40806       188.379    22597673.405    93887672.94404
       146.504  
  23149358.295   123746583.17905      3645.108    23149361.760    96247368.26805
      2835.089  
  21780620.944   116470769.61005      3390.222    21780626.021    90588402.93007
      2636.836  
  19576486.435   104720999.08006     -1151.558    19576489.391    81449676.04207
      -895.660  
 20 09 30 05 43 55.0000000  0 14G15G18G20G29G 5G30G13R 4R 3R18R12R 5
                                R20R19
  20137879.641   105825268.40249       995.125    20137879.289    82461249.82348
       775.418  
  20578815.356   108142403.75149      1179.976    20578815.333    84266808.30748
       919.457  
  22404866.144   117738368.28848      2912.249    22404865.204    91744178.36746
      2269.285  
  23688799.908   124485490.72746     -3556.429    23688800.489    97001676.63445
     -2771.250  
  22949203.508   120598879.81746     -3067.160    22949203.443    93973153.24044
     -2389.992  
  24096984.628   126630514.84447     -1438.995    24096987.397    98673136.56846
     -1121.300  
  20671985.281   108632016.36049     -1119.242    20671984.800    84648322.51347
      -872.140  
  19607757.599   104998652.87009      1329.991    19607760.626    81665629.90808
      1034.433  
  20125400.313   107732842.13008     -2283.629    20125403.987    83792228.73708
     -1776.160  
  21906338.786   116937515.40007     -4226.070    21906344.134    90951431.00907
     -3287.046  
  22597494.363   120711757.89006       184.648    22597498.725    93886946.78803
       143.605  
  23145948.206   123728355.39405      3645.078    23145951.725    96233191.13105
      2835.069  
  21777451.592   116453821.50405      3388.233    21777456.902    90575221.06807
      2635.293  
  19577564.174   104726764.66606     -1154.960    19577567.100    81454160.38307
      -898.309  
 20 09 30 05 44  0.0000000  0 13G15G18G20G29G30G13R 4R 3R18R12R 5R20
                                R19
  20136934.654   105820302.05549       991.777    20136934.111    82457379.94648
       772.812  
  20577694.350   108136512.13749      1177.023    20577694.192    84262217.45347
       917.159  
  22402095.881   117723810.67648      2911.112    22402094.918    91732834.75946
      2268.391  
  23692184.510   124503276.17646     -3557.495    23692184.996    97015535.46846
     -2772.073  
  24098355.336   126637717.15148     -1441.694    24098357.933    98678748.68545
     -1123.413  
  20673051.859   108637621.79249     -1122.362    20673051.463    84652690.38446
      -874.573  
  19606517.458   104992011.18809      1327.164    19606520.496    81660464.15308
      1032.233  
  20127534.422   107744266.83708     -2285.578    20127538.307    83801114.61207
     -1777.672  
  21910298.319   116958651.56608     -4227.991    21910303.588    90967870.24107
     -3288.441  
  22597323.637   120710846.71306       180.519    22597328.283    93886238.08104
       140.386  
  23142539.211   123710133.02005      3644.094    23142542.767    96219018.19005
      2834.296  
  21774284.914   116436887.38805      3385.815    21774290.158    90562050.08508
      2633.410  
  19578646.414   104732553.41806     -1159.594    19578649.151    81458662.75607
      -901.906  
 20 09 30 05 44  5.0000000  0 14G15G18G20G29G 5G30G13R 4R 3R18R12R 5
                                R20R19
  20135992.348   105815350.11149       988.359    20135991.849    82453521.29148
       770.145  
  20576575.613   108130633.04349      1174.141    20576575.481    84257636.33148
       914.910  
  22399326.349   117709256.18548      2910.008    22399325.354    91721493.63846
      2267.542  
  23695569.637   124521065.08045     -3558.413    23695570.215    97029396.87346
     -2772.792  
  22955043.448   120629567.40956     -3069.680    22955043.288    93997064.61753
     -2391.956  
  24099728.344   126644932.20146     -1444.762    24099730.687    98684370.85245
     -1125.784  
  20674121.274   108643241.10649     -1125.819    20674120.767    84657069.06646
      -877.266  
  19605279.368   104985381.89809      1324.112    19605282.582    81655308.03608
      1029.862  
  20129670.226   107755699.96708     -2287.968    20129674.338    83810007.04908
     -1779.534  
  21914259.335   116979795.36208     -4229.937    21914264.542    90984315.38907
     -3289.956  
  22597156.651   120709955.92505       174.878    22597161.261    93885545.30403
       136.019  
  23139130.725   123691913.96005      3643.184    23139134.210    96204847.79305
      2833.586  
  21771120.410   116419965.33105      3382.676    21771125.615    90548888.50108
      2630.968  
  19579732.489   104738363.40806     -1164.746    19579735.280    81463181.62707
      -905.918  
 20 09 30 05 44 10.0000000  0 14G15G18G20G29G 5G30G13R 4R 3R18R12R 5
                                R20R19
  20135053.456   105810416.35649       985.558    20135052.806    82449676.81648
       767.965  
  20575459.892   108124770.23549      1171.305    20575459.678    84253067.93047
       912.702  
  22396557.975   117694708.59348      2909.171    22396556.992    91710157.81646
      2266.883  
  23698956.032   124538861.23746     -3559.543    23698956.891    97043264.12244
     -2773.655  
  22957964.746   120644918.84146     -3070.090    22957964.512    94009026.79043
     -2392.270  
  24101104.447   126652163.73345     -1447.530    24101106.742    98690005.81543
     -1127.945  
  20675193.909   108648878.18549     -1128.703    20675193.307    84661461.59647
      -879.512  
  19604044.487   104978768.76009      1321.530    19604047.573    81650164.48507
      1027.859  
  20131808.422   107767145.39708     -2289.749    20131812.464    83818909.05807
     -1780.917  
  21918222.380   117000950.30407     -4231.663    21918227.704    91000769.23307
     -3291.297  
  22596994.502   120709089.22405       171.745    22596999.185    93884871.23102
       133.585  
  23135723.906   123673702.11906      3641.969    23135727.307    96190683.02305
      2832.636  
  21767958.724   116403058.99605      3380.354    21767964.146    90535739.11407
      2629.160  
  19580823.232   104744198.23906     -1168.965    19580825.989    81467719.83207
      -909.194  
 20 09 30 05 44 15.0000000  0 13G15G18G20G29G 5G30G13R 4R 3R18R 5R20
                                R19
  20134117.230   105805496.14249       982.308    20134116.460    82445842.88548
       765.433  
  20574346.474   108118919.08849      1168.729    20574346.290    84248508.60547
       910.699  
  22393790.165   117680163.34548      2908.409    22393789.169    91698823.85746
      2266.293  
  23702342.863   124556660.02545     -3560.574    23702343.875    97057133.28345
     -2774.473  
  22960886.642   120660272.12945     -3070.129    22960886.263    94020990.37243
     -2392.313  
  24102482.846   126659406.98845     -1450.104    24102485.093    98695649.99743
     -1129.938  
  20676269.036   108654528.32848     -1131.718    20676268.507    84665864.29746
      -881.862  
  19602811.837   104972167.04009      1318.851    19602814.712    81645029.81907
      1025.770  
  20133947.960   107778598.41608     -2291.883    20133951.756    83827816.97807
     -1782.570  
  21922186.606   117022111.82707     -4233.288    21922191.972    91017228.17407
     -3292.563  
  23132317.214   123655492.71105      3641.276    23132320.710    96176520.11505
      2832.097  
  21764799.335   116386163.76505      3377.659    21764804.600    90522598.37607
      2627.066  
  19581917.769   104750053.27305     -1173.262    19581920.533    81472273.74807
      -912.539  
 20 09 30 05 44 20.0000000  0 13G15G18G20G29G 5G30G13R 4R 3R18R 5R20
                                R19
  20133184.233   105800593.05449       978.972    20133183.562    82442022.29348
       762.836  
  20573235.902   108113083.21149      1165.753    20573235.836    84243961.16947
       908.375  
  22391023.315   117665623.98048      2907.211    22391022.533    91687494.47546
      2265.355  
  23705730.704   124574464.97245     -3561.546    23705732.077    97071007.28045
     -2775.229  
  22963809.303   120675630.81946     -3072.351    22963809.133    94032958.16144
     -2394.046  
  24103864.315   126666665.71745     -1453.477    24103866.726    98701306.20941
     -1132.569  
  20677347.405   108660195.19849     -1135.176    20677346.896    84670280.05446
      -884.551  
  19601581.779   104965580.32109      1315.729    19601584.750    81639906.82007
      1023.347  
  20136089.576   107790062.52908     -2293.863    20136093.432    83836733.51607
     -1784.116  
  21926152.906   117043283.49107     -4235.589    21926158.205    91033695.02007
     -3294.352  
  23128911.790   123637289.39606      3640.102    23128915.000    96162361.99105
      2831.191  
  21761642.721   116369283.36705      3374.641    21761647.898    90509469.18807
      2624.714  
  19583016.737   104755932.23205     -1178.397    19583019.623    81476846.26407
      -916.535  
 20 09 30 05 44 25.0000000  0 14G15G18G20G29G 5G30G13R 4R 3R18R12R 5
                                R20R19
  20132254.469   105795707.20649       976.008    20132253.846    82438215.13848
       760.527  
  20572128.168   108107262.68949      1163.102    20572128.076    84239425.70147
       906.312  
  22388257.757   117651090.59448      2906.738    22388256.852    91676169.78546
      2264.991  
  23709120.051   124592276.17246     -3562.132    23709121.259    97084886.10345
     -2775.690  
  22966733.092   120690994.96446     -3073.063    22966732.735    94044930.26043
     -2394.586  
  24105248.572   126673939.91045     -1456.104    24105250.902    98706974.39644
     -1134.629  
  20678428.819   108665878.81549     -1137.897    20678428.189    84674708.86346
      -886.675  
  19600354.548   104959008.86709      1313.273    19600357.635    81634795.68007
      1021.430  
  20138233.457   107801538.01808     -2295.612    20138237.017    83845658.90507
     -1785.477  
  21930121.122   117064465.37707     -4236.891    21930126.155    91050169.80607
     -3295.362  
  22596531.822   120706615.69714       158.422           0.000           0.0000 
         0.000  
  23125507.463   123619092.34505      3639.272    23125510.822    96148208.74005
      2830.547  
  21758488.726   116352417.82106      3372.093    21758493.880    90496351.54007
      2622.734  
  19584120.248   104761835.02106     -1181.973    19584123.031    81481437.33706
      -919.313  
 20 09 30 05 44 30.0000000  0 14G15G18G20G29G 5G30G13R 4R 3R18R12R 5
                                R20R19
  20131327.364   105790835.89049       972.605    20131326.749    82434419.29848
       757.871  
  20571022.939   108101454.88949      1160.147    20571023.012    84234900.11948
       904.003  
  22385492.822   117636560.57248      2905.582    22385491.870    91664847.70846
      2264.090  
  23712509.830   124610090.92646     -3563.269    23712511.029    97098767.73645
     -2776.574  
  22969657.439   120706361.76447     -3073.831    22969656.910    94056904.33345
     -2395.199  
  24106635.248   126681226.94647     -1458.930    24106637.491    98712652.46546
     -1136.848  
  20679513.100   108671576.43849     -1141.133    20679512.384    84679148.55447
      -889.199  
  19599129.731   104952449.77609      1310.429    19599132.917    81629694.18108
      1019.222  
  20140378.792   107813022.03908     -2297.854    20140382.271    83854590.87008
     -1787.233  
  21934090.603   117085654.73307     -4238.960    21934095.756    91066650.41707
     -3296.969  
  22596385.894   120705835.14906       153.776           0.000           0.0000 
         0.000  
  23122103.590   123600898.69305      3638.198    23122107.492    96134058.22905
      2829.726  
  21755337.173   116335564.42505      3368.813    21755342.289    90483243.39107
      2620.190  
  19585227.507   104767758.95506     -1186.808    19585230.257    81486044.82807
      -923.077  
 20 09 30 05 44 35.0000000  0 14G15G18G20G29G 5G30G13R 4R 3R18R12R 5
                                R20R19
  20130403.662   105785981.61549       969.137    20130402.836    82430636.74848
       755.167  
  20569920.792   108095662.25449      1156.969    20569920.648    84230386.37048
       901.530  
  22382729.036   117622036.34248      2904.484    22382728.145    91653530.12246
      2263.234  
  23715900.879   124627911.66345     -3565.285    23715902.347    97112654.08646
     -2778.133  
  22972582.584   120721733.97347     -3074.737    22972582.058    94068882.69946
     -2395.901  
  24108025.003   126688529.24947     -1462.155    24108027.112    98718342.60445
     -1139.347  
  20680600.441   108677290.64349     -1144.543    20680599.763    84683601.18947
      -891.851  
  19597907.690   104945905.68009      1307.276    19597910.844    81624604.32008
      1016.766  
  20142526.162   107824517.10809     -2300.297    20142529.723    83863531.48508
     -1789.125  
  21938062.127   117106854.12707     -4240.870    21938067.054    91083138.82307
     -3298.461  
  22596244.129   120705077.48806       149.503    22596248.349    93881749.75614
       116.280  
  23118701.226   123582711.23205      3636.628    23118705.153    96119912.46305
      2828.495  
  21752188.349   116318725.77905      3366.319    21752193.385    90470146.66507
      2618.250  
  19586339.466   104773706.68506     -1192.081    19586342.100    81490670.84007
      -927.180  
 20 09 30 05 44 40.0000000  0 14G15G18G20G29G 5G30G13R 4R 3R18R12R 5
                                R20R19
  20129483.198   105781144.32649       965.835    20129482.360    82426867.42748
       752.593  
  20568821.292   108089884.71949      1154.047    20568821.237    84225884.40548
       899.257  
  22379966.157   117607517.81648      2903.405    22379965.390    91642217.01046
      2262.395  
  23719292.956   124645738.33845     -3565.395    23719294.388    97126544.96145
     -2778.229  
  22975508.762   120737111.32746     -3075.926    22975508.503    94080865.03545
     -2396.827  
  24109417.389   126695846.69447     -1464.921    24109419.611    98724044.49845
     -1141.500  
  20681691.032   108683021.32749     -1147.684    20681690.062    84688066.65647
      -894.300  
  19596688.450   104939376.51709      1304.401    19596691.630    81619526.08708
      1014.534  
  20144675.618   107836023.22109     -2302.308    20144679.122    83872480.67408
     -1790.687  
  21942035.229   117128063.43608     -4242.930    21942040.322    91099634.94107
     -3300.059  
  22596106.645   120704342.85706       144.909    22596110.534    93881178.42104
       112.527  
  23115299.688   123564529.62706      3635.718    23115304.042    96105771.18205
      2827.780  
  21749042.265   116301901.75305      3363.351    21749047.323    90457061.29607
      2615.937  
  19587455.896   104779678.14406     -1196.621    19587458.498    81495315.30407
      -930.710  
 20 09 30 05 44 45.0000000  0 14G15G18G20G29G 5G30G13R 4R 3R18R12R 5
                                R20R19
  20128565.768   105776323.01349       962.910    20128564.806    82423110.57348
       750.320  
  20567724.648   108084121.31649      1151.418    20567724.543    84221393.43848
       897.203  
  22377204.431   117593004.03648      2902.215    22377203.347    91630907.56246
      2261.460  
  23722686.143   124663570.02744     -3565.770    23722687.641    97140439.76245
     -2778.531  
  22978435.609   120752492.88647     -3076.531    22978435.400    94092850.68945
     -2397.292  
  24110812.637   126703178.33247     -1467.604    24110814.796    98729757.45646
     -1143.594  
  20682784.448   108688767.51749     -1150.680    20682783.598    84692544.19247
      -896.640  
  19595471.831   104932861.26509      1301.703    19595474.805    81614458.67808
      1012.437  
  20146826.967   107847539.28009     -2304.042    20146830.435    83881437.61308
     -1792.039  
  21946010.094   117149281.59907     -4243.938    21946015.252    91116137.96007
     -3300.844  
  22595973.333   120703630.03805       140.637    22595977.438    93880624.00204
       109.383  
  23111899.300   123546353.00905      3634.507    23111903.731    96091633.84705
      2826.843  
  21745898.728   116285091.50605      3360.809    21745903.690    90443986.68207
      2613.961  
  19588576.384   104785672.12306     -1200.762    19588579.040    81499977.29207
      -933.926  
 20 09 30 05 44 50.0000000  0 14G15G18G20G29G 5G30G13R 4R 3R18R12R 5
                                R20R19
  20127650.991   105771516.41949       959.918    20127650.193    82419365.16948
       747.983  
  20566630.312   108078370.79249      1148.745    20566630.248    84216912.51648
       895.124  
  22374443.058   117578493.73248      2901.698    22374442.029    91619600.83446
      2261.063  
  23726079.824   124681405.38245     -3567.277    23726081.538    97154337.45546
     -2779.694  
  22981363.219   120767877.42647     -3076.945    22981363.032    94104838.66345
     -2397.621  
  24112210.176   126710522.98247     -1470.675    24112212.453    98735480.53246
     -1145.987  
  20683880.558   108694527.86649     -1153.570    20683879.559    84697032.78047
      -898.887  
  19594257.411   104926358.66509      1299.129    19594260.618    81609401.10008
      1010.429  
  20148979.968   107859064.05508     -2305.929    20148983.428    83890401.33308
     -1793.500  
  21949986.424   117170507.30107     -4246.304    21949991.620    91132646.82007
     -3302.683  
  22595843.517   120702937.90006       136.262    22595848.621    93880085.67604
       105.973  
  23108499.630   123528180.07506      3634.000    23108504.303    96077499.37305
      2826.448  
  21742757.326   116268293.67205      3358.538    21742762.477    90430921.69307
      2612.190  
  19589700.876   104791687.42806     -1205.543    19589703.455    81504655.86107
      -937.645  
 20 09 30 05 44 55.0000000  0 14G15G18G20G29G 5G30G13R 4R 3R18R12R 5
                                R20R19
  20126739.248   105766725.42549       956.616    20126738.292    82415631.92748
       745.410  
  20565538.829   108072634.00749      1145.870    20565538.658    84212442.29448
       892.882  
  22371682.656   117563987.78548      2900.757    22371681.737    91608297.52346
      2260.331  
  23729474.607   124699245.27144     -3568.405    23729476.373    97168238.67144
     -2780.578  
  22984291.354   120783265.72447     -3078.195    22984291.303    94116829.50845
     -2398.597  
  24113610.618   126717881.29047     -1472.965    24113612.837    98741214.30946
     -1147.765  
  20684979.718   108700303.30549     -1156.809    20684978.713    84701533.13147
      -901.409  
  19593045.637   104919869.41609      1296.344    19593048.557    81604353.91108
      1008.266  
  20151134.675   107870598.34308     -2307.827    20151138.082    83899372.43308
     -1794.979  
  21953964.176   117191741.52907     -4247.848    21953969.736    91149162.31507
     -3303.887  
  22595718.079   120702267.11405       132.171    22595723.286    93879563.96904
       102.574  
  23105100.680   123510011.61605      3633.234    23105105.507    96063368.34005
      2825.848  
  21739618.441   116251509.08005      3355.690    21739623.909    90417867.02207
      2609.980  
  19590829.456   104797724.97706     -1210.043    19590832.192    81509351.72807
      -941.147  
 20 09 30 05 45  0.0000000  0 14G15G18G20G29G 5G30G13R 4R 3R18R12R 5
                                R20R19
  20125830.748   105761951.38649       953.320    20125829.798    82411911.89248
       742.844  
  20564450.003   108066912.37549      1143.035    20564449.768    84207983.87848
       890.672  
  22368923.368   117549487.63048      2899.703    22368922.412    91596998.70446
      2259.507  
  23732870.395   124717090.97945     -3569.348    23732872.409    97182144.43645
     -2781.308  
  22987220.607   120798659.21046     -3078.633    22987220.569    94128824.45445
     -2398.933  
  24115013.710   126725254.84247     -1476.069    24115015.828    98746959.91845
     -1150.188  
  20686081.915   108706095.16749     -1159.840    20686080.791    84706046.27147
      -903.769  
  19591836.664   104913395.11209      1293.500    19591839.618    81599318.34908
      1006.054  
  20153291.421   107882143.63508     -2309.819    20153294.959    83908352.10208
     -1796.530  
  21957943.834   117212985.52707     -4249.402    21957949.548    91165685.41407
     -3305.094  
  22595596.816   120701619.43806       127.402    22595602.762    93879060.22505
        99.090  
  23101703.010   123491849.24505      3632.050    23101707.931    96049242.06605
      2824.929  
  21736482.300   116234739.26105      3352.949    21736487.781    90404823.84207
      2607.848  
  19591962.734   104803786.21806     -1214.351    19591965.442    81514066.02607
      -944.500  
 20 09 30 05 45  5.0000000  0 14G15G18G20G29G 5G30G13R 4R 3R18R12R 5
                                R20R19
  20124925.110   105757192.53549       950.082    20124924.251    82408203.70248
       740.319  
  20563363.846   108061204.11249      1140.050    20563363.553    84203535.88348
       888.351  
  22366164.832   117534991.45548      2898.633    22366163.853    91585702.99346
      2258.675  
  23736267.124   124734940.81745     -3570.734    23736269.144    97196053.40344
     -2782.394  
  22990150.394   120814056.03046     -3079.827    22990150.384    94140821.96646
     -2399.867  
  24116419.486   126732641.77347     -1478.956    24116421.567    98752715.96545
     -1152.440  
  20687186.775   108711901.65349     -1163.004    20687185.599    84710570.80447
      -906.242  
  19590629.962   104906933.90009      1290.749    19590632.844    81594292.95708
      1003.913  
  20155450.004   107893698.00908     -2311.937    20155453.265    83917338.84508
     -1798.172  
  21961925.015   117234237.56207     -4251.327    21961930.725    91182214.77307
     -3306.691  
  22595479.500   120700992.69506       123.054    22595485.543    93878572.76904
        95.710  
  23098306.057   123473691.02306      3630.879    23098311.052    96035119.03105
      2824.015  
  21733348.564   116217982.44905      3349.945    21733354.271    90391790.76807
      2605.512  
  19593099.810   104809869.21306     -1218.660    19593102.519    81518797.24407
      -947.851  
 20 09 30 05 45 10.0000000  0 14G15G18G20G29G 5G30G13R 4R 3R18R12R 5
                                R20R19
  20124022.520   105752449.76949       946.964    20124021.885    82404508.03948
       737.895  
  20562280.326   108055510.08449      1137.426    20562280.037    84199098.97148
       886.301  
  22363407.255   117520500.13548      2897.745    22363406.510    91574411.07046
      2257.984  
  23739664.906   124752795.53345     -3571.992    23739666.746    97209966.20444
     -2783.366  
  22993080.954   120829457.13046     -3080.175    22993081.164    94152822.83146
     -2400.136  
  24117827.866   126740042.92347     -1481.691    24117830.251    98758483.06945
     -1154.573  
  20688294.654   108717723.62849     -1165.930    20688293.596    84715107.39847
      -908.520  
  19589426.044   104900486.66009      1287.991    19589428.955    81589278.45608
      1001.773  
  20157610.265   107905262.40008     -2313.723    20157613.703    83926333.37308
     -1799.562  
  21965907.897   117255498.51807     -4252.995    21965913.849    91198751.06307
     -3307.891  
  22595366.317   120700387.93906       118.609    22595372.284    93878102.39504
        92.246  
  23094909.981   123455537.98605      3630.226    23094914.795    96020999.99005
      2823.507  
  21730217.452   116201239.51905      3347.160    21730223.410    90378768.49307
      2603.344  
  19594241.046   104815974.93406     -1223.007    19594243.934    81523546.13807
      -951.229  
 20 09 30 05 45 15.0000000  0 14G15G18G20G29G 5G30G13R 4R 3R18R12R 5
                                R20R19
  20123123.174   105747723.01649       943.495    20123122.194    82400824.86248
       735.190  
  20561199.462   108049830.26149      1134.308    20561199.409    84194673.13848
       883.870  
  22360650.459   117506013.57548      2896.383    22360649.696    91563122.84846
      2256.922  
  23743063.682   124770655.22246     -3572.387    23743065.128    97223882.85245
     -2783.676  
  22996012.331   120844862.37147     -3081.831    22996012.681    94164826.90445
     -2401.430  
  24119239.092   126747458.24747     -1484.809    24119241.321    98764261.25846
     -1156.995  
  20689405.578   108723561.07349     -1169.401    20689404.534    84719656.06947
      -911.222  
  19588224.734   104894053.32808      1284.847    19588227.463    81584274.75508
       999.324  
  20159772.390   107916836.73508     -2316.070    20159775.814    83935335.61308
     -1801.390  
  21969892.405   117276768.18307     -4255.147    21969898.418    91215294.13107
     -3309.563  
  22595257.345   120699805.26905       113.820    22595263.369    93877649.22505
        88.641  
  23091515.044   123437389.91506      3628.691    23091519.817    96006884.86205
      2822.320  
  21727088.970   116184510.43005      3344.116    21727094.948    90365756.97807
      2600.977  
  19595386.742   104822103.29106     -1228.445    19595389.490    81528312.63307
      -955.460  
 20 09 30 05 45 20.0000000  0 14G15G18G20G29G 5G30G13R 4R 3R18R12R 5
                                R20R19
  20122226.696   105743012.80649       940.722    20122225.924    82397154.56948
       733.030  
  20560121.434   108044165.18849      1131.921    20560121.244    84190258.79648
       882.012  
  22357894.823   117491532.39048      2896.124    22357894.058    91551838.81446
      2256.719  
  23746463.432   124788520.33846     -3572.953    23746464.567    97237803.73845
     -2784.129  
  22998944.703   120860272.30947     -3081.910    22998945.088    94176834.65046
     -2401.492  
  24120652.999   126754888.28647     -1487.066    24120655.087    98770050.89745
     -1158.754  
  20690519.346   108729414.49449     -1171.901    20690518.395    84724217.17547
      -913.175  
  19587026.041   104887634.44509      1282.788    19587028.852    81579282.30308
       997.727  
  20161936.536   107928421.42208     -2317.570    20161939.877    83944345.92008
     -1802.558  
  21973878.609   117298047.22207     -4256.440    21973884.645    91231844.48807
     -3310.569  
  22595152.577   120699245.05106       109.995    22595158.438    93877213.44804
        85.542  
  23088121.096   123419247.38006      3628.042    23088125.915    95992773.98905
      2821.813  
  21723963.032   116167795.60505      3342.098    21723969.360    90352756.57007
      2599.409  
  19596536.647   104828254.69506     -1232.082    19596539.661    81533097.05307
      -958.289  
 20 09 30 05 45 25.0000000  0 14G15G18G20G29G 5G30G13R 4R 3R18R12R 5
                                R20R19
  20121333.269   105738317.50249       937.116    20121332.332    82393495.89548
       730.218  
  20559045.848   108038513.19249      1128.594    20559045.752    84185854.64948
       879.422  
  22355139.778   117477054.87448      2894.753    22355139.197    91540557.65246
      2255.656  
  23749863.789   124806389.14746     -3574.538    23749864.973    97251727.36144
     -2785.366  
  23001877.627   120875685.30347     -3083.433    23001878.263    94188844.79446
     -2402.676  
  24122069.397   126762331.38347     -1490.539    24122071.436    98775850.70245
     -1161.464  
  20691635.967   108735282.22349     -1175.488    20691635.002    84728789.42947
      -915.968  
  19585829.759   104881228.37609      1279.425    19585832.413    81574299.80008
       995.105  
  20164102.175   107940014.97908     -2319.913    20164105.844    83953363.12408
     -1804.382  
  21977866.140   117319333.83807     -4258.609    21977872.341    91248400.75607
     -3312.250  
  22595051.598   120698705.54406       105.354    22595057.332    93876793.84805
        82.073  
  23084727.779   123401108.65605      3626.727    23084732.933    95978666.09805
      2820.789  
  21720839.627   116151093.60405      3338.593    21720846.164    90339766.11507
      2596.680  
  19597690.603   104834427.61306     -1236.976    19597693.638    81537898.21207
      -962.097  
 20 09 30 05 45 30.0000000  0 14G15G18G20G29G 5G30G13R 4R 3R18R12R 5
                                R20R19
  20120443.268   105733640.29649       933.878    20120442.419    82389851.31848
       727.698  
  20557973.321   108032877.46349      1125.746    20557973.416    84181463.17448
       877.203  
  22352386.232   117462584.29848      2893.659    22352385.542    91529281.89146
      2254.801  
  23753265.231   124824264.78445     -3575.194    23753266.705    97265656.48145
     -2785.866  
  23004811.643   120891104.57046     -3084.555    23004812.479    94200859.76145
     -2403.559  
  24123488.808   126769790.65847     -1493.340    24123490.995    98781663.12045
     -1163.645  
  20692755.789   108741167.42549     -1178.570    20692754.995    84733375.30147
      -918.371  
  19584636.473   104874838.25909      1276.492    19584639.105    81569329.71408
       992.827  
  20166270.245   107951620.48308     -2322.136    20166273.770    83962389.60808
     -1806.109  
  21981855.937   117340631.23807     -4260.605    21981862.232    91264965.39107
     -3313.808  
  22594955.258   120698190.04106       100.797    22594960.883    93876392.91005
        78.234  
  23081335.905   123382977.14705      3626.164    23081340.960    95964563.83805
      2820.355  
  21717719.161   116134407.47605      3335.672    21717725.829    90326788.02407
      2594.410  
  19598849.277   104840625.26606     -1241.577    19598852.200    81542718.60107
      -965.676  
 20 09 30 05 45 35.0000000  0 14G15G18G20G29G 5G30G13R 4R 3R18R12R 5
                                R20R19
  20119556.514   105728980.93449       930.223    20119555.681    82386220.64848
       724.847  
  20556903.839   108027257.86049      1122.413    20556904.010    84177084.26148
       874.609  
  22349633.838   117448120.40548      2892.117    22349633.352    91518011.32346
      2253.593  
  23756668.159   124842147.13446     -3577.358    23756669.563    97279590.74045
     -2787.562  
  23007746.795   120906529.86347     -3085.715    23007747.768    94212879.46745
     -2404.457  
  24124911.396   126777266.00047     -1496.499    24124913.424    98787488.07246
     -1166.108  
  20693878.845   108747069.90649     -1182.059    20693878.200    84737974.63847
      -921.089  
  19583445.988   104868463.98609      1273.300    19583448.718    81564371.95208
       990.344  
  20168440.370   107963237.73808     -2324.464    20168444.057    83971425.26308
     -1807.917  
  21985847.581   117361939.34507     -4262.387    21985854.052    91281538.34707
     -3315.371  
  22594863.188   120697698.49806        95.925    22594868.906    93876010.58005
        74.604  
  23077945.102   123364852.61405      3623.933    23077950.516    95950466.96405
      2818.608  
  21714601.592   116117737.15405      3332.473    21714608.353    90313822.23307
      2591.922  
  19600012.394   104846847.37906     -1246.594    19600015.570    81547558.02807
      -969.573  
 20 09 30 05 45 40.0000000  0 15G15G18G20G29G 5G30G27G13R 4R 3R18R12
                                R 5R20R19
  20118672.989   105724337.17049       927.594    20118672.118    82382602.13748
       722.801  
  20555837.242   108021652.01449      1120.191    20555837.270    84172716.07448
       872.875  
  22346882.192   117433660.87448      2892.012    22346881.900    91506744.14946
      2253.516  
  23760071.707   124860033.86846     -3577.425    23760073.363    97293528.41945
     -2787.612  
  23010682.848   120921958.86747     -3085.887    23010683.836    94224902.08146
     -2404.585  
  24126336.501   126784755.00847     -1498.421    24126338.315    98793323.64146
     -1167.604  
  24670425.395   129643973.53716      2313.234           0.000           0.0000 
         0.000  
  20695004.953   108752987.33349     -1184.508    20695004.348    84742585.62047
      -922.996  
  19582258.293   104862103.24309      1271.202    19582260.962    81559424.70708
       988.710  
  20170612.334   107974864.52308     -2325.913    20170616.003    83980468.32908
     -1809.042  
  21989840.802   117383255.80307     -4263.598    21989847.322    91298117.81807
     -3316.137  
  22594775.431   120697228.37506        92.546    22594780.716    93875644.92305
        71.976  
  23074555.298   123346732.47805      3624.261    23074561.018    95936373.52605
      2818.870  
  21711486.649   116101080.31205      3330.609    21711493.208    90300866.91607
      2590.473  
  19601179.681   104853091.73406     -1250.644    19601182.742    81552414.74407
      -972.765  
 20 09 30 05 45 45.0000000  0 15G15G18G20G29G 5G30G27G13R 4R 3R18R12
                                R 5R20R19
  20117791.569   105719705.68149       925.133    20117790.736    82378993.18348
       720.883  
  20554772.367   108016056.68349      1117.996    20554772.498    84168356.07448
       871.159  
  22344130.942   117419202.42548      2891.555    22344130.408    91495477.84546
      2253.160  
  23763475.690   124877921.60746     -3577.538    23763477.108    97307466.90745
     -2787.695  
  23013619.027   120937388.43647     -3086.348    23013620.056    94236925.12846
     -2404.944  
  24127763.499   126792254.43446     -1500.789    24127765.354    98799167.37746
     -1169.444  
  24668225.436   129632412.73946      2311.222    24668229.055   101012277.72855
      1800.953  
  20696133.192   108758916.42249     -1186.965    20696132.670    84747205.68947
      -924.910  
  19581072.282   104855752.49009      1268.905    19581075.101    81554485.23108
       986.926  
  20172785.446   107986497.36408     -2327.133    20172789.155    83989516.07208
     -1809.996  
  21993835.085   117404577.05607     -4264.582    21993841.810    91314701.00707
     -3316.902  
  22594691.040   120696776.48006        88.796    22594696.092    93875293.45505
        69.062  
  23071165.680   123328613.68406      3623.499    23071171.666    95922281.13005
      2818.272  
  21708373.662   116084433.70705      3327.789    21708380.208    90287919.55507
      2588.280  
  19602350.390   104859354.83106     -1254.652    19602353.749    81557286.04007
      -975.844  
 20 09 30 05 45 50.0000000  0 15G15G18G20G29G 5G30G27G13R 4R 3R18R12
                                R 5R20R19
  20116912.996   105715088.09549       921.230    20116912.055    82375395.06848
       717.844  
  20553709.973   108010473.48349      1114.519    20553709.920    84164005.52748
       868.453  
  22341380.025   117404746.72948      2889.897    22341379.682    91484213.67246
      2251.866  
  23766880.239   124895812.01146     -3579.503    23766881.754    97321407.48745
     -2789.226  
  23016555.489   120952819.95847     -3087.640    23016556.590    94248949.68245
     -2405.956  
  24129192.749   126799765.87946     -1504.483    24129194.570    98805020.43346
     -1172.324  
  24666028.158   129620862.74547      2308.054    24666031.477   101003277.73344
      1798.483  
  20697263.880   108764858.78949     -1190.762    20697263.672    84751836.11247
      -927.867  
  19579888.514   104849413.52709      1265.707    19579891.156    81549554.92308
       984.434  
  20174959.919   107998137.83308     -2329.785    20174963.546    83998569.78608
     -1812.054  
  21997830.284   117425904.79406     -4266.921    21997837.243    91331289.21307
     -3318.726  
  22594610.259   120696344.39906        83.434    22594615.079    93874957.36805
        64.887  
  23067776.706   123310497.83506      3622.077    23067782.820    95908191.03005
      2817.171  
  21705262.664   116067798.80405      3325.269    21705269.404    90274981.29107
      2586.316  
  19603525.060   104865638.24406     -1259.523    19603528.352    81562173.13707
      -979.629  
 20 09 30 05 45 55.0000000  0 15G15G18G20G29G 5G30G27G13R 4R 3R18R12
                                R 5R20R19
  20116038.212   105710491.10449       917.792    20116037.039    82371812.99448
       715.159  
  20552651.196   108004909.07049      1111.426    20552651.020    84159669.63048
       866.047  
  22338631.032   117390300.45448      2888.683    22338630.698    91472956.82746
      2250.917  
  23770286.388   124913711.69046     -3580.589    23770288.014    97335355.27245
     -2790.074  
  23019493.892   120968260.15047     -3088.800    23019494.995    94260981.02145
     -2406.859  
  24130625.535   126807295.97146     -1507.824    24130627.447    98810888.04346
     -1174.930  
  24663833.824   129609330.19447      2305.000    24663837.552   100994291.34845
      1796.104  
  20698398.612   108770821.06749     -1194.101    20698398.283    84756482.02947
      -930.473  
  19578708.300   104843093.16309      1262.538    19578711.079    81544639.07208
       981.973  
  20177137.132   108009792.77908     -2332.086    20177140.790    84007634.75408
     -1813.844  
  22001827.984   117447245.97307     -4269.094    22001835.007    91347887.90707
     -3320.410  
  22594534.320   120695938.74806        79.022    22594538.366    93874641.86105
        61.456  
  23064389.614   123292391.60306      3620.863    23064395.736    95894108.41105
      2816.223  
  21702155.292   116051182.53805      3321.266    21702161.981    90262057.52907
      2583.206  
  19604704.731   104871949.02906     -1264.765    19604707.988    81567081.52207
      -983.655  
 20 09 30 05 46  0.0000000  0 15G15G18G20G29G 5G30G27G13R 4R 3R18R12
                                R 5R20R19
  20115166.491   105705910.73949       914.477    20115165.432    82368243.87648
       712.573  
  20551595.076   107999359.52849      1108.538    20551595.029    84155345.30948
       863.796  
  22335882.976   117375859.63448      2887.546    22335882.813    91461704.25746
      2250.035  
  23773693.729   124931616.73547     -3581.344    23773695.419    97349307.24245
     -2790.659  
  23022433.034   120983705.04247     -3089.222    23022434.191    94273016.00745
     -2407.190  
  24132061.190   126814840.82845     -1510.569    24132063.196    98816767.13446
     -1177.074  
  24661641.643   129597811.17246      2302.784    24661644.395   100985315.48845
      1794.379  
  20699536.195   108776799.32549     -1197.077    20699535.828    84761140.39747
      -932.793  
  19577530.748   104836787.33209      1259.684    19577533.389    81539734.53508
       979.749  
  20179316.447   108021458.26208     -2334.038    20179319.943    84016707.91908
     -1815.363  
  22005827.803   117468596.18807     -4270.727    22005834.683    91364493.63607
     -3321.680  
  22594462.705   120695555.66105        74.694    22594466.378    93874343.92905
        58.101  
  23061003.712   123274291.11006      3619.867    23061009.868    95880030.25105
      2815.452  
  21699050.637   116034580.77305      3318.815    21699057.415    90249145.05807
      2581.301  
  19605888.715   104878283.01606     -1268.983    19605891.933    81572007.96007
      -986.987  
 20 09 30 05 46  5.0000000  0 15G15G18G20G29G 5G30G27G13R 4R 3R18R12
                                R 5R20R19
  20114297.985   105701346.68349       911.504    20114296.997    82364687.47048
       710.262  
  20550541.809   107993824.57449      1105.929    20550541.732    84151032.35648
       861.757  
  22333135.888   117361423.96848      2887.042    22333135.662    91450455.66546
      2249.640  
  23777102.084   124949526.79446     -3582.375    23777103.641    97363263.12445
     -2791.464  
  23025372.931   120999154.39847     -3089.636    23025374.039    94285054.44345
     -2407.512  
  24133499.744   126822400.07446     -1512.983    24133501.674    98822657.49246
     -1178.945  
  24659451.755   129586305.42046      2299.956    24659454.233   100976349.95446
      1792.176  
  20700676.835   108782793.27549     -1199.984    20700676.546    84765811.00847
      -935.059  
  19576355.762   104830495.74009      1257.289    19576358.560    81534841.06708
       977.886  
  20181497.413   108033133.86208     -2335.753    20181500.992    84025788.94808
     -1816.698  
  22009829.096   117489955.45207     -4272.246    22009836.058    91381106.38507
     -3322.863  
  22594395.089   120695194.90606        70.479    22594398.861    93874063.28805
        54.809  
  23057618.693   123256196.02705      3619.477    23057624.803    95865956.33905
      2815.151  
  21695948.766   116017993.42405      3316.636    21695955.325    90236243.78907
      2579.605  
  19607076.848   104884639.72306     -1273.051    19607080.456    81576952.06807
      -990.156  
 20 09 30 05 46 10.0000000  0 15G15G18G20G29G 5G30G27G13R 4R 3R18R12
                                R 5R20R19
  20113432.311   105696797.81349       907.011    20113431.263    82361142.90148
       706.762  
  20549491.204   107988303.04349      1101.749    20549490.858    84146729.86148
       858.507  
  22330389.764   117346992.33148      2884.844    22330389.500    91439210.24746
      2247.925  
  23780510.958   124967440.76445     -3584.406    23780512.448    97377222.05444
     -2793.042  
  23028313.620   121014607.04247     -3091.952    23028314.547    94297095.45745
     -2409.316  
  24134940.549   126829972.52145     -1517.253    24134942.788    98828558.04945
     -1182.284  
  24657264.113   129574811.78446      2296.253    24657267.004   100967393.86544
      1789.284  
  20701820.134   108788801.66349     -1204.335    20701819.679    84770492.88547
      -938.445  
  19575183.395   104824217.20709      1253.019    19575185.862    81529957.75808
       974.699  
  20183680.285   108044818.41508     -2338.973    20183683.743    84034876.90308
     -1819.206  
  22013831.876   117511322.47407     -4275.495    22013838.878    91397725.19707
     -3325.387  
  22594331.613   120694855.17306        64.953    22594335.043    93873799.07405
        50.520  
  23054234.377   123238105.13605      3616.652    23054240.478    95851885.65605
      2812.956  
  21692849.310   116001419.27305      3312.308    21692855.809    90223352.78907
      2576.237  
  19608269.289   104891018.29406     -1279.367    19608272.815    81581913.16907
      -995.066  
 20 09 30 05 46 15.0000000  0 15G15G18G20G29G 5G30G27G13R 4R 3R18R12
                                R 5R20R19
  20112570.249   105692267.36749       905.214    20112569.193    82357612.67948
       705.359  
  20548443.649   107982798.20049      1100.305    20548443.455    84142440.38948
       857.379  
  22327644.775   117332567.97248      2884.937    22327644.576    91427970.49346
      2248.004  
  23783921.279   124985361.87046     -3583.761    23783922.475    97391186.57945
     -2792.543  
  23031255.513   121030066.29447     -3091.573    23031256.244    94309141.62146
     -2409.022  
  24136384.499   126837561.65546     -1518.601    24136386.685    98834471.69245
     -1183.323  
  24655080.128   129563333.45947      2295.104    24655082.822   100958449.75745
      1788.394  
  20702966.862   108794827.85349     -1206.046    20702966.455    84775188.61747
      -939.781  
  19574014.025   104817955.03209      1251.812    19574016.538    81525087.19208
       973.633  
  20185865.395   108056515.26108     -2339.339    20185868.928    84043974.46408
     -1819.492  
  22017836.770   117532700.52707     -4275.479    22017843.628    91414352.54907
     -3325.378  
  22594272.590   120694540.00606        61.792    22594275.836    93873553.95805
        48.063  
  23050851.465   123220021.81505      3616.379    23050857.531    95837820.86105
      2812.737  
  21689752.871   115984861.50105      3310.933    21689759.444    90210474.52007
      2575.171  
  19609466.310   104897421.76706     -1282.141    19609469.773    81586893.65507
      -997.199  
 20 09 30 05 46 20.0000000  0 15G15G18G20G29G 5G30G27G13R 4R 3R18R12
                                R 5R20R19
  20111710.310   105687748.41749       901.854    20111709.317    82354091.41448
       702.742  
  20547397.996   107977303.13349      1097.324    20547397.718    84138158.52248
       855.058  
  22324899.941   117318143.96248      2884.218    22324899.606    91416730.98646
      2247.437  
  23787331.814   125003283.10347     -3584.934    23787332.839    97405151.16645
     -2793.452  
  23034197.405   121045525.01147     -3092.233    23034198.017    94321187.37845
     -2409.535  
  24137830.414   126845160.17946     -1521.495    24137832.784    98840392.62946
     -1185.582  
  24652897.570   129551863.63247      2292.331    24652900.187   100949512.23144
      1786.233  
  20704115.699   108800864.84549     -1209.104    20704115.193    84779892.75647
      -942.164  
  19572846.318   104811702.19909      1249.136    19572848.675    81520223.86508
       971.547  
  20188051.441   108068217.30508     -2341.602    20188054.988    84053076.04408
     -1821.249  
  22021842.354   117554082.57307     -4277.437    22021849.384    91430983.02307
     -3326.898  
  22594216.805   120694242.13606        57.188    22594220.415    93873322.26405
        44.476  
  23047468.587   123201938.89205      3615.805    23047474.868    95823756.40404
      2812.297  
  21686658.356   115968313.24005      3308.241    21686664.782    90197603.64707
      2573.073  
  19610666.846   104903843.20106     -1286.569    19610670.342    81591888.09907
     -1000.667  
 20 09 30 05 46 25.0000000  0 15G15G18G20G29G 5G30G27G13R 4R 3R18R12
                                R 5R20R19
  20110853.390   105683245.92849       899.015    20110852.377    82350582.98348
       700.526  
  20546354.996   107971822.78649      1094.726    20546354.955    84133888.11248
       853.030  
  22322156.251   117303725.27248      2883.167    22322155.851    91405495.67446
      2246.628  
  23790743.078   125021209.42046     -3585.612    23790743.952    97419119.69645
     -2793.988  
  23037140.026   121060988.33547     -3093.042    23037140.550    94333236.71245
     -2410.163  
  24139278.992   126852773.32246     -1524.136    24139281.501    98846324.91545
     -1187.648  
  24650717.598   129540407.14546      2290.116    24650720.203   100940585.09145
      1784.503  
  20705267.574   108806917.61249     -1212.105    20705267.110    84784609.19647
      -944.499  
  19571681.223   104805463.63709      1246.491    19571683.729    81515371.65608
       969.492  
  20190239.354   108079929.56208     -2343.383    20190242.792    84062185.57208
     -1822.637  
  22025849.633   117575473.70207     -4279.077    22025856.590    91447620.54307
     -3328.180  
  22594164.921   120693966.54405        52.827    22594168.744    93873107.89506
        41.086  
  23044086.900   123183861.65205      3614.652    23044093.107    95809696.38305
      2811.402  
  21683566.391   115951779.55105      3305.684    21683573.089    90184744.11907
      2571.086  
  19611871.505   104910287.68806     -1291.167    19611875.040    81596900.47507
     -1004.246  
 20 09 30 05 46 30.0000000  0 15G15G18G20G29G 5G30G27G13R 4R 3R18R12
                                R 5R20R19
  20109999.701   105678759.70349       896.042    20109998.906    82347087.22448
       698.215  
  20545314.860   107966356.96049      1092.147    20545314.867    84129629.03148
       851.022  
  22319413.313   117289311.72148      2882.800    22319413.103    91394264.32946
      2246.340  
  23794155.363   125039140.66147     -3586.452    23794156.311    97433092.08044
     -2794.644  
  23040083.440   121076455.92547     -3093.651    23040084.056    94345289.40945
     -2410.636  
  24140730.266   126860400.72546     -1526.538    24140733.260    98852268.34644
     -1189.515  
  24648540.004   129528963.93746      2287.647    24648542.728   100931668.32044
      1782.581  
  20706422.280   108812985.91549     -1214.843    20706421.709    84789337.74047
      -946.637  
  19570518.883   104799239.23309      1243.922    19570521.382    81510530.45908
       967.495  
  20192429.164   108091651.78508     -2345.108    20192432.490    84071302.85708
     -1823.977  
  22029858.637   117596873.53707     -4280.608    22029865.438    91464264.85307
     -3329.366  
  22594117.317   120693713.28406        48.762    22594121.496    93872910.96806
        37.929  
  23040706.047   123165789.55505      3614.352    23040712.190    95795640.27605
      2811.159  
  21680477.311   115935260.06905      3302.437    21680483.750    90171895.63207
      2568.559  
  19613080.410   104916754.95406     -1295.362    19613083.991    81601930.57907
     -1007.504  
 20 09 30 05 46 35.0000000  0 15G15G18G20G29G 5G30G27G13R 4R 3R18R12
                                R 5R20R19
  20109148.880   105674288.98449       891.961    20109148.106    82343603.55748
       695.034  
  20544277.382   107960904.94549      1088.405    20544277.185    84125380.71148
       848.109  
  22316671.335   117274902.59448      2881.069    22316671.078    91383036.44546
      2244.988  
  23797568.579   125057076.01047     -3588.155    23797569.140    97447067.67245
     -2795.964  
  23043027.771   121091927.20947     -3096.070    23043027.978    94357344.90546
     -2412.531  
  24142184.230   126868041.73146     -1529.913    24142187.543    98858222.35746
     -1192.145  
  24646364.662   129517533.18746      2284.410    24646367.488   100922761.23144
      1780.059  
  20707580.050   108819069.03949     -1218.688    20707579.244    84794077.84347
      -949.625  
  19569358.988   104793028.29909      1240.359    19569361.443    81505699.73008
       964.719  
  20194620.809   108103383.24208     -2347.862    20194624.115    84080427.32708
     -1826.116  
  22033869.162   117618281.33307     -4282.973    22033875.952    91480915.35807
     -3331.202  
  22594073.521   120693481.55404        44.313    22594078.413    93872730.68406
        34.452  
  23037326.162   123147722.16405      3613.223    23037332.020    95781587.93105
      2810.293  
  21677390.690   115918754.33105      3299.374    21677396.944    90159057.83807
      2566.175  
  19614293.711   104923244.13906     -1300.523    19614297.032    81606977.72807
     -1011.519  
 20 09 30 05 46 40.0000000  0 15G15G18G20G29G 5G30G27G13R 4R 3R18R12
                                R 5R20R19
  20108301.474   105669835.77349       889.194    20108300.726    82340133.52348
       692.878  
  20543242.924   107955468.73549      1086.008    20543242.707    84121144.69548
       846.233  
  22313930.494   117260499.84648      2880.172    22313930.285    91371813.51546
      2244.288  
  23800982.688   125075017.46046     -3588.546    23800983.580    97461048.01445
     -2796.273  
  23045973.038   121107404.09947     -3095.468    23045973.216    94369404.81545
     -2412.058  
  24143641.321   126875698.20246     -1532.512    24143644.543    98864188.43746
     -1194.168  
  24644192.329   129506117.00246      2281.766    24644194.999   100913865.50445
      1777.995  
  20708740.675   108825168.91149     -1221.409    20708739.973    84798830.98847
      -951.750  
  19568201.894   104786832.70609      1237.871    19568204.415    81500880.93808
       962.789  
  20196814.502   108115126.06108     -2349.433    20196817.661    84089560.63408
     -1827.335  
  22037881.566   117639699.16507     -4284.254    22037888.177    91497573.65607
     -3332.203  
  22594034.350   120693273.06104        39.952    22594039.646    93872568.55606
        31.073  
  23033947.532   123129661.38405      3611.762    23033953.327    95767540.66905
      2809.155  
  21674307.099   115902264.20605      3296.805    21674313.329    90146232.19207
      2564.179  
  19615511.292   104929757.31606     -1304.602    19615514.632    81612043.53307
     -1014.695  
 20 09 30 05 46 45.0000000  0 15G15G18G20G29G 5G30G27G13R 4R 3R18R12
                                R 5R20R19
  20107456.949   105665397.76349       886.097    20107456.301    82336675.33548
       690.461  
  20542210.951   107950045.99449      1083.222    20542210.897    84116919.19748
       844.069  
  22311190.594   117246101.13848      2879.522    22311190.157    91360593.77046
      2243.785  
  23804397.595   125092962.67047     -3589.543    23804398.412    97475031.30345
     -2797.050  
  23048918.883   121122884.24147     -3096.414    23048919.184    94381467.25246
     -2412.793  
  24145100.621   126883367.93646     -1535.363    24145104.003    98870164.86845
     -1196.387  
  24642022.175   129494712.92446      2279.633    24642024.525   100904979.21245
      1776.332  
  20709904.321   108831283.22649     -1224.272    20709903.648    84803595.38747
      -953.984  
  19567047.368   104780650.18209      1235.238    19567050.033    81496072.32008
       960.758  
  20199009.674   108126877.71008     -2351.210    20199012.895    84098700.78608
     -1828.722  
  22041895.203   117661124.63507     -4285.918    22041901.781    91514237.89607
     -3333.500  
  22593999.097   120693085.68304        35.676    22594004.617    93872422.83306
        27.745  
  23030569.434   123111604.88904      3610.789    23030575.415    95753496.74605
      2808.390  
  21671225.859   115885787.24105      3294.780    21671231.854    90133416.78707
      2562.608  
  19616732.893   104936292.24406     -1308.930    19616736.349    81617126.24907
     -1018.058  
 20 09 30 05 46 50.0000000  0 14G15G18G20G29G 5G30G27G13R 4R 3R18R 5
                                R20R19
  20106615.074   105660973.99149       883.175    20106614.553    82333228.23948
       688.188  
  20541181.478   107944635.82749      1080.534    20541181.268    84112703.47748
       841.972  
  22308451.107   117231705.59648      2878.273    22308450.858    91349376.45646
      2242.808  
  23807813.058   125110910.73747     -3590.050    23807813.762    97489016.78045
     -2797.448  
  23051865.099   121138366.68247     -3096.925    23051865.382    94393531.50244
     -2413.191  
  24146562.519   126891049.95046     -1537.734    24146565.820    98876150.86146
     -1198.233  
  24639854.270   129483320.09745      2277.066    24639856.084   100896101.68445
      1774.335  
  20711070.464   108837411.03549     -1227.164    20711069.790    84808370.29247
      -956.234  
  19565894.958   104774479.82909      1232.598    19565897.813    81491273.14708
       958.684  
  20201206.559   108138637.27508     -2353.011    20201209.811    84107847.12508
     -1830.120  
  22045910.190   117682556.72407     -4287.171    22045916.799    91530907.28907
     -3334.472  
  23027191.882   123093551.65705      3610.535    23027198.293    95739455.35405
      2808.198  
  21668146.910   115869322.78005      3291.729    21668153.031    90120611.10207
      2560.233  
  19617958.384   104942847.97906     -1313.426    19617961.866    81622225.15007
     -1021.559  
 20 09 30 05 46 55.0000000  0 14G15G18G20G29G 5G30G27G13R 4R 3R18R 5
                                R20R19
  20105777.019   105656569.51649       879.062    20105776.497    82329796.19448
       684.984  
  20540155.397   107939243.20249      1076.902    20540155.062    84108501.43148
       839.141  
  22305713.324   117217318.17048      2876.683    22305713.026    91338165.49146
      2241.570  
  23811230.011   125128866.57247     -3591.813    23811230.749    97503008.33245
     -2798.819  
  23054812.775   121153856.32147     -3097.969    23054813.051    94405601.30845
     -2414.004  
  24148027.814   126898749.22346     -1541.434    24148031.223    98882150.31445
     -1201.116  
  24637689.257   129471943.56546      2273.565    24637691.228   100887236.86645
      1771.612  
  20712240.012   108843557.36749     -1231.031    20712239.338    84813159.64647
      -959.250  
  19564745.907   104768326.65108      1229.063    19564748.753    81486487.35008
       955.938  
  20203405.652   108150409.88008     -2355.784    20203408.923    84117003.57808
     -1832.280  
  22049927.446   117704000.54707     -4289.921    22049933.719    91547585.79807
     -3336.608  
  23023816.197   123075506.78005      3608.604    23023822.681    95725420.46305
      2806.690  
  21665071.209   115852875.78005      3287.719    21665076.983    90107818.98807
      2557.112  
  19619188.786   104949429.42606     -1318.813    19619192.190    81627344.04807
     -1025.746  
 20 09 30 05 47  0.0000000  0 14G15G18G20G29G 5G30G27G13R 4R 3R18R 5
                                R20R19
  20104942.015   105652181.35349       876.249    20104941.335    82326376.84748
       682.792  
  20539131.970   107933865.18249      1074.331    20539131.552    84104310.76648
       837.136  
  22302976.306   117202935.91748      2876.206    22302976.164    91326958.53246
      2241.195  
  23814647.979   125146827.26847     -3592.316    23814648.554    97517003.67145
     -2799.210  
  23057761.170   121169350.39847     -3098.937    23057761.495    94417674.62845
     -2414.761  
  24149495.578   126906462.81246     -1544.081    24149498.999    98888160.86045
     -1203.188  
  24635526.973   129460580.40446      2271.183    24635529.000   100878382.46945
      1769.754  
  20713412.633   108849719.24949     -1233.707    20713412.063    84817961.10447
      -961.335  
  19563599.458   104762187.62509      1226.586    19563602.335    81481712.56008
       954.012  
  20205606.824   108162192.39408     -2357.351    20205609.953    84126167.76308
     -1833.499  
  22053946.392   117725453.07507     -4291.070    22053952.633    91564271.08407
     -3337.504  
  23020441.641   123057467.43704      3607.094    23020447.950    95711389.85705
      2805.516  
  21661998.394   115836443.27905      3285.433    21662004.053    90095038.15907
      2555.335  
  19620423.338   104956033.66806     -1323.063    19620426.579    81632480.67607
     -1029.051  
 20 09 30 05 47  5.0000000  0 14G15G18G20G29G 5G30G27G13R 4R 3R18R 5
                                R20R19
  20104109.671   105647807.26049       873.141    20104109.088    82322968.46448
       680.370  
  20538110.848   107928499.58949      1071.687    20538110.497    84100129.77848
       835.077  
  22300240.070   117188556.65248      2875.188    22300239.784    91315753.91846
      2240.405  
  23818066.323   125164790.50647     -3593.116    23818067.028    97531001.00144
     -2799.836  
  23060709.998   121184846.53047     -3100.077    23060710.326    94429749.53645
     -2415.644  
  24150965.853   126914188.47246     -1546.418    24150969.185    98894180.87046
     -1205.000  
  24633366.832   129449228.28747      2268.973    24633368.806   100869536.64744
      1768.026  
  20714587.735   108855894.48349     -1236.632    20714586.965    84822772.97447
      -963.612  
  19562455.254   104756060.55909      1223.867    19562458.312    81476947.05908
       951.897  
  20207809.304   108173982.63008     -2359.155    20207812.455    84135337.95808
     -1834.897  
  22057966.415   117746912.07407     -4292.632    22057972.466    91580961.40807
     -3338.719  
  23017067.677   123039431.19704      3606.874    23017073.923    95697361.67804
      2805.347  
  21658927.865   115820023.06005      3282.777    21658933.114    90082266.89007
      2553.270  
  19621661.843   104962658.36206     -1327.405    19621665.062    81637633.21207
     -1032.429  
 20 09 30 05 47 10.0000000  0 15G15G18G20G29G 5G30G27G13R 4R 3R18R12
                                R 5R20R19
  20103280.573   105643450.41449       869.472    20103279.996    82319573.53448
       677.511  
  20537092.754   107923149.53149      1068.198    20537092.355    84095960.90648
       832.363  
  22297504.935   117174183.54648      2873.647    22297504.815    91304554.08446
      2239.206  
  23821485.766   125182759.46047     -3594.159    23821486.165    97545002.76745
     -2800.648  
  23063659.795   121200347.97647     -3101.008    23063660.024    94441828.59045
     -2416.375  
  24152438.882   126921929.28846     -1550.371    24152442.321    98900212.67945
     -1208.081  
  24631209.292   129437890.43246      2265.926    24631211.486   100860701.94045
      1765.652  
  20715766.065   108862086.18049     -1240.210    20715765.309    84827597.69147
      -966.402  
  19561313.873   104749948.63709      1220.520    19561316.910    81472193.34708
       949.288  
  20210013.824   108185783.87708     -2361.695    20210017.184    84144516.70108
     -1836.878  
  22061988.108   117768380.61507     -4294.937    22061994.239    91597659.15807
     -3340.511  
  22593884.448   120692478.77615        12.984    22593890.451    93871953.37416
        10.101  
  23013694.751   123021401.44304      3605.512    23013700.926    95683338.59704
      2804.293  
  21655860.038   115803618.32305      3278.772    21655865.347    90069507.65407
      2550.156  
  19622904.645   104969306.64206     -1332.030    19622907.880    81642804.09507
     -1036.026  
 20 09 30 05 47 15.0000000  0 15G15G18G20G29G 5G30G27G13R 4R 3R18R12
                                R 5R20R19
  20102454.689   105639110.27349       866.362    20102454.084    82316191.59648
       675.086  
  20536077.504   107917814.51349      1065.547    20536077.098    84091803.75548
       830.297  
  22294770.777   117159815.97748      2873.109    22294770.609    91293358.59146
      2238.784  
  23824906.214   125200733.66047     -3595.109    23824906.700    97559008.63045
     -2801.387  
  23066610.801   121215854.11847     -3102.102    23066610.713    94453911.29245
     -2417.226  
  24153914.673   126929684.87647     -1552.690    24153918.100    98906255.96845
     -1209.894  
  24629054.437   129426566.31146      2263.601    24629056.626   100851877.96044
      1763.840  
  20716947.278   108868293.80949     -1243.102    20716946.553    84832434.78347
      -968.656  
  19560175.292   104743851.27509      1218.168    19560178.128    81467450.95308
       947.461  
  20212220.441   108197595.41408     -2363.320    20212223.789    84153703.44508
     -1838.140  
  22066011.673   117789858.30207     -4296.504    22066017.738    91614364.01507
     -3341.730  
  22593874.132   120692425.04604         8.136    22593880.164    93871911.57206
         6.327  
  23010322.872   123003377.38104      3604.440    23010328.800    95669319.79104
      2803.445  
  21652795.176   115787228.37905      3277.058    21652800.330    90056759.92207
      2548.819  
  19624152.006   104975978.21506     -1336.308    19624155.024    81647993.09907
     -1039.352  
 20 09 30 05 47 20.0000000  0 15G15G18G20G29G 5G30G27G13R 4R 3R18R12
                                R 5R20R19
  20101631.858   105634786.33049       863.297    20101631.373    82312822.29048
       672.698  
  20535065.111   107912494.00649      1062.820    20535064.586    84087657.90748
       828.172  
  22292037.769   117145453.54748      2872.292    22292037.640    91282167.10546
      2238.148  
  23828327.479   125218712.49847     -3596.296    23828328.065    97573018.07645
     -2802.316  
  23069562.309   121231364.45947     -3101.819    23069562.126    94465997.27345
     -2417.008  
  24155393.341   126937454.48546     -1555.378    24155396.722    98912310.23845
     -1211.979  
  24626902.073   129415255.50146      2260.753    24626904.140   100843064.32645
      1761.621  
  20718131.504   108874516.80349     -1245.938    20718130.775    84837283.87847
      -970.859  
  19559039.151   104737767.97809      1215.292    19559042.229    81462719.50608
       945.257  
  20214428.691   108209416.75908     -2365.004    20214432.060    84162897.81108
     -1839.453  
  22070036.809   117811344.44307     -4297.878    22070042.648    91631075.44607
     -3342.797  
  22593867.143   120692393.33804         3.784    22593874.729    93871886.89806
         2.940  
  23006951.813   122985358.70205      3603.050    23006958.145    95655305.31904
      2802.370  
  21649733.006   115770853.01605      3273.160    21649738.083    90044023.52207
      2545.788  
  19625403.436   104982672.42506     -1341.129    19625406.262    81653199.70207
     -1043.105  
 20 09 30 05 47 25.0000000  0 15G15G18G20G29G 5G30G27G13R 4R 3R18R12
                                R 5R20R19
  20100811.871   105630477.14349       860.566    20100811.333    82309464.49048
       670.569  
  20534055.006   107907186.62149      1060.188    20534054.792    84083522.28248
       826.117  
  22289305.339   117131094.81648      2871.226    22289305.106    91270978.49146
      2237.324  
  23831749.393   125236694.49647     -3596.398    23831750.033    97587030.05844
     -2802.382  
  23072514.353   121246877.58546     -3102.628    23072514.240    94478085.40445
     -2417.636  
  24156874.232   126945236.90146     -1557.480    24156877.599    98918374.46545
     -1213.624  
  24624751.840   129403956.48246      2258.102    24624753.613   100834259.90444
      1759.558  
  20719318.372   108880753.83549     -1248.727    20719317.691    84842143.91347
      -973.034  
  19557905.628   104731697.29409      1212.733    19557908.505    81457997.86508
       943.238  
  20216638.696   108221246.52308     -2366.608    20216642.034    84172098.73808
     -1840.694  
  22074063.258   117832837.58607     -4299.113    22074069.021    91647792.32807
     -3343.758  
  22593865.988   120692382.29104        -0.147    22593873.100    93871878.28506
        -0.125  
  23003581.633   122967343.75005      3602.612    23003588.060    95641293.62504
      2802.022  
  21646673.077   115754490.57505      3271.309    21646678.271    90031297.18507
      2544.351  
  19626658.612   104989387.83306     -1345.160    19626661.586    81658422.80607
     -1046.233  
 20 09 30 05 47 30.0000000  0 15G15G18G20G29G 5G30G27G13R 4R 3R18R12
                                R 5R20R19
  20099994.926   105626184.28549       856.984    20099994.422    82306119.40948
       667.780  
  20533047.758   107901893.90349      1057.136    20533047.673    84079398.07848
       823.742  
  22286574.040   117116741.33548      2870.164    22286573.598    91259793.98246
      2236.492  
  23835172.295   125254681.34048     -3597.831    23835172.528    97601045.76043
     -2803.511  
  23075467.192   121262395.11146     -3103.437    23075466.916    94490176.96445
     -2418.269  
  24158358.037   126953033.66147     -1560.776    24158361.167    98924449.83445
     -1216.195  
  24622604.188   129392670.92946      2255.691    24622606.132   100825465.95145
      1757.672  
  20720508.296   108887006.39749     -1252.031    20720507.813    84847016.04547
      -975.608  
  19556774.513   104725640.88609      1209.836    19556777.650    81453287.33108
       940.984  
  20218850.539   108233086.19408     -2368.851    20218853.892    84181307.35208
     -1842.444  
  22078091.518   117854339.49307     -4301.249    22078097.051    91664516.02607
     -3345.421  
  22593868.312   120692393.51705        -4.300    22593875.369    93871887.02806
        -3.343  
  23000212.675   122949334.36704      3602.210    23000219.176    95627286.42504
      2801.727  
  21643615.857   115738142.68605      3267.746    21643621.068    90018582.17107
      2541.581  
  19627918.128   104996125.98706     -1349.968    19627921.247    81663663.57907
     -1049.979  
 20 09 30 05 47 35.0000000  0 15G15G18G20G29G 5G30G27G13R 4R 3R18R12
                                R 5R20R19
  20099181.226   105621908.45149       853.812    20099180.720    82302787.59048
       665.309  
  20532043.564   107896616.54749      1054.347    20532043.221    84075285.86048
       821.570  
  22283843.761   117102393.77748      2869.219    22283843.506    91248614.05846
      2235.749  
  23838596.130   125272673.58847     -3598.605    23838596.299    97615065.65545
     -2804.112  
  23078420.809   121277917.66046     -3104.656    23078420.837    94502272.49346
     -2419.206  
  24159844.759   126960845.37546     -1563.593    24159847.559    98930536.89146
     -1218.386  
  24620459.332   129381399.42046      2253.542    24620461.067   100816682.95944
      1756.003  
  20721701.269   108893275.13849     -1255.022    20721700.557    84851900.76047
      -977.945  
  19555646.398   104719599.34609      1207.137    19555649.428    81448588.36008
       938.882  
  20221064.273   108244936.55008     -2370.914    20221067.674    84190524.31708
     -1844.042  
  22082121.368   117875850.63507     -4302.816    22082126.523    91681246.90006
     -3346.641  
  22593874.750   120692427.75405        -9.132    22593881.689    93871913.69206
        -7.094  
  22996844.830   122931331.08404      3600.757    22996851.192    95613283.80904
      2800.581  
  21640561.741   115721810.29505      3265.508    21640566.728    90005879.22007
      2539.839  
  19629182.140   105002887.56806     -1354.031    19629185.275    81668922.58507
     -1053.140  
 20 09 30 05 47 40.0000000  0 15G15G18G20G29G 5G30G27G13R 4R 3R18R12
                                R 5R20R19
  20098370.393   105617647.43249       850.714    20098369.943    82299467.31548
       662.890  
  20531041.846   107891352.38649      1051.452    20531041.460    84071183.91048
       819.309  
  22281114.231   117088049.97248      2868.136    22281113.927    91237437.07446
      2234.910  
  23842020.668   125290669.03447     -3599.690    23842020.966    97629088.12545
     -2804.949  
  23081375.226   121293443.13446     -3105.199    23081375.350    94514370.26446
     -2419.640  
  24161333.640   126968669.74747     -1566.355    24161336.559    98936633.75345
     -1220.543  
  24618316.604   129370139.80346      2250.699    24618318.743   100807909.25044
      1753.796  
  20722896.713   108899557.86649     -1257.972    20722896.245    84856796.40247
      -980.241  
  19554520.536   104713570.47209      1204.539    19554523.585    81443899.23008
       936.858  
  20223279.656   108256795.22908     -2372.569    20223282.832    84199747.73408
     -1845.332  
  22086152.533   117897368.76907     -4304.301    22086157.671    91697983.22807
     -3347.789  
  22593884.891   120692482.64205       -13.382    22593891.831    93871956.36006
       -10.413  
  22993477.414   122913331.81704      3598.969    22993484.198    95599284.40504
      2799.198  
  21637510.049   115705491.02905      3262.441    21637514.890    89993186.45707
      2537.452  
  19630450.141   105009670.39606     -1358.500    19630453.368    81674198.12707
     -1056.608  
 20 09 30 05 47 45.0000000  0 15G15G18G20G29G 5G30G27G13R 4R 3R18R12
                                R 5R20R19
  20097562.608   105613402.86849       846.945    20097562.074    82296159.85148
       659.953  
  20530042.985   107886103.02749      1047.910    20530042.611    84067093.50748
       816.550  
  22278385.832   117073711.54248      2866.750    22278385.282    91226264.26146
      2233.827  
  23845445.938   125308669.38647     -3600.855    23845446.234    97643114.36645
     -2805.862  
  23084330.235   121308972.96547     -3106.402    23084330.450    94526471.43545
     -2420.574  
  24162825.362   126976508.58246     -1569.641    24162828.282    98942741.95645
     -1223.102  
  24616176.493   129358893.79245      2247.358    24616178.900   100799146.10444
      1751.184  
  20724095.393   108905856.21949     -1261.456    20724094.844    84861704.21147
      -982.953  
  19553397.311   104707555.96509      1201.195    19553400.381    81439221.28108
       934.261  
  20225496.748   108268663.93608     -2375.188    20225499.959    84208978.94108
     -1847.371  
  22090185.287   117918895.72707     -4306.230    22090190.339    91714726.40107
     -3349.292  
  22593899.872   120692559.92306       -17.757    22593906.057    93872016.46306
       -13.815  
  22990111.421   122895338.12305      3598.624    22990118.080    95585289.36104
      2798.938  
  21634460.998   115689186.38105      3259.344    21634465.990    89980505.06707
      2535.042  
  19631722.466   105016476.10006     -1363.765    19631725.547    81679491.44807
     -1060.706  
 20 09 30 05 47 50.0000000  0 15G15G18G20G29G 5G30G27G13R 4R 3R18R12
                                R 5R20R19
  20096758.434   105609176.03049       843.964    20096757.858    82292866.21848
       657.637  
  20529046.967   107880869.72949      1045.491    20529046.686    84063015.61348
       814.668  
  22275658.585   117059379.73348      2866.108    22275657.893    91215096.62246
      2233.328  
  23848872.378   125326675.79347     -3601.469    23848872.719    97657145.28344
     -2806.344  
  23087286.594   121324508.45446     -3106.664    23087286.824    94538577.01145
     -2420.776  
  24164320.228   126984363.02747     -1572.026    24164323.093    98948862.30045
     -1224.956  
  24614039.350   129347662.55746      2244.887    24614041.639   100790394.53345
      1749.266  
  20725297.128   108912171.44449     -1264.211    20725296.635    84866625.15848
      -985.102  
  19552277.249   104701557.05309      1198.659    19552280.080    81434555.45808
       932.293  
  20227716.041   108280543.95008     -2376.808    20227719.272    84218218.96908
     -1848.628  
  22094219.912   117940432.54707     -4307.757    22094224.948    91731477.22807
     -3350.484  
  22593918.599   120692660.98906       -21.858    22593925.306    93872095.09806
       -17.000  
  22986746.688   122877351.23105      3596.972    22986753.378    95571299.51505
      2797.640  
  21631414.906   115672897.99905      3256.484    21631419.816    89967836.32807
      2532.819  
  19632999.029   105023305.79106     -1367.973    19633002.298    81684803.42107
     -1063.984  
 20 09 30 05 47 55.0000000  0 15G15G18G20G29G 5G30G27G13R 4R 3R18R12
                                R 5R20R19
  20095956.559   105604962.96149       841.215    20095956.091    82289583.30348
       655.491  
  20528053.429   107875648.58949      1042.913    20528053.289    84058947.19448
       812.655  
  22272931.899   117045050.64948      2865.332    22272931.252    91203931.10646
      2232.727  
  23852299.393   125344684.35147     -3602.198    23852299.427    97671177.92244
     -2806.917  
  23090243.113   121340045.75346     -3108.351    23090243.363    94550684.01245
     -2422.097  
  24165817.156   126992229.12446     -1574.714    24165819.843    98954991.73845
     -1227.050  
  24611904.307   129336442.24146      2242.953    24611906.464   100781651.38345
      1747.749  
  20726501.311   108918499.56149     -1267.108    20726500.851    84871556.16148
      -987.362  
  19551159.077   104695569.69509      1196.230    19551161.933    81429898.63208
       930.402  
  20229936.856   108292431.27108     -2378.300    20229939.991    84227464.66408
     -1849.793  
  22098255.689   117961975.29907     -4309.727    22098260.534    91748232.70206
     -3352.011  
  22593941.529   120692781.57105       -25.449    22593948.094    93872188.89807
       -19.793  
  22983382.359   122859367.37105      3596.241    22983389.314    95557312.10404
      2797.082  
  21628371.288   115656621.55905      3253.902    21628375.826    89955176.89507
      2530.812  
  19634279.606   105030155.67006     -1372.168    19634282.895    81690131.10907
     -1067.245  
 20 09 30 05 48  0.0000000  0 15G15G18G20G29G 5G30G27G13R 4R 3R18R12
                                R 5R20R19
  20095158.132   105600766.57549       837.354    20095157.514    82286313.39248
       652.479  
  20527062.746   107870442.48649      1039.495    20527062.564    84054890.49448
       809.996  
  22270206.348   117030727.15748      2864.050    22270205.392    91192769.94846
      2231.722  
  23855727.090   125362697.86447     -3603.440    23855727.375    97685214.38944
     -2807.886  
  23093200.693   121355587.56947     -3109.027    23093200.603    94562794.51045
     -2422.617  
  24167316.700   127000109.78047     -1577.784    24167319.485    98961132.52245
     -1229.441  
  24609771.706   129325235.78346      2239.464    24609774.028   100772919.07044
      1745.034  
  20727708.537   108924843.45049     -1270.609    20727707.975    84876499.44347
      -990.090  
  19550043.697   104689596.98209      1192.871    19550046.658    81425253.17808
       927.785  
  20232159.360   108304328.82208     -2380.887    20232162.593    84236718.29308
     -1851.804  
  22102292.967   117983526.94107     -4311.434    22102297.990    91764995.06706
     -3353.343  
  22593968.330   120692924.92206       -31.206    22593975.291    93872300.36507
       -24.277  
  22980019.150   122841389.31006      3594.891    22980026.271    95543329.15504
      2796.027  
  21625330.508   115640360.23505      3250.737    21625335.064    89942529.19707
      2528.352  
  19635564.455   105037028.68006     -1377.137    19635567.557    81695476.77607
     -1071.109  
 20 09 30 05 48  5.0000000  0 15G15G18G20G29G 5G30G27G13R 4R 3R18R12
                                R 5R20R19
  20094363.124   105596588.43349       833.706    20094362.341    82283057.69648
       649.636  
  20526075.326   107865253.02749      1036.145    20526074.989    84050846.76148
       807.387  
  22267481.911   117016410.86548      2862.449    22267481.217    91181614.40546
      2230.480  
  23859156.132   125380717.97347     -3604.847    23859156.421    97699256.00944
     -2808.979  
  23096159.350   121371135.63346     -3110.117    23096159.119    94574909.85544
     -2423.473  
  24168819.504   127008006.60447     -1581.242    24168822.071    98967285.86245
     -1232.141  
  24607642.113   129314044.63246      2236.554    24607644.120   100764198.67345
      1742.769  
  20728919.020   108931204.73649     -1274.030    20728918.557    84881456.29447
      -992.749  
  19548931.477   104683640.37509      1189.668    19548934.236    81420620.25708
       925.292  
  20234384.273   108316238.14508     -2383.035    20234387.354    84245981.09708
     -1853.477  
  22106332.224   118005088.89407     -4313.499    22106337.228    91781765.45707
     -3354.948  
  22593999.721   120693092.38805       -35.515    22594006.786    93872430.62507
       -27.625  
  22976657.303   122823418.62005      3593.445    22976664.361    95529351.94904
      2794.897  
  21622292.623   115624115.77105      3247.238    21622297.133    89929894.61707
      2525.628  
  19636854.020   105043926.35806     -1381.847    19636857.065    81700841.63807
     -1074.773  
 20 09 30 05 48 10.0000000  0 15G15G18G20G29G 5G30G27G13R 4R 3R18R12
                                R 5R20R19
  20093570.965   105592425.04949       830.941    20093570.106    82279813.50248
       647.487  
  20525090.185   107860076.76349      1033.609    20525090.124    84046813.30748
       805.405  
  22264758.400   117002098.30848      2861.909    22264757.521    91170461.76446
      2230.059  
  23862585.860   125398741.09946     -3605.210    23862585.720    97713299.94743
     -2809.262  
  23099118.594   121386686.44046     -3110.671    23099118.461    94587027.36745
     -2423.902  
  24170324.807   127015916.15046     -1583.395    24170327.424    98973449.12445
     -1233.820  
  24605514.764   129302865.43446      2234.391    24605516.855   100755487.59344
      1741.074  
  20730132.166   108937579.92349     -1276.722    20730131.535    84886423.98647
      -994.848  
  19547821.519   104677696.41109      1187.257    19547824.259    81415997.18108
       923.401  
  20236610.498   108328155.86608     -2384.706    20236613.615    84255250.42708
     -1854.776  
  22110372.796   118026657.99207     -4314.469    22110377.968    91798541.42307
     -3355.702  
  22594035.192   120693280.52605       -40.136    22594042.109    93872576.94507
       -31.223  
  22973296.321   122805451.99805      3592.590    22973303.328    95515377.95405
      2794.238  
  21619257.348   115607884.38505      3244.628    21619261.885    89917270.22507
      2523.601  
  19638147.481   105050845.03606     -1386.371    19638150.433    81706222.83607
     -1078.288  
 20 09 30 05 48 15.0000000  0 15G15G18G20G29G 5G30G27G13R 4R 3R18R12
                                R 5R20R19
  20092781.862   105588278.87949       827.758    20092781.042    82276582.72748
       645.008  
  20524108.257   107854916.07349      1030.757    20524107.941    84042791.99548
       803.188  
  22262035.856   116987791.93248      2860.855    22262035.045    91159313.93246
      2229.233  
  23866016.454   125416769.83247     -3605.770    23866016.476    97727348.32045
     -2809.698  
  23102078.709   121402242.42146     -3111.718    23102078.646    94599148.89145
     -2424.722  
  24171832.751   127023840.73046     -1586.309    24171835.433    98979624.10645
     -1236.094  
  24603390.060   129291700.59846      2231.409    24603392.095   100746787.74345
      1738.762  
  20731348.526   108943971.44049     -1279.776    20731347.955    84891404.39647
      -997.229  
  19546714.327   104671767.48209      1184.511    19546716.953    81411385.79208
       921.284  
  20238838.976   108340084.20808     -2386.511    20238842.036    84264528.03308
     -1856.180  
  22114415.214   118048236.31807     -4316.301    22114420.350    91815324.55306
     -3357.124  
  22594074.933   120693491.93806       -44.258    22594081.968    93872741.39507
       -34.422  
  22969936.559   122787491.67505      3591.500    22969943.473    95501408.82204
      2793.390  
  21616224.886   115591668.69705      3242.063    21616229.490    89904658.01707
      2521.605  
  19639445.243   105057787.40706     -1390.688    19639448.348    81711622.45707
     -1081.644  
 20 09 30 05 48 20.0000000  0 15G15G18G20G29G 5G30G27G13R 4R 3R18R12
                                R 5R20R19
  20091995.588   105584146.79549       824.660    20091994.670    82273362.91648
       642.589  
  20523128.435   107849767.88449      1028.078    20523128.402    84038780.41748
       801.101  
  22259314.067   116973488.61848      2859.875    22259313.324    91148168.50046
      2228.472  
  23869447.603   125434800.89247     -3606.683    23869447.352    97741398.49744
     -2810.405  
  23105039.324   121417800.40146     -3112.097    23105039.254    94611271.96445
     -2425.015  
  24173343.078   127031777.29946     -1588.770    24173345.560    98985808.48046
     -1238.000  
  24601267.603   129280547.04346      2229.320    24601269.682   100738096.69344
      1737.137  
  20732567.370   108950376.13549     -1282.586    20732566.832    84896395.05447
      -999.422  
  19545609.341   104665850.49009      1182.038    19545612.028    81406783.69208
       919.362  
  20241068.749   108352020.23208     -2388.218    20241071.688    84273811.60608
     -1857.508  
  22118458.568   118069820.70407     -4317.707    22118463.877    91832112.40306
     -3358.218  
  22594118.507   120693723.29606       -48.891    22594125.334    93872921.31907
       -38.030  
  22966577.435   122769534.60506      3590.500    22966584.307    95487442.24505
      2792.612  
  21613194.806   115575465.53005      3239.008    21613199.321    89892055.56307
      2519.227  
  19640746.911   105064750.13906     -1395.324    19640749.876    81717037.92207
     -1085.253  
 20 09 30 05 48 25.0000000  0 15G15G18G20G29G 5G30G27G13R 4R 3R18R12
                                R 5R20R19
  20091212.338   105580030.50849       821.449    20091211.482    82270155.42648
       640.090  
  20522151.425   107844633.88149      1025.257    20522151.297    84034779.89548
       798.897  
  22256593.016   116959189.98848      2859.339    22256592.328    91137026.72746
      2228.059  
  23872879.602   125452835.98547     -3607.460    23872879.234    97755451.79044
     -2811.015  
  23108000.667   121433362.08047     -3112.719    23108000.608    94623397.93045
     -2425.499  
  24174855.894   127039727.48446     -1591.702    24174858.390    98992003.42444
     -1240.284  
  24599147.458   129269406.41845      2226.679    24599149.966   100729415.65444
      1735.073  
  20733788.867   108956795.67749     -1285.453    20733788.382    84901397.28947
     -1001.655  
  19544506.992   104659947.20709      1179.229    19544509.736    81402192.24708
       917.176  
  20243300.194   108363965.42308     -2390.214    20243303.262    84283102.31008
     -1859.059  
  22122503.588   118091413.04407     -4319.398    22122508.804    91848906.44506
     -3359.534  
  22594166.026   120693976.32506       -52.983    22594172.693    93873118.11607
       -41.214  
  22963219.173   122751582.43106      3589.762    22963225.825    95473479.45005
      2792.035  
  21610167.424   115559276.53705      3236.479    21610172.044    89879464.11007
      2517.257  
  19642052.693   105071735.00506     -1399.308    19642055.720    81722470.59207
     -1088.355  
 20 09 30 05 48 30.0000000  0 15G15G18G20G29G 5G30G27G13R 4R 3R18R12
                                R 5R20R19
  20090431.937   105575929.25049       818.687    20090430.971    82266959.64448
       637.934  
  20521177.097   107839513.34449      1022.655    20521176.883    84030789.86548
       796.871  
  22253872.904   116944895.42548      2858.460    22253872.326    91125888.11846
      2227.371  
  23876312.334   125470874.39247     -3608.405    23876311.713    97769507.71844
     -2811.745  
  23110962.543   121448926.75247     -3113.253    23110962.610    94635526.27245
     -2425.909  
  24176371.206   127047690.56446     -1593.929    24176373.704    98998208.41146
     -1242.027  
  24597029.607   129258278.06746      2224.155    24597032.390   100720744.25544
      1733.116  
  20735013.207   108963229.37749     -1288.312    20735012.605    84906410.55547
     -1003.882  
  19543406.896   104654056.77609      1176.699    19543409.642    81397610.80308
       915.211  
  20245533.320   108375919.17808     -2391.914    20245536.266    84292399.68308
     -1860.379  
  22126549.691   118113012.44906     -4321.085    22126554.932    91865705.96906
     -3360.847  
  22594217.433   120694250.30606       -57.284    22594223.729    93873331.21906
       -44.554  
  22959861.751   122733634.42806      3589.011    22959868.007    95459519.91304
      2791.452  
  21607142.605   115543101.06505      3233.358    21607147.190    89866883.20007
      2514.836  
  19643362.394   105078741.24106     -1403.754    19643365.439    81727919.88307
     -1091.812  
 20 09 30 05 48 35.0000000  0 15G15G18G20G29G 5G30G27G13R 4R 3R18R12
                                R 5R20R19
  20089654.776   105571845.62049       814.938    20089653.889    82263777.59348
       635.015  
  20520205.623   107834408.90349      1019.433    20520205.646    84026812.37648
       794.359  
  22251153.969   116930607.51048      2856.984    22251153.249    91114754.66846
      2226.218  
  23879745.968   125488918.69847     -3609.508    23879745.547    97783568.19544
     -2812.605  
  23113925.684   121464497.13246     -3114.836    23113925.553    94647659.02744
     -2427.152  
  24177889.495   127055669.16247     -1597.120    24177892.068    99004425.48345
     -1244.516  
  24594914.575   129247164.53346      2221.270    24594917.661   100712084.35644
      1730.855  
  20736240.597   108969679.79349     -1291.687    20736239.992    84911436.84747
     -1006.512  
  19542309.776   104648181.93409      1173.347    19542312.683    81393041.47608
       912.601  
  20247768.495   108387884.12308     -2394.203    20247771.448    84301705.75008
     -1862.160  
  22130597.660   118134621.53207     -4322.804    22130603.236    91882513.02906
     -3362.184  
  22594273.386   120694548.01006       -62.004    22594279.180    93873562.79006
       -48.227  
  22956505.581   122715693.52706      3587.223    22956511.699    95445565.87204
      2790.062  
  21604120.561   115526941.80905      3230.448    21604125.219    89854314.87607
      2512.566  
  19644676.569   105085771.47006     -1408.034    19644679.644    81733387.84307
     -1095.140  
 20 09 30 05 48 40.0000000  0 15G15G18G20G29G 5G30G27G13R 4R 3R18R12
                                R 5R20R19
  20088880.863   105567778.08449       811.703    20088879.987    82260608.09248
       632.492  
  20519236.976   107829318.97049      1016.308    20519237.095    84022846.19648
       791.925  
  22248435.931   116916324.62648      2856.008    22248435.407    91103625.15546
      2225.456  
  23883180.598   125506967.27247     -3610.413    23883179.864    97797631.99145
     -2813.313  
  23116889.393   121480071.43547     -3115.363    23116889.038    94659794.81545
     -2427.558  
  24179410.264   127063661.70146     -1600.664    24179413.046    99010653.41446
     -1247.277  
  24592802.258   129236064.32746      2218.640    24592805.226   100703434.84844
      1728.812  
  20737471.047   108976145.34849     -1294.836    20737470.303    84916474.95247
     -1008.965  
  19541215.313   104642320.94909      1170.438    19541218.164    81388482.93708
       910.340  
  20250005.309   108399858.55608     -2396.273    20250008.499    84311019.19308
     -1863.773  
  22134647.228   118156238.71207     -4324.527    22134652.884    91899326.39007
     -3363.522  
  22594333.216   120694867.61206       -66.546    22594338.943    93873811.37507
       -51.757  
  22953150.361   122697757.79506      3586.437    22953156.531    95431615.88605
      2789.456  
  21601101.544   115510797.20305      3227.387    21601106.129    89841757.96907
      2510.191  
  19645995.035   105092824.19106     -1412.883    19645998.149    81738873.28407
     -1098.913  
 20 09 30 05 48 45.0000000  0 15G15G18G20G29G 5G30G27G13R 4R 3R18R12
                                R 5R20R19
  20088110.011   105563727.76149       808.504    20088108.999    82257451.99348
       630.004  
  20518271.398   107824244.64049      1013.539    20518271.468    84018892.17748
       789.769  
  22245718.987   116902047.92448      2855.011    22245718.572    91092500.45146
      2224.684  
  23886616.120   125525021.21547     -3610.937    23886615.425    97811699.97745
     -2813.726  
  23119854.051   121495650.78746     -3116.277    23119853.710    94671934.55745
     -2428.272  
  24180934.121   127071669.25147     -1602.757    24180937.015    99016893.06445
     -1248.906  
  24590692.581   129224978.48946      2215.992    24590695.664   100694796.51344
      1726.749  
  20738704.506   108982627.15549     -1297.766    20738703.773    84921525.70947
     -1011.250  
  19540123.810   104636475.06409      1167.773    19540126.765    81383936.13908
       908.300  
  20252244.222   108411843.59908     -2397.871    20252247.197    84320340.89708
     -1865.012  
  22138698.615   118177865.23107     -4326.089    22138704.219    91916146.99907
     -3364.742  
  22594397.351   120695210.36406       -70.230    22594402.809    93874077.93807
       -54.629  
  22949796.436   122679828.36306      3585.656    22949802.459    95417670.83104
      2788.851  
  21598085.336   115494668.27805      3224.328    21598090.181    89829213.26007
      2507.813  
  19647317.825   105099900.44306     -1417.104    19647320.999    81744377.02007
     -1102.195  
 20 09 30 05 48 50.0000000  0 15G15G18G20G29G 5G30G27G13R 4R 3R18R12
                                R 5R20R19
  20087342.370   105559693.12449       805.780    20087341.393    82254308.11948
       627.879  
  20517308.506   107819184.44949      1010.913    20517308.529    84014949.16448
       787.723  
  22243003.042   116887775.91248      2854.358    22243002.664    91081379.41746
      2224.176  
  23890052.441   125543079.10947     -3611.546    23890051.896    97825771.06445
     -2814.195  
  23122819.469   121511233.81646     -3116.835    23122819.041    94684077.21844
     -2428.703  
  24182460.490   127079690.34347     -1605.226    24182463.312    99023143.24346
     -1250.831  
  24588585.408   129213905.59646      2213.624    24588588.694   100686168.32444
      1724.902  
  20739940.634   108989123.64749     -1300.476    20739939.898    84926587.90347
     -1013.363  
  19539034.554   104630642.71109      1165.395    19539037.515    81379399.85808
       906.413  
  20254484.758   108423837.74008     -2399.324    20254487.865    84329669.68208
     -1866.140  
  22142751.329   118199499.36007     -4327.366    22142757.169    91932973.53907
     -3365.734  
  22594465.522   120695574.80006       -74.667    22594471.166    93874361.41307
       -58.073  
  22946443.372   122661903.94006      3584.473    22946449.355    95403729.61305
      2787.922  
  21595071.807   115478553.61606      3221.578    21595076.710    89816679.63007
      2505.672  
  19648644.719   105106998.62106     -1421.140    19648647.670    81749897.84707
     -1105.332  
 20 09 30 05 48 55.0000000  0 15G15G18G20G29G 5G30G27G13R 4R 3R18R12
                                R 5R20R19
  20086577.408   105555673.34749       802.175    20086576.258    82251175.83048
       625.065  
  20516348.088   107814137.54249      1007.797    20516348.007    84011016.51848
       785.296  
  22240287.833   116873507.79848      2852.913    22240287.498    91070261.39246
      2223.046  
  23893489.177   125561139.93847     -3612.753    23893488.652    97839844.44545
     -2815.133  
  23125785.522   121526819.65546     -3117.819    23125784.837    94696222.00044
     -2429.469  
  24183989.367   127087724.01947     -1608.102    24183992.027    99029403.26645
     -1253.070  
  24586480.527   129202844.80846      2210.648    24586483.941   100677549.49545
      1722.574  
  20741179.629   108995634.01549     -1303.765    20741178.712    84931660.92447
     -1015.926  
  19537947.879   104624823.08009      1162.449    19537950.892    81374873.48808
       904.125  
  20256727.039   108435840.18908     -2401.488    20256729.899    84339004.90108
     -1867.828  
  22146805.406   118221140.29807     -4329.300    22146811.374    91949805.37807
     -3367.233  
  22594537.499   120695960.01106       -79.633    22594543.420    93874661.05006
       -61.938  
  22943091.279   122643983.54906      3583.227    22943097.064    95389791.52305
      2786.949  
  21592060.942   115462452.41506      3218.914    21592065.844    89804156.49207
      2503.601  
  19649975.578   105114117.94306     -1425.703    19649978.618    81755435.08907
     -1108.882  
 20 09 30 05 49  0.0000000  0 15G15G18G20G29G 5G30G27G13R 4R 3R18R12
                                R 5R20R19
  20085815.675   105551670.22549       799.305    20085814.548    82248056.50848
       622.832  
  20515390.524   107809105.75949      1004.987    20515390.421    84007095.64448
       783.105  
  22237573.744   116859245.26148      2852.175    22237573.306    91059147.76146
      2222.480  
  23896927.019   125579205.66747     -3613.531    23896926.339    97853921.60544
     -2815.746  
  23128752.475   121542410.00546     -3118.461    23128751.349    94708370.36945
     -2429.968  
  24185520.894   127095772.21746     -1610.832    24185523.488    99035674.56045
     -1255.202  
  24584378.303   129191797.92447      2208.163    24584381.878   100668941.58544
      1720.647  
  20742421.451   109002160.08349     -1306.520    20742420.694    84936746.16047
     -1018.070  
  19536863.634   104619017.90809      1159.832    19536866.870    81370358.35708
       902.077  
  20258970.963   108447852.74508     -2403.379    20258974.116    84348348.02408
     -1869.292  
  22150861.008   118242789.81607     -4330.487    22150867.006    91966643.86306
     -3368.163  
  22594613.636   120696367.78405       -83.621    22594619.733    93874978.20307
       -65.043  
  22939740.059   122626068.88807      3582.652    22939745.555    95375857.90504
      2786.507  
  21589052.876   115446366.40305      3216.449    21589057.808    89791645.12507
      2501.680  
  19651310.895   105121260.23406     -1430.414    19651313.702    81760990.19507
     -1112.546  
 20 09 30 05 49  5.0000000  0 15G15G18G20G29G 5G30G27G13R 4R 3R18R12
                                R 5R20R19
  20085056.811   105547682.61749       795.793    20085055.769    82244949.27848
       620.094  
  20514435.620   107804087.92549      1002.117    20514435.550    84003185.64148
       780.871  
  22234860.520   116844987.29648      2850.984    22234860.025    91048037.64146
      2221.543  
  23900365.666   125597275.03847     -3614.409    23900364.821    97868001.61345
     -2816.430  
  23131719.819   121558003.81747     -3119.375    23131718.718    94720521.34444
     -2430.695  
  24187054.927   127103833.71147     -1613.972    24187057.612    99041956.22945
     -1257.644  
  24582278.540   129180763.75046      2205.456    24582281.910   100660343.50444
      1718.538  
  20743665.981   109008700.63549     -1309.761    20743665.168    84941842.69847
     -1020.593  
  19535782.172   104613226.16309      1156.793    19535785.194    81365853.68208
       899.726  
  20261216.787   108459874.13208     -2405.141    20261219.555    84357697.98408
     -1870.668  
  22154918.063   118264446.83707     -4332.285    22154924.295    91983488.19707
     -3369.559  
  22594693.851   120696796.93105       -87.574    22594699.868    93875311.98907
       -68.113  
  22936390.022   122608159.14406      3581.577    22936395.218    95361928.12905
      2785.668  
  21586047.402   115430294.56305      3212.973    21586052.266    89779144.82107
      2498.980  
  19652650.054   105128424.30606     -1435.008    19652652.889    81766562.24907
     -1116.120  
 20 09 30 05 49 10.0000000  0 15G15G18G20G29G 5G30G27G13R 4R 3R18R12
                                R 5R20R19
  20084301.180   105543711.44049       792.703    20084299.896    82241854.85348
       617.688  
  20513483.782   107799085.01449       999.257    20513483.636    83999287.27448
       778.640  
  22232148.239   116830734.79148      2850.066    22232147.748    91036931.78846
      2220.828  
  23903804.884   125615348.96647     -3615.039    23903804.210    97882085.21244
     -2816.914  
  23134688.057   121573601.85846     -3119.257    23134686.738    94732675.64044
     -2430.593  
  24188591.845   127111909.42647     -1616.645    24188594.484    99048249.02545
     -1259.726  
  24580181.454   129169743.30247      2202.987    24580184.663   100651756.12944
      1716.608  
  20744913.528   109015256.75949     -1312.640    20744912.816    84946951.35847
     -1022.839  
  19534703.128   104607448.74209      1154.019    19534706.472    81361360.12308
       897.664  
  20263464.275   108471905.39108     -2406.996    20263467.131    84367055.62208
     -1872.108  
  22158976.810   118286112.20406     -4333.789    22158983.070    92000339.04107
     -3370.730  
  22594778.419   120697248.55706       -92.781    22594784.517    93875663.27707
       -72.164  
  22933040.687   122590254.99906      3580.187    22933045.628    95348002.67704
      2784.589  
  21583044.672   115414237.93105      3209.773    21583049.776    89766656.33007
      2496.487  
  19653993.665   105135611.03106     -1439.469    19653996.145    81772151.91907
     -1119.590  
 20 09 30 05 49 15.0000000  0 15G15G18G20G29G 5G30G27G13R 4R 3R18R12
                                R 5R20R19
  20083548.394   105539755.92749       789.590    20083547.204    82238772.64348
       615.266  
  20512534.420   107794096.20849       996.433    20512534.154    83995399.89948
       776.438  
  22229436.968   116816486.93048      2849.026    22229436.453    91025829.55146
      2220.016  
  23907245.049   125633426.65647     -3615.863    23907244.187    97896171.68545
     -2817.562  
  23137657.124   121589203.47246     -3120.761    23137655.601    94744832.79644
     -2431.761  
  24190131.202   127119998.58246     -1619.125    24190133.713    99054552.22445
     -1261.659  
  24578086.692   129158735.81546      2200.000    24578089.848   100643178.89744
      1714.284  
  20746163.936   109021827.47949     -1315.625    20746163.119    84952071.39047
     -1025.168  
  19533626.702   104601684.78009      1151.391    19533630.124    81356877.04708
       895.526  
  20265713.423   108483945.69208     -2408.800    20265716.401    84376420.31408
     -1873.511  
  22163036.946   118307785.05107     -4335.397    22163043.051    92017195.67807
     -3371.979  
  22594866.943   120697721.68206       -97.085    22594873.012    93876031.23406
       -75.516  
  22929692.395   122572355.77206      3579.270    22929697.302    95334081.07705
      2783.874  
  21580044.757   115398195.50905      3207.434    21580049.660    89754178.87207
      2494.667  
  19655341.107   105142819.74906     -1443.854    19655343.805    81777758.69507
     -1123.003  
 20 09 30 05 49 20.0000000  0 15G15G18G20G29G 5G30G27G13R 4R 3R18R12
                                R 5R20R19
  20082798.843   105535816.19949       786.121    20082797.453    82235702.72648
       612.563  
  20511587.725   107789121.66749       993.315    20511587.606    83991523.62848
       774.008  
  22226726.656   116802243.86548      2847.855    22226726.175    91014731.04246
      2219.105  
  23910686.004   125651508.21448     -3616.952    23910685.160    97910261.20545
     -2818.414  
  23140626.702   121604808.68046     -3121.288    23140625.096    94756992.63144
     -2432.175  
  24191673.235   127128101.27147     -1621.874    24191675.649    99060866.00745
     -1263.800  
  24575994.576   129147741.36046      2197.538    24575997.610   100634611.78544
      1712.363  
  20747416.995   109028412.97149     -1318.793    20747416.126    84957202.96647
     -1027.633  
  19532552.892   104595934.38909      1148.523    19532556.210    81352404.51308
       893.292  
  20267964.463   108495995.12408     -2410.874    20267967.398    84385792.07108
     -1875.129  
  22167098.361   118329465.62707     -4337.090    22167104.711    92034058.34507
     -3373.296  
  22594959.614   120698216.49507      -101.390    22594965.559    93876416.08506
       -78.862  
  22926344.916   122554461.48806      3578.266    22926349.837    95320163.30505
      2783.094  
  21577047.399   115382167.47405      3203.558    21577052.383    89741712.65807
      2491.655  
  19656692.779   105150050.53206     -1448.543    19656695.537    81783382.63007
     -1126.648  
 20 09 30 05 49 25.0000000  0 15G15G18G20G29G 5G30G27G13R 4R 3R18R12
                                R 5R20R19
  20082052.321   105531893.72849       782.652    20082051.109    82232646.25948
       609.858  
  20510644.074   107784162.87249       990.175    20510643.985    83987659.62948
       771.563  
  22224017.632   116788007.09948      2846.547    22224016.877    91003637.48046
      2218.089  
  23914127.846   125669595.06147     -3617.913    23914126.901    97924354.87245
     -2819.152  
  23143597.434   121620419.04346     -3122.620    23143595.543    94769156.61244
     -2433.206  
  24193218.094   127136219.02747     -1625.035    24193220.216    99067191.56345
     -1266.261  
  24573905.150   129136761.47747      2194.468    24573908.454   100626056.04045
      1709.977  
  20748673.306   109035014.71149     -1322.034    20748672.554    84962347.17047
     -1030.160  
  19531481.902   104590199.19509      1145.402    19531485.197    81347943.81508
       890.866  
  20270217.370   108508055.14408     -2412.871    20270220.345    84395172.10308
     -1876.675  
  22171161.646   118351155.31007     -4338.934    22171168.053    92050928.09207
     -3374.726  
  22595056.631   120698734.58807      -105.987    22595062.506    93876819.06307
       -82.433  
  22922998.605   122536573.72606      3576.726    22923003.481    95306250.60904
      2781.897  
  21574053.130   115366155.46005      3201.054    21574058.081    89729258.85307
      2489.707  
  19658048.808   105157304.74706     -1453.445    19658051.628    81789024.79807
     -1130.265  
 20 09 30 05 49 30.0000000  0 15G15G18G20G29G 5G30G27G13R 4R 3R18R12
                                R 5R20R19
  20081309.217   105527988.00349       779.589    20081307.699    82229602.83948
       607.473  
  20509703.451   107779219.30549       987.405    20509703.294    83983807.49948
       769.401  
  22221309.597   116773776.09048      2845.695    22221308.753    90992548.38546
      2217.425  
  23917570.494   125687686.73647     -3618.522    23917569.920    97938452.24345
     -2819.637  
  23146568.801   121636034.08946     -3123.562    23146567.159    94781324.13545
     -2433.949  
  24194765.614   127144351.26747     -1627.729    24194767.807    99073528.34545
     -1268.362  
  24571818.445   129125795.64147      2192.280    24571821.804   100617511.27544
      1708.273  
  20749932.671   109041632.15849     -1324.968    20749931.689    84967503.61647
     -1032.445  
  19530413.497   104584478.62009      1142.824    19530417.101    81343494.48108
       888.863  
  20272472.143   108520125.33608     -2414.960    20272475.208    84404560.01808
     -1878.309  
  22175226.422   118372853.51807     -4340.351    22175232.880    92067804.46806
     -3375.831  
  22595157.970   120699275.29807      -110.093    22595163.613    93877239.60606
       -85.632  
  22919653.375   122518691.99006      3576.038    22919658.276    95292342.63904
      2781.367  
  21571061.759   115350159.00605      3197.816    21571066.883    89716817.17007
      2487.190  
  19659409.164   105164581.95506     -1457.754    19659412.115    81794684.84607
     -1133.813  
 20 09 30 05 49 35.0000000  0 15G15G18G20G29G 5G30G27G13R 4R 3R18R12
                                R 5R20R19
  20080568.760   105524097.22149       776.480    20080567.446    82226571.06548
       605.051  
  20508765.297   107774289.17649       984.563    20508765.070    83979965.84948
       767.190  
  22218602.313   116759549.09048      2844.812    22218601.455    90981462.42246
      2216.738  
  23921013.909   125705781.41147     -3619.565    23921013.215    97952551.99145
     -2820.445  
  23149540.569   121651651.86445     -3123.651    23149539.180    94793493.81345
     -2434.019  
  24196315.554   127152496.22447     -1630.027    24196317.936    99079875.05045
     -1270.155  
  24569734.211   129114842.07847      2189.253    24569737.540   100608976.03244
      1705.918  
  20751194.501   109048263.52349     -1327.737    20751193.548    84972670.90647
     -1034.605  
  19529347.562   104578770.74209      1140.266    19529351.391    81339055.02808
       886.875  
  20274728.407   108532203.73308     -2416.719    20274731.469    84413954.31508
     -1879.675  
  22179292.471   118394558.52007     -4341.770    22179299.085    92084686.13206
     -3376.938  
  22595263.046   120699836.87707      -114.425    22595268.776    93877676.37607
       -89.000  
  22916309.035   122500814.41805      3574.855    22916313.664    95278437.88204
      2780.444  
  21568072.714   115334176.01805      3195.058    21568077.795    89704385.95507
      2485.043  
  19660773.762   105171880.31906     -1461.672    19660776.685    81800361.34907
     -1136.858  
 20 09 30 05 49 40.0000000  0 15G15G18G20G29G 5G30G27G13R 4R 3R18R12
                                R 5R20R19
  20079831.542   105520223.67649       772.902    20079830.144    82223552.71848
       602.258  
  20507830.014   107769374.79749       981.203    20507830.010    83976136.46448
       764.573  
  22215896.162   116745328.39348      2843.452    22215895.353    90970381.35446
      2215.680  
  23924458.259   125723881.37247     -3620.507    23924457.731    97966655.83446
     -2821.179  
  23152513.458   121667274.75445     -3125.348    23152512.370    94805667.53144
     -2435.335  
  24197868.342   127160656.14847     -1633.348    24197870.721    99086233.41345
     -1272.742  
  24567652.685   129103903.05447      2186.184    24567655.950   100600452.14244
      1703.520  
  20752459.550   109054911.05649     -1331.183    20752458.570    84977850.80647
     -1037.284  
  19528284.607   104573078.01409      1136.898    19528288.308    81334627.35508
       884.254  
  20276986.710   108544292.70008     -2418.922    20276989.663    84423356.84808
     -1881.387  
  22183360.291   118416272.66607     -4343.737    22183366.698    92101574.92206
     -3378.464  
  22595372.710   120700421.61607      -119.332    22595378.303    93878131.18207
       -92.813  
  22912965.795   122482943.32105      3573.859    22912970.534    95264538.13504
      2779.668  
  21565086.776   115318209.14805      3191.543    21565092.071    89691967.29207
      2482.313  
  19662142.486   105179202.22906     -1466.949    19662145.565    81806056.16307
     -1140.964  
 20 09 30 05 49 45.0000000  0 15G15G18G20G29G 5G30G27G13R 4R 3R18R12
                                R 5R20R19
  20079097.560   105516366.07549       770.343    20079096.037    82220546.79548
       600.269  
  20506897.554   107764474.87349       978.972    20506897.640    83972318.34748
       762.831  
  22213190.988   116731112.66648      2843.004    22213190.296    90959304.16246
      2215.327  
  23927903.341   125741985.33947     -3620.964    23927902.801    97980762.81945
     -2821.538  
  23155487.134   121682901.46245     -3125.059    23155486.103    94817844.15945
     -2435.116  
  24199423.580   127168829.76147     -1635.871    24199426.090    99092602.45545
     -1274.710  
  24565573.684   129092977.32747      2184.339    24565576.860   100591938.58544
      1702.077  
  20753727.263   109061573.53149     -1333.651    20753726.557    84983042.34548
     -1039.215  
  19527224.092   104567399.16009      1134.816    19527227.830    81330210.47008
       882.636  
  20279246.708   108556390.92908     -2420.312    20279249.799    84432766.56408
     -1882.468  
  22187429.608   118437994.58007     -4344.746    22187435.953    92118469.71906
     -3379.249  
  22595486.449   120701028.31907      -123.327    22595491.897    93878603.07607
       -95.921  
  22909623.520   122465077.38706      3572.957    22909628.065    95250642.44404
      2778.968  
  21562103.473   115302256.83306      3189.847    21562108.640    89679559.94907
      2480.992  
  19663515.340   105186546.38506     -1470.894    19663518.499    81811768.28007
     -1144.031  
 20 09 30 05 49 50.0000000  0 15G15G18G20G29G 5G30G27G13R 4R 3R18R12
                                R 5R20R19
  20078366.054   105512522.45049       766.979    20078364.613    82217551.77048
       597.648  
  20505967.572   107759587.43849       975.870    20505967.482    83968509.94148
       760.414  
  22210486.388   116716899.99448      2841.897    22210485.687    90948229.36446
      2214.464  
  23931348.750   125760091.24147     -3621.933    23931348.383    97994871.30845
     -2822.288  
  23158461.118   121698530.03945     -3125.831    23158460.221    94830022.23744
     -2435.718  
  24200981.283   127177015.07846     -1638.233    24200983.700    99098980.63844
     -1276.547  
  24563496.758   129082062.91247      2181.257    24563499.972   100583433.82644
      1699.676  
  20754997.430   109068248.89749     -1336.703    20754996.753    84988243.92747
     -1041.585  
  19526165.804   104561732.01309      1131.886    19526169.517    81325802.69608
       880.355  
  20281508.201   108568496.46808     -2422.077    20281511.124    84442181.97808
     -1883.843  
  22191500.069   118459722.16307     -4346.483    22191506.174    92135368.96206
     -3380.602  
  22595603.688   120701654.89806      -127.374    22595609.105    93879090.38906
       -99.073  
  22906281.889   122447214.73205      3571.483    22906286.449    95236749.30304
      2777.823  
  21559122.821   115286317.35705      3186.320    21559127.792    89667162.59907
      2478.249  
  19664891.885   105193910.59606     -1475.461    19664895.236    81817496.00107
     -1147.586  
 20 09 30 05 49 55.0000000  0 15G15G18G20G29G 5G30G27G13R 4R 3R18R12
                                R 5R20R19
  20077638.355   105508698.64749       763.335    20077637.120    82214572.18048
       594.805  
  20505041.019   107754718.33849       972.480    20505041.001    83964715.84548
       757.776  
  22207783.713   116702696.18548      2840.413    22207782.806    90937161.45746
      2213.304  
  23934795.507   125778204.97647     -3623.108    23934795.221    98008985.87745
     -2823.207  
  23161436.429   121714166.28145     -3127.620    23161435.715    94842206.32444
     -2437.113  
  24202542.062   127185217.96447     -1641.765    24202544.722    99105372.48045
     -1279.300  
  24561423.241   129071165.69847      2178.179    24561426.446   100574942.49145
      1697.276  
  20756271.423   109074943.05249     -1340.140    20756270.853    84993460.15348
     -1044.265  
  19525110.722   104556082.65809      1128.516    19525114.533    81321408.75408
       877.729  
  20283772.094   108580615.20608     -2424.477    20283775.082    84451607.66508
     -1885.707  
  22195572.634   118481461.48207     -4348.508    22195578.748    92152277.31706
     -3382.175  
  22595725.951   120702307.28707      -132.733    22595731.158    93879597.80207
      -103.237  
  22902942.057   122429361.22705      3570.062    22902946.425    95222863.24904
      2776.715  
  21556145.508   115270396.63905      3183.105    21556150.319    89654779.81507
      2475.749  
  19666273.345   105201300.94106     -1480.129    19666276.768    81823244.04707
     -1151.214  
 20 09 30 05 50  0.0000000  0 15G15G18G20G29G 5G30G27G13R 4R 3R18R12
                                R 5R20R19
  20076913.359   105504888.99049       760.340    20076912.091    82211603.62248
       592.472  
  20504116.737   107749861.89349       969.960    20504116.965    83960931.60448
       755.808  
  22205081.413   116688495.56448      2839.581    22205080.618    90926096.04046
      2212.659  
  23938242.883   125796320.75147     -3623.323    23938242.815    98023102.04245
     -2823.379  
  23164412.216   121729804.49146     -3128.332    23164411.648    94854391.95844
     -2437.664  
  24204105.272   127193432.65646     -1644.262    24204107.880    99111773.53944
     -1281.241  
  24559351.778   129060279.96247      2175.938    24559354.917   100566460.11444
      1695.539  
  20757547.693   109081650.24249     -1342.914    20757547.112    84998686.53447
     -1046.426  
  19524058.079   104550445.23809      1126.094    19524061.941    81317024.09208
       875.851  
  20286037.298   108592741.30108     -2426.183    20286040.471    84461039.06308
     -1887.034  
  22199646.309   118503206.56507     -4349.695    22199652.353    92169190.14206
     -3383.102  
  22595851.823   120702979.61307      -136.777    22595857.113    93880120.73806
      -106.383  
  22899602.663   122411511.19005      3569.582    22899606.743    95208979.89804
      2776.340  
  21553170.702   115254488.73406      3180.210    21553175.198    89642406.99907
      2473.495  
  19667658.726   105208711.61006     -1484.258    19667661.904    81829007.90007
     -1154.426  
 20 09 30 05 50  5.0000000  0 15G15G18G20G29G 5G30G27G13R 4R 3R18R12
                                R 5R20R19
  20076191.390   105501094.89149       757.233    20076190.244    82208647.18348
       590.055  
  20503195.309   107745019.53649       967.147    20503195.571    83957158.33748
       753.617  
  22202380.061   116674299.61348      2838.750    22202379.159    90915034.26946
      2212.012  
  23941690.928   125814440.09647     -3624.344    23941690.927    98037221.01546
     -2824.168  
  23167388.640   121745446.07845     -3128.156    23167388.244    94866580.21644
     -2437.523  
  24205670.925   127201660.65646     -1646.973    24205673.522    99118184.95745
     -1283.358  
  24557282.977   129049407.18247      2173.362    24557285.675   100557987.81945
      1693.522  
  20758826.649   109088371.88749     -1345.632    20758826.284    85003924.18647
     -1048.547  
  19523007.858   104544821.19709      1123.352    19523011.483    81312649.84508
       873.718  
  20288304.249   108604876.21608     -2427.819    20288307.264    84470477.33608
     -1888.309  
  22203721.174   118524958.88007     -4351.097    22203727.229    92186108.61806
     -3384.191  
  22595981.762   120703673.41007      -140.862    22595987.147    93880660.37206
      -109.558  
  22896264.068   122393665.95805      3568.229    22896268.053    95195100.29703
      2775.288  
  21550198.671   115238595.22605      3177.136    21550202.945    89630045.40007
      2471.105  
  19669048.028   105216143.96706     -1488.601    19669051.318    81834788.61607
     -1157.805  
 20 09 30 05 50 10.0000000  0 15G15G18G20G29G 5G30G27G13R 4R 3R18R12
                                R 5R20R19
  20075472.482   105497316.38049       753.945    20075471.102    82205702.88748
       587.483  
  20502276.544   107740191.26949       964.034    20502276.875    83953396.05448
       751.190  
  22199679.630   116660108.28348      2837.648    22199678.747    90903976.09546
      2211.155  
  23945139.405   125832562.87147     -3625.004    23945139.450    98051342.63946
     -2824.684  
  23170365.616   121761091.10045     -3129.340    23170365.487    94878771.12344
     -2438.444  
  24207239.049   127209901.83246     -1649.484    24207241.877    99124606.66945
     -1285.313  
  24555216.458   129038547.29847      2170.430    24555219.057   100549525.55044
      1691.238  
  20760108.453   109095107.97349     -1348.854    20760108.112    85009173.08847
     -1051.058  
  19521960.069   104539210.58809      1120.594    19521963.883    81308286.03308
       871.585  
  20290572.697   108617019.80008     -2429.914    20290575.729    84479922.35008
     -1889.934  
  22207797.642   118546718.49907     -4352.738    22207803.565    92203032.74906
     -3385.468  
  22596115.643   120704388.73307      -145.124    22596120.967    93881216.73606
      -112.874  
  22892926.606   122375825.52705      3567.503    22892930.105    95181224.40503
      2774.726  
  21547229.237   115222716.04805      3174.288    21547233.181    89617694.92907
      2468.887  
  19670441.660   105223598.11706     -1493.073    19670444.781    81840586.30307
     -1161.280  
 20 09 30 05 50 15.0000000  0 15G15G18G20G29G 5G30G27G13R 4R 3R18R12
                                R 5R20R19
  20074757.003   105493556.04349       750.641    20074755.618    82202772.75448
       584.909  
  20501360.816   107735379.61549       961.066    20501361.081    83949646.71748
       748.882  
  22196980.529   116645924.10048      2836.546    22196979.580    90892923.48846
      2210.297  
  23948589.214   125850691.68147     -3626.090    23948589.266    98065468.99745
     -2825.522  
  23173343.597   121776741.96546     -3130.308    23173343.891    94890966.59343
     -2439.203  
  24208810.166   127218158.82346     -1652.722    24208813.047    99131040.69445
     -1287.835  
  24553152.767   129027702.90447      2167.668    24553155.578   100541075.41744
      1689.094  
  20761393.698   109101861.00949     -1351.883    20761393.127    85014435.19547
     -1053.414  
  19520915.266   104533615.83809      1117.785    19520918.908    81303934.56408
       869.387  
  20292843.346   108629174.92108     -2431.801    20292846.421    84489376.32908
     -1891.405  
  22211875.725   118568487.92607     -4354.624    22211881.853    92219964.51507
     -3386.933  
  22596254.220   120705128.04707      -149.629    22596259.301    93881791.76006
      -116.379  
  22889590.553   122357992.44605      3566.233    22889593.464    95167354.22503
      2773.734  
  21544262.751   115206853.91705      3170.793    21544266.838    89605357.71707
      2466.171  
  19671839.513   105231076.53206     -1497.698    19671842.550    81846402.84307
     -1164.883  
 20 09 30 05 50 20.0000000  0 15G15G18G20G29G 5G30G27G13R 4R 3R18R12
                                R 5R20R19
  20074044.177   105489810.18149       747.604    20074042.835    82199853.90448
       582.550  
  20500447.561   107730580.99449       958.242    20500447.987    83945907.53148
       746.684  
  22194282.007   116631743.49248      2835.574    22194281.071    90881873.67146
      2209.538  
  23952039.439   125868822.88947     -3626.750    23952039.764    98079597.18046
     -2826.043  
  23176322.299   121792395.18245     -3131.375    23176322.704    94903163.86944
     -2440.038  
  24210383.568   127226427.98246     -1655.179    24210386.590    99137484.18245
     -1289.753  
  24551091.605   129016870.39747      2165.214    24551094.414   100532634.48544
      1687.180  
  20762681.209   109108627.45749     -1354.831    20762680.547    85019707.74847
     -1055.714  
  19519872.912   104528033.51909      1114.960    19519876.338    81299592.76508
       867.190  
  20295115.469   108641337.71008     -2433.340    20295118.642    84498836.26308
     -1892.602  
  22215955.137   118590263.38607     -4355.762    22215961.140    92236900.96307
     -3387.819  
  22596396.399   120705887.88807      -154.012    22596401.488    93882382.73206
      -119.789  
  22886255.237   122340163.14605      3565.281    22886257.873    95153487.07103
      2773.003  
  21541299.119   115191005.10405      3168.098    21541302.979    89593030.87007
      2464.074  
  19673241.348   105238575.53006     -1501.667    19673244.460    81852235.39007
     -1167.969  
 20 09 30 05 50 25.0000000  0 15G15G18G20G29G 5G30G27G13R 4R 3R18R12
                                R 5R20R19
  20073334.598   105486081.97549       744.223    20073333.458    82196948.81148
       579.914  
  20499537.546   107725798.61249       955.136    20499538.038    83942181.00748
       744.262  
  22191584.812   116617569.63548      2834.313    22191583.996    90870829.12946
      2208.558  
  23955490.860   125886959.70147     -3627.582    23955490.867    98093729.77345
     -2826.688  
  23179301.710   121808053.87145     -3131.999    23179302.502    94915365.45345
     -2440.520  
  24211960.042   127234712.50146     -1658.176    24211962.855    99143939.62745
     -1292.089  
  24549033.049   129006052.98547      2162.391    24549035.894   100524205.37443
      1684.980  
  20763971.980   109115410.44049     -1358.004    20763971.370    85024993.20147
     -1058.184  
  19518833.348   104522466.66809      1112.105    19518836.868    81295263.00108
       864.933  
  20297389.687   108653511.46508     -2435.538    20297392.691    84508304.74708
     -1894.309  
  22220036.186   118612048.30407     -4357.629    22220042.328    92253844.77007
     -3389.273  
  22596543.204   120706671.31307      -158.815    22596548.235    93882992.08206
      -123.522  
  22882921.001   122322340.89705      3563.332    22882923.855    95139625.33404
      2771.483  
  21538338.488   115175173.02905      3165.773    21538342.501    89580717.05107
      2462.270  
  19674647.724   105246098.50406     -1507.195    19674650.732    81858086.58807
     -1172.265  
 20 09 30 05 50 30.0000000  0 15G15G18G20G29G 5G30G27G13R 4R 3R18R12
                                R 5R20R19
  20072628.218   105482369.48549       740.988    20072626.989    82194055.96848
       577.395  
  20498630.204   107721030.52949       952.207    20498630.504    83938465.61848
       741.979  
  22188888.529   116603400.63448      2833.309    22188887.589    90859788.35846
      2207.773  
  23958942.984   125905100.11047     -3628.406    23958943.033    98107865.16146
     -2827.332  
  23182282.267   121823716.05745     -3132.823    23182282.679    94927569.75144
     -2441.164  
  24213539.010   127243010.44046     -1660.882    24213541.855    99150405.55844
     -1294.202  
  24546977.221   128995248.72147      2159.340    24546980.223   100515786.46843
      1682.601  
  20765265.603   109122208.04149     -1360.944    20765264.886    85030290.02747
     -1060.480  
  19517796.355   104516913.45909      1109.219    19517799.612    81290943.83708
       862.722  
  20299665.578   108665694.14508     -2437.429    20299668.632    84517780.17208
     -1895.777  
  22224118.596   118633840.57907     -4359.055    22224124.978    92270794.30407
     -3390.378  
  22596693.917   120707476.39207      -163.313    22596698.889    93883618.26506
      -127.020  
  22879587.878   122304523.66406      3562.952    22879590.848    95125767.48504
      2771.184  
  21535380.497   115159355.44705      3162.188    21535384.488    89568414.48607
      2459.480  
  19676058.153   105253643.35106     -1511.262    19676061.139    81863954.80107
     -1175.430  
 20 09 30 05 50 35.0000000  0 15G15G18G20G29G 5G30G27G13R 4R 3R18R12
                                R 5R20R19
  20071924.888   105478673.30249       737.616    20071923.712    82191175.82448
       574.765  
  20497725.726   107716277.34249       949.230    20497725.913    83934761.84348
       739.660  
  22186193.389   116589237.04948      2831.996    22186192.245    90848751.81246
      2206.750  
  23962395.721   125923244.73647     -3629.219    23962395.597    98122003.83546
     -2827.965  
  23185263.309   121839382.41345     -3133.598    23185264.195    94939777.24643
     -2441.773  
  24215120.645   127251322.30246     -1663.871    24215123.465    99156882.33245
     -1296.526  
  24544924.021   128984458.24347      2156.500    24544926.968   100507378.29042
      1680.386  
  20766561.912   109129020.81249     -1364.007    20766561.094    85035598.69047
     -1062.863  
  19516761.956   104511374.39509      1106.491    19516765.230    81286635.67107
       860.602  
  20301943.109   108677886.26108     -2439.473    20301946.002    84527262.91808
     -1897.370  
  22228202.466   118655640.80207     -4360.543    22228209.088    92287750.02207
     -3391.539  
  22596848.728   120708303.67707      -167.913    22596853.675    93884261.73406
      -130.597  
  22876255.959   122286712.02206      3561.663    22876258.888    95111913.98504
      2770.183  
  21532425.456   115143553.17106      3159.011    21532429.443    89556123.82807
      2457.007  
  19677472.688   105261210.59606     -1515.566    19677475.918    81869840.42407
     -1178.944  
 20 09 30 05 50 40.0000000  0 15G15G18G20G29G 5G30G27G13R 4R 3R18R12
                                R 5R20R19
  20071224.392   105474992.23649       734.723    20071223.327    82188307.45848
       572.508  
  20496823.733   107711537.86949       946.516    20496824.020    83931068.74548
       737.542  
  22183498.879   116575077.71048      2831.366    22183497.890    90837718.53346
      2206.258  
  23965849.202   125941392.34147     -3629.875    23965849.049    98136144.79846
     -2828.476  
  23188244.742   121855051.78945     -3134.835    23188245.911    94951987.15745
     -2442.734  
  24216704.634   127259646.97146     -1666.402    24216707.414    99163369.08744
     -1298.496  
  24542873.087   128973680.35247      2154.265    24542875.965   100498979.90444
      1678.644  
  20767861.064   109135847.56249     -1366.780    20767860.249    85040918.22847
     -1065.026  
  19515730.024   104505848.26109      1103.945    19515733.248    81282337.56808
       858.621  
  20304222.145   108690086.80608     -2440.835    20304225.288    84536752.24008
     -1898.430  
  22232287.595   118677447.62507     -4361.983    22232294.094    92304710.87107
     -3392.660  
  22597007.439   120709151.98607      -171.882    22597012.579    93884921.53706
      -133.687  
  22872924.663   122268904.80606      3560.871    22872927.765    95098063.93804
      2769.566  
  21529472.807   115127764.96606      3156.085    21529477.195    89543844.11707
      2454.729  
  19678891.351   105268799.08006     -1519.530    19678894.553    81875742.59307
     -1181.859  
 20 09 30 05 50 45.0000000  0 15G15G18G20G29G 5G30G27G13R 4R 3R18R12
                                R 5R20R19
  20070526.754   105471326.15349       731.508    20070525.643    82185450.77848
       570.003  
  20495924.434   107706811.95449       943.668    20495924.823    83927386.21148
       735.319  
  22180805.309   116560922.46548      2830.495    22180804.261    90826688.48146
      2205.582  
  23969303.027   125959542.78546     -3630.570    23969303.235    98150288.02046
     -2829.020  
  23191226.857   121870719.69155     -3134.629    23191228.441    94964203.05754
     -2442.565  
  24218291.318   127267984.20946     -1668.901    24218293.623    99169865.66144
     -1300.441  
  24540824.435   128962914.89447      2151.675    24540827.633   100490591.29444
      1676.633  
  20769162.890   109142688.11049     -1369.613    20769161.845    85046248.51747
     -1067.234  
  19514700.340   104500334.91009      1101.108    19514703.637    81278049.39808
       856.414  
  20306502.894   108702295.48908     -2442.757    20306505.776    84546247.87407
     -1899.925  
  22236374.046   118699261.06507     -4363.535    22236380.553    92321676.87607
     -3393.862  
  22597170.218   120710021.24306      -176.050    22597175.255    93885597.63306
      -136.929  
  22869594.269   122251101.93906      3559.972    22869597.235    95084217.23304
      2768.859  
  21526523.010   115111990.83006      3152.854    21526527.313    89531575.33607
      2452.219  
  19680313.838   105276408.76706     -1524.328    19680317.232    81881661.23807
     -1185.589  
 20 09 30 05 50 50.0000000  0 15G15G18G20G29G 5G30G27G13R 4R 3R18R12
                                R 5R20R19
  20069832.725   105467679.19449       727.866    20069831.867    82182609.00748
       567.167  
  20495028.608   107702103.76249       940.238    20495028.836    83923717.48648
       732.647  
  22178113.239   116546775.47748      2828.941    22178112.105    90815664.86346
      2204.371  
  23972758.398   125977700.12947     -3631.917    23972758.338    98164436.58846
     -2830.070  
  23194210.599   121886398.67645     -3135.991    23194212.031    94976420.39046
     -2443.632  
  24219881.079   127276338.30346     -1672.144    24219883.501    99176375.32145
     -1302.972  
  24538779.020   128952165.98047      2148.257    24538782.157   100482215.53645
      1673.968  
  20770467.939   109149546.62449     -1373.030    20770466.862    85051592.81447
     -1069.895  
  19513673.991   104494838.60909      1097.866    19513677.159    81273774.49707
       853.895  
  20308785.833   108714516.42708     -2445.140    20308788.909    84555753.05707
     -1901.777  
  22240462.387   118721085.24907     -4365.339    22240469.083    92338651.22706
     -3395.269  
  22597337.368   120710915.56107      -180.921    22597342.761    93886293.23406
      -140.718  
  22866265.512   122233307.60606      3558.526    22866268.129    95070377.16503
      2767.734  
  21523576.627   115096234.81905      3150.019    21523580.781    89519320.64907
      2450.012  
  19681741.151   105284043.74306     -1529.210    19681744.458    81887599.55607
     -1189.387  
 20 09 30 05 50 55.0000000  0 15G15G18G20G29G 5G30G27G13R 4R 3R18R12
                                R 5R20R19
  20069141.021   105464044.60949       725.554    20069140.045    82179776.86048
       565.363  
  20494134.848   107697406.49549       938.262    20494135.046    83920057.28348
       731.108  
  22175421.348   116532629.93248      2828.878    22175420.413    90804642.36546
      2204.316  
  23976213.571   125995857.68647     -3631.555    23976213.665    98178585.35446
     -2829.780  
  23197194.202   121902077.74145     -3135.933    23197195.769    94988637.86045
     -2443.578  
  24221472.754   127284702.32946     -1674.132    24221474.910    99182892.74844
     -1304.520  
  24536735.479   128941426.91147      2146.718    24536738.517   100473847.42444
      1672.773  
  20771775.259   109156416.32349     -1375.297    20771774.100    85056945.82947
     -1071.660  
  19512649.472   104489352.41609      1095.996    19512652.650    81269507.45408
       852.438  
  20311069.760   108726742.87108     -2446.012    20311072.755    84565262.51608
     -1902.452  
  22244551.494   118742913.30607     -4365.922    22244558.090    92355628.59207
     -3395.723  
  22597508.182   120711828.11406      -184.621    22597513.588    93887003.00806
      -143.594  
  22862937.031   122215514.84506      3558.409    22862939.544    95056538.42104
      2767.651  
  21520632.383   115080490.05905      3147.488    21520636.443    89507074.73907
      2448.046  
  19683171.957   105291697.12206     -1532.945    19683175.281    81893552.18107
     -1192.289  
 20 09 30 05 51  0.0000000  0 15G15G18G20G29G 5G30G27G13R 4R 3R18R12
                                R 5R20R19
  20068453.291   105460430.37649       720.391    20068452.370    82176960.57248
       561.343  
  20493244.702   107692728.21349       933.461    20493244.638    83916411.86748
       727.366  
  22172731.370   116518493.87748      2825.969    22172730.457    90793627.26046
      2202.051  
  23979670.422   126014023.37347     -3634.429    23979670.460    98192740.38346
     -2832.031  
  23200179.340   121917764.96345     -3138.437    23200181.011    95000861.67645
     -2445.535  
  24223067.866   127293084.38546     -1678.641    24223069.873    99189424.19845
     -1308.038  
  24534695.396   128930705.70247      2141.835    24534698.162   100465493.26244
      1668.969  
  20773086.181   109163305.20649     -1380.128    20773084.989    85062313.79448
     -1075.426  
  19511628.324   104483884.52609      1091.449    19511631.448    81265254.65408
       848.902  
  20313356.256   108738982.94408     -2449.608    20313359.246    84574782.58508
     -1905.250  
  22248642.904   118764753.31207     -4369.608    22248649.550    92372615.26407
     -3398.590  
  22597683.803   120712767.00206      -190.940    22597689.315    93887733.23606
      -148.515  
  22859610.388   122197731.81406      3554.758    22859613.000    95042707.13104
      2764.805  
  21517691.435   115064764.80405      3142.805    21517696.032    89494844.00707
      2444.402  
  19684607.548   105299377.06806     -1538.984    19684610.875    81899525.47007
     -1196.992  
 20 09 30 05 51  5.0000000  0 15G15G18G20G29G 5G30G27G13R 4R 3R18R12
                                R 5R20R19
  20067768.782   105456833.81949       718.229    20067768.107    82174158.06448
       559.655  
  20492357.618   107688066.21149       931.546    20492357.679    83912779.13648
       725.874  
  22170042.742   116504364.66948      2825.852    22170041.653    90782617.49546
      2201.960  
  23983128.262   126032194.50847     -3633.887    23983128.197    98206899.74146
     -2831.604  
  23203165.647   121933457.64846     -3138.301    23203167.294    95013089.75845
     -2445.434  
  24224665.808   127301481.66047     -1680.289    24224667.522    99195967.52244
     -1309.319  
  24532658.163   128919999.60047      2140.301    24532660.681   100457150.86644
      1667.769  
  20774400.158   109170210.54649     -1381.929    20774399.046    85067694.57347
     -1076.832  
  19510610.151   104478432.19609      1089.789    19510613.144    81261013.95108
       847.612  
  20315644.782   108751233.95008     -2450.469    20315647.930    84584311.12608
     -1905.925  
  22252736.082   118786602.44407     -4369.905    22252742.643    92389609.03206
     -3398.815  
  22597863.770   120713729.57306      -194.026    22597869.331    93888481.90606
      -150.909  
  22856285.038   122179955.87906      3555.191    22856287.455    95028881.40104
      2765.145  
  21514753.876   115049056.26105      3141.405    21514758.354    89482626.23606
      2443.312  
  19686047.682   105307080.78206     -1542.473    19686051.030    81905517.26507
     -1199.699  
 20 09 30 05 51 10.0000000  0 15G15G18G20G29G 5G30G27G13R 4R 3R18R12
                                R 5R20R19
  20067086.589   105453248.18549       715.641    20067085.805    82171364.06248
       557.637  
  20491472.223   107683413.73949       929.195    20491472.137    83909153.83548
       724.043  
  22167354.032   116490235.46348      2825.465    22167352.867    90771607.73946
      2201.660  
  23986585.813   126050364.40447     -3634.504    23986586.023    98221058.08246
     -2832.081  
  23206151.766   121949149.02745     -3138.824    23206153.347    95025316.77144
     -2445.840  
  24226265.451   127309887.49846     -1682.620    24226266.874    99202517.53944
     -1311.132  
  24530622.622   128909302.00547      2138.445    24530624.972   100448815.04144
      1666.308  
  20775716.033   109177125.67149     -1384.440    20775714.837    85073082.98847
     -1078.788  
  19509593.444   104472988.55608      1087.500    19509596.744    81256780.02408
       845.828  
  20317934.090   108763488.82708     -2451.761    20317937.066    84593842.70508
     -1906.925  
  22256829.562   118808453.87307     -4371.241    22256836.042    92406604.60007
     -3399.859  
  22598046.939   120714708.90007      -197.832    22598052.623    93889243.59606
      -153.875  
  22852959.746   122162180.10206      3555.238    22852962.051    95015055.88004
      2765.195  
  21511817.943   115033357.63405      3138.901    21511822.672    89470416.20707
      2441.366  
  19687491.036   105314801.47206     -1546.430    19687494.343    81911522.23107
     -1202.780  
 20 09 30 05 51 15.0000000  0 15G15G18G20G29G 5G30G27G13R 4R 3R18R12
                                R 5R20R19
  20066406.862   105449676.53649       712.418    20066405.928    82168580.95448
       555.128  
  20490589.287   107678773.85349       926.219    20490589.281    83905538.34248
       721.730  
  22164665.918   116476109.39348      2824.288    22164664.786    90760600.40246
      2200.742  
  23990043.749   126068536.01047     -3635.133    23990043.872    98235217.77445
     -2832.577  
  23209138.055   121964842.05046     -3138.808    23209139.799    95037545.10342
     -2445.827  
  24227867.197   127318304.94847     -1685.184    24227868.505    99209076.57445
     -1313.133  
  24528588.971   128898615.85047      2135.438    24528591.347   100440488.15543
      1663.973  
  20777034.381   109184053.51349     -1387.441    20777033.298    85078481.29947
     -1081.129  
  19508578.979   104467556.70409      1084.558    19508582.307    81252555.24508
       843.542  
  20320224.764   108775750.76308     -2453.761    20320227.645    84603379.76508
     -1908.483  
  22260923.984   118830310.82907     -4372.441    22260930.683    92423604.41807
     -3400.792  
  22598234.075   120715708.14007      -202.265    22598239.403    93890020.74506
      -157.323  
  22849634.707   122144407.64306      3553.762    22849636.996    95001232.81104
      2764.031  
  21508884.602   115017672.08705      3135.434    21508889.431    89458216.35907
      2438.672  
  19688938.039   105322542.11606     -1550.886    19688941.298    81917542.72707
     -1206.250  
 20 09 30 05 51 20.0000000  0 15G15G18G20G29G 5G30G27G13R 4R 3R18R12
                                R 5R20R19
  20065731.149   105446125.79949       708.667    20065730.468    82165814.15048
       552.207  
  20489710.145   107674153.52149       922.684    20489710.106    83901938.08048
       718.972  
  22161979.721   116461993.39448      2822.758    22161978.487    90749600.92846
      2199.551  
  23993503.239   126086716.25646     -3636.398    23993503.624    98249384.19046
     -2833.563  
  23212125.913   121980543.85146     -3140.511    23212127.498    95049780.23244
     -2447.160  
  24229472.582   127326740.83347     -1688.363    24229473.835    99215650.00844
     -1315.609  
  24526559.065   128887948.15247      2132.472    24526561.336   100432175.75643
      1661.675  
  20778356.552   109191001.03549     -1390.792    20778355.207    85083894.95347
     -1083.737  
  19507568.105   104462143.64609      1081.324    19507571.485    81248345.08208
       841.066  
  20322517.967   108788026.77008     -2456.066    20322520.890    84612927.76308
     -1910.276  
  22265021.050   118852180.18607     -4374.171    22265027.498    92440613.91907
     -3402.137  
  22598426.047   120716734.30707      -207.292    22598431.322    93890818.87005
      -161.229  
  22846311.919   122126645.52805      3552.195    22846314.157    94987417.80003
      2762.809  
  21505954.976   115002006.71205      3131.917    21505959.965    89446032.14907
      2435.934  
  19690389.999   105330309.84106     -1555.641    19690393.552    81923584.29707
     -1209.944  
 20 09 30 05 51 25.0000000  0 15G15G18G20G29G 5G30G27G13R 4R 3R18R12
                                R 5R20R19
  20065058.279   105442589.52849       705.578    20065057.413    82163058.63248
       549.801  
  20488833.482   107669546.31449       919.819    20488833.400    83898348.05448
       716.742  
  22159294.267   116447881.02148      2821.793    22159293.115    90738604.27946
      2198.800  
  23996963.098   126104898.68446     -3636.765    23996963.732    98263552.28746
     -2833.851  
  23215114.368   121996247.81946     -3141.074    23215115.852    95062017.07244
     -2447.597  
  24231080.195   127335188.83446     -1691.313    24231081.306    99222232.89543
     -1317.905  
  24524531.179   128877292.44646      2129.945    24524533.607   100423872.63844
      1659.703  
  20779681.000   109197961.83649     -1393.777    20779679.789    85089318.95747
     -1086.058  
  19506559.480   104456742.91409      1078.757    19506562.804    81244144.52308
       839.035  
  20324812.704   108800310.42908     -2457.750    20324815.596    84622481.71908
     -1911.585  
  22269118.991   118874055.39806     -4375.952    22269125.409    92457627.97107
     -3403.523  
  22598621.825   120717780.77606      -211.695    22598627.093    93891632.84205
      -164.648  
  22842989.797   122108887.32306      3550.965    22842991.983    94973605.86904
      2761.855  
  21503027.977   114986354.85705      3128.637    21503032.885    89433858.48707
      2433.378  
  19691846.036   105338098.06606     -1560.069    19691849.399    81929641.78807
     -1213.391  
 20 09 30 05 51 30.0000000  0 15G15G18G20G29G 5G30G27G13R 4R 3R18R12
                                R 5R20R19
  20064388.260   105439068.08449       702.632    20064387.295    82160314.64448
       547.508  
  20487959.273   107664952.53449       917.229    20487959.140    83894768.48048
       714.727  
  22156609.416   116433772.62448      2821.171    22156608.226    90727610.72946
      2198.315  
  24000423.593   126123083.64747     -3637.383    24000424.237    98277722.38346
     -2834.327  
  23218103.363   122011954.34246     -3141.874    23218104.511    95074255.94344
     -2448.210  
  24232690.311   127343649.20746     -1693.366    24232691.472    99228825.38044
     -1319.507  
  24522505.780   128866649.15546      2127.546    24522508.204   100415579.10844
      1657.820  
  20781008.302   109204936.23149     -1396.355    20781007.123    85094753.54547
     -1088.070  
  19505553.224   104451354.82909      1076.125    19505556.559    81239953.79708
       836.984  
  20327108.766   108812601.96008     -2459.405    20327111.795    84632041.80208
     -1912.871  
  22273218.089   118895936.91006     -4377.116    22273224.572    92474646.90607
     -3404.429  
  22598821.524   120718847.97207      -215.616    22598826.797    93892462.87405
      -167.702  
  22839668.406   122091133.24005      3550.266    22839670.508    94959797.18104
      2761.320  
  21500103.563   114970716.92106      3125.645    21500108.495    89421695.67207
      2431.059  
  19693305.860   105345907.29706     -1563.906    19693309.319    81935715.63307
     -1216.374  
 20 09 30 05 51 35.0000000  0 15G15G18G20G29G 5G30G27G13R 4R 3R18R12
                                R 5R20R19
  20063721.264   105435563.59149       699.281    20063720.366    82157583.86948
       544.891  
  20487088.094   107660374.36349       914.164    20487088.034    83891201.07248
       712.331  
  22153925.895   116419670.34548      2819.964    22153924.556    90716621.95546
      2197.374  
  24003885.103   126141273.22447     -3638.387    24003885.681    98291896.07346
     -2835.109  
  23221093.286   122027665.46446     -3142.503    23221094.238    95086498.34845
     -2448.707  
  24234303.062   127352124.08646     -1696.578    24234304.333    99235429.18644
     -1322.011  
  24520483.076   128856020.30146      2124.206    24520485.161   100407296.89644
      1655.227  
  20782338.453   109211926.31849     -1399.640    20782337.380    85100200.38147
     -1090.628  
  19504549.825   104445981.52209      1073.089    19504553.156    81235774.56508
       834.625  
  20329406.863   108824903.60408     -2461.522    20329409.985    84641609.73308
     -1914.522  
  22277318.642   118917826.75406     -4379.098    22277325.376    92491672.34407
     -3405.968  
  22599025.728   120719938.04007      -220.101    22599030.844    93893310.69906
      -171.195  
  22836348.171   122073385.40006      3548.897    22836349.991    94945993.29603
      2760.253  
  21497182.326   114955095.03705      3122.515    21497187.250    89409545.31007
      2428.621  
  19694769.949   105353739.55806     -1568.609    19694773.591    81941807.39307
     -1220.030  
 20 09 30 05 51 40.0000000  0 15G15G18G20G29G 5G30G27G13R 4R 3R18R12
                                R 5R20R19
  20063057.663   105432076.12849       695.897    20063056.862    82154866.37048
       542.253  
  20486219.783   107655811.82649       910.972    20486219.628    83887645.84448
       709.843  
  22151243.518   116405574.26448      2818.679    22151242.160    90705637.99546
      2196.374  
  24007347.349   126159467.48347     -3638.858    24007347.970    98306073.41346
     -2835.480  
  23224084.048   122043381.39846     -3143.753    23224084.850    95098744.49544
     -2449.688  
  24235918.552   127360613.47946     -1699.102    24235919.744    99242044.30445
     -1323.977  
  24518463.303   128845406.04547      2121.316    24518465.649   100399026.05142
      1652.968  
  20783671.642   109218932.17649     -1402.629    20783670.588    85105659.48947
     -1092.961  
  19503549.255   104440623.04509      1070.288    19503552.430    81231606.86008
       832.441  
  20331706.883   108837215.22608     -2463.211    20331710.087    84651185.44108
     -1915.836  
  22281420.780   118939724.93406     -4380.382    22281427.656    92508704.25107
     -3406.969  
  22599233.992   120721051.08307      -224.644    22599239.243    93894176.42106
      -174.718  
  22833029.231   122055644.07705      3548.038    22833030.467    94932194.56703
      2759.593  
  21494263.993   114939489.40105      3119.508    21494268.931    89397407.58707
      2426.280  
  19696238.362   105361594.73506     -1573.413    19696241.986    81947916.96507
     -1223.769  
 20 09 30 05 51 45.0000000  0 15G15G18G20G29G 5G30G27G13R 4R 3R18R12
                                R 5R20R19
  20062397.486   105428607.46749       692.210    20062396.760    82152163.51748
       539.386  
  20485354.857   107651266.73449       907.655    20485354.886    83884104.21448
       707.261  
  22148562.653   116391486.13348      2817.214    22148561.479    90694660.24146
      2195.230  
  24010810.992   126177668.20447     -3640.383    24010811.403    98320255.80846
     -2836.660  
  23227075.952   122059103.86347     -3144.866    23227076.606    95110995.79844
     -2450.546  
  24237537.269   127369119.26946     -1702.672    24237538.417    99248672.15544
     -1326.765  
  24516446.595   128834808.17247      2118.172    24516448.733   100390767.93144
      1650.516  
  20785008.071   109225955.56549     -1406.012    20785007.233    85111132.26347
     -1095.598  
  19502551.685   104435281.25909      1067.042    19502555.100    81227452.14008
       829.941  
  20334008.903   108849538.86908     -2465.418    20334012.298    84660770.49108
     -1917.550  
  22285525.045   118961633.31106     -4382.406    22285531.846    92525744.09307
     -3408.538  
  22599446.787   120722188.91907      -229.675    22599452.258    93895061.41606
      -178.636  
  22829711.466   122037910.93706      3545.929    22829712.760    94918402.07804
      2757.858  
  21491348.886   114923901.82505      3116.210    21491353.998    89385283.91807
      2423.718  
  19697711.357   105369474.76606     -1578.472    19697715.165    81954045.87807
     -1227.703  
 20 09 30 05 51 50.0000000  0 15G15G18G20G29G 5G30G27G13R 4R 3R18R12
                                R 5R20R19
  20061739.957   105425152.10049       689.848    20061739.355    82149471.02448
       537.538  
  20484492.249   107646733.60549       905.457    20484492.139    83880571.90848
       705.550  
  22145882.172   116377400.51448      2817.070    22145881.012    90683684.42446
      2195.116  
  24014274.641   126195869.83447     -3640.366    24014275.184    98334438.88346
     -2836.652  
  23230068.198   122074827.31947     -3144.800    23230068.718    95123247.81143
     -2450.500  
  24239157.901   127377635.87247     -1704.425    24239159.139    99255308.46045
     -1328.129  
  24514431.966   128824221.09947      2116.362    24514434.053   100382518.27844
      1649.104  
  20786346.802   109232990.95449     -1408.171    20786346.096    85116614.37347
     -1097.280  
  19501556.170   104429950.50909      1065.125    19501559.710    81223306.00208
       828.430  
  20336312.271   108861868.72808     -2466.468    20336315.741    84670360.38808
     -1918.363  
  22289630.059   118983546.18406     -4382.952    22289636.765    92542787.42407
     -3408.972  
  22599663.375   120723345.83407      -233.085    22599668.879    93895961.23506
      -181.288  
  22826394.704   122020180.38505      3546.034    22826395.691    94904611.65304
      2758.031  
  21488436.302   114908326.70905      3113.769    21488441.428    89373169.94707
      2421.820  
  19699188.174   105377374.14606     -1582.132    19699191.916    81960189.84307
     -1230.546  
 20 09 30 05 51 55.0000000  0 15G15G18G20G29G 5G30G27G13R 4R 3R18R12
                                R 5R20R19
  20061084.884   105421710.72849       686.655    20061084.386    82146789.43948
       535.059  
  20483632.094   107642213.11949       902.608    20483632.093    83877049.44748
       703.328  
  22143202.433   116363318.01848      2815.898    22143201.308    90672711.07846
      2194.207  
  24017738.880   126214073.12747     -3641.145    24017739.386    98348623.27146
     -2837.253  
  23233060.634   122090552.67846     -3145.784    23233061.307    95135501.36645
     -2451.262  
  24240781.042   127386164.00347     -1706.898    24240782.022    99261953.76744
     -1330.054  
  24512419.472   128813645.61847      2113.847    24512421.434   100374277.62943
      1647.152  
  20787688.218   109240039.05349     -1411.148    20787687.375    85122106.40547
     -1099.598  
  19500562.889   104424631.53009      1062.335    19500566.504    81219169.02108
       826.308  
  20338616.956   108874205.60708     -2468.336    20338620.336    84679955.73508
     -1919.819  
  22293736.059   119005464.50706     -4384.815    22293742.868    92559835.01907
     -3410.413  
  22599883.707   120724522.68107      -237.605    22599889.104    93896876.55806
      -184.805  
  22823078.340   122002453.26505      3544.664    22823079.300    94890823.91904
      2756.835  
  21485526.092   114892764.66305      3110.679    21485531.501    89361066.12907
      2419.414  
  19700668.543   105385293.46506     -1586.003    19700672.504    81966349.30107
     -1233.563  
 20 09 30 05 52  0.0000000  0 16G15G18G20G29G 5G30G27G24G13R 4R 3R18
                                R12R 5R20R19
  20060433.044   105418285.69149       683.089    20060432.622    82144120.57648
       532.277  
  20482774.631   107637707.62149       899.319    20482774.720    83873538.67748
       700.769  
  22140523.642   116349241.06548      2814.421    22140522.641    90661742.01146
      2193.051  
  24021203.614   126232280.39547     -3642.292    24021204.151    98362810.71746
     -2838.160  
  23236054.108   122106282.01847     -3146.273    23236054.320    95147757.97344
     -2451.648  
  24242406.488   127394705.96947     -1710.199    24242407.667    99268609.82645
     -1332.625  
  24510409.819   128803084.10747      2110.969    24510411.626   100366047.89244
      1644.909  
  24456329.663   128518879.96755      3851.824    24456333.450   100144599.39654
      3001.418  
  20789032.298   109247102.20949     -1414.523    20789031.587    85127610.16547
     -1102.227  
  19499572.241   104419326.81409      1059.323    19499575.955    81215043.13508
       823.918  
  20340923.329   108886551.86808     -2470.304    20340926.909    84689558.38308
     -1921.352  
  22297843.512   119027390.49606     -4386.281    22297850.170    92576888.56007
     -3411.554  
  22600108.226   120725721.71007      -242.249    22600113.752    93897809.13206
      -188.421  
  22819762.855   121984731.81905      3543.117    22819764.350    94877040.58004
      2755.753  
  21482618.992   114877218.28305      3107.843    21482624.229    89348974.50907
      2417.211  
  19702153.284   105393235.20406     -1590.456    19702157.136    81972526.21107
     -1237.026  
 20 09 30 05 52  5.0000000  0 16G15G18G20G29G 5G30G27G24G13R 4R 3R18
                                R12R 5R20R19
  20059784.652   105414878.49749       679.777    20059784.267    82141465.63948
       529.695  
  20481920.417   107633218.66549       896.184    20481920.523    83870040.78948
       698.320  
  22137846.166   116335171.14248      2813.426    22137845.196    90650778.44546
      2192.281  
  24024669.452   126250493.05847     -3642.719    24024669.996    98377002.40146
     -2838.479  
  23239048.319   122122016.79947     -3147.324    23239048.507    95160018.82844
     -2452.461  
  24244035.141   127403263.28447     -1712.737    24244036.236    99275277.88844
     -1334.597  
  24508403.036   128792538.01547      2107.848    24508404.747   100357830.15344
      1642.483  
  24452664.573   128499617.78644      3852.559    24452664.237   100129589.89343
      3001.977  
  20790379.415   109254181.88649     -1417.421    20790378.668    85133126.79947
     -1104.488  
  19498584.607   104414037.73309      1056.496    19498588.235    81210929.41008
       821.719  
  20343231.729   108898908.94308     -2472.301    20343235.338    84699169.44508
     -1922.902  
  22301952.600   119049325.43206     -4387.879    22301959.422    92593949.04207
     -3412.801  
  22600337.208   120726944.48507      -246.737    22600342.604    93898760.17206
      -191.909  
  22816448.812   121967017.73606      3541.948    22816450.392    94863262.96504
      2754.847  
  21479714.774   114861688.99905      3104.144    21479720.329    89336896.16308
      2414.331  
  19703642.309   105401200.73306     -1595.664    19703646.078    81978721.61107
     -1241.074  
 20 09 30 05 52 10.0000000  0 16G15G18G20G29G 5G30G27G24G13R 4R 3R18
                                R12R 5R20R19
  20059139.124   105411486.81749       676.691    20059138.805    82138822.76848
       527.292  
  20481068.855   107628743.89449       893.301    20481068.956    83866553.95448
       696.077  
  22135169.458   116321105.94648      2812.590    22135168.766    90639818.53746
      2191.625  
  24028135.694   126268708.81747     -3643.604    24028136.271    98391196.49946
     -2839.175  
  23242043.305   122137754.80447     -3147.792    23242043.289    95172282.20943
     -2452.823  
  24245666.063   127411833.65246     -1715.668    24245667.344    99281956.06645
     -1336.890  
  24506398.696   128782005.04247      2105.140    24506400.144   100349622.63844
      1640.367  
  24448998.308   128480355.80944      3853.335    24449000.452   100114580.46544
      3002.602  
  20791729.377   109261275.73649     -1420.382    20791728.695    85138654.46447
     -1106.797  
  19497599.394   104408761.99509      1053.699    19497603.143    81206826.07008
       819.503  
  20345541.827   108911274.54708     -2474.074    20345545.433    84708787.13308
     -1924.285  
  22306063.055   119071267.34906     -4388.917    22306069.629    92611014.95607
     -3413.605  
  22600570.196   120728188.72007      -251.292    22600575.322    93899727.90306
      -195.452  
  22813135.905   121949308.47306      3541.422    22813137.712    94849489.12505
      2754.440  
  21476813.679   114846174.57105      3101.558    21476819.041    89324829.39707
      2412.324  
  19705135.467   105409187.78006     -1599.976    19705139.110    81984933.75407
     -1244.430  
 20 09 30 05 52 15.0000000  0 16G15G18G20G29G 5G30G27G24G13R 4R 3R18
                                R12R 5R20R19
  20058497.224   105408113.29849       672.855    20058496.999    82136194.05348
       524.304  
  20480220.540   107624285.96749       889.891    20480220.786    83863080.24348
       693.421  
  22132494.469   116307048.13248      2810.820    22132493.826    90628864.42047
      2190.249  
  24031603.314   126286930.28447     -3645.155    24031603.847    98405395.04646
     -2840.383  
  23245039.348   122153498.67846     -3149.448    23245039.141    95184550.12643
     -2454.124  
  24247299.973   127420419.62346     -1718.722    24247301.207    99288646.39844
     -1339.269  
  24504397.247   128771487.85847      2102.055    24504398.944   100341427.40444
      1637.956  
  24445333.043   128461096.74344      3851.464    24445337.765   100099573.56044
      3001.159  
  20793082.578   109268386.44649     -1423.863    20793081.896    85144195.28547
     -1109.507  
  19496617.307   104403502.30509      1050.270    19496620.934    81202735.20508
       816.871  
  20347853.984   108923651.39108     -2476.676    20347857.464    84718413.57008
     -1926.309  
  22310175.072   119093218.66906     -4391.172    22310181.982    92628088.21607
     -3415.354  
  22600807.799   120729457.07807      -256.258    22600812.851    93900714.40106
      -199.313  
  22809824.326   121931606.80806      3539.887    22809826.511    94835721.19205
      2753.249  
  21473915.687   114830677.45805      3097.503    21473921.165    89312776.10808
      2409.167  
  19706633.021   105417198.99706     -1604.855    19706636.676    81991164.69507
     -1248.226  
 20 09 30 05 52 20.0000000  0 15G15G18G20G29G 5G30G27G13R 4R 3R18R12
                                R 5R20R19
  20057858.376   105404756.97149       669.793    20057858.129    82133578.74048
       521.917  
  20479375.294   107619843.91949       887.094    20479375.317    83859618.90848
       691.238  
  22129820.437   116292996.71848      2809.940    22129820.086    90617915.27446
      2189.565  
  24035071.631   126305156.53446     -3645.563    24035072.120    98419597.29846
     -2840.707  
  23248036.361   122169247.46246     -3150.015    23248035.681    95196821.89545
     -2454.565  
  24248936.749   127429020.31546     -1721.262    24248937.923    99295348.25645
     -1341.242  
  24502398.846   128760985.49947      2099.198    24502400.416   100333243.76644
      1635.737  
  20794438.824   109275513.00749     -1426.613    20794438.004    85149748.44447
     -1111.652  
  19495637.859   104398257.62609      1047.722    19495641.594    81198656.00408
       814.800  
  20350167.964   108936038.39908     -2478.180    20350171.365    84728047.91508
     -1927.472  
  22314288.698   119115178.33105     -4392.969    22314295.525    92645167.92007
     -3416.766  
  22601049.476   120730748.57007      -260.309    22601054.620    93901718.89106
      -202.465  
  22806514.106   121913911.78706      3538.519    22806516.469    94821958.38605
      2752.183  
  21471020.814   114815197.08005      3094.870    21471026.135    89300735.80907
      2407.117  
  19708135.163   105425233.44006     -1609.245    19708138.593    81997413.70407
     -1251.641  
 20 09 30 05 52 25.0000000  0 15G15G18G20G29G 5G30G27G13R 4R 3R18R12
                                R 5R20R19
  20057222.177   105401413.06549       667.374    20057221.929    82130973.10648
       520.030  
  20478532.297   107615413.00349       885.015    20478532.271    83856166.24648
       689.621  
  22127146.801   116278946.97848      2809.402    22127146.570    90606967.42646
      2189.144  
  24038539.870   126323382.75746     -3645.355    24038540.343    98433799.52746
     -2840.539  
  23251033.392   122184996.28246     -3149.866    23251032.681    95209093.67144
     -2454.445  
  24250575.154   127437630.91446     -1723.390    24250576.440    99302057.80445
     -1342.905  
  24500402.296   128750493.21647      2097.308    24500403.934   100325067.97244
      1634.266  
  20795796.979   109282650.66149     -1428.953    20795796.309    85155310.25948
     -1113.468  
  19494660.430   104393023.13309      1045.711    19494663.857    81194584.73208
       813.367  
  20352482.926   108948430.79508     -2479.406    20352486.438    84737686.45208
     -1928.426  
  22318403.020   119137141.67306     -4393.022    22318410.044    92662250.48907
     -3416.804  
  22601294.683   120732058.36007      -263.601    22601300.022    93902737.62907
      -205.022  
  22803204.257   121896218.56006      3538.112    22803206.950    94808197.00205
      2751.866  
  21468128.026   114799728.35405      3092.034    21468133.467    89288704.58307
      2404.917  
  19709640.650   105433286.18606     -1612.484    19709643.909    82003676.95107
     -1254.159  
 20 09 30 05 52 30.0000000  0 15G15G18G20G29G 5G30G27G13R 4R 3R18R12
                                R 5R20R19
  20056589.081   105398086.09249       663.496    20056588.672    82128380.65148
       517.008  
  20477691.966   107610997.72149       881.280    20477691.903    83852725.76748
       686.711  
  22124474.455   116264903.35948      2807.871    22124474.340    90596024.33947
      2187.948  
  24042009.033   126341613.45346     -3646.905    24042009.544    98448005.23046
     -2841.750  
  23254031.165   122200749.59246     -3151.269    23254030.629    95221369.01644
     -2455.526  
  24252216.369   127446255.89946     -1726.910    24252217.814    99308778.58345
     -1345.648  
  24498408.342   128740015.51247      2093.956    24498410.002   100316903.53244
      1631.656  
  20797158.181   109289803.88449     -1432.464    20797157.590    85160884.19447
     -1116.211  
  19493685.657   104387803.36309      1042.296    19493689.036    81190524.91908
       810.628  
  20354799.890   108960833.02808     -2481.805    20354803.212    84747332.63508
     -1930.297  
  22322518.960   119159113.18606     -4395.336    22322526.057    92679339.44407
     -3418.598  
  22601544.001   120733390.95507      -269.059    22601549.766    93903774.06406
      -209.273  
  22799895.570   121878531.76406      3536.397    22799898.519    94794440.61305
      2750.531  
  21465238.373   114784276.11605      3088.714    21465243.912    89276686.14907
      2402.324  
  19711150.162   105441361.83906     -1617.780    19711153.740    82009958.01607
     -1258.273  
 20 09 30 05 52 35.0000000  0 15G15G18G20G29G 5G30G27G13R 4R 3R18R12
                                R 5R20R19
  20055959.197   105394776.59349       660.667    20055958.833    82125801.81448
       514.801  
  20476854.882   107606598.62749       878.695    20476854.740    83849297.91148
       684.698  
  22121803.296   116250866.44848      2807.292    22121803.368    90585086.50047
      2187.499  
  24045479.162   126359849.04347     -3647.069    24045479.525    98462214.78646
     -2841.874  
  23257029.984   122216508.14546     -3151.625    23257029.532    95233648.39945
     -2455.816  
  24253860.454   127454895.84446     -1729.397    24253861.711    99315510.97144
     -1347.590  
  24496417.260   128729552.93046      2091.749    24496418.999   100308750.82944
      1629.926  
  20798522.569   109296973.23349     -1434.897    20798521.774    85166470.70547
     -1118.104  
  19492713.712   104382598.95209      1040.031    19492717.322    81186477.04808
       808.913  
  20357118.532   108973245.68208     -2483.007    20357121.893    84756986.91108
     -1931.229  
  22326636.528   119181093.28906     -4395.941    22326643.676    92696435.07007
     -3419.070  
  22601797.868   120734746.97007      -272.843    22601803.635    93904828.73206
      -212.214  
  22796588.218   121860851.79106      3535.819    22796591.456    94780689.56805
      2750.086  
  21462351.710   114768840.58105      3086.155    21462357.220    89264680.75107
      2400.343  
  19712664.267   105449460.90806     -1621.684    19712667.650    82016257.29907
     -1261.309  
 20 09 30 05 52 40.0000000  0 15G15G18G20G29G 5G30G27G13R 4R 3R18R12
                                R 5R20R19
  20055332.185   105391481.84049       656.922    20055331.924    82123234.47848
       511.883  
  20476020.293   107602212.98949       875.199    20476020.272    83845880.52948
       681.973  
  22119132.910   116236833.50648      2805.702    22119133.064    90574151.73947
      2186.262  
  24048949.589   126378086.91847     -3648.379    24048950.275    98476426.11445
     -2842.897  
  23260029.163   122232269.09546     -3152.702    23260028.603    95245929.65744
     -2456.656  
  24255506.732   127463547.96446     -1732.371    24255508.095    99322252.91845
     -1349.898  
  24494428.543   128719102.84047      2088.120    24494430.465   100300607.92944
      1627.105  
  20799889.281   109304155.94349     -1438.426    20799888.665    85172067.61447
     -1120.855  
  19491744.362   104377407.12909      1036.484    19491747.506    81182438.95507
       806.151  
  20359438.922   108985666.09608     -2485.496    20359442.267    84766647.23908
     -1933.163  
  22330755.405   119203079.32506     -4398.418    22330762.225    92713535.30906
     -3420.995  
  22602055.699   120736123.63307      -277.793    22602061.647    93905899.46007
      -216.066  
  22793281.783   121843176.06206      3534.039    22793284.968    94766941.79105
      2748.695  
  21459467.869   114753419.10305      3082.573    21459473.397    89252686.28107
      2397.559  
  19714182.239   105457580.75006     -1626.516    19714185.453    82022572.72207
     -1265.069  
 20 09 30 05 52 45.0000000  0 16G15G18G20G29G 5G30G27G24G13R 4R 3R18
                                R12R 5R20R19
  20054708.788   105388205.15049       653.484    20054708.436    82120681.21048
       509.207  
  20475189.123   107597844.15949       872.035    20475188.942    83842476.24848
       679.508  
  22116463.859   116222807.92648      2804.218    22116464.165    90563222.72947
      2185.104  
  24052421.330   126396330.34947     -3649.473    24052421.779    98490641.75046
     -2843.749  
  23263029.167   122248035.75545     -3154.094    23263028.793    95258215.37144
     -2457.734  
  24257156.072   127472215.64945     -1735.434    24257157.439    99329006.92844
     -1352.292  
  24492442.819   128708668.41346      2085.405    24492445.107   100292477.21944
      1624.995  
  24423345.896   128345548.38155      3850.512    24423351.383   100009541.00155
      3000.398  
  20801259.393   109311355.36849     -1441.597    20801258.739    85177677.55747
     -1123.327  
  19490777.842   104372231.20409      1033.395    19490781.038    81178413.24207
       803.749  
  20361761.116   108998097.51408     -2487.629    20361764.566    84776316.11308
     -1934.827  
  22334875.830   119225074.71106     -4400.140    22334882.517    92730642.81307
     -3422.336  
  22602317.979   120737524.31407      -282.456    22602323.992    93906988.87506
      -219.690  
  22789976.474   121825507.85506      3532.804    22789979.736    94753199.89005
      2747.742  
  21456587.273   114738015.17206      3078.801    21456592.740    89240705.44907
      2394.621  
  19715704.735   105465724.60906     -1631.324    19715707.801    82028906.83007
     -1268.812  
 20 09 30 05 52 50.0000000  0 16G15G18G20G29G 5G30G27G24G13R 4R 3R18
                                R12R 5R20R19
  20054088.820   105384947.54149       649.854    20054088.398    82118142.82048
       506.383  
  20474361.186   107593493.16749       868.800    20474360.817    83839085.87148
       676.988  
  22113796.542   116208790.70748      2802.733    22113796.976    90552300.22647
      2183.949  
  24055894.276   126414580.27347     -3650.297    24055894.642    98504862.48145
     -2844.387  
  23266030.764   122263809.37645     -3154.538    23266030.228    95270506.46444
     -2458.085  
  24258808.438   127480899.82745     -1738.152    24258809.937    99335773.81645
     -1354.405  
  24490460.146   128698250.68046      2082.397    24490462.592   100284359.49845
      1622.648  
  24419682.980   128326299.31544      3849.073    24419687.944    99994541.73745
      2999.284  
  20802632.761   109318572.50049     -1444.905    20802632.204    85183301.29248
     -1125.905  
  19489814.452   104367072.26609      1030.355    19489817.463    81174400.73608
       801.410  
  20364085.759   109010541.04308     -2489.531    20364089.038    84785994.40608
     -1936.304  
  22338998.462   119247080.26007     -4402.034    22339004.959    92747758.24306
     -3423.808  
  22602584.765   120738949.99707      -287.534    22602591.126    93908097.71807
      -223.640  
  22786673.050   121807848.18806      3531.777    22786676.116    94739464.59605
      2746.938  
  21453709.987   114722629.80805      3075.632    21453715.683    89228739.06008
      2392.160  
  19717231.812   105473893.44506     -1635.976    19717234.978    82035260.37607
     -1272.426  
 20 09 30 05 52 55.0000000  0 16G15G18G20G29G 5G30G27G24G13R 4R 3R18
                                R12R 5R20R19
  20053471.723   105381704.57749       647.694    20053471.282    82115615.83448
       504.694  
  20473535.720   107589155.56349       866.687    20473535.374    83835705.91248
       675.336  
  22111129.973   116194777.35448      2802.749    22111130.271    90541380.73347
      2183.956  
  24059367.535   126432832.33947     -3650.288    24059367.788    98519084.84046
     -2844.387  
  23269032.873   122279585.12946     -3154.902    23269032.178    95282799.25945
     -2458.363  
  24260463.348   127489596.16046     -1739.770    24260464.937    99342550.20244
     -1355.664  
  24488480.025   128687845.47546      2080.312    24488482.519   100276251.55245
      1621.020  
  24416019.684   128307049.78644      3851.844    24416025.288    99979542.17943
      3001.433  
  20804008.578   109325802.87149     -1446.965    20804008.108    85188935.35847
     -1127.503  
  19488853.325   104361925.72209      1028.582    19488856.312    81170397.86008
       800.003  
  20366411.706   109022992.14608     -2490.531    20366414.925    84795678.59208
     -1937.082  
  22343121.948   119269091.58506     -4402.151    22343128.220    92764878.16506
     -3423.897  
  22602855.655   120740396.29107      -290.945    22602862.107    93909222.63707
      -226.289  
  22783370.150   121790192.73506      3531.140    22783373.385    94725732.56405
      2746.441  
  21450835.548   114707258.51805      3072.980    21450841.061    89216783.60807
      2390.093  
  19718762.652   105482082.75006     -1639.784    19718765.716    82041629.83207
     -1275.390  
 20 09 30 05 53  0.0000000  0 16G15G18G20G29G 5G30G27G24G13R 4R 3R18
                                R12R 5R20R19
  20052857.472   105378476.10549       644.133    20052857.115    82113100.14148
       501.917  
  20472712.926   107584831.15649       863.409    20472712.635    83832336.24748
       672.788  
  22108463.924   116180767.73548      2801.383    22108464.515    90530464.15746
      2182.895  
  24062841.205   126451086.28947     -3651.288    24062841.389    98533308.68646
     -2845.163  
  23272035.305   122295363.11045     -3155.854    23272034.278    95295093.82444
     -2459.113  
  24262120.359   127498304.30946     -1742.983    24262121.930    99349335.78044
     -1358.168  
  24486502.096   128677452.42346      2077.063    24486504.868   100268153.05945
      1618.491  
  24412356.484   128287799.85145      3849.938    24412362.218    99964542.23844
      2999.953  
  20805387.038   109333046.32049     -1450.145    20805386.444    85194579.60347
     -1129.984  
  19487894.608   104356791.49209      1025.507    19487897.601    81166404.58008
       797.616  
  20368738.910   109035450.59908     -2492.707    20368742.215    84805368.49708
     -1938.777  
  22347246.620   119291108.51606     -4404.144    22347252.385    92782002.43806
     -3425.448  
  22603130.105   120741862.88607      -295.487    22603136.948    93910363.31407
      -229.828  
  22780068.143   121772541.08606      3529.390    22780071.379    94712003.54105
      2745.081  
  21447963.773   114691901.06705      3069.839    21447969.117    89204838.92408
      2387.648  
  19720297.434   105490292.57806     -1644.136    19720300.577    82048015.25507
     -1278.776  
 20 09 30 05 53  5.0000000  0 16G15G18G20G29G 5G30G27G24G13R 4R 3R18
                                R12R 5R20R19
  20052246.252   105375264.09349       640.805    20052245.853    82110597.28148
       499.327  
  20471892.805   107580521.98449       860.234    20471892.589    83828978.45348
       670.313  
  22105798.989   116166763.84248      2800.409    22105799.689    90519552.01346
      2182.132  
  24066315.606   126469344.13747     -3651.878    24066315.736    98547535.58846
     -2845.621  
  23275038.492   122311145.15146     -3156.449    23275037.448    95307391.49342
     -2459.578  
  24263780.100   127507026.34246     -1745.761    24263781.615    99356132.16544
     -1360.335  
  24484526.959   128667073.57246      2074.352    24484529.651   100260065.65745
      1616.375  
  24408693.828   128268551.21444      3850.604    24408699.501    99949543.30844
      3000.476  
  20806768.157   109340304.84049     -1453.058    20806767.701    85200235.58847
     -1132.257  
  19486938.528   104351671.54409      1022.680    19486941.516    81162422.39408
       795.374  
  20371068.050   109047918.35508     -2494.328    20371071.190    84815065.63208
     -1940.035  
  22351372.554   119313132.93906     -4405.820    22351378.018    92799132.52506
     -3426.754  
  22603408.890   120743351.82407      -299.973    22603415.864    93911521.36006
      -233.316  
  22776767.060   121754895.46606      3528.733    22776770.569    94698279.15305
      2744.565  
  21445094.761   114676559.76305      3066.761    21445100.326    89192906.78808
      2385.254  
  19721836.340   105498524.75206     -1648.440    19721839.555    82054418.05607
     -1282.125  
 20 09 30 05 53 10.0000000  0 15G15G18G20G29G 5G30G27G13R 4R 3R18R12
                                R 5R20R19
  20051637.710   105372066.83649       637.945    20051637.283    82108105.91548
       497.097  
  20471075.515   107576226.31649       857.770    20471075.251    83825631.18348
       668.390  
  22103134.823   116152763.99248      2799.484    22103135.570    90508643.04847
      2181.413  
  24069790.386   126487604.16947     -3652.047    24069790.551    98561764.15646
     -2845.758  
  23278041.996   122326929.60845     -3157.597    23278041.195    95319691.05245
     -2460.468  
  24265442.055   127515760.59846     -1748.047    24265443.638    99362938.09043
     -1362.112  
  24482554.335   128656707.20646      2072.030    24482556.936   100251987.96843
      1614.569  
  20808151.936   109347576.71049     -1455.687    20808151.386    85205901.98147
     -1134.304  
  19485984.858   104346564.12009      1020.222    19485987.613    81158449.95308
       793.503  
  20373398.496   109060393.82108     -2495.879    20373401.649    84824768.76308
     -1941.242  
  22355499.786   119335163.10507     -4406.827    22355504.934    92816267.09106
     -3427.535  
  22603691.590   120744861.39307      -303.874    22603698.508    93912695.48806
      -236.347  
  22773466.865   121737253.90807      3527.793    22773470.150    94684557.98005
      2743.968  
  21442228.544   114661232.56105      3063.827    21442234.165    89180985.65007
      2382.977  
  19723379.061   105506777.61306     -1652.660    19723382.152    82060836.94507
     -1285.405  
 20 09 30 05 53 15.0000000  0 15G15G18G20G29G 5G30G27G13R 4R 3R18R12
                                R 5R20R19
  20051031.624   105368881.83349       635.253    20051031.396    82105624.09548
       495.004  
  20470260.137   107571941.63249       855.383    20470259.866    83822292.47248
       666.531  
  22100471.043   116138765.61048      2799.156    22100471.626    90497735.20647
      2181.156  
  24073264.939   126505863.81647     -3652.511    24073265.269    98575992.45145
     -2846.117  
  23281045.542   122342713.94645     -3157.296    23281044.426    95331990.56444
     -2460.226  
  24267105.890   127524504.48546     -1750.078    24267107.231    99369751.47543
     -1363.698  
  24480583.447   128646350.80646      2069.933    24480586.310   100243918.02145
      1612.925  
  20809537.785   109354859.36449     -1457.991    20809537.280    85211576.76847
     -1136.101  
  19485032.853   104341466.67909      1018.063    19485035.838    81154485.28308
       791.828  
  20375730.130   109072874.33208     -2497.210    20375733.105    84834475.82308
     -1942.277  
  22359627.314   119357196.50506     -4407.641    22359632.426    92833404.17906
     -3428.167  
  22603977.622   120746389.10707      -307.979    22603984.559    93913883.70907
      -239.542  
  22770167.261   121719614.13407      3527.641    22770170.411    94670838.16805
      2743.719  
  21439364.553   114645917.01505      3061.624    21439370.111    89169073.56308
      2381.266  
  19724925.220   105515048.51906     -1656.647    19724928.333    82067269.87107
     -1288.503  
 20 09 30 05 53 20.0000000  0 15G15G18G20G29G 5G30G27G13R 4R 3R18R12
                                R 5R20R19
  20050429.155   105365715.30549       631.659    20050428.673    82103156.67048
       492.198  
  20469448.157   107567674.24549       851.792    20469447.885    83818967.23548
       663.729  
  22097808.803   116124775.00448      2797.503    22097809.185    90486833.45346
      2179.879  
  24076740.852   126524129.33547     -3653.641    24076741.201    98590225.30946
     -2846.995  
  23284050.333   122358504.41545     -3158.538    23284048.954    95344294.79144
     -2461.206  
  24268772.842   127533264.25046     -1753.207    24268774.194    99376577.25244
     -1366.140  
  24478615.760   128636010.66646      2066.218    24478618.459   100235860.75245
      1610.035  
  20810926.880   109362159.07549     -1461.520    20810926.363    85217264.86047
     -1138.847  
  19484084.050   104336385.63209      1014.702    19484086.935    81150533.35408
       789.210  
  20378063.777   109085366.21708     -2499.249    20378066.746    84844191.73008
     -1943.862  
  22363756.695   119379239.48306     -4409.300    22363761.690    92850548.71607
     -3429.457  
  22604268.113   120747941.20407      -312.465    22604275.210    93915090.91507
      -243.027  
  22766869.051   121701982.34206      3525.520    22766871.919    94657124.53905
      2742.066  
  21436503.755   114630619.57605      3057.961    21436509.444    89157175.55708
      2378.414  
  19726475.826   105523343.83806     -1661.601    19726479.054    82073721.78207
     -1292.358  
 20 09 30 05 53 25.0000000  0 15G15G18G20G29G 5G30G27G13R 4R 3R18R12
                                R 5R20R19
  20049830.131   105362567.44449       627.780    20049829.602    82100703.79248
       489.176  
  20468639.410   107563424.24749       848.234    20468639.106    83815655.54748
       660.960  
  22095147.901   116110792.31148      2795.754    22095148.252    90475937.84747
      2178.507  
  24080217.745   126542400.90347     -3654.906    24080218.038    98604462.90645
     -2847.984  
  23287056.254   122374301.16745     -3160.039    23287054.748    95356603.98445
     -2462.366  
  24270442.783   127542040.00446     -1756.671    24270443.962    99383415.51845
     -1368.839  
  24476651.145   128625686.91847      2062.863    24476653.940   100227816.31044
      1607.426  
  20812319.025   109369475.97449     -1465.113    20812318.816    85222966.34947
     -1141.648  
  19483138.371   104331321.09409      1011.188    19483141.102    81146594.27108
       786.586  
  20380399.470   109097869.67508     -2501.983    20380402.510    84853916.63508
     -1945.991  
  22367887.820   119401292.14305     -4411.465    22367892.924    92867700.77407
     -3431.145  
  22604563.164   120749517.87507      -317.879    22604570.537    93916317.20506
      -247.238  
  22763572.240   121684358.74907      3523.897    22763575.112    94643417.32606
      2740.812  
  21433646.465   114615340.39405      3054.133    21433652.135    89145291.73908
      2375.434  
  19728031.125   105531663.70506     -1666.354    19728034.266    82080192.78407
     -1296.058  
 20 09 30 05 53 30.0000000  0 15G15G18G20G29G 5G30G27G13R 4R 3R18R12
                                R 5R20R19
  20049234.338   105359436.18849       624.687    20049233.735    82098263.84948
       486.766  
  20467833.487   107559189.59549       845.429    20467833.242    83812355.82448
       658.777  
  22092488.174   116096815.50448      2794.886    22092488.412    90465046.84246
      2177.831  
  24083695.531   126560676.41647     -3655.414    24083695.937    98618703.54346
     -2848.383  
  23290062.870   122390102.07446     -3160.363    23290061.721    95368916.34944
     -2462.625  
  24272115.172   127550829.75145     -1759.434    24272116.426    99390264.69844
     -1370.987  
  24474689.439   128615377.49347      2060.792    24474691.956   100219782.97245
      1605.808  
  20813714.200   109376807.98049     -1467.723    20813713.956    85228679.58747
     -1143.684  
  19482195.122   104326270.94609      1008.874    19482197.939    81142666.37808
       784.675  
  20382737.053   109110382.53308     -2503.422    20382739.987    84863648.85808
     -1947.108  
  22372020.342   119423352.42406     -4412.809    22372025.577    92884858.75507
     -3432.191  
  22604862.710   120751117.02907      -322.086    22604869.976    93917561.02007
      -250.508  
  22760276.638   121666741.18006      3523.480    22760279.295    94629714.78706
      2740.483  
  21430792.271   114600077.29505      3051.472    21430797.917    89133420.46707
      2373.367  
  19729590.653   105540006.00206     -1670.242    19729593.863    82086681.24707
     -1299.078  
 20 09 30 05 53 35.0000000  0 15G15G18G20G29G 5G30G27G13R 4R 3R18R12
                                R 5R20R19
  20048641.594   105356321.61349       621.531    20048641.043    82095836.90648
       484.304  
  20467030.594   107554970.42749       842.543    20467030.537    83809068.16048
       656.522  
  22089829.659   116082844.69448      2793.776    22089829.835    90454160.47746
      2176.964  
  24087173.858   126578955.90047     -3655.781    24087174.492    98632947.27046
     -2848.663  
  23293070.300   122405907.15845     -3160.288    23293069.243    95381232.02144
     -2462.558  
  24273790.298   127559633.53745     -1761.718    24273791.778    99397124.79646
     -1372.765  
  24472730.430   128605082.57747      2057.526    24472732.777   100211760.96145
      1603.262  
  20815112.464   109384155.21649     -1470.648    20815112.003    85234404.70147
     -1145.965  
  19481254.849   104321235.29509      1005.999    19481257.469    81138749.75708
       782.422  
  20385076.279   109122904.94108     -2505.219    20385079.361    84873388.51108
     -1948.507  
  22376154.312   119445420.36605     -4414.066    22376159.681    92902022.66607
     -3433.172  
  22605166.167   120752738.82307      -326.175    22605173.466    93918822.41007
      -253.690  
  22756982.088   121649129.76207      3521.543    22756985.043    94616017.06606
      2738.980  
  21427941.210   114584830.42105      3048.015    21427946.510    89121561.78707
      2370.680  
  19731154.275   105548370.88906     -1675.297    19731157.596    82093187.26107
     -1303.012  
 20 09 30 05 53 40.0000000  0 15G15G18G20G29G 5G30G27G13R 4R 3R18R12
                                R 5R20R19
  20048051.713   105353221.79649       618.612    20048051.320    82093421.46248
       482.035  
  20466230.184   107550764.84049       840.026    20466230.299    83805791.07148
       654.562  
  22087171.892   116068877.94548      2793.016    22087172.067    90443277.29746
      2176.371  
  24090652.844   126597237.53247     -3656.464    24090653.405    98647192.68046
     -2849.203  
  23296078.171   122421714.78445     -3161.202    23296077.430    95393549.70044
     -2463.270  
  24275467.847   127568449.48846     -1764.386    24275469.593    99403994.32544
     -1374.852  
  24470773.866   128594800.20347      2055.695    24470776.165   100203748.71444
      1601.835  
  20816513.023   109391515.76949     -1473.262    20816512.725    85240140.20647
     -1147.995  
  19480316.864   104316212.23809      1003.519    19480319.450    81134842.94108
       780.516  
  20387417.006   109135434.97208     -2506.569    20387420.168    84883134.09608
     -1949.554  
  22380289.360   119467494.00005     -4415.362    22380295.082    92919191.05907
     -3434.176  
  22605473.754   120754381.23807      -330.464    22605480.817    93920099.84906
      -257.030  
  22753688.388   121631522.64206      3521.211    22753691.251    94602322.63706
      2738.719  
  21425092.768   114569598.08305      3045.202    21425097.981    89109714.42607
      2368.492  
  19732721.917   105556756.37206     -1679.022    19732725.145    82099709.31007
     -1305.906  
 20 09 30 05 53 45.0000000  0 15G15G18G20G29G 5G30G27G13R 4R 3R18R12
                                R 5R20R19
  20047465.069   105350138.36849       615.145    20047464.480    82091018.79648
       479.328  
  20465432.830   107546574.43449       836.637    20465432.742    83802525.83248
       651.926  
  22084515.244   116054916.91248      2791.823    22084515.212    90432398.57846
      2175.448  
  24094132.406   126615522.84447     -3657.604    24094133.093    98661440.95045
     -2850.090  
  23299086.891   122437526.34445     -3162.680    23299086.451    95405870.29644
     -2464.433  
  24277148.153   127577279.15046     -1767.469    24277149.854    99410874.58945
     -1377.250  
  24468820.011   128584532.03147      2052.418    24468822.104   100195747.56445
      1599.281  
  20817916.645   109398891.25849     -1476.484    20817916.149    85245887.33748
     -1150.511  
  19479381.487   104311203.40209      1000.465    19479384.356    81130947.18208
       778.140  
  20389759.575   109147974.17408     -2508.543    20389762.430    84892886.80408
     -1951.093  
  22384425.700   119489574.91006     -4416.261    22384431.596    92936365.06807
     -3434.878  
  22605785.402   120756045.94607      -334.983    22605792.365    93921394.59506
      -260.546  
  22750395.754   121613921.46906      3519.854    22750398.630    94588632.85706
      2737.663  
  21422247.092   114554381.69405      3041.457    21422252.409    89097879.45507
      2365.577  
  19734293.771   105565164.01006     -1683.309    19734296.804    82106248.58207
     -1309.237  
 20 09 30 05 53 50.0000000  0 15G15G18G20G29G 5G30G27G13R 4R 3R18R12
                                R 5R20R19
  20046881.287   105347070.47949       611.902    20046880.817    82088628.22948
       476.805  
  20464638.139   107542398.39749       833.663    20464638.152    83799271.77748
       649.609  
  22081859.547   116040960.72348      2790.581    22081859.371    90421523.63347
      2174.479  
  24097612.466   126633810.99847     -3658.055    24097613.419    98675691.46246
     -2850.438  
  23302096.379   122453341.09046     -3163.280    23302095.785    95418193.45343
     -2464.902  
  24278830.772   127586121.78146     -1769.973    24278832.301    99417764.95543
     -1379.203  
  24466868.603   128574277.25247      2049.538    24466870.602   100187756.83544
      1597.042  
  20819322.761   109406280.82149     -1479.367    20819322.232    85251645.44847
     -1152.754  
  19478448.496   104306207.93209       997.699    19478451.471    81127061.81208
       775.983  
  20392103.457   109160521.69008     -2510.488    20392106.343    84902645.98008
     -1952.605  
  22388563.590   119511662.37406     -4417.977    22388569.295    92953544.18607
     -3436.211  
  22606101.325   120757732.11007      -339.480    22606107.952    93922706.06106
      -264.043  
  22747104.012   121596325.37906      3518.175    22747107.180    94574947.00606
      2736.359  
  21419404.515   114539180.59505      3038.605    21419409.706    89086056.38307
      2363.358  
  19735869.521   105573593.12006     -1688.379    19735872.571    82112804.54207
     -1313.187  
 20 09 30 05 53 55.0000000  0 15G15G18G20G29G 5G30G27G13R 4R 3R18R12
                                R 5R20R19
  20046300.347   105344017.96249       609.265    20046299.850    82086249.64348
       474.753  
  20463846.115   107538236.53149       831.276    20463846.192    83796028.76948
       647.749  
  22079204.804   116027009.26948      2790.101    22079204.507    90410652.37846
      2174.105  
  24101093.172   126652101.79647     -3657.952    24101094.228    98689944.00946
     -2850.355  
  23305106.278   122469158.77546     -3163.788    23305105.800    95430518.93044
     -2465.293  
  24280516.014   127594977.06846     -1772.332    24280517.486    99424665.19745
     -1381.043  
  24464919.710   128564035.62347      2047.390    24464921.898   100179776.34245
      1595.371  
  20820731.725   109413684.25849     -1481.793    20820731.036    85257414.35947
     -1154.647  
  19477518.086   104301225.56409       995.488    19477521.224    81123186.64808
       774.269  
  20394448.979   109173077.42508     -2511.468    20394451.914    84912411.55808
     -1953.362  
  22392702.481   119533756.02306     -4419.519    22392708.268    92970728.12907
     -3437.405  
  22606421.034   120759439.46807      -343.312    22606427.404    93924034.02206
      -267.019  
  22743813.285   121578734.18506      3517.992    22743816.206    94561264.97906
      2736.214  
  21416564.610   114523994.44205      3035.929    21416569.593    89074244.96107
      2361.276  
  19737449.178   105582043.43906     -1691.699    19737452.399    82119377.02007
     -1315.765  
 20 09 30 05 54  0.0000000  0 15G15G18G20G29G 5G30G27G13R 4R 3R18R12
                                R 5R20R19
  20045722.644   105340981.64449       605.602    20045722.065    82083883.67948
       471.894  
  20463056.962   107534089.66449       827.813    20463057.161    83792797.44648
       645.047  
  22076551.010   116013063.30248      2788.440    22076550.667    90399785.40846
      2172.812  
  24104574.651   126670396.09247     -3659.238    24104575.496    98704199.28246
     -2851.358  
  23308117.209   122484980.07546     -3164.121    23308116.701    95442847.25344
     -2465.547  
  24282203.599   127603845.82446     -1774.887    24282205.200    99431575.88443
     -1383.026  
  24462973.703   128553808.00647      2044.108    24462975.502   100171806.77245
      1592.812  
  20822143.371   109421102.35549     -1484.906    20822142.502    85263194.69947
     -1157.070  
  19476590.305   104296257.24509       992.336    19476593.585    81119322.40708
       771.815  
  20396796.162   109185642.14108     -2513.914    20396799.183    84922184.11508
     -1955.265  
  22396842.464   119555856.72106     -4420.852    22396848.512    92987917.56307
     -3438.445  
  22606744.812   120761168.94207      -347.878    22606750.936    93925379.18406
      -270.573  
  22740523.409   121561148.59906      3516.559    22740526.676    94547587.30006
      2735.098  
  21413727.744   114508824.07106      3032.539    21413732.657    89062445.78407
      2358.641  
  19739032.975   105590515.71206     -1696.737    19739036.058    82125966.56707
     -1319.687  
 20 09 30 05 54  5.0000000  0 15G15G18G20G29G 5G30G27G13R 4R 3R18R12
                                R 5R20R19
  20045147.970   105337961.58649       602.378    20045147.475    82081530.39348
       469.382  
  20462270.668   107529957.84949       824.824    20462270.811    83789577.84948
       642.718  
  22073898.146   115999122.90348      2787.508    22073897.791    90388922.76246
      2172.085  
  24108056.516   126688693.88147     -3660.136    24108057.595    98718457.30146
     -2852.058  
  23311128.614   122500805.46045     -3165.577    23311127.987    95455178.71745
     -2466.687  
  24283894.042   127612728.19546     -1778.202    24283895.540    99438497.26344
     -1385.609  
  24461030.155   128543594.44047      2041.214    24461032.050   100163848.15945
      1590.559  
  20823557.842   109428535.16849     -1487.973    20823556.957    85268986.50047
     -1159.465  
  19475665.115   104291303.05109       989.461    19475668.522    81115469.14808
       769.578  
  20399144.898   109198215.82808     -2515.641    20399147.984    84931963.63908
     -1956.613  
  22400984.048   119577964.59006     -4422.147    22400990.270    93005112.56407
     -3439.453  
  22607072.903   120762920.57707      -352.476    22607078.722    93926741.55306
      -274.151  
  22737234.670   121543568.87106      3515.133    22737238.117    94533914.18806
      2733.992  
  21410893.766   114493669.76805      3029.113    21410898.872    89050659.08707
      2355.973  
  19740620.790   105599009.98606     -1701.113    19740624.062    82132573.22107
     -1323.089  
 20 09 30 05 54 10.0000000  0 15G15G18G20G29G 5G30G27G13R 4R 3R18R12
                                R 5R20R19
  20044576.150   105334956.90349       599.484    20044575.781    82079189.08748
       467.129  
  20461487.208   107525840.27049       822.180    20461487.409    83786369.35448
       640.659  
  22071246.481   115985187.25048      2786.562    22071245.930    90378063.80546
      2171.344  
  24111539.070   126706994.26347     -3660.335    24111540.071    98732717.33346
     -2852.214  
  23314140.628   122516633.69946     -3165.301    23314140.149    95467512.36044
     -2466.473  
  24285586.791   127621623.27247     -1780.086    24285588.155    99445428.45744
     -1387.081  
  24459089.217   128533394.20747      2038.726    24459090.708   100155899.93945
      1588.617  
  20824974.780   109435981.85049     -1490.644    20824974.103    85274789.10147
     -1161.547  
  19474742.199   104286361.91209       986.875    19474745.843    81111626.03308
       767.565  
  20401495.288   109210797.71308     -2517.266    20401498.417    84941749.55708
     -1957.878  
  22405126.784   119600078.63906     -4423.074    22405133.219    93022312.35607
     -3440.176  
  22607404.911   120764693.44607      -356.226    22607410.614    93928120.41906
      -277.073  
  22733946.949   121525994.12106      3514.691    22733950.234    94520244.94906
      2733.647  
  21408062.787   114478530.56405      3026.535    21408067.705    89038884.15307
      2353.972  
  19742212.829   105607525.50906     -1705.108    19742215.918    82139196.40107
     -1326.198  
 20 09 30 05 54 15.0000000  0 15G15G18G20G29G 5G30G27G13R 4R 3R18R12
                                R 5R20R19
  20044007.737   105331969.21649       595.930    20044007.273    82076861.01948
       464.358  
  20460706.588   107521738.54949       818.854    20460706.908    83783173.20848
       638.065  
  22068595.715   115971257.97348      2785.332    22068595.257    90367209.83446
      2170.383  
  24115022.228   126725298.88247     -3661.328    24115023.259    98746980.65945
     -2852.988  
  23317153.523   122532466.50845     -3166.742    23317152.760    95479849.62245
     -2467.590  
  24287282.195   127630532.68047     -1783.249    24287283.370    99452370.89043
     -1389.551  
  24457150.992   128523208.76547      2035.813    24457152.720   100147963.20045
      1586.343  
  20826394.956   109443444.05149     -1493.832    20826393.929    85280603.80347
     -1164.026  
  19473822.301   104281435.68009       983.804    19473825.745    81107794.51608
       765.175  
  20403847.621   109223389.39908     -2519.430    20403850.785    84951543.08908
     -1959.558  
  22409270.899   119622200.61506     -4424.969    22409277.593    93039518.31307
     -3441.647  
  22607741.250   120766489.16907      -361.429    22607746.876    93929517.09906
      -281.116  
  22730660.326   121508425.89306      3513.164    22730663.860    94506580.76606
      2732.456  
  21405234.914   114463408.08905      3022.874    21405239.652    89027122.23207
      2351.121  
  19743808.948   105616063.82306     -1709.956    19743812.072    82145837.30607
     -1329.968  
 20 09 30 05 54 20.0000000  0 15G15G18G20G29G 5G30G27G13R 4R 3R18R12
                                R 5R20R19
  20043442.144   105328997.12849       593.203    20043441.684    82074545.11848
       462.233  
  20459928.823   107517651.24149       816.320    20459929.121    83779988.29848
       636.094  
  22065946.119   115957333.62648      2784.726    22065945.563    90356359.68646
      2169.913  
  24118506.182   126743606.27748     -3661.441    24118507.158    98761246.14246
     -2853.077  
  23320166.951   122548302.49445     -3166.968    23320166.328    95492189.39945
     -2467.765  
  24288980.073   127639454.96947     -1785.433    24288981.331    99459323.32044
     -1391.245  
  24455215.395   128513036.85347      2033.429    24455217.018   100140037.07345
      1584.492  
  20827817.610   109450920.30349     -1496.269    20827816.687    85286429.44647
     -1165.926  
  19472904.845   104276522.84009       981.480    19472908.293    81103973.42108
       763.398  
  20406201.428   109235989.38908     -2520.651    20406204.633    84961343.06708
     -1960.511  
  22413416.196   119644328.96006     -4426.133    22413423.167    93056729.25307
     -3442.546  
  22608081.448   120768306.41607      -365.289    22608086.970    93930930.51106
      -284.113  
  22727374.708   121490862.72505      3512.305    22727378.512    94492920.56607
      2731.797  
  21402409.654   114448301.03406      3020.183    21402414.490    89015372.30407
      2349.030  
  19745409.211   105624623.43506     -1713.895    19745412.036    82152494.78107
     -1333.026  
 20 09 30 05 54 25.0000000  0 15G15G18G20G29G 5G30G27G13R 4R 3R18R12
                                R 5R20R19
  20042879.624   105326041.03449       589.520    20042879.041    82072241.65848
       459.363  
  20459153.740   107513578.81249       812.788    20459153.992    83776814.96448
       633.340  
  22063297.450   115943414.65548      2783.104    22063296.863    90345513.73446
      2168.647  
  24121990.540   126761916.92347     -3662.551    24121991.544    98775514.18146
     -2853.941  
  23323181.142   122564142.17344     -3168.277    23323180.665    95504532.00946
     -2468.788  
  24290680.676   127648390.57346     -1788.469    24290681.466    99466286.12141
     -1393.621  
  24453282.510   128502878.81947      2029.828    24453283.971   100132121.69746
      1581.679  
  20829243.124   109458411.02349     -1499.848    20829242.155    85292266.37347
     -1168.715  
  19471989.970   104271623.78509       978.211    19471993.443    81100163.04208
       760.828  
  20408556.891   109248598.02208     -2522.851    20408559.908    84971149.79908
     -1962.218  
  22417563.028   119666464.15606     -4427.738    22417569.855    93073945.50507
     -3443.800  
  22608425.743   120770145.54507      -369.879    22608431.022    93932360.95905
      -287.684  
  22724090.149   121473305.21806      3510.800    22724094.025    94479264.69706
      2730.613  
  21399587.284   114433209.73605      3016.527    21399592.267    89003634.63407
      2346.187  
  19747013.328   105633204.84706     -1718.645    19747016.302    82159169.21807
     -1336.723  
 20 09 30 05 54 30.0000000  0 15G15G18G20G29G 5G30G27G13R 4R 3R18R12
                                R 5R20R19
  20042320.133   105323101.70349       586.270    20042319.804    82069951.26848
       456.828  
  20458381.703   107509521.97849       809.894    20458382.023    83773653.78748
       631.082  
  22060649.875   115929501.80148      2782.104    22060649.296    90334672.57846
      2167.878  
  24125475.782   126780231.40147     -3662.969    24125476.747    98789785.19446
     -2854.266  
  23326196.192   122579986.30445     -3168.625    23326195.942    95516878.03545
     -2469.069  
  24292383.850   127657340.18646     -1790.976    24292384.569    99473259.82145
     -1395.562  
  24451352.449   128492735.40547      2027.276    24451353.800   100124217.74845
      1579.695  
  20830671.319   109465916.89649     -1502.604    20830670.591    85298115.11047
     -1170.862  
  19471077.927   104266739.34009       975.594    19471081.254    81096364.02708
       758.793  
  20410914.037   109261216.26208     -2524.383    20410917.097    84980963.99908
     -1963.410  
  22421711.016   119688606.86407     -4429.160    22421717.980    93091167.56807
     -3444.909  
  22608774.263   120772007.31106      -374.250    22608779.637    93933809.02405
      -291.078  
  22720806.480   121455753.93905      3509.848    22720810.713    94465613.74606
      2729.886  
  21396768.337   114418135.00005      3013.352    21396773.186    88991909.84107
      2343.719  
  19748621.856   105641808.82206     -1722.753    19748624.677    82165861.19007
     -1339.921  
 20 09 30 05 54 35.0000000  0 15G15G18G20G29G 5G30G27G13R 4R 3R18R12
                                R 5R20R19
  20041763.876   105320178.74249       583.301    20041763.515    82067673.63948
       454.520  
  20457612.731   107505480.34549       807.078    20457612.965    83770504.46748
       628.887  
  22058003.419   115915594.70848      2781.285    22058002.760    90323835.89446
      2167.233  
  24128961.595   126798549.44148     -3663.602    24128962.490    98804058.97946
     -2854.757  
  23329211.958   122595834.22946     -3169.633    23329211.603    95529227.00945
     -2469.851  
  24294089.518   127666303.47046     -1793.875    24294090.311    99480244.23744
     -1397.823  
  24449425.009   128482606.23647      2024.695    24449426.302   100116324.87345
      1577.679  
  20832102.521   109473437.53849     -1505.261    20832101.674    85303975.34547
     -1172.933  
  19470168.526   104261869.06909       973.008    19470171.660    81092576.03408
       756.781  
  20413272.876   109273843.53008     -2526.063    20413276.220    84990785.19008
     -1964.719  
  22425860.537   119710756.72507     -4430.390    22425867.642    93108395.26107
     -3445.858  
  22609126.924   120773891.28506      -378.625    22609132.042    93935274.30305
      -294.488  
  22717524.110   121438208.60005      3508.758    22717528.489    94451967.41006
      2729.042  
  21393952.107   114403076.38206      3010.698    21393957.171    88980197.58107
      2341.652  
  19750234.501   105650434.88906     -1727.101    19750237.192    82172570.35707
     -1343.305  
 20 09 30 05 54 40.0000000  0 15G15G18G20G29G 5G30G27G13R 4R 3R18R12
                                R 5R20R19
  20041210.459   105317270.88749       579.492    20041210.140    82065407.78848
       451.551  
  20456846.234   107501452.72449       803.500    20456846.604    83767366.06348
       626.105  
  22055357.903   115901692.11248      2779.589    22055357.235    90313002.69046
      2165.909  
  24132447.839   126816869.77448     -3664.977    24132448.977    98818334.52946
     -2855.831  
  23332228.130   122611684.85146     -3171.456    23332227.948    95541578.21745
     -2471.261  
  24295797.686   127675279.07747     -1796.703    24295798.394    99487238.17744
     -1400.030  
  24447499.976   128472490.08747      2021.320    24447501.371   100108442.16745
      1575.051  
  20833536.166   109480971.74049     -1508.757    20833535.406    85309846.14647
     -1175.659  
  19469261.325   104257011.67309       969.640    19469264.435    81088798.06808
       754.163  
  20415633.239   109286478.58308     -2528.305    20415636.577    85000612.45508
     -1966.464  
  22430011.158   119732912.33806     -4432.039    22430018.201    93125627.40107
     -3447.144  
  22609483.382   120775796.32906      -383.824    22609488.328    93936755.98705
      -298.535  
  22714242.552   121420667.95105      3507.027    22714247.045    94438324.66206
      2727.688  
  21391138.909   114388032.72805      3006.438    21391143.780    88968496.95307
      2338.336  
  19751850.954   105659081.72806     -1731.715    19751853.568    82179295.67607
     -1346.895  
 20 09 30 05 54 45.0000000  0 15G15G18G20G29G 5G30G27G13R 4R 3R18R12
                                R 5R20R19
  20040660.663   105314381.28649       576.124    20040660.414    82063156.15648
       448.930  
  20456083.160   107497442.23949       800.444    20456083.449    83764241.00848
       623.718  
  22052713.722   115887797.19348      2778.218    22052713.136    90302175.48546
      2164.843  
  24135935.204   126835195.50248     -3665.531    24135936.423    98832614.28745
     -2856.265  
  23335245.705   122627541.18945     -3172.008    23335245.143    95553933.78345
     -2471.699  
  24297508.684   127684270.27847     -1799.621    24297509.426    99494244.31945
     -1402.301  
  24445578.001   128462390.19347      2018.434    24445579.491   100100572.10745
      1572.801  
  20834973.031   109488522.61049     -1511.852    20834972.058    85315729.93347
     -1178.070  
  19468357.301   104252170.41409       966.719    19468360.111    81085032.65508
       751.891  
  20417995.646   109299124.70108     -2530.336    20417999.074    85010448.31608
     -1968.043  
  22434163.513   119755077.07406     -4433.323    22434170.499    93142866.62907
     -3448.144  
  22609844.500   120777725.51206      -388.449    22609849.425    93938256.44205
      -302.137  
  22710962.537   121403135.13806      3505.879    22710967.338    94424688.04206
      2726.793  
  21388329.111   114373007.19806      3003.401    21388333.992    88956810.43907
      2335.980  
  19753471.893   105667752.68706     -1736.270    19753474.534    82186039.75407
     -1350.437  
 20 09 30 05 54 50.0000000  0 15G15G18G20G29G 5G30G27G13R 4R 3R18R12
                                R 5R20R19
  20040113.745   105311507.46049       573.398    20040113.367    82060916.81048
       446.800  
  20455322.771   107493446.40249       797.836    20455322.959    83761127.36848
       621.687  
  22050070.505   115873907.40348      2777.714    22050070.004    90291352.27147
      2164.449  
  24139423.179   126853524.12248     -3665.746    24139424.283    98846896.33345
     -2856.429  
  23338263.524   122643400.90445     -3172.316    23338263.079    95566291.97545
     -2471.937  
  24299222.224   127693274.49247     -1802.090    24299222.826    99501260.56044
     -1404.233  
  24443658.501   128452303.96547      2016.098    24443660.040   100092712.68245
      1570.979  
  20836412.562   109496087.70949     -1514.315    20836411.610    85321624.81247
     -1179.991  
  19467455.709   104247342.71409       964.406    19467458.444    81081277.77408
       750.020  
  20420359.730   109311779.26208     -2531.484    20420362.977    85020290.75208
     -1968.938  
  22438316.876   119777248.20106     -4434.883    22438323.882    93160110.83607
     -3449.355  
  22610209.772   120779676.29206      -391.977    22610214.486    93939773.70905
      -304.875  
  22707683.470   121385607.83705      3505.184    22707688.384    94411055.70706
      2726.254  
  21385522.215   114357997.36806      3000.687    21385527.064    88945136.13308
      2333.867  
  19755096.892   105676445.12106     -1740.480    19755099.592    82192800.54107
     -1353.707  
 20 09 30 05 54 55.0000000  0 16G15G18G20G29G 5G30G27G24G13R 4R 3R18
                                R12R 5R20R19
  20039569.891   105308649.11249       569.887    20039569.500    82058689.51648
       444.062  
  20454565.050   107489464.92349       794.604    20454565.155    83758024.91248
       619.172  
  22047428.260   115860022.46648      2776.367    22047427.589    90280532.86746
      2163.402  
  24142911.508   126871855.28748     -3666.733    24142912.611    98861180.32846
     -2857.198  
  23341282.210   122659263.58145     -3173.417    23341281.815    95578652.47745
     -2472.797  
  24300938.145   127702291.40246     -1804.944    24300938.816    99508286.78545
     -1406.449  
  24441741.890   128442231.13747      2013.046    24441743.467   100084863.76145
      1568.609  
  24328158.616   127845336.44455      3843.914    24328161.484    99619753.59251
      2995.257  
  20837854.778   109503666.63649     -1517.543    20837853.875    85327530.49247
     -1182.499  
  19466556.746   104242528.30709       961.226    19466559.429    81077533.22208
       747.691  
  20422725.141   109324441.99709     -2533.637    20422728.567    85030139.55708
     -1970.604  
  22442471.391   119799425.53006     -4436.444    22442478.574    93177359.84907
     -3450.573  
  22610578.779   120781648.45806      -396.953    22610583.662    93941307.60705
      -308.746  
  22704405.601   121368085.40506      3504.004    22704410.578    94397427.14706
      2725.026  
  21382718.113   114343002.85606      2997.581    21382722.837    88933473.74307
      2331.449  
  19756725.657   105685158.81906     -1745.055    19756728.395    82199577.85107
     -1357.269  
 20 09 30 05 55  0.0000000  0 16G15G18G20G29G 5G30G27G24G13R 4R 3R18
                                R12R 5R20R19
  20039029.068   105305807.47749       566.738    20039028.856    82056475.26248
       441.613  
  20453810.537   107485499.09049       791.687    20453810.545    83754934.65948
       616.895  
  22044787.190   115846143.67348      2775.453    22044786.597    90269718.22846
      2162.690  
  24146400.574   126890190.32848     -3667.293    24146401.692    98875467.37546
     -2857.637  
  23344301.668   122675130.56645     -3173.894    23344301.177    95591016.35345
     -2473.171  
  24302656.670   127711322.31146     -1807.625    24302657.545    99515323.81944
     -1408.543  
  24439827.714   128432172.95246      2010.706    24439829.655   100077026.20845
      1566.785  
  24324500.868   127826115.72445      3844.167    24324504.121    99604776.48844
      2995.491  
  20839299.862   109511260.75749     -1520.289    20839298.815    85333447.96747
     -1184.645  
  19465660.367   104237728.48609       958.526    19465663.101    81073800.04708
       745.519  
  20425092.518   109337114.18508     -2535.324    20425095.857    85039995.68508
     -1971.922  
  22446627.351   119821610.29906     -4437.352    22446634.689    93194614.64707
     -3451.276  
  22610951.966   120783643.17805      -400.636    22610957.058    93942859.06605
      -311.601  
  22701128.895   121350569.40706      3502.625    22701133.841    94383803.59306
      2724.261  
  21379917.449   114328025.03806      2993.929    21379921.943    88921824.34207
      2328.612  
  19758358.779   105693894.98206     -1749.421    19758361.597    82206372.64807
     -1360.659  
 20 09 30 05 55  5.0000000  0 16G15G18G20G29G 5G30G27G24G13R 4R 3R18
                                R12R 5R20R19
  20038491.326   105302981.65249       563.476    20038491.076    82054273.33048
       439.074  
  20453058.513   107481547.92749       788.694    20453058.647    83751855.82648
       614.563  
  22042147.266   115832270.12448      2774.078    22042146.429    90258907.65046
      2161.616  
  24149890.184   126908528.26148     -3667.891    24149891.244    98889756.63346
     -2858.102  
  23347321.668   122691000.86646     -3174.382    23347321.156    95603382.78645
     -2473.555  
  24304377.674   127720366.25246     -1810.077    24304378.653    99522371.09145
     -1410.445  
  24437916.400   128422128.58747      2007.578    24437918.283   100069199.46046
      1564.347  
  24320843.907   127806896.01444      3843.910    24320846.229    99589800.12443
      2995.262  
  20840747.766   109518869.07649     -1523.151    20840746.693    85339376.53547
     -1186.870  
  19464766.635   104232942.21609       955.863    19464769.186    81070077.39008
       743.444  
  20427461.242   109349794.77808     -2537.168    20427464.806    85049858.37908
     -1973.352  
  22450784.519   119843801.53906     -4439.020    22450791.951    93211874.46007
     -3452.577  
  22611329.241   120785659.63906      -405.254    22611334.413    93944427.41305
      -315.203  
  22697853.145   121333058.80306      3501.675    22697858.307    94370184.29607
      2723.535  
  21377119.374   114313062.88206      2991.023    21377123.966    88910187.10808
      2326.352  
  19759996.037   105702652.58506     -1753.562    19759998.950    82213184.11907
     -1363.882  
 20 09 30 05 55 10.0000000  0 16G15G18G20G29G 5G30G27G24G13R 4R 3R18
                                R12R 5R20R19
  20037956.798   105300172.56549       559.910    20037956.478    82052084.42948
       436.292  
  20452309.687   107477612.44549       785.390    20452309.903    83748789.21848
       611.988  
  22039508.274   115818402.72348      2772.772    22039507.514    90248101.86146
      2160.593  
  24153380.421   126926869.98748     -3669.086    24153381.474    98904048.88545
     -2859.031  
  23350342.639   122706875.52345     -3175.585    23350342.214    95615752.63845
     -2474.491  
  24306101.336   127729424.15646     -1813.292    24306102.563    99529429.15143
     -1412.956  
  24436007.767   128412098.93047      2004.390    24436009.889   100061384.09245
      1561.858  
  24317186.875   127787678.33744      3843.948    24317188.945    99574825.28242
      2995.276  
  20842198.319   109526492.50549     -1526.386    20842197.232    85345316.87447
     -1189.390  
  19463875.496   104228170.52309       952.581    19463878.182    81066366.07708
       740.944  
  20429831.852   109362484.74208     -2539.175    20429835.385    85059728.33108
     -1974.918  
  22454943.019   119866000.27106     -4440.987    22454950.703    93229140.14107
     -3454.104  
  22611710.929   120787698.70506      -410.680    22611716.125    93946013.36205
      -319.422  
  22694578.698   121315554.56807      3500.043    22694583.731    94356569.85106
      2722.250  
  21374324.717   114298117.43805      2987.535    21374328.907    88898562.85207
      2323.633  
  19761637.331   105711432.62006     -1758.413    19761640.360    82220013.03407
     -1367.655  
 20 09 30 05 55 15.0000000  0 15G15G18G20G29G 5G30G27G13R 4R 3R18R12
                                R 5R20R19
  20037425.684   105297381.07249       557.023    20037425.282    82049909.23748
       434.039  
  20451563.922   107473693.45249       782.668    20451564.113    83745735.46048
       609.866  
  22036870.755   115804542.34048      2771.633    22036870.021    90237301.57846
      2159.715  
  24156871.830   126945216.43248     -3669.495    24156872.619    98918344.76046
     -2859.355  
  23353364.616   122722755.27445     -3176.241    23353364.362    95628126.48845
     -2474.995  
  24307827.562   127738496.84646     -1815.312    24307829.026    99536498.79244
     -1414.538  
  24434102.047   128402084.83546      2001.668    24434104.030   100053580.92046
      1559.741  
  20843651.922   109534131.86549     -1528.949    20843650.972    85351269.63447
     -1191.391  
  19462987.372   104223414.28409       950.202    19462989.827    81062666.77008
       739.043  
  20432204.544   109375185.01408     -2540.819    20432207.910    85069606.32008
     -1976.199  
  22459103.111   119888207.03506     -4441.444    22459110.847    93246412.07507
     -3454.460  
  22612097.191   120789761.29206      -414.223    22612102.220    93947617.58405
      -322.176  
  22691305.524   121298057.54406      3499.558    22691310.865    94342961.04607
      2721.875  
  21371533.097   114283189.64306      2984.042    21371537.475    88886952.36807
      2320.922  
  19763282.992   105720235.92206     -1762.718    19763285.998    82226860.04407
     -1371.007  
 20 09 30 05 55 20.0000000  0 15G15G18G20G29G 5G30G27G13R 4R 3R18R12
                                R 5R20R19
  20036896.871   105294602.01749       554.206    20036896.287    82047743.74748
       431.852  
  20450820.242   107469785.79449       780.093    20450820.524    83742690.52248
       607.863  
  22034233.435   115790683.78448      2771.050    22034232.753    90226502.72146
      2159.262  
  24160363.021   126963562.39248     -3669.609    24160363.806    98932640.33845
     -2859.437  
  23356386.341   122738634.88945     -3176.465    23356386.463    95640500.23345
     -2475.168  
  24309556.025   127747579.13446     -1817.604    24309557.392    99543575.88045
     -1416.319  
  24432198.565   128392081.15847      1999.340    24432200.268   100045785.83245
      1557.921  
  20845107.658   109541781.99649     -1531.456    20845106.659    85357230.77447
     -1193.347  
  19462101.136   104218668.15609       947.934    19462103.694    81058975.33608
       737.277  
  20434577.947   109387890.24608     -2541.737    20434581.405    85079488.16108
     -1976.910  
  22463263.601   119910416.88406     -4442.378    22463271.465    93263686.41307
     -3455.183  
  22612486.725   120791842.08306      -418.257    22612491.724    93949235.96805
      -325.315  
  22688032.751   121280562.54306      3498.593    22688037.974    94329353.82907
      2721.124  
  21368743.847   114268274.05306      2981.558    21368748.104    88875351.36207
      2318.988  
  19764932.229   105729057.32106     -1766.441    19764934.943    82233721.12207
     -1373.901  
 20 09 30 05 55 25.0000000  0 15G15G18G20G29G 5G30G27G13R 4R 3R18R12
                                R 5R20R19
  20036371.085   105291839.96149       550.680    20036370.692    82045591.49648
       429.098  
  20450079.780   107465894.04549       776.882    20450079.851    83739657.99848
       605.362  
  22031597.498   115776831.65548      2769.866    22031596.710    90215708.84746
      2158.336  
  24163854.958   126981912.32948     -3670.448    24163855.456    98946938.96445
     -2860.098  
  23359409.233   122754519.07744     -3177.859    23359409.015    95652877.48446
     -2476.261  
  24311286.858   127756675.66145     -1820.819    24311288.788    99550664.06345
     -1418.827  
  24430297.637   128382092.43346      1996.215    24430299.553   100038002.41146
      1555.487  
  20846566.407   109549447.45949     -1534.690    20846565.289    85363203.86847
     -1195.862  
  19461217.498   104213936.87409       944.741    19461220.196    81055295.44408
       734.819  
  20436953.213   109400605.13308     -2543.909    20436956.535    85089377.52608
     -1978.598  
  22467425.700   119932634.29406     -4443.875    22467433.540    93280966.58007
     -3456.355  
  22612880.463   120793945.73806      -423.191    22612885.813    93950872.15405
      -329.152  
  22684761.360   121263074.08106      3497.163    22684766.506    94315751.71307
      2720.016  
  21365957.578   114253375.55505      2977.809    21365961.924    88863763.63008
      2316.073  
  19766585.544   105737901.41006     -1771.108    19766588.045    82240599.87107
     -1377.531  
 20 09 30 05 55 30.0000000  0 15G15G18G20G29G 5G30G27G13R 4R 3R18R12
                                R 5R20R19
  20035849.096   105289096.11149       547.016    20035848.532    82043453.42948
       426.246  
  20449342.379   107462019.44649       773.194    20449342.602    83736638.83748
       602.487  
  22028963.027   115762987.19848      2768.124    22028962.116    90204920.96746
      2156.979  
  24167347.826   127000267.47548     -3671.645    24167348.235    98961241.65445
     -2861.026  
  23362432.730   122770408.91145     -3178.378    23362433.081    95665259.12445
     -2476.668  
  24313020.692   127765787.58645     -1824.145    24313022.766    99557764.25744
     -1421.409  
  24428399.743   128372119.96446      1992.961    24428401.712   100030231.66246
      1552.952  
  20848028.225   109557129.49049     -1537.992    20848027.101    85369189.86847
     -1198.438  
  19460337.040   104209221.65809       941.401    19460339.823    81051628.06208
       732.203  
  20439330.305   109413330.89508     -2546.133    20439333.821    85099275.33608
     -1980.327  
  22471589.417   119954860.53206     -4445.522    22471597.310    93298253.65907
     -3457.632  
  22613278.680   120796073.53205      -428.280    22613284.244    93952527.09706
      -333.112  
  22681491.201   121245593.58406      3495.261    22681496.402    94302155.77107
      2718.530  
  21363174.883   114238495.33105      2974.058    21363179.424    88852190.13907
      2313.155  
  19768243.291   105746769.45906     -1775.914    19768245.972    82247497.22507
     -1381.270  
 20 09 30 05 55 35.0000000  0 15G15G18G20G29G 5G30G27G13R 4R 3R18R12
                                R 5R20R19
  20035330.166   105286369.02349       543.858    20035329.554    82041328.42548
       423.780  
  20448608.038   107458160.55349       770.124    20448608.300    83733631.89948
       600.094  
  22026329.558   115749148.91548      2767.125    22026328.738    90194137.88146
      2156.203  
  24170841.462   127018626.34448     -3672.121    24170841.836    98975547.24246
     -2861.402  
  23365457.224   122786302.95146     -3179.538    23365457.743    95677644.11045
     -2477.563  
  24314757.367   127774913.46846     -1826.226    24314759.436    99564875.38043
     -1423.108  
  24426504.818   128362162.22146      1990.492    24426506.956   100022472.39045
      1551.034  
  20849492.931   109564826.63549     -1540.991    20849491.873    85375187.64547
     -1200.773  
  19459459.160   104204520.99109       938.770    19459462.092    81047972.00308
       730.151  
  20441709.473   109426066.07808     -2547.949    20441712.807    85109180.47608
     -1981.741  
  22475754.496   119977094.10107     -4447.288    22475762.513    93315546.40707
     -3459.011  
  22613681.146   120798223.96806      -432.730    22613686.816    93954199.65205
      -336.566  
  22678222.385   121228119.42206      3494.276    22678227.515    94288564.76106
      2717.770  
  21360395.309   114223631.79105      2971.184    21360399.801    88840629.61508
      2310.922  
  19769905.104   105755659.84706     -1780.522    19769907.733    82254411.97207
     -1384.855  
 20 09 30 05 55 40.0000000  0 15G15G18G20G29G 5G30G27G13R 4R 3R18R12
                                R 5R20R19
  20034814.086   105283657.00149       541.073    20034813.532    82039215.15548
       421.613  
  20447876.346   107454315.67449       767.801    20447876.667    83730635.89248
       598.280  
  22023697.208   115735315.19648      2766.430    22023696.330    90183358.39146
      2155.659  
  24174335.491   127036987.24548     -3672.348    24174335.683    98989854.43245
     -2861.573  
  23368482.412   122802199.64045     -3179.495    23368482.830    95690031.14945
     -2477.539  
  24316496.169   127784051.52545     -1828.761    24316498.257    99571995.96844
     -1425.004  
  24424612.330   128352217.66446      1987.840    24424614.633   100014723.42445
      1548.965  
  20850960.295   109572537.18649     -1543.190    20850959.057    85381195.86247
     -1202.492  
  19458583.897   104199833.18709       936.515    19458586.504    81044325.92508
       728.426  
  20444089.766   109438808.88308     -2549.167    20444093.201    85119091.54108
     -1982.691  
  22479920.539   119999333.31206     -4448.069    22479928.660    93332843.54507
     -3459.616  
  22614087.740   120800395.29506      -436.109    22614093.419    93955888.45606
      -339.195  
  22674954.462   121210650.09306      3493.690    22674959.512    94274977.52006
      2717.313  
  21357618.716   114208783.44206      2968.354    21357623.064    88829080.90707
      2308.722  
  19771570.951   105764570.91606     -1784.159    19771573.539    82261342.79407
     -1387.684  
