     2.11           OBSERVATION DATA    M                   RINEX VERSION / TYPE
LEICA GEO OFFICE 8.4                    2-10-20 22:22       PGM / RUN BY / DATE
                                                            OBSERVER / AGENCY
skr3                                                        MARKER NAME
skr3                                                        MARKER NUMBER
470876              LEICA GX1230GG      5.62                REC # / TYPE / VERS
                    LEIAX1202                               ANT # / TYPE
 -1214544.5283  3787136.0639  4970503.2162                  APPROX POSITION XYZ
        1.6630        0.0000        0.0000                  ANTENNA: DELTA H/E/N
L1PhaOff:   0.0648  L2PhaOff:   0.0622                      COMMENT
     1     1                                                WAVELENGTH FACT L1/2
     6    C1    L1    D1    P2    L2    D2                  # / TYPES OF OBSERV
  2020    10     2     6    40    0.0000000     GPS         TIME OF FIRST OBS
  2020    10     2     8    11   20.0000000     GPS         TIME OF LAST OBS
    18                                                      LEAP SECONDS
    21                                                      # OF SATELLITES
          C1    L1    D1    P2    L2    D2                  COMMENT
   G 1     0     0     0     0     0     0                  PRN / # OF OBS
   G 2     0     0     0     0     0     0                  PRN / # OF OBS
   G 3     0     0     0     0     0     0                  PRN / # OF OBS
   G 4     0     0     0     0     0     0                  PRN / # OF OBS
   G 5     0     0     0     0     0     0                  PRN / # OF OBS
   G 6     0     0     0     0     0     0                  PRN / # OF OBS
   G 7     0     0     0     0     0     0                  PRN / # OF OBS
   G 8   505   505   505   504   504   504                  PRN / # OF OBS
   G 9     0     0     0     0     0     0                  PRN / # OF OBS
   G10  1097  1097  1097  1097  1097  1097                  PRN / # OF OBS
   G11     0     0     0     0     0     0                  PRN / # OF OBS
   G12     0     0     0     0     0     0                  PRN / # OF OBS
   G13   591   591   591   590   590   590                  PRN / # OF OBS
   G14     0     0     0     0     0     0                  PRN / # OF OBS
   G15  1097  1097  1097  1097  1097  1097                  PRN / # OF OBS
   G16     0     0     0     0     0     0                  PRN / # OF OBS
   G17     0     0     0     0     0     0                  PRN / # OF OBS
   G18  1097  1097  1097  1097  1097  1097                  PRN / # OF OBS
   G19     0     0     0     0     0     0                  PRN / # OF OBS
   G20  1097  1097  1097  1097  1097  1097                  PRN / # OF OBS
   G21   648   648   648   647   647   647                  PRN / # OF OBS
   G22     0     0     0     0     0     0                  PRN / # OF OBS
   G23  1097  1097  1097  1097  1097  1097                  PRN / # OF OBS
   G24  1097  1097  1097  1097  1097  1097                  PRN / # OF OBS
   G25     0     0     0     0     0     0                  PRN / # OF OBS
   G26     0     0     0     0     0     0                  PRN / # OF OBS
   G27   853   853   853   853   853   853                  PRN / # OF OBS
   G28     0     0     0     0     0     0                  PRN / # OF OBS
   G29     0     0     0     0     0     0                  PRN / # OF OBS
   G30     0     0     0     0     0     0                  PRN / # OF OBS
   G31     0     0     0     0     0     0                  PRN / # OF OBS
   G32   492   492   492   491   491   491                  PRN / # OF OBS
   R 1     0     0     0     0     0     0                  PRN / # OF OBS
   R 2     0     0     0     0     0     0                  PRN / # OF OBS
   R 3     0     0     0     0     0     0                  PRN / # OF OBS
   R 4     0     0     0     0     0     0                  PRN / # OF OBS
   R 5   369   369   369   318   318   318                  PRN / # OF OBS
   R 6  1097  1097  1097     0     0     0                  PRN / # OF OBS
   R 7  1097  1097  1097  1097  1097  1097                  PRN / # OF OBS
   R 8   348   348   348   348   348   348                  PRN / # OF OBS
   R 9     0     0     0     0     0     0                  PRN / # OF OBS
   R10     0     0     0     0     0     0                  PRN / # OF OBS
   R11     0     0     0     0     0     0                  PRN / # OF OBS
   R12     0     0     0     0     0     0                  PRN / # OF OBS
   R13     0     0     0     0     0     0                  PRN / # OF OBS
   R14     0     0     0     0     0     0                  PRN / # OF OBS
   R15   813   813   813   804   804   804                  PRN / # OF OBS
   R16  1092  1092  1092  1092  1092  1092                  PRN / # OF OBS
   R17     0     0     0     0     0     0                  PRN / # OF OBS
   R18     0     0     0     0     0     0                  PRN / # OF OBS
   R19     0     0     0     0     0     0                  PRN / # OF OBS
   R20     0     0     0     0     0     0                  PRN / # OF OBS
   R21   673   673   673   673   673   673                  PRN / # OF OBS
   R22  1097  1097  1097  1097  1097  1097                  PRN / # OF OBS
   R23   870   870   870   869   869   869                  PRN / # OF OBS
   R24    25    25    25    25    25    25                  PRN / # OF OBS
                                                            END OF HEADER
 20 10 02 06 40  0.0000000  0 15G13G27G15G18G20G23G24G10R15R 5R21R 6
                                R16R 7R22
  22235919.721   116850578.21748     -2954.031    22235919.098    91052419.58546
     -2301.847  
  23844469.087   125303529.62747       -43.097    23844470.647    97639125.81349
       -33.586  
  20291483.631   106632525.16049     -1352.234    20291483.084    83090294.93949
     -1053.691  
  20583450.641   108166792.21749     -1231.789    20583450.863    84285807.12348
      -959.835  
  20635087.561   108438162.43649      1812.940    20635086.227    84497278.80448
      1412.676  
  20971254.263   110204723.97149      1905.147    20971253.876    85873833.28948
      1484.527  
  22143071.670   116362648.54248      3081.597    22143074.265    90672204.14349
      2401.245  
  23410347.851   123022218.09948      3047.815    23410350.716    95861475.45449
      2374.918  
  21715540.316   116041269.40608       481.223    21715544.592    90254347.84908
       374.284  
  22390675.081   119691010.72507     -3375.832    22390679.214    93093051.96006
     -2625.651  
  21022879.113   112497665.32307     -3453.202    21022882.302    87498211.24207
     -2685.828  
  19268575.654   102820857.54608      -310.637           0.000           0.0000 
         0.000  
  22588175.439   120661970.84005      3770.508    22588178.651    93848223.99605
      2932.617  
  21217347.879   113578163.82207      2746.594    21217351.960    88338586.42207
      2136.238  
  20332113.654   108534214.89808       455.819    20332116.618    84415514.54104
       354.523  
 20 10 02 06 40  5.0000000  0 15G13G27G15G18G20G23G24G10R15R 5R21R 6
                                R16R 7R22
  22238731.123   116865352.17248     -2955.676    22238730.449    91063931.75546
     -2303.125  
  23844511.815   125303753.78947       -46.277    23844513.235    97639300.48549
       -36.062  
  20292771.471   106639292.89849     -1354.977    20292770.949    83095568.49749
     -1055.828  
  20584624.149   108172958.94549     -1234.969    20584624.414    84290612.36848
      -962.315  
  20633363.528   108429102.42749      1811.007    20633362.164    84490219.05748
      1411.175  
  20969442.383   110195202.54149      1903.347    20969442.009    85866413.99548
      1483.128  
  22140140.622   116347246.06148      3079.445    22140143.278    90660202.20749
      2399.565  
  23407448.217   123006980.70448      3047.155    23407451.128    95849602.15949
      2374.402  
  21715092.153   116038874.40608       476.781    21715096.422    90252485.06807
       370.828  
  22393832.870   119707890.51107     -3376.332    22393836.928    93106180.68607
     -2626.047  
  21026107.175   112514938.98808     -3456.097    21026110.275    87511646.30707
     -2688.078  
  19268868.002   102822417.54208      -313.406           0.000           0.0000 
         0.000  
  22584646.977   120643123.14605      3768.362    22584650.367    93833564.70405
      2930.953  
  21214783.313   113564435.27707      2744.800    21214787.459    88327908.67008
      2134.843  
  20331688.907   108531947.63008       451.147    20331691.873    84413751.10304
       350.891  
 20 10 02 06 40 10.0000000  0 15G13G27G15G18G20G23G24G10R15R 5R21R 6
                                R16R 7R22
  22241543.958   116880133.59648     -2956.652    22241543.209    91075449.75746
     -2303.887  
  23844557.688   125303994.60347       -49.609    23844559.028    97639488.12649
       -38.660  
  20294061.794   106646073.62449     -1357.144    20294061.285    83100852.17749
     -1057.520  
  20585800.604   108179141.29049     -1237.738    20585800.897    84295429.77348
      -964.477  
  20631641.299   108420051.95649      1809.418    20631639.955    84483166.74248
      1409.934  
  20967632.148   110185689.66349      1902.051    20967631.761    85859001.36648
      1482.113  
  22137211.581   116331853.84548      3077.788    22137214.230    90648208.27849
      2398.277  
  23404549.138   122991746.12648      3046.844    23404552.085    95837731.09249
      2374.168  
  21714648.155   116036501.59608       472.694    21714652.393    90250639.56007
       367.652  
  22396991.158   119724773.21507     -3376.421    22396995.193    93119311.67206
     -2626.108  
  21029338.084   112532227.67508     -3458.952    21029341.069    87525093.05107
     -2690.300  
  19269162.699   102823989.91408      -315.422           0.000           0.0000 
         0.000  
  22581120.479   120624284.76105      3767.027    22581123.712    93818912.65105
      2929.910  
  21212220.138   113550714.27507      2743.569    21212224.367    88317236.78307
      2133.886  
  20331268.547   108529703.78208       446.499    20331271.504    84412005.89704
       347.277  
 20 10 02 06 40 15.0000000  0 15G13G27G15G18G20G23G24G10R15R 5R21R 6
                                R16R 7R22
  22244358.259   116894922.68748     -2958.870    22244357.444    91086973.73646
     -2305.613  
  23844606.731   125304252.38746       -53.354    23844608.077    97639689.00349
       -41.578  
  20295354.668   106652867.72049     -1360.297    20295354.196    83106146.27649
     -1059.977  
  20586980.102   108185339.62749     -1241.496    20586980.431    84300259.64648
      -967.401  
  20629920.940   108411011.35049      1806.913    20629919.593    84476122.11748
      1407.984  
  20965823.582   110176185.70949      1899.772    20965823.219    85851595.68748
      1480.344  
  22134284.560   116316472.27848      3075.085    22134287.230    90636222.63849
      2396.171  
  23401650.670   122976514.79348      3045.926    23401653.641    95825862.51049
      2373.449  
  21714208.375   116034151.38808       467.691    21714212.604    90248811.64107
       363.762  
  22400150.028   119741659.05507     -3377.722    22400154.035    93132445.09107
     -2627.078  
  21032571.908   112549531.76907     -3462.508    21032574.775    87538551.79307
     -2693.065  
  19269459.690   102825574.71408      -318.472           0.000           0.0000 
         0.000  
  22577595.579   120605456.18805      3764.605    22577598.997    93804268.22105
      2928.027  
  21209658.452   113537001.15407      2741.440    21209662.693    88306571.02307
      2132.226  
  20330852.673   108527483.88308       441.503    20330855.674    84410279.31604
       343.390  
 20 10 02 06 40 20.0000000  0 15G13G27G15G18G20G23G24G10R15R 5R21R 6
                                R16R 7R22
  22247174.253   116909720.52448     -2960.120    22247173.370    91098504.51346
     -2306.589  
  23844659.175   125304528.01547       -56.832    23844660.539    97639903.76749
       -44.284  
  20296650.225   106659675.98349     -1362.812    20296649.798    83111451.42349
     -1061.933  
  20588162.812   108191554.77949     -1244.637    20588163.150    84305102.62048
      -969.848  
  20628202.632   108401981.48249      1805.039    20628201.305    84469085.85848
      1406.523  
  20964016.899   110166691.52449      1898.093    20964016.529    85844197.62348
      1479.035  
  22131359.763   116301102.14548      3073.109    22131362.439    90624245.92149
      2394.629  
  23398752.949   122961287.51148      3045.104    23398755.979    95813997.09949
      2372.809  
  21713772.940   116031824.65008       463.117    21713777.132    90247001.94807
       360.202  
  22403309.710   119758548.90207     -3378.147    22403313.642    93145581.62307
     -2627.503  
  21035808.626   112566852.07208     -3465.621    21035811.556    87552023.14107
     -2695.487  
  19269759.213   102827173.08708      -320.866           0.000           0.0000 
         0.000  
  22574072.820   120586638.21005      3763.098    22574076.226    93789632.05205
      2926.858  
  21207098.345   113523296.91807      2740.007    21207102.659    88295912.18207
      2131.116  
  20330441.415   108525288.65208       436.844    20330444.424    84408571.90604
       339.762  
 20 10 02 06 40 25.0000000  0 15G13G27G15G18G20G23G24G10R15R 5R21R 6
                                R16R 7R22
  22249991.452   116924524.88348     -2961.429    22249990.536    91110040.36745
     -2307.612  
  23844714.659   125304819.45847       -59.887    23844716.008    97640130.86849
       -46.667  
  20297948.143   106666496.46449     -1365.246    20297947.746    83116766.08449
     -1063.828  
  20589348.336   108197784.74949     -1247.391    20589348.720    84309957.14348
      -971.995  
  20626485.994   108392960.36449      1803.405    20626484.681    84462056.41348
      1405.245  
  20962211.697   110157205.12649      1896.616    20962211.288    85836805.62348
      1477.882  
  22128436.759   116285741.50448      3071.327    22128439.431    90612276.59849
      2393.241  
  23395855.607   122946062.34648      3044.499    23395858.696    95802133.33649
      2372.336  
  21713341.551   116029519.37308       458.972    21713345.632    90245208.95007
       356.977  
  22406469.760   119775440.86607     -3378.750    22406473.667    93158719.83506
     -2627.917  
  21039048.050   112584186.63007     -3468.202    21039050.998    87565505.56607
     -2697.495  
  19270060.925   102828782.92808      -323.073           0.000           0.0000 
         0.000  
  22570551.585   120567829.06405      3761.535    22570554.989    93775002.72605
      2925.637  
  21204539.550   113509599.58007      2739.081    21204543.845    88285258.70507
      2130.397  
  20330034.481   108523116.28608       432.136    20330037.417    84406882.30004
       336.104  
 20 10 02 06 40 30.0000000  0 15G13G27G15G18G20G23G24G10R15R 5R21R 6
                                R16R 7R22
  22252810.128   116939337.02748     -2963.050    22252809.173    91121582.30946
     -2308.874  
  23844773.294   125305127.77247       -63.141    23844774.710    97640371.12249
       -49.198  
  20299248.585   106673330.17549     -1368.098    20299248.211    83122091.05349
     -1066.054  
  20590536.884   108204030.61049     -1250.742    20590537.269    84314824.05048
      -974.609  
  20624771.232   108383949.04549      1801.417    20624769.906    84455034.60348
      1403.703  
  20960408.195   110147727.59349      1894.473    20960407.745    85829420.53948
      1476.211  
  22125515.800   116270391.47648      3068.934    22125518.455    90600315.53649
      2391.371  
  23392958.891   122930840.28148      3043.878    23392961.976    95790272.00249
      2371.854  
  21712914.412   116027236.52708       454.171    21712918.325    90243433.41207
       353.245  
  22409630.320   119792335.87207     -3379.234    22409634.272    93171860.39206
     -2628.371  
  21042290.242   112601536.41207     -3471.729    21042293.307    87578999.83207
     -2700.238  
  19270364.989   102830405.18808      -325.737           0.000           0.0000 
         0.000  
  22567032.191   120549029.68305      3758.992    22567035.623    93760380.98704
      2923.656  
  21201982.174   113495910.06307      2737.312    21201986.486    88274611.31107
      2129.020  
  20329631.973   108520967.70108       427.434    20329634.860    84405211.16905
       332.444  
 20 10 02 06 40 35.0000000  0 15G13G27G15G18G20G23G24G10R15R 5R21R 6
                                R16R 7R22
  22255630.395   116954157.57248     -2964.832    22255629.389    91133130.77546
     -2310.262  
  23844835.255   125305453.60247       -66.926    23844836.667    97640625.00949
       -52.147  
  20300551.658   106680177.68449     -1370.859    20300551.317    83127426.77149
     -1068.206  
  20591728.583   108210292.90749     -1254.089    20591728.966    84319703.75848
      -977.214  
  20623058.415   108374948.12749      1799.167    20623057.082    84448020.90448
      1401.949  
  20958606.477   110138259.46949      1892.761    20958605.990    85822042.77948
      1474.874  
  22122597.008   116255052.74448      3066.538    22122599.591    90588363.27449
      2389.511  
  23390062.891   122915621.95048      3043.551    23390065.918    95778413.56749
      2371.594  
  21712491.635   116024976.90108       449.691    21712495.346    90241675.92107
       349.761  
  22412791.603   119809234.58407     -3380.086    22412795.567    93185003.81906
     -2628.960  
  21045535.439   112618902.02208     -3474.570    21045538.556    87592506.42707
     -2702.445  
  19270671.495   102832040.64008      -328.410           0.000           0.0000 
         0.000  
  22563514.726   120530240.55205      3757.168    22563518.113    93745767.24105
      2922.242  
  21199426.331   113482228.99807      2735.297    21199430.690    88263970.49207
      2127.453  
  20329234.055   108518843.49508       422.484    20329236.914    84403558.99904
       328.593  
 20 10 02 06 40 40.0000000  0 15G13G27G15G18G20G23G24G10R15R 5R21R 6
                                R16R 7R22
  22258452.192   116968986.11848     -2966.223    22258451.121    91144685.48545
     -2311.348  
  23844900.466   125305796.44247       -69.789    23844901.899    97640892.15849
       -54.382  
  20301857.284   106687038.63749     -1373.098    20301856.981    83132772.96849
     -1069.949  
  20592923.325   108216571.25549     -1256.805    20592923.710    84324595.97448
      -979.332  
  20621347.506   108365957.18049      1797.590    20621346.154    84441014.97148
      1400.718  
  20956806.488   110128800.40349      1891.238    20956805.960    85814672.07948
      1473.687  
  22119680.238   116239724.76648      3064.844    22119682.739    90576419.40749
      2388.190  
  23387167.560   122900406.94448      3043.245    23387170.467    95766557.71049
      2371.355  
  21712073.026   116022739.91408       445.542    21712076.661    90239936.06107
       346.534  
  22415953.420   119826136.39907     -3380.124    22415957.466    93198149.66406
     -2629.042  
  21048783.522   112636283.04907     -3477.598    21048786.689    87606024.99407
     -2704.800  
  19270980.353   102833688.76608      -330.430           0.000           0.0000 
         0.000  
  22559998.900   120511461.57705      3755.145    22560002.510    93731161.38505
      2920.668  
  21196871.989   113468555.99507      2734.038    21196876.450    88253335.93207
      2126.476  
  20328840.569   108516743.26108       417.945    20328843.463    84401925.48704
       325.065  
 20 10 02 06 40 45.0000000  0 15G13G27G15G18G20G23G24G10R15R 5R21R 6
                                R16R 7R22
  22261275.231   116983821.22848     -2967.535    22261274.126    91156245.31345
     -2312.363  
  23844968.623   125306155.05047       -73.401    23844970.193    97641171.58849
       -57.199  
  20303165.184   106693911.66549     -1375.761    20303164.928    83138128.57449
     -1072.022  
  20594120.887   108222864.32849     -1260.090    20594121.265    84329499.66748
      -981.891  
  20619638.214   108356974.88549      1795.476    20619636.866    84434015.78548
      1399.073  
  20955007.941   110119349.03949      1889.523    20955007.425    85807307.38048
      1472.354  
  22116765.259   116224406.29148      3062.793    22116767.693    90564482.93949
      2386.593  
  23384272.635   122885193.94648      3042.612    23384275.394    95754703.43349
      2370.867  
  21711658.455   116020524.29608       441.004    21711661.994    90238212.80607
       343.003  
  22419115.664   119843040.18807     -3380.960    22419119.638    93211297.05006
     -2629.645  
  21052034.182   112653678.04607     -3480.324    21052037.437    87619554.44107
     -2706.917  
  19271291.317   102835348.19208      -333.051           0.000           0.0000 
         0.000  
  22556484.783   120492691.19705      3753.492    22556488.560    93716562.20904
      2919.383  
  21194318.867   113454889.56107      2732.527    21194323.404    88242706.49807
      2125.300  
  20328451.385   108514665.61308       413.151    20328454.182    84400309.54104
       321.336  
 20 10 02 06 40 50.0000000  0 15G13G27G15G18G20G23G24G10R15R 5R21R 6
                                R16R 7R22
  22264099.933   116998664.85448     -2969.644    22264098.752    91167811.77645
     -2314.008  
  23845040.189   125306531.28947       -77.199    23845041.827    97641464.76549
       -60.156  
  20304475.749   106700798.67249     -1378.925    20304475.512    83143495.06949
     -1074.492  
  20595321.612   108229174.05849     -1263.843    20595321.982    84334416.33948
      -984.816  
  20617930.954   108348003.23249      1793.026    20617929.595    84427024.89248
      1397.163  
  20953211.248   110109907.35049      1887.155    20953210.730    85799950.21748
      1470.512  
  22113852.476   116209099.29348      3060.120    22113854.809    90552555.41449
      2384.512  
  23381378.507   122869984.92148      3041.277    23381381.078    95742852.25349
      2369.827  
  21711248.272   116018332.02708       435.913    21711251.705    90236507.71607
       339.042  
  22422278.726   119859947.91007     -3382.215    22422282.562    93224447.50207
     -2630.612  
  21055287.834   112671089.05907     -3483.979    21055291.174    87633096.33107
     -2709.765  
  19271604.814   102837020.91408      -336.015           0.000           0.0000 
         0.000  
  22552972.793   120473931.43405      3750.211    22552976.579    93701971.27505
      2916.832  
  21191767.477   113441232.04807      2730.347    21191772.012    88232083.98507
      2123.605  
  20328066.799   108512612.72908       407.996    20328069.561    84398712.84804
       317.327  
 20 10 02 06 40 55.0000000  0 15G13G27G15G18G20G23G24G10R15R 5R21R 6
                                R16R 7R22
  22266926.093   117013516.30248     -2971.203    22266924.897    91179384.34045
     -2315.222  
  23845114.963   125306924.53946       -80.656    23845116.685    97641771.20249
       -62.848  
  20305788.852   106707699.01049     -1381.465    20305788.624    83148871.94849
     -1076.469  
  20596525.359   108235499.72949     -1266.746    20596525.733    84339345.43448
      -987.078  
  20616225.594   108339041.53749      1791.305    20616224.226    84420041.75248
      1395.815  
  20951416.263   110100474.63949      1885.637    20951415.770    85792600.06148
      1469.327  
  22110941.718   116193803.03348      3058.081    22110943.983    90540636.25549
      2382.921  
  23378484.980   122854779.14648      3040.894    23378487.415    95731003.59349
      2369.527  
  21710842.253   116016162.38108       431.543    21710845.637    90234820.22907
       335.645  
  22425442.218   119876858.68307     -3382.652    22425446.096    93237600.33106
     -2630.956  
  21058544.323   112688515.34807     -3486.729    21058547.736    87646650.10707
     -2711.906  
  19271920.692   102838706.40308      -338.426           0.000           0.0000 
         0.000  
  22549462.780   120455181.73205      3748.820    22549466.558    93687388.20705
      2915.753  
  21189217.657   113427582.47907      2728.898    21189222.106    88221467.65408
      2122.472  
  20327686.679   108510583.74408       403.324    20327689.389    84397134.75104
       313.690  
 20 10 02 06 41  0.0000000  0 15G13G27G15G18G20G23G24G10R15R 5R21R 6
                                R16R 7R22
  22269753.582   117028374.72948     -2972.687    22269752.357    91190962.34746
     -2316.379  
  23845192.769   125307333.94546       -83.391    23845194.536    97642090.23849
       -64.980  
  20307104.336   106714611.80049     -1383.812    20307104.076    83154258.53849
     -1078.300  
  20597732.001   108241840.58249     -1269.726    20597732.356    84344286.35648
      -989.397  
  20614521.946   108330088.99449      1789.519    20614520.585    84413065.75248
      1394.429  
  20949622.827   110091050.13349      1883.973    20949622.347    85785256.29448
      1468.031  
  22108032.839   116178516.71148      3056.125    22108035.004    90528724.85049
      2381.394  
  23375591.947   122839575.84448      3040.527    23375594.226    95719156.87549
      2369.241  
  21710440.311   116014014.58808       427.440    21710443.616    90233149.72307
       332.449  
  22428606.106   119893771.75707     -3382.690    22428610.071    93250754.93307
     -2630.976  
  21061803.492   112705956.03407     -3489.715    21061806.989    87660215.08107
     -2714.227  
  19272238.767   102840403.61908      -340.672           0.000           0.0000 
         0.000  
  22545954.476   120436441.28306      3746.930    22545958.169    93672812.29205
      2914.277  
  21186669.190   113413939.92507      2727.895    21186673.562    88210856.77707
      2121.694  
  20327310.897   108508577.86008       398.831    20327313.558    84395574.61104
       310.199  
 20 10 02 06 41  5.0000000  0 15G13G27G15G18G20G23G24G10R15R 5R21R 6
                                R16R 7R22
  22272582.507   117043240.74048     -2974.184    22272581.301    91202546.24146
     -2317.550  
  23845273.827   125307760.18946       -87.102    23845275.587    97642422.37649
       -67.870  
  20308422.307   106721537.75349     -1386.570    20308422.017    83159655.38049
     -1080.448  
  20598941.649   108248197.23349     -1273.128    20598941.987    84349239.58948
      -992.051  
  20612820.170   108321146.22549      1787.473    20612818.856    84406097.36348
      1392.836  
  20947831.059   110081634.45349      1882.184    20947830.572    85777919.40048
      1466.636  
  22105126.008   116163241.05648      3053.875    22105128.085    90516821.75249
      2379.644  
  23372699.495   122824375.68648      3039.628    23372701.704    95707312.60549
      2368.542  
  21710042.625   116011889.38108       422.688    21710045.763    90231496.78807
       328.757  
  22431770.586   119910688.03207     -3383.843    22431774.661    93263912.03106
     -2631.882  
  21065065.485   112723411.80907     -3492.613    21065069.045    87673791.78207
     -2716.480  
  19272559.146   102842113.19208      -343.324           0.000           0.0000 
         0.000  
  22542448.025   120417710.66806      3744.815    22542451.701    93658244.04905
      2912.637  
  21184122.115   113400305.33007      2726.043    21184126.478    88200252.10708
      2120.254  
  20326939.620   108506595.79908       393.852    20326942.118    84394033.01704
       306.328  
 20 10 02 06 41 10.0000000  0 15G13G27G15G18G20G23G24G10R15R 5R21R 6
                                R16R 7R22
  22275412.995   117058115.05448     -2975.422    22275411.859    91214136.62146
     -2318.511  
  23845358.200   125308203.94447       -90.258    23845359.992    97642768.15749
       -70.331  
  20309742.932   106728477.53049     -1389.011    20309742.577    83165063.00749
     -1082.347  
  20600154.455   108254570.38049     -1276.050    20600154.746    84354205.67048
      -994.328  
  20611120.406   108312213.96849      1785.815    20611119.081    84399137.16348
      1391.543  
  20946041.089   110072228.31549      1880.633    20946040.606    85770589.94348
      1465.429  
  22102221.338   116147976.72148      3052.195    22102223.341    90504927.46949
      2378.335  
  23369807.765   122809179.35348      3039.500    23369809.902    95695471.31849
      2368.441  
  21709649.255   116009787.33008       418.559    21709652.263    90229861.85007
       325.542  
  22434935.745   119927607.86907     -3384.081    22434939.894    93277071.89006
     -2632.066  
  21068330.398   112740883.33007     -3495.601    21068334.024    87687380.74407
     -2718.805  
  19272881.980   102843835.89908      -345.359           0.000           0.0000 
         0.000  
  22538943.609   120398990.64706      3743.171    22538947.222    93643684.03305
      2911.351  
  21181576.716   113386679.23507      2724.694    21181581.038    88189654.02808
      2119.203  
  20326572.834   108504638.18508       389.465    20326575.291    84392510.42304
       302.917  
 20 10 02 06 41 15.0000000  0 15G13G27G15G18G20G23G24G10R15R 5R21R 6
                                R16R 7R22
  22278244.549   117072994.97048     -2976.973    22278243.498    91225731.36646
     -2319.722  
  23845445.380   125308662.51647       -93.730    23845447.219    97643125.49349
       -73.035  
  20311065.680   106735428.42949     -1391.660    20311065.243    83170479.29249
     -1084.409  
  20601369.870   108260957.30649     -1279.081    20601370.115    84359182.49648
      -996.691  
  20609422.115   108303289.54549      1783.684    20609420.782    84392183.06848
      1389.883  
  20944252.444   110062829.04749      1878.699    20944251.970    85763265.84247
      1463.921  
  22099318.289   116132720.97048      3050.035    22099320.217    90493039.87849
      2376.651  
  23366916.279   122793984.18248      3038.550    23366918.334    95683630.92349
      2367.698  
  21709259.700   116007705.73108       413.984    21709262.644    90228242.82607
       321.983  
  22438101.043   119944528.60707     -3384.625    22438105.297    93290232.46206
     -2632.429  
  21071597.754   112758367.83107     -3498.628    21071601.391    87700979.79807
     -2721.159  
  19273206.738   102845569.05408      -348.054           0.000           0.0000 
         0.000  
  22535440.663   120380278.57006      3741.039    22535444.246    93629130.20205
      2909.695  
  21179032.402   113373058.94607      2723.190    21179036.671    88179060.48007
      2118.038  
  20326210.113   108502702.32808       384.663    20326212.620    84391004.76704
       299.184  
 20 10 02 06 41 20.0000000  0 15G13G27G15G18G20G23G24G10R15R 5R21R 6
                                R16R 7R22
  22281077.923   117087884.38948     -2978.969    22281076.912    91237333.50646
     -2321.277  
  23845536.211   125309139.87147       -97.293    23845538.080    97643497.46349
       -75.815  
  20312391.302   106742394.36949     -1394.785    20312390.758    83175907.30249
     -1086.843  
  20602588.648   108267361.96549     -1282.902    20602588.849    84364173.13248
      -999.668  
  20607726.064   108294376.89549      1781.272    20607724.746    84385238.14748
      1387.999  
  20942465.857   110053440.56349      1876.515    20942465.385    85755950.13548
      1462.215  
  22096417.673   116117477.88048      3047.461    22096419.495    90481162.15649
      2374.645  
  23364025.740   122778794.07848      3037.327    23364027.764    95671794.49049
      2366.749  
  21708874.716   116005648.58808       408.999    21708877.587    90226642.82407
       318.108  
  22441267.357   119961454.37107     -3385.918    22441271.653    93303396.93006
     -2633.496  
  21074868.334   112775869.36407     -3501.996    21074871.931    87714592.09607
     -2723.777  
  19273534.243   102847316.74908      -351.207           0.000           0.0000 
         0.000  
  22531939.907   120361578.34706      3738.910    22531943.484    93614585.60305
      2908.043  
  21176489.980   113359448.66407      2720.879    21176494.143    88168474.71107
      2116.238  
  20325852.308   108500792.28208       379.176    20325854.773    84389519.17004
       294.913  
 20 10 02 06 41 25.0000000  0 15G13G27G15G18G20G23G24G10R15R 5R21R 6
                                R16R 7R22
  22283912.826   117102781.78148     -2980.207    22283911.812    91248941.85546
     -2322.241  
  23845630.294   125309634.43347      -100.660    23845632.184    97643882.83249
       -78.441  
  20313719.469   106749373.80649     -1397.141    20313718.861    83181345.81949
     -1088.683  
  20603810.509   108273782.79649     -1285.647    20603810.639    84369176.37848
     -1001.808  
  20606031.938   108285474.45149      1779.581    20606030.668    84378301.18148
      1386.687  
  20940681.024   110044061.32749      1875.160    20940680.592    85748641.64648
      1461.163  
  22093519.123   116102245.83548      3045.422    22093520.901    90469293.02649
      2373.051  
  23361135.852   122763607.49148      3037.155    23361137.846    95659960.79349
      2366.616  
  21708494.024   116003614.37708       404.586    21708496.911    90225060.65307
       314.675  
  22444434.263   119978383.42307     -3386.047    22444438.649    93316563.96906
     -2633.598  
  21078141.754   112793386.18907     -3504.703    21078145.331    87728216.29007
     -2725.882  
  19273864.184   102849077.37608      -353.140           0.000           0.0000 
         0.000  
  22528441.186   120342888.52406      3737.316    22528444.697    93600049.08405
      2906.800  
  21173949.020   113345846.55107      2719.914    21173953.154    88157895.29207
      2115.487  
  20325499.001   108498906.39708       374.961    20325501.511    84388052.36104
       291.632  
 20 10 02 06 41 30.0000000  0 15G13G27G15G18G20G23G24G10R15R 5R21R 6
                                R16R 7R22
  22286748.817   117117685.04548     -2981.487    22286747.848    91260554.79146
     -2323.238  
  23845727.314   125310144.18247      -104.238    23845729.189    97644280.02149
       -81.230  
  20315049.815   106756364.66649     -1399.628    20315049.146    83186793.23949
     -1090.621  
  20605035.047   108280217.75549     -1288.688    20605035.111    84374190.63348
     -1004.172  
  20604339.403   108276580.24449      1777.647    20604338.164    84371370.62648
      1385.176  
  20938897.606   110034689.34449      1873.308    20938897.202    85741338.80647
      1459.723  
  22090622.290   116087022.93748      3043.199    22090624.030    90457431.04049
      2371.324  
  23358246.261   122748422.46248      3036.569    23358248.251    95648128.31949
      2366.159  
  21708117.253   116001601.02808       400.315    21708120.219    90223494.73207
       311.354  
  22447601.460   119995313.77907     -3386.394    22447605.766    93329732.00906
     -2633.866  
  21081417.651   112810916.33107     -3507.922    21081421.209    87741850.83507
     -2728.387  
  19274196.100   102850848.54608      -355.733           0.000           0.0000 
         0.000  
  22524943.826   120324206.91006      3735.262    22524947.507    93585518.98005
      2905.206  
  21171409.132   113332250.64007      2718.398    21171413.364    88147320.70608
      2114.309  
  20325149.910   108497042.73708       370.214    20325152.378    84386602.85204
       287.941  
 20 10 02 06 41 35.0000000  0 15G13G27G15G18G20G23G24G10R15R 5R21R 6
                                R16R 7R22
  22289586.536   117132597.35648     -2983.261    22289585.641    91272174.76446
     -2324.624  
  23845827.859   125310672.24147      -107.406    23845829.703    97644691.48449
       -83.695  
  20316382.905   106763370.10449     -1402.437    20316382.192    83192252.02849
     -1092.809  
  20606262.913   108286670.01349     -1292.133    20606262.896    84379218.36348
     -1006.854  
  20602649.031   108267697.37149      1775.590    20602647.794    84364448.90748
      1383.574  
  20937116.136   110025327.74749      1871.315    20937115.741    85734044.05048
      1458.164  
  22087727.782   116071812.26048      3041.062    22087729.485    90445578.58049
      2369.659  
  23355357.570   122733242.06948      3035.772    23355359.558    95636299.44949
      2365.538  
  21707744.959   115999611.76008       395.550    21707748.008    90221947.52507
       307.652  
  22450769.475   120012248.73007     -3387.272    22450773.819    93342903.62806
     -2634.551  
  21084696.597   112828463.01107     -3510.875    21084700.191    87755498.26307
     -2730.683  
  19274530.581   102852633.52408      -358.386           0.000           0.0000 
         0.000  
  22521448.819   120305536.92906      3732.641    22521452.494    93570997.89005
      2903.163  
  21168871.111   113318664.16807      2716.519    21168875.345    88136753.46108
      2112.848  
  20324805.540   108495204.34608       365.351    20324808.038    84385172.99104
       284.160  
 20 10 02 06 41 40.0000000  0 15G13G27G15G18G20G23G24G10R15R 5R21R 6
                                R16R 7R22
  22292425.536   117147516.59048     -2984.313    22292424.729    91283800.13746
     -2325.441  
  23845931.535   125311216.53047      -110.284    23845933.304    97645115.58649
       -85.945  
  20317718.386   106770388.04049     -1404.781    20317717.609    83197720.55649
     -1094.633  
  20607493.642   108293137.47549     -1295.066    20607493.559    84384257.94148
     -1009.147  
  20600960.429   108258823.77249      1773.812    20600959.175    84357534.41948
      1382.190  
  20935336.249   110015974.44349      1869.874    20935335.883    85726755.76648
      1457.046  
  22084835.203   116056611.90548      3039.090    22084836.901    90433734.15249
      2368.120  
  23352469.389   122718064.29348      3035.305    23352471.345    95624472.60649
      2365.167  
  21707376.744   115997644.47408       391.222    21707379.924    90220417.41007
       304.281  
  22453937.877   120029185.93607     -3387.679    22453942.318    93356077.00506
     -2634.777  
  21087978.165   112846024.00107     -3513.729    21087981.845    87769156.81707
     -2732.902  
  19274867.341   102854430.57108      -360.573           0.000           0.0000 
         0.000  
  22517955.496   120286876.16606      3731.300    22517959.254    93556483.97805
      2902.120  
  21166334.450   113305084.97107      2715.090    21166338.669    88126191.87408
      2111.737  
  20324465.529   108493389.09008       360.901    20324467.927    84383761.12704
       280.702  
 20 10 02 06 41 45.0000000  0 15G13G27G15G18G20G23G24G10R15R 5R21R 6
                                R16R 7R22
  22295265.970   117162443.33048     -2986.245    22295265.253    91295431.35646
     -2326.949  
  23846038.364   125311777.51247      -114.211    23846040.083    97645552.73849
       -88.992  
  20319056.323   106777419.00849     -1407.710    20319055.497    83203199.23349
     -1096.917  
  20608727.346   108299620.63449     -1298.535    20608727.225    84389309.75348
     -1011.847  
  20599273.703   108249959.96849      1771.397    20599272.463    84350627.55448
      1380.305  
  20933558.069   110006629.98049      1867.797    20933557.736    85719474.36748
      1455.425  
  22081944.613   116041422.15548      3036.441    22081946.335    90421897.98649
      2366.058  
  23349581.759   122702889.63248      3034.116    23349583.760    95612648.20949
      2364.246  
  21707012.758   115995699.66008       386.300    21707016.012    90218904.79207
       300.456  
  22457106.957   120046126.01907     -3388.707    22457111.289    93369252.59606
     -2635.776  
  21091262.502   112863599.87107     -3516.984    21091266.344    87782826.92807
     -2735.437  
  19275206.394   102856239.88508      -363.367           0.000           0.0000 
         0.000  
  22514463.987   120268225.58806      3728.788    22514467.905    93541977.98405
      2900.167  
  21163799.232   113291513.65807      2713.124    21163803.505    88115636.39208
      2110.202  
  20324129.916   108491597.66208       355.656    20324132.399    84382367.79204
       276.617  
 20 10 02 06 41 50.0000000  0 15G13G27G15G18G20G23G24G10R15R 5R21R 6
                                R16R 7R22
  22298107.957   117177378.13248     -2987.628    22298107.342    91307068.86346
     -2328.027  
  23846148.479   125312355.91947      -116.780    23846150.168    97646003.45149
       -90.999  
  20320396.820   106784463.55349     -1410.171    20320395.993    83208688.49649
     -1098.839  
  20609964.142   108306120.10549     -1301.336    20609963.992    84394374.26848
     -1014.031  
  20597588.967   108241106.55849      1769.780    20597587.762    84343728.79948
      1379.047  
  20931781.692   109997294.96349      1866.234    20931781.357    85712200.32648
      1454.203  
  22079056.187   116026243.68648      3034.738    22079057.963    90410070.61749
      2364.730  
  23346694.848   122687718.68648      3033.840    23346696.855    95600826.68949
      2364.027  
  21706653.096   115993777.89308       382.245    21706656.370    90217410.07407
       297.301  
  22460276.603   120063069.62507     -3388.929    22460280.908    93382430.97606
     -2635.820  
  21094549.752   112881191.19907     -3519.637    21094553.725    87796509.06507
     -2737.499  
  19275547.837   102858062.17308      -365.578           0.000           0.0000 
         0.000  
  22510974.626   120249585.67006      3727.128    22510978.485    93527480.25705
      2898.874  
  21161265.479   113277950.74907      2712.030    21161269.955    88105087.47508
      2109.359  
  20323798.874   108489830.59608       351.132    20323801.325    84380993.41404
       273.097  
 20 10 02 06 41 55.0000000  0 15G13G27G15G18G20G23G24G10R15R 5R21R 6
                                R16R 7R22
  22300951.247   117192319.59848     -2988.956    22300950.685    91318711.56346
     -2329.062  
  23846261.610   125312950.30547      -120.465    23846263.292    97646466.61549
       -93.867  
  20321739.662   106791520.39449     -1412.593    20321738.856    83214187.33049
     -1100.726  
  20611203.764   108312634.51849     -1304.379    20611203.614    84399450.43648
     -1016.402  
  20595905.954   108232262.20149      1767.973    20595904.782    84336837.08948
      1377.636  
  20930006.866   109987968.03049      1864.448    20930006.508    85704932.58848
      1452.815  
  22076169.669   116011075.21648      3032.727    22076171.498    90398251.02749
      2363.164  
  23343808.419   122672550.12148      3033.612    23343810.365    95589007.02949
      2363.851  
  21706297.536   115991877.88608       377.940    21706300.800    90215932.28507
       293.948  
  22463446.692   120080015.31307     -3389.137    22463450.894    93395610.94606
     -2636.000  
  21097839.670   112898796.62507     -3522.491    21097843.748    87810202.16707
     -2739.719  
  19275891.508   102859896.13008      -367.938           0.000           0.0000 
         0.000  
  22507486.959   120230954.90006      3725.473    22507490.792    93512989.67405
      2897.590  
  21158733.075   113264394.90207      2710.530    21158737.701    88094544.04608
      2108.191  
  20323472.150   108488086.58808       346.512    20323474.665    84379636.96104
       269.503  
 20 10 02 06 42  0.0000000  0 15G13G27G15G18G20G23G24G10R15R 5R21R 6
                                R16R 7R22
  22303795.964   117207268.65848     -2990.586    22303795.471    91330360.17646
     -2330.331  
  23846377.986   125313561.54947      -123.586    23846379.636    97646942.89949
       -96.300  
  20323085.007   106798590.35749     -1415.332    20323084.218    83219696.39249
     -1102.859  
  20612446.409   108319164.75449     -1307.597    20612446.214    84404538.92648
     -1018.909  
  20594224.836   108223427.80349      1765.941    20594223.683    84329953.14648
      1376.054  
  20928233.735   109978650.07349      1862.695    20928233.392    85697671.84748
      1451.448  
  22073285.210   115995917.59348      3030.285    22073287.155    90386439.90449
      2361.261  
  23340922.585   122657384.80548      3032.734    23340924.549    95577189.90649
      2363.167  
  21705946.251   115990000.57108       372.976    21705949.507    90214472.14507
       290.089  
  22466617.289   120096963.97107     -3389.913    22466621.379    93408793.23506
     -2636.605  
  21101132.471   112916416.94207     -3525.453    21101136.553    87823906.84507
     -2742.022  
  19276237.502   102861742.57408      -370.542           0.000           0.0000 
         0.000  
  22504001.209   120212334.37006      3723.160    22504005.021    93498507.04405
      2895.793  
  21156202.184   113250847.06607      2708.815    21156206.919    88084006.84108
      2106.854  
  20323149.884   108486366.43308       341.683    20323152.479    84378299.04804
       265.750  
 20 10 02 06 42  5.0000000  0 15G13G27G15G18G20G23G24G10R15R 5R21R 6
                                R16R 7R22
  22306642.152   117222225.53848     -2992.637    22306641.707    91342014.88046
     -2331.929  
  23846497.581   125314189.96647      -127.663    23846499.219    97647432.56949
       -99.479  
  20324432.882   106805673.67549     -1418.402    20324432.136    83225215.86149
     -1105.254  
  20613692.142   108325711.09749     -1311.238    20613691.887    84409639.96748
     -1021.745  
  20592545.700   108214603.66649      1763.468    20592544.544    84323077.19648
      1374.129  
  20926462.353   109969341.36549      1860.503    20926462.011    85690418.30748
      1449.741  
  22070402.853   115980771.08148      3027.737    22070404.914    90374637.42049
      2359.273  
  23338037.417   122642223.04848      3031.425    23338039.394    95565375.55249
      2362.148  
  21705599.236   115988146.07208       368.266    21705602.450    90213029.76407
       286.429  
  22469788.590   120113915.98807     -3391.316    22469792.531    93421978.14606
     -2637.702  
  21104428.108   112934052.40307     -3529.116    21104432.190    87837623.31307
     -2744.871  
  19276585.878   102863601.76208      -373.699           0.000           0.0000 
         0.000  
  22500517.239   120193724.28306      3720.663    22500521.205    93484032.53805
      2893.852  
  21153672.808   113237307.33507      2706.797    21153677.637    88073475.94308
      2105.285  
  20322832.198   108484670.44708       336.495    20322834.824    84376979.95005
       261.714  
 20 10 02 06 42 10.0000000  0 15G13G27G15G18G20G23G24G10R15R 5R21R 6
                                R16R 7R22
  22309490.063   117237191.31948     -2994.030    22309489.600    91353676.52646
     -2333.015  
  23846620.689   125314836.65147      -131.359    23846622.294    97647936.48049
      -102.363  
  20325783.518   106812771.56249     -1420.957    20325782.842    83230746.67949
     -1107.241  
  20614941.155   108332274.67049     -1314.363    20614940.832    84414754.43748
     -1024.183  
  20590868.719   108205790.91549      1761.479    20590867.541    84316210.11748
      1372.578  
  20924692.952   109960043.09849      1858.652    20924692.625    85683172.90548
      1448.297  
  22067522.882   115965636.79148      3025.828    22067525.000    90362844.46649
      2357.788  
  23335153.098   122627065.97848      3030.988    23335155.162    95553564.85749
      2361.808  
  21705256.689   115986315.60608       363.621    21705259.938    90211606.05707
       282.813  
  22472960.628   120130872.38107     -3391.671    22472964.569    93435166.45906
     -2637.969  
  21107726.822   112951704.20608     -3531.914    21107730.847    87851352.47807
     -2747.047  
  19276936.895   102865474.85508      -375.965           0.000           0.0000 
         0.000  
  22497035.634   120175125.95106      3718.737    22497039.635    93469567.17306
      2892.352  
  21151145.254   113223777.05007      2705.379    21151150.112    88062952.39108
      2104.184  
  20322519.285   108482999.81408       331.663    20322521.894    84375680.56004
       257.956  
 20 10 02 06 42 15.0000000  0 15G13G27G15G18G20G23G24G10R15R 5R21R 6
                                R16R 7R22
  22312339.130   117252163.13848     -2994.991    22312338.628    91365342.88246
     -2333.765  
  23846746.716   125315498.70947      -133.953    23846748.257    97648452.37349
      -104.378  
  20327136.371   106819881.04149     -1422.979    20327135.754    83236286.53649
     -1108.820  
  20616192.885   108338852.58749     -1316.937    20616192.544    84419880.08348
     -1026.188  
  20589193.352   108196986.64849      1760.008    20589192.169    84309349.65248
      1371.434  
  20922924.990   109950752.33349      1857.551    20922924.674    85675933.34848
      1447.438  
  22064644.725   115950512.16448      3023.953    22064646.934    90351059.04949
      2356.327  
  23332269.130   122611910.68748      3030.988    23332271.283    95541755.54149
      2361.808  
  21704918.071   115984506.25708       359.832    21704921.373    90210198.78507
       279.870  
  22476132.916   120147830.23407     -3391.819    22476136.766    93448355.90206
     -2638.081  
  21111028.013   112969369.39408     -3534.409    21111031.973    87865092.07007
     -2748.987  
  19277289.959   102867359.00108      -377.847           0.000           0.0000 
         0.000  
  22493555.591   120156536.31306      3717.147    22493559.681    93455108.58605
      2891.116  
  21148618.867   113210253.25807      2704.363    21148623.786    88052433.89308
      2103.395  
  20322210.553   108481351.59708       327.430    20322213.224    84374398.60804
       254.663  
 20 10 02 06 42 20.0000000  0 15G13G27G15G18G20G23G24G10R15R 5R21R 6
                                R16R 7R22
  22315189.494   117267141.90448     -2996.551    22315188.960    91377014.64145
     -2334.979  
  23846875.843   125316177.08947      -137.464    23846877.331    97648980.97149
      -107.120  
  20328491.608   106827003.01649     -1425.702    20328491.028    83241836.12449
     -1110.941  
  20617447.510   108345445.71849     -1320.210    20617447.130    84425017.59048
     -1028.737  
  20587519.788   108188191.79249      1757.843    20587518.594    84302496.51948
      1369.745  
  20921158.614   109941469.96749      1855.527    20921158.315    85668700.34148
      1445.866  
  22061768.527   115935397.82548      3021.729    22061770.802    90339281.64449
      2354.594  
  23329385.675   122596758.08948      3030.066    23329387.896    95529948.33549
      2361.089  
  21704583.602   115982718.92208       355.136    21704586.988    90208808.63507
       276.214  
  22479305.674   120164790.41407     -3392.327    22479309.402    93461547.13606
     -2638.479  
  21114331.914   112987048.86108     -3537.379    21114335.744    87878842.76707
     -2751.296  
  19277645.261   102869254.99208      -380.425           0.000           0.0000 
         0.000  
  22490077.305   120137956.40106      3714.988    22490081.492    93440657.55305
      2889.434  
  21146093.815   113196736.79807      2702.315    21146098.830    88041921.10307
      2101.800  
  20321906.164   108479726.71508       322.355    20321908.906    84373134.81904
       250.722  
 20 10 02 06 42 25.0000000  0 15G13G27G15G18G20G23G24G10R15R 5R21R 6
                                R16R 7R22
  22318041.471   117282129.08448     -2998.288    22318040.905    91388692.96946
     -2336.332  
  23847008.359   125316873.21547      -140.961    23847009.762    97649523.40749
      -109.844  
  20329849.505   106834138.97249     -1428.453    20329848.940    83247396.60849
     -1113.086  
  20618705.299   108352055.56649     -1323.585    20618704.927    84430168.12148
     -1031.370  
  20585848.299   108179407.83649      1755.753    20585847.070    84295651.87848
      1368.120  
  20919394.110   109932197.53149      1853.496    20919393.853    85661475.06948
      1444.280  
  22058894.533   115920295.29348      3019.218    22058896.900    90327513.43649
      2352.633  
  23326503.008   122581609.69548      3029.284    23326505.292    95518144.39749
      2360.479  
  21704253.538   115980955.22608       350.324    21704257.015    90207436.85607
       272.469  
  22482479.217   120181754.63007     -3393.190    22482482.799    93474741.50406
     -2639.155  
  21117638.686   113004744.09307     -3540.504    21117642.481    87892605.71707
     -2753.729  
  19278003.094   102871164.36008      -383.117           0.000           0.0000 
         0.000  
  22486601.209   120119387.69006      3712.667    22486605.339    93426215.22805
      2887.628  
  21143570.433   113183229.37407      2700.672    21143575.537    88031415.32807
      2100.522  
  20321606.431   108478126.68908       317.437    20321609.198    84371890.35704
       246.894  
 20 10 02 06 42 30.0000000  0 15G13G27G15G18G20G23G24G10R15R 5R21R 6
                                R16R 7R22
  22320894.852   117297123.63548     -2999.425    22320894.266    91400377.03646
     -2337.219  
  23847144.081   125317586.09347      -144.398    23847145.424    97650078.89349
      -112.522  
  20331209.869   106841287.85349     -1430.925    20331209.290    83252967.17149
     -1115.007  
  20619966.078   108358681.09949     -1326.440    20619965.715    84435330.86848
     -1033.594  
  20584178.656   108170633.74149      1754.059    20584177.440    84288814.92848
      1366.801  
  20917631.311   109922933.98749      1852.007    20917631.105    85654256.72448
      1443.120  
  22056022.618   115905203.46648      3017.511    22056025.020    90315753.56849
      2351.305  
  23323620.965   122566464.48948      3029.175    23323623.280    95506342.94749
      2360.398  
  21703927.701   115979214.01808       346.301    21703931.259    90206082.60007
       269.343  
  22485653.274   120198721.53307     -3393.772    22485656.734    93487937.98406
     -2639.605  
  21120948.145   113022453.99208     -3543.301    21120951.984    87906380.08107
     -2755.905  
  19278363.214   102873086.03408      -385.387           0.000           0.0000 
         0.000  
  22483126.923   120100829.08406      3710.620    22483131.069    93411780.75805
      2886.039  
  21141048.565   113169729.83707      2699.254    21141053.733    88020915.68708
      2099.413  
  20321311.094   108476550.41008       312.874    20321313.902    84370664.36904
       243.348  
 20 10 02 06 42 35.0000000  0 15G13G27G15G18G20G23G24G10R15R 5R21R 6
                                R16R 7R22
  22323749.624   117312125.47048     -3001.362    22323749.017    91412066.76746
     -2338.729  
  23847282.953   125318315.59047      -147.843    23847284.258    97650647.32949
      -115.206  
  20332572.687   106848449.57449     -1433.796    20332572.066    83258547.73149
     -1117.250  
  20621229.820   108365322.20549     -1329.973    20621229.476    84440505.75848
     -1036.348  
  20582510.870   108161869.43449      1751.805    20582509.664    84281985.60148
      1365.042  
  20915870.168   109913679.24749      1849.891    20915870.018    85647045.24048
      1441.472  
  22053152.760   115890122.44848      3014.930    22053155.208    90304002.13349
      2349.296  
  23320739.525   122551322.35648      3027.898    23320741.836    95494543.88349
      2359.401  
  21703606.017   115977495.19408       341.429    21703609.663    90204745.73007
       265.550  
  22488827.823   120215691.25407     -3394.351    22488831.260    93501136.64306
     -2640.077  
  21124260.329   113040178.50207     -3546.707    21124264.232    87920165.81207
     -2758.555  
  19278725.602   102875019.95708      -388.125           0.000           0.0000 
         0.000  
  22479654.558   120082280.71006      3708.335    22479658.753    93397354.24705
      2884.262  
  21138528.222   113156237.99307      2697.421    21138533.356    88010422.02508
      2097.992  
  20321020.266   108474997.85808       308.058    20321023.041    84369456.82805
       239.602  
 20 10 02 06 42 40.0000000  0 15G13G27G15G18G20G23G24G10R15R 5R21R 6
                                R16R 7R22
  22326605.747   117327134.37748     -3002.378    22326605.110    91423762.02246
     -2339.516  
  23847424.941   125319061.55447      -150.858    23847426.258    97651228.60849
      -117.555  
  20333937.918   106855624.00849     -1436.121    20333937.294    83264138.20349
     -1119.059  
  20622496.494   108371978.71249     -1332.824    20622496.167    84445692.64648
     -1038.566  
  20580844.925   108153114.74049      1750.023    20580843.716    84275163.76048
      1363.656  
  20914110.681   109904433.14049      1848.421    20914110.573    85639840.48548
      1440.327  
  22050284.949   115875052.06248      3012.867    22050287.425    90292258.97849
      2347.688  
  23317858.672   122536183.15548      3027.515    23317860.929    95482747.11349
      2359.102  
  21703288.494   115975798.63808       337.219    21703292.259    90203426.18907
       262.281  
  22492002.833   120232663.50407     -3394.792    22492006.224    93514337.27606
     -2640.398  
  21127575.223   113057917.41807     -3549.156    21127579.200    87933962.73607
     -2760.456  
  19279090.303   102876965.98208      -390.378           0.000           0.0000 
         0.000  
  22476184.038   120063742.12806      3706.777    22476188.285    93382935.35305
      2883.051  
  21136009.358   113142753.75507      2696.297    21136014.433    87999934.28608
      2097.116  
  20320733.789   108473468.74608       303.608    20320736.572    84368267.52004
       236.136  
 20 10 02 06 42 45.0000000  0 15G13G27G15G18G20G23G24G10R15R 5R21R 6
                                R16R 7R22
  22329463.114   117342149.84548     -3003.812    22329462.466    91435462.38746
     -2340.637  
  23847570.003   125319823.45447      -154.047    23847571.324    97651822.28849
      -120.039  
  20335305.474   106862810.52949     -1438.566    20335304.821    83269738.09349
     -1120.961  
  20623766.001   108378650.08149     -1336.047    20623765.679    84450891.11748
     -1041.073  
  20579180.688   108144369.14749      1748.039    20579179.501    84268349.01648
      1362.105  
  20912352.746   109895195.16449      1846.703    20912352.683    85632642.06248
      1438.988  
  22047419.040   115859991.64148      3010.887    22047421.561    90280523.59149
      2346.144  
  23314978.233   122521046.31548      3027.117    23314980.499    95470952.17349
      2358.789  
  21702975.048   115974123.80108       332.668    21702978.860    90202123.54507
       258.742  
  22495178.263   120249637.81007     -3394.996    22495181.575    93527539.48806
     -2640.559  
  21130892.693   113075670.11707     -3552.124    21130896.761    87947770.38707
     -2762.770  
  19279457.146   102878923.52308      -392.866           0.000           0.0000 
         0.000  
  22472715.309   120045213.08006      3704.620    22472719.568    93368523.86205
      2881.366  
  21133491.861   113129276.61307      2694.582    21133496.851    87989452.07108
      2095.785  
  20320451.635   108471962.65208       298.839    20320454.431    84367096.11604
       232.430  
 20 10 02 06 42 50.0000000  0 15G13G27G15G18G20G23G24G10R15R 5R21R 6
                                R16R 7R22
  22332322.236   117357174.38348     -3005.656    22332321.515    91447169.80846
     -2342.073  
  23847718.522   125320603.80447      -157.226    23847719.912    97652430.35649
      -122.519  
  20336675.818   106870011.73449     -1441.452    20336675.143    83275349.42749
     -1123.211  
  20625038.811   108385338.83749     -1339.167    20625038.499    84456103.13448
     -1043.511  
  20577518.649   108135635.19849      1745.961    20577517.486    84261543.34048
      1360.483  
  20910596.836   109885967.82249      1844.706    20910596.808    85625451.92248
      1437.429  
  22044555.507   115844943.64048      3008.695    22044558.038    90268797.87849
      2344.438  
  23312098.765   122505914.42248      3025.980    23312101.006    95459161.09849
      2357.905  
  21702666.119   115972473.26008       327.969    21702669.946    90200839.79107
       255.086  
  22498354.619   120266616.65907     -3396.012    22498357.800    93540745.26906
     -2641.397  
  21134213.301   113093439.17508     -3555.188    21134217.415    87961590.76107
     -2765.147  
  19279826.620   102880895.16808      -395.422           0.000           0.0000 
         0.000  
  22469248.932   120026696.03506      3702.656    22469253.127    93354121.73205
      2879.844  
  21130976.190   113115809.18507      2692.956    21130981.063    87978977.41608
      2094.523  
  20320174.313   108470482.16308       293.848    20320176.997    84365944.63404
       228.546  
 20 10 02 06 42 55.0000000  0 15G13G27G15G18G20G23G24G10R15R 5R21R 6
                                R16R 7R22
  22335182.511   117372205.16948     -3006.711    22335181.726    91458882.11146
     -2342.894  
  23847870.001   125321399.80047      -160.655    23847871.456    97653050.62049
      -125.187  
  20338048.422   106877224.78749     -1443.539    20338047.726    83280969.98649
     -1124.835  
  20626314.399   108392042.19149     -1341.887    20626314.104    84461326.52348
     -1045.628  
  20575858.306   108126910.09849      1744.374    20575857.161    84254744.55848
      1359.249  
  20908842.415   109876748.34149      1843.319    20908842.436    85618267.90748
      1436.352  
  22041693.872   115829905.58648      3006.563    22041696.424    90257079.92149
      2342.776  
  23309219.688   122490784.64448      3025.972    23309221.928    95447371.66249
      2357.902  
  21702361.220   115970844.12708       323.855    21702365.002    90199572.69107
       251.887  
  22501531.222   120283597.26707     -3396.229    22501534.381    93553952.37706
     -2641.515  
  21137536.437   113111221.76008     -3557.792    21137540.611    87975421.64707
     -2767.176  
  19280198.206   102882878.02508      -397.437           0.000           0.0000 
         0.000  
  22465784.221   120008188.14006      3700.660    22465788.329    93339726.70905
      2878.292  
  21128461.738   113102348.40807      2691.660    21128466.500    87968507.92807
      2093.511  
  20319901.178   108469024.34108       289.672    20319903.824    84364810.77504
       225.300  
 20 10 02 06 43  0.0000000  0 15G13G27G15G18G20G23G24G10R15R 5R21R 6
                                R16R 7R22
  22338044.112   117387242.88848     -3008.507    22338043.269    91470599.80646
     -2344.296  
  23848024.649   125322212.41947      -164.449    23848026.192    97653683.83249
      -128.140  
  20339423.440   106884450.55849     -1446.534    20339422.746    83286600.46249
     -1127.176  
  20627592.939   108398761.02549     -1345.461    20627592.655    84466561.97448
     -1048.413  
  20574199.843   108118194.75549      1742.027    20574198.678    84247953.37748
      1357.421  
  20907089.655   109867537.61849      1841.074    20907089.694    85611090.72148
      1434.598  
  22038834.294   115814878.30648      3004.366    22038836.851    90245370.35549
      2341.066  
  23306341.217   122475657.92548      3024.930    23306343.397    95435584.61949
      2357.090  
  21702060.569   115969237.41108       318.972    21702064.249    90198323.04307
       248.093  
  22504708.322   120300580.37607     -3397.226    22504711.560    93567161.46806
     -2642.292  
  21140862.304   113129018.71008     -3561.059    21140866.507    87989263.71007
     -2769.715  
  19280572.061   102884872.95808      -400.331           0.000           0.0000 
         0.000  
  22462321.366   119989690.59706      3698.038    22462325.554    93325339.74705
      2876.254  
  21125948.776   113088895.42407      2689.852    21125953.348    87958044.49808
      2092.105  
  20319632.519   108467590.12308       284.409    20319635.025    84363695.27004
       221.203  
 20 10 02 06 43  5.0000000  0 15G13G27G15G18G20G23G24G10R15R 5R21R 6
                                R16R 7R22
  22340907.485   117402289.95548     -3010.422    22340906.624    91482324.80046
     -2345.789  
  23848182.784   125323043.76747      -167.887    23848184.421    97654331.63149
      -130.823  
  20340801.276   106891691.25649     -1449.628    20340800.613    83292242.56649
     -1129.585  
  20628874.859   108405497.53249     -1348.972    20628874.548    84471811.20848
     -1051.152  
  20572543.649   108109491.36849      1739.516    20572542.457    84241171.52448
      1355.465  
  20905339.013   109858337.84149      1838.922    20905339.006    85603922.07248
      1432.926  
  22035977.183   115799863.96148      3001.917    22035979.732    90233670.87049
      2339.156  
  23303463.715   122460536.42848      3023.765    23303465.878    95423801.63149
      2356.175  
  21701764.485   115967655.26108       313.953    21701768.076    90197092.49307
       244.187  
  22507886.343   120317568.34307     -3397.913    22507889.583    93580374.32206
     -2642.819  
  21144191.317   113146832.30707     -3564.319    21144195.484    88003118.72207
     -2772.253  
  19280948.667   102886882.50308      -403.366           0.000           0.0000 
         0.000  
  22458860.970   119971205.21806      3695.922    22458865.057    93310962.21805
      2874.602  
  21123437.618   113075452.37207      2687.613    21123442.029    87947588.79707
      2090.367  
  20319368.672   108466181.84808       279.112    20319371.018    84362599.93604
       217.086  
 20 10 02 06 43 10.0000000  0 15G13G27G15G18G20G23G24G10R15R 5R21R 6
                                R16R 7R22
  22343772.283   117417344.38248     -3011.378    22343771.408    91494055.51846
     -2346.527  
  23848344.123   125323891.79547      -170.968    23848345.811    97654992.43049
      -133.222  
  20342181.585   106898944.86249     -1451.883    20342180.948    83297894.71649
     -1131.340  
  20630159.737   108412249.70349     -1351.852    20630159.418    84477072.62948
     -1053.394  
  20570889.335   108100797.91849      1737.874    20570888.111    84234397.40848
      1354.184  
  20903590.061   109849147.03649      1837.452    20903590.061    85596760.40248
      1431.777  
  22033122.170   115784860.70548      2999.573    22033124.703    90221980.03449
      2337.331  
  23300586.784   122445418.14448      3023.555    23300588.905    95412021.15449
      2356.016  
  21701472.689   115966095.71108       309.816    21701476.121    90195879.50607
       240.965  
  22511064.847   120334559.20807     -3398.375    22511068.123    93593589.41506
     -2643.152  
  21147522.905   113164660.46007     -3567.030    21147527.153    88016985.06407
     -2774.358  
  19281327.575   102888904.30208      -405.461           0.000           0.0000 
         0.000  
  22455402.352   119952730.21306      3694.066    22455406.467    93296592.79805
      2873.164  
  21120927.876   113062017.18007      2686.367    21120932.141    87937139.20707
      2089.397  
  20319109.324   108464797.33608       274.805    20319111.561    84361523.09204
       213.733  
 20 10 02 06 43 15.0000000  0 15G13G27G15G18G20G23G24G10R15R 5R21R 6
                                R16R 7R22
  22346638.315   117432405.51048     -3012.875    22346637.475    91505791.45746
     -2347.699  
  23848508.533   125324755.93347      -174.770    23848510.309    97655665.77549
      -136.187  
  20343564.209   106906210.66149     -1454.597    20343563.600    83303556.38049
     -1133.453  
  20631447.454   108419016.85849     -1355.136    20631447.180    84482345.73548
     -1055.953  
  20569236.785   108092113.74249      1735.652    20569235.530    84227630.52148
      1352.456  
  20901842.690   109839964.50849      1835.613    20901842.686    85589605.19248
      1430.348  
  22030269.117   115769867.65248      2997.390    22030271.622    90210297.14249
      2335.629  
  23297710.329   122430302.45748      3022.499    23297712.450    95400242.71149
      2355.194  
  21701184.969   115964558.03508       305.198    21701188.309    90194683.54807
       237.379  
  22514243.797   120351552.10907     -3398.859    22514246.989    93606806.11806
     -2643.562  
  21150857.055   113182502.42407     -3569.844    21150861.326    88030862.14007
     -2776.551  
  19281708.660   102890937.72108      -408.065           0.000           0.0000 
         0.000  
  22451945.596   119934265.00006      3692.128    22451949.682    93282230.97305
      2871.655  
  21118419.503   113048589.31907      2684.516    21118423.570    87926695.32007
      2087.952  
  20318854.353   108463436.06408       269.706    20318856.412    84360464.31604
       209.770  
 20 10 02 06 43 20.0000000  0 15G13G27G15G18G20G23G24G10R15R 5R21R 6
                                R16R 7R22
  22349505.814   117447474.35248     -3014.250    22349504.988    91517533.41346
     -2348.769  
  23848676.135   125325637.15747      -177.753    23848678.021    97656352.46349
      -138.508  
  20344949.361   106913489.77749     -1456.933    20344948.784    83309228.41449
     -1135.276  
  20632738.231   108425800.06149     -1358.073    20632737.989    84487631.34948
     -1058.237  
  20567586.204   108083439.90949      1734.050    20567584.946    84220871.68748
      1351.202  
  20900097.110   109830791.35949      1833.887    20900097.101    85582457.28348
      1429.000  
  22027418.209   115754885.94048      2995.210    22027420.659    90198623.08149
      2333.930  
  23294834.554   122415190.41048      3022.237    23294836.650    95388467.10149
      2354.992  
  21700901.584   115963043.36908       300.809    21700904.839    90193505.48107
       233.960  
  22517423.257   120368548.27107     -3399.190    22517426.464    93620025.34806
     -2643.819  
  21154194.085   113200359.38508     -3572.515    21154198.326    88044750.88807
     -2778.628  
  19282092.149   102892983.96708      -410.339           0.000           0.0000 
         0.000  
  22448490.870   119915810.72406      3689.832    22448494.999    93267877.66205
      2869.870  
  21115912.665   113035169.77107      2683.171    21115916.581    87916257.89807
      2086.910  
  20318603.897   108462098.99208       265.332    20318605.835    84359424.37004
       206.367  
 20 10 02 06 43 25.0000000  0 15G13G27G15G18G20G23G24G10R15R 5R21R 6
                                R16R 7R22
  22352374.368   117462548.92448     -3015.430    22352373.605    91529279.82746
     -2349.688  
  23848846.660   125326533.58247      -180.812    23848848.611    97657050.97149
      -140.897  
  20346336.662   106920780.18749     -1459.266    20346336.102    83314909.25149
     -1137.094  
  20634031.701   108432597.32549     -1361.034    20634031.456    84492927.91548
     -1060.546  
  20565937.226   108074774.50249      1732.124    20565935.966    84214119.42248
      1349.707  
  20898352.919   109821625.60349      1832.319    20898352.931    85575315.13648
      1427.776  
  22024569.119   115739913.74448      2993.453    22024571.516    90186956.44549
      2332.562  
  23291959.075   122400080.01048      3021.726    23291961.147    95376692.77249
      2354.594  
  21700622.088   115961549.63908       296.542    21700625.318    90192343.70307
       230.644  
  22520602.944   120385545.58307     -3399.886    22520606.104    93633245.48806
     -2644.355  
  21157533.489   113218229.18007     -3575.425    21157537.681    88058649.62307
     -2780.886  
  19282477.609   102895040.79508      -412.363           0.000           0.0000 
         0.000  
  22445037.781   119897365.13206      3688.371    22445041.977    93253531.09605
      2868.734  
  21113406.898   113021756.45307      2681.937    21113410.774    87905825.33007
      2085.953  
  20318357.571   108460784.14808       260.593    20318359.405    84358401.70504
       202.679  
 20 10 02 06 43 30.0000000  0 15G13G27G15G18G20G23G24G10R15R 5R21R 6
                                R16R 7R22
  22355244.549   117477631.95148     -3017.276    22355243.869    91541032.82546
     -2351.128  
  23849020.585   125327447.91047      -184.914    23849022.610    97657763.43549
      -144.090  
  20347726.644   106928084.65749     -1462.457    20347726.103    83320601.04149
     -1139.582  
  20635328.357   108439411.42349     -1364.573    20635328.144    84498237.60348
     -1063.308  
  20564290.373   108066120.26349      1729.604    20564289.097    84207375.86048
      1347.742  
  20896610.681   109812470.02049      1830.050    20896610.704    85568180.91448
      1426.011  
  22021722.367   115724953.67948      2990.547    22021724.695    90175299.25249
      2330.293  
  23289084.455   122384974.05948      3020.938    23289086.474    95364921.90449
      2353.976  
  21700347.071   115960079.68708       291.519    21700350.281    90191200.40507
       226.738  
  22523783.427   120402546.96307     -3400.772    22523786.571    93646468.78006
     -2645.219  
  21160875.670   113236114.61707     -3578.789    21160879.958    88072560.52007
     -2783.504  
  19282865.620   102897111.10808      -415.511           0.000           0.0000 
         0.000  
  22441586.891   119878931.28606      3685.316    22441591.135    93239193.68405
      2866.355  
  21110902.773   113008352.36407      2679.726    21110906.711    87895399.93307
      2084.230  
  20318115.962   108459494.35808       255.300    20318117.738    84357398.53004
       198.563  
 20 10 02 06 43 35.0000000  0 15G13G27G15G18G20G23G24G10R15R 5R21R 6
                                R16R 7R22
  22358116.163   117492722.53848     -3018.800    22358115.505    91552791.72646
     -2352.316  
  23849197.799   125328379.23747      -187.770    23849199.844    97658489.14749
      -146.315  
  20349119.129   106935402.27649     -1464.770    20349118.623    83326303.08449
     -1141.382  
  20636628.055   108446241.44349     -1367.441    20636627.868    84503559.69448
     -1065.542  
  20562645.471   108057476.27549      1727.828    20562644.178    84200640.28948
      1346.358  
  20894870.209   109803323.71549      1828.464    20894870.208    85561053.93648
      1424.777  
  22018877.760   115710004.92248      2988.777    22018880.022    90163650.88449
      2328.917  
  23286210.515   122369871.68448      3020.175    23286212.512    95353153.82449
      2353.382  
  21700076.302   115958632.56008       287.293    21700079.500    90190074.85507
       223.445  
  22526964.342   120419551.33607     -3401.086    22526967.553    93659694.40606
     -2645.289  
  21164220.576   113254014.82107     -3581.352    21164224.954    88086482.89007
     -2785.500  
  19283256.031   102899194.16308      -417.766           0.000           0.0000 
         0.000  
  22438138.048   119860508.12206      3683.469    22438142.188    93224864.55005
      2864.917  
  21108400.236   112994956.55707      2678.566    21108404.202    87884980.97307
      2083.324  
  20317878.822   108458228.74008       250.616    20317880.645    84356414.16204
       194.922  
 20 10 02 06 43 40.0000000  0 15G13G27G15G18G20G23G24G10R15R 5R21R 6
                                R16R 7R22
  22360989.144   117507820.12748     -3020.151    22360988.509    91564556.07346
     -2353.371  
  23849378.155   125329327.07847      -191.203    23849380.209    97659227.71149
      -148.992  
  20350514.012   106942732.52949     -1467.288    20350513.531    83332014.96749
     -1143.347  
  20637930.695   108453086.86549     -1370.550    20637930.517    84508893.79048
     -1067.961  
  20561002.412   108048841.94749      1726.030    20561001.120    84193912.24048
      1344.956  
  20893131.403   109794186.16549      1826.761    20893131.374    85553933.76348
      1423.449  
  22016035.235   115695067.00848      2986.620    22016037.423    90152010.94749
      2327.234  
  23283337.186   122354772.30348      3019.684    23283339.114    95341388.08149
      2353.000  
  21699809.706   115957207.82608       282.637    21699812.940    90188966.72807
       219.823  
  22530145.696   120436558.21506     -3401.656    22530149.062    93672921.96706
     -2645.656  
  21167568.247   113271929.22907     -3584.043    21167572.588    88100416.30507
     -2787.594  
  19283648.685   102901289.34608      -420.172           0.000           0.0000 
         0.000  
  22434691.052   119842095.32505      3681.296    22434695.277    93210543.49905
      2863.229  
  21105899.022   112981568.36307      2677.085    21105903.170    87874567.94407
      2082.180  
  20317646.131   108456986.68008       246.063    20317647.959    84355448.12004
       191.378  
 20 10 02 06 43 45.0000000  0 15G13G27G15G18G20G23G24G10R15R 5R21R 6
                                R16R 7R22
  22363863.501   117522925.03648     -3021.819    22363862.856    91576326.13746
     -2354.668  
  23849561.749   125330291.68047      -194.422    23849563.844    97659979.35549
      -151.500  
  20351911.347   106950075.70249     -1469.973    20351910.905    83337736.91749
     -1145.438  
  20639236.322   108459948.00949     -1373.832    20639236.140    84514240.13248
     -1070.523  
  20559361.248   108040217.66349      1723.863    20559359.981    84187192.02048
      1343.269  
  20891394.295   109785057.69849      1824.729    20891394.271    85546820.68048
      1421.867  
  22013194.805   115680140.16448      2984.179    22013196.948    90140379.64449
      2325.336  
  23280464.475   122339676.32448      3018.809    23280466.383    95329624.97849
      2352.316  
  21699547.294   115955805.73408       278.175    21699550.625    90187876.21108
       216.354  
  22533327.732   120453568.02506     -3402.113    22533331.178    93686151.80807
     -2646.077  
  21170918.645   113289858.16808     -3587.469    21170923.030    88114361.03107
     -2790.258  
  19284043.677   102903396.88108      -422.848           0.000           0.0000 
         0.000  
  22431246.034   119823693.09305      3679.003    22431250.299    93196230.66305
      2861.448  
  21103399.352   112968188.21607      2675.183    21103403.623    87864161.16308
      2080.694  
  20317417.924   108455768.59408       241.180    20317419.738    84354500.70904
       187.582  
 20 10 02 06 43 50.0000000  0 15G13G27G15G18G20G23G24G10R15R 5R21R 6
                                R16R 7R22
  22366739.217   117538037.06048     -3023.008    22366738.525    91588101.73946
     -2355.594  
  23849748.510   125331272.96248      -197.539    23849750.606    97660743.98849
      -153.929  
  20353311.100   106957431.57849     -1472.199    20353310.680    83343468.76349
     -1147.172  
  20640544.925   108466824.67249     -1376.687    20640544.726    84519598.57148
     -1072.742  
  20557721.975   108031603.32049      1722.054    20557720.742    84180479.54748
      1341.855  
  20889658.926   109775938.14649      1823.172    20889658.886    85539714.53748
      1420.648  
  22010356.468   115665224.35348      2982.289    22010358.549    90128756.93849
      2323.863  
  23277592.356   122324583.48748      3018.433    23277594.290    95317864.33249
      2352.026  
  21699289.062   115954426.16508       273.882    21699292.461    90186803.22707
       213.020  
  22536510.148   120470580.51906     -3402.551    22536513.839    93699383.75507
     -2646.520  
  21174271.766   113307801.36207     -3589.797    21174276.151    88128316.84207
     -2792.065  
  19284440.906   102905516.57008      -424.902           0.000           0.0000 
         0.000  
  22427803.037   119805301.22406      3677.354    22427807.250    93181925.87605
      2860.163  
  21100901.171   112954815.91007      2673.890    21100905.533    87853760.47307
      2079.688  
  20317194.171   108454574.21508       236.581    20317196.050    84353571.74504
       184.008  
 20 10 02 06 43 55.0000000  0 15G13G27G15G18G20G23G24G10R15R 5R21R 6
                                R16R 7R22
  22369616.090   117553155.09648     -3024.608    22369615.300    91599882.02746
     -2356.843  
  23849938.260   125332269.73248      -201.098    23849940.232    97661520.69449
      -156.703  
  20354713.095   106964799.14449     -1474.827    20354712.672    83349209.71949
     -1149.219  
  20641856.257   108473715.76749     -1379.859    20641856.033    84524968.25048
     -1075.219  
  20556084.405   108022997.82949      1719.977    20556083.171    84173773.96748
      1340.237  
  20887925.019   109766826.40449      1821.457    20887924.991    85532614.46448
      1419.312  
  22007519.976   115650318.48748      2980.136    22007522.058    90117141.98349
      2322.184  
  23274720.626   122309492.75548      3017.594    23274722.534    95306105.31449
      2351.370  
  21699034.869   115953067.95708       269.367    21699038.265    90185746.82808
       209.503  
  22539692.813   120487594.43606     -3402.949    22539696.727    93712616.80107
     -2646.741  
  21177627.371   113325757.76208     -3592.964    21177631.721    88142282.91107
     -2794.530  
  19284840.193   102907647.24508      -427.440           0.000           0.0000 
         0.000  
  22424361.755   119786918.76105      3675.706    22424365.916    93167628.43405
      2858.886  
  21098404.354   112941450.25307      2672.203    21098408.699    87843364.95608
      2078.375  
  20316974.682   108453402.53508       231.887    20316976.588    84352660.44904
       180.354  
 20 10 02 06 44  0.0000000  0 15G13G27G15G18G20G23G24G10R15R 5R21R 6
                                R16R 7R22
  22372494.710   117568282.47348     -3026.124    22372493.897    91611669.58946
     -2358.022  
  23850131.567   125333285.37947      -204.933    23850133.458    97662312.10849
      -159.690  
  20356117.945   106972181.68049     -1477.702    20356117.530    83354962.34649
     -1151.460  
  20643170.940   108480624.62849     -1383.265    20643170.768    84530351.77348
     -1077.875  
  20554449.129   108014404.49349      1717.801    20554447.914    84167077.86248
      1338.543  
  20886193.227   109757725.83449      1819.245    20886193.191    85525523.12848
      1417.594  
  22004685.953   115635425.72048      2977.453    22004688.068    90105537.23449
      2320.093  
  23271849.970   122294407.48048      3016.609    23271851.904    95294350.56749
      2350.605  
  21698785.283   115951734.53108       264.469    21698788.719    90184709.72607
       205.699  
  22542876.510   120504613.40306     -3403.785    22542880.532    93725853.75507
     -2647.395  
  21180986.089   113343730.72008     -3596.129    21180990.482    88156261.88407
     -2796.992  
  19285242.209   102909792.44908      -430.233           0.000           0.0000 
         0.000  
  22420922.916   119768549.13305      3673.004    22420926.978    93153340.94905
      2856.780  
  21095909.458   112928094.82107      2670.434    21095913.816    87832977.40208
      2076.999  
  20316760.062   108452256.84708       226.816    20316762.021    84351769.35404
       176.409  
 20 10 02 06 44  5.0000000  0 15G13G27G15G18G20G23G24G10R15R 5R21R 6
                                R16R 7R22
  22375374.500   117583415.86848     -3027.492    22375373.731    91623461.83946
     -2359.089  
  23850327.850   125334316.50847      -208.261    23850329.638    97663115.58949
      -162.280  
  20357525.020   106979575.81549     -1480.124    20357524.572    83360724.01149
     -1153.347  
  20644488.380   108487547.91549     -1386.262    20644488.241    84535746.54648
     -1080.202  
  20552815.545   108005820.01049      1715.832    20552814.343    84160388.66348
      1337.012  
  20884462.946   109748633.11549      1817.535    20884462.873    85518437.89248
      1416.258  
  22001853.811   115620542.84148      2975.688    22001855.935    90093940.18749
      2318.719  
  23268979.757   122279324.28648      3016.414    23268981.684    95282597.43349
      2350.452  
  21698539.763   115950422.51108       260.043    21698543.178    90183689.27108
       202.253  
  22546060.471   120521633.80906     -3404.121    22546064.580    93739091.84606
     -2647.652  
  21184347.206   113361716.79607     -3598.749    21184351.691    88170251.04907
     -2799.031  
  19285646.318   102911948.82008      -432.601           0.000           0.0000 
         0.000  
  22417485.774   119750188.78705      3670.987    22417489.832    93139060.68705
      2855.214  
  21093415.924   112914746.10907      2668.977    21093420.244    87822595.06108
      2075.867  
  20316549.743   108451133.83908       222.292    20316551.673    84350895.90204
       172.890  
 20 10 02 06 44 10.0000000  0 15G13G27G15G18G20G23G24G10R15R 5R21R 6
                                R16R 7R22
  22378255.915   117598557.81148     -3028.824    22378255.148    91635260.76046
     -2360.125  
  23850527.555   125335365.77948      -211.214    23850529.237    97663933.19549
      -164.585  
  20358934.800   106986984.16349     -1482.800    20358934.319    83366496.74849
     -1155.433  
  20645809.069   108494488.21749     -1389.418    20645808.959    84541154.56948
     -1082.668  
  20551184.179   107997247.00049      1713.703    20551182.960    84153708.39248
      1335.351  
  20882734.619   109739550.82249      1815.597    20882734.555    85511360.78048
      1414.749  
  21999024.068   115605672.56448      2973.077    21999026.232    90082352.96249
      2316.684  
  23266110.454   122264245.80748      3015.496    23266112.318    95270847.98449
      2349.737  
  21698298.731   115949134.47708       255.520    21698302.146    90182687.45807
       198.733  
  22549245.158   120538658.38206     -3405.159    22549249.418    93752333.18707
     -2648.457  
  21187711.162   113379718.59907     -3601.488    21187715.841    88184252.45207
     -2801.159  
  19286053.009   102914118.90408      -435.112           0.000           0.0000 
         0.000  
  22414050.895   119731840.56205      3668.453    22414054.964    93124789.86005
      2853.241  
  21090924.110   112901406.76707      2667.207    21090928.406    87812220.02908
      2074.496  
  20316344.089   108450036.13708       217.395    20316346.036    84350042.13204
       169.081  
 20 10 02 06 44 15.0000000  0 15G13G27G15G18G20G23G24G10R15R 5R21R 6
                                R16R 7R22
  22381138.407   117613705.43948     -3030.289    22381137.636    91647064.10046
     -2361.269  
  23850730.183   125336430.27947      -214.750    23850731.727    97664762.67349
      -167.340  
  20360346.747   106994403.83749     -1485.309    20360346.235    83372278.31149
     -1157.387  
  20647132.420   108501442.63149     -1392.531    20647132.348    84546573.59448
     -1085.089  
  20549554.441   107988682.54449      1711.827    20549553.207    84147034.79448
      1333.886  
  20881007.747   109730476.07949      1813.894    20881007.660    85504289.55748
      1413.425  
  21996196.129   115590811.89348      2971.059    21996198.351    90070773.23349
      2315.108  
  23263241.492   122249168.93848      3015.059    23263243.243    95259099.78949
      2349.395  
  21698061.713   115947867.61708       250.929    21698065.070    90181702.12307
       195.163  
  22552430.160   120555684.23206     -3405.847    22552434.550    93765575.50206
     -2648.995  
  21191077.567   113397733.25807     -3604.366    21191082.399    88198263.84407
     -2803.402  
  19286461.727   102916299.74808      -437.608           0.000           0.0000 
         0.000  
  22410617.729   119713501.39105      3666.828    22410621.803    93110526.06005
      2851.976  
  21088433.550   112888073.85407      2665.805    21088437.804    87801849.98608
      2073.401  
  20316142.598   108448960.72208       212.745    20316144.612    84349205.69704
       165.469  
 20 10 02 06 44 20.0000000  0 15G13G27G15G18G20G23G24G10R15R 5R21R 6
                                R16R 7R22
  22384022.417   117628861.20048     -3031.890    22384021.659    91658873.78446
     -2362.515  
  23850936.187   125337512.43448      -218.253    23850937.557    97665605.91548
      -170.065  
  20361761.304   107001837.29049     -1488.094    20361760.775    83378070.61549
     -1159.559  
  20648458.934   108508413.60249     -1395.754    20648458.894    84552005.51948
     -1087.605  
  20547926.796   107980129.08749      1709.698    20547925.539    84140369.76348
      1332.234  
  20879282.784   109721411.34049      1812.020    20879282.651    85497226.12048
      1411.964  
  21993370.515   115575963.25748      2968.410    21993372.759    90059202.87449
      2313.047  
  23260373.397   122234096.55548      3014.098    23260375.058    95247355.08149
      2348.648  
  21697829.043   115946624.26308       246.429    21697832.412    90180735.08507
       191.668  
  22555616.018   120572713.84107     -3406.542    22555620.377    93778820.73806
     -2649.559  
  21194446.763   113415763.15907     -3607.429    21194451.792    88212287.10207
     -2805.777  
  19286872.911   102918493.90208      -439.949           0.000           0.0000 
         0.000  
  22407186.711   119695173.91405      3664.387    22407190.854    93096271.36105
      2850.078  
  21085944.693   112874750.06107      2663.898    21085948.860    87791487.03708
      2071.922  
  20315945.797   108447910.21408       207.562    20315947.870    84348388.64004
       161.437  
 20 10 02 06 44 25.0000000  0 15G13G27G15G18G20G23G24G10R15R 5R21R 6
                                R16R 7R22
  22386907.740   117644023.89348     -3033.648    22386907.035    91670688.85546
     -2363.886  
  23851145.306   125338611.20747      -221.988    23851146.546    97666462.09949
      -172.980  
  20363178.278   107009283.44549     -1490.917    20363177.723    83383872.81049
     -1161.758  
  20649788.397   108515400.07149     -1399.141    20649788.375    84557449.51848
     -1090.242  
  20546301.029   107971585.59549      1707.296    20546299.742    84133712.49348
      1330.354  
  20877559.517   109712355.57049      1809.855    20877559.372    85490169.67848
      1410.277  
  21990547.036   115561125.64748      2965.941    21990549.241    90047641.10449
      2311.125  
  23257505.895   122219027.41848      3013.147    23257507.459    95235612.89949
      2347.906  
  21697600.558   115945403.43308       241.578    21697603.982    90179785.55608
       187.894  
  22558802.287   120589745.99607     -3407.098    22558806.636    93792067.96006
     -2649.879  
  21197818.651   113433807.18808     -3610.797    21197823.813    88226321.35907
     -2808.398  
  19287286.363   102920700.22608      -442.902           0.000           0.0000 
         0.000  
  22403757.617   119676857.12205      3661.723    22403761.945    93082024.97504
      2848.008  
  21083457.194   112861433.99907      2662.004    21083461.346    87781130.10408
      2070.445  
  20315753.453   108446883.56408       202.555    20315755.598    84347590.13804
       157.543  
 20 10 02 06 44 30.0000000  0 15G13G27G15G18G20G23G24G10R15R 5R21R 6
                                R16R 7R22
  22389794.559   117659194.22848     -3035.011    22389793.868    91682509.89246
     -2364.948  
  23851357.674   125339727.14747      -225.102    23851358.820    97667331.66849
      -175.402  
  20364597.755   107016742.84849     -1493.210    20364597.193    83389685.33449
     -1163.539  
  20651120.962   108522402.62149     -1402.180    20651120.947    84562906.05348
     -1092.608  
  20544677.263   107963052.64349      1705.477    20544675.961    84127063.44148
      1328.941  
  20875838.073   109703309.32149      1808.371    20875837.893    85483120.66248
      1409.121  
  21987725.772   115546299.77548      2963.906    21987727.979    90036088.47349
      2309.538  
  23254639.085   122203962.07748      3012.577    23254640.606    95223873.67649
      2347.465  
  21697376.427   115944205.68508       237.112    21697379.965    90178853.96508
       184.417  
  22561989.154   120606781.37306     -3407.371    22561993.439    93805317.71906
     -2650.176  
  21201193.342   113451865.96907     -3613.366    21201198.554    88240367.06207
     -2810.401  
  19287702.281   102922919.42708      -445.031           0.000           0.0000 
         0.000  
  22400330.741   119658551.36805      3659.800    22400335.073    93067787.18505
      2846.511  
  21080971.299   112848126.43507      2660.663    21080975.412    87770779.77908
      2069.401  
  20315565.723   108445881.19908       198.089    20315567.897    84346810.52405
       154.070  
 20 10 02 06 44 35.0000000  0 15G13G27G15G18G20G23G24G10R15R 5R21R 6
                                R16R 7R22
  22392682.607   117674371.11648     -3035.727    22392681.940    91694336.03346
     -2365.504  
  23851573.142   125340859.21747      -227.973    23851574.207    97668213.79749
      -177.645  
  20366019.568   107024214.46349     -1495.273    20366018.977    83395507.36549
     -1165.152  
  20652456.339   108529420.17049     -1404.781    20652456.371    84568374.26848
     -1094.637  
  20543055.296   107954529.21449      1703.859    20543053.984    84120421.81348
      1327.683  
  20874118.238   109694271.56049      1806.984    20874118.048    85476078.24948
      1408.035  
  21984906.520   115531484.41248      2962.465    21984908.724    90024544.03449
      2308.410  
  23251772.817   122188899.48548      3012.491    23251774.267    95212136.59149
      2347.397  
  21697156.427   115943029.97608       233.097    21697159.992    90177939.52208
       181.293  
  22565176.455   120623818.88507     -3407.136    22565180.625    93818569.10806
     -2649.999  
  21204570.588   113469938.38808     -3615.604    21204575.877    88254423.38207
     -2812.140  
  19288120.330   102925150.24508      -447.000           0.000           0.0000 
         0.000  
  22396905.723   119640255.84705      3658.382    22396910.111    93053557.32605
      2845.406  
  21078486.696   112834826.22507      2659.468    21078490.891    87760435.18308
      2068.476  
  20315382.290   108444902.11508       193.667    20315384.528    84346049.01804
       150.625  
 20 10 02 06 44 40.0000000  0 15G13G27G15G18G20G23G24G10R15R 5R21R 6
                                R16R 7R22
  22395571.782   117689553.83548     -3037.168    22395571.108    91706166.72146
     -2366.629  
  23851791.506   125342006.60147      -231.038    23851792.485    97669107.86049
      -180.034  
  20367443.582   107031697.58449     -1497.809    20367442.954    83401338.37549
     -1167.124  
  20653794.456   108536451.95849     -1407.715    20653794.500    84573853.58748
     -1096.926  
  20541434.971   107946014.47449      1702.047    20541433.660    84113786.95148
      1326.265  
  20872399.892   109685241.52549      1805.234    20872399.666    85469041.85348
      1406.676  
  21982089.174   115516678.96948      2960.047    21982091.358    90013007.32849
      2306.526  
  23248906.942   122173838.89748      3011.805    23248908.306    95200401.08749
      2346.858  
  21696940.449   115941875.54608       228.813    21696943.969    90177041.62408
       177.961  
  22568364.029   120640857.76707     -3407.987    22568368.055    93831821.57006
     -2650.574  
  21207950.359   113488023.60207     -3618.359    21207955.552    88268489.65107
     -2814.284  
  19288540.406   102927391.88308      -449.312           0.000           0.0000 
         0.000  
  22393482.451   119621969.74805      3656.276    22393486.894    93039334.81005
      2843.769  
  21076003.341   112821532.72407      2657.925    21076007.606    87750095.79308
      2067.277  
  20315203.099   108443945.48808       188.859    20315205.394    84345304.97404
       146.891  
 20 10 02 06 44 45.0000000  0 15G13G27G15G18G20G23G24G10R15R 5R21R 6
                                R16R 7R22
  22398462.512   117704744.78648     -3038.862    22398461.836    91718003.83246
     -2367.944  
  23852013.260   125343171.86747      -234.565    23852014.182    97670015.85949
      -182.780  
  20368870.246   107039194.63149     -1500.718    20368869.595    83407180.23149
     -1169.391  
  20655135.782   108543500.48849     -1411.315    20655135.796    84579345.93848
     -1099.729  
  20539816.784   107937510.96649      1699.694    20539815.480    84107160.83748
      1324.434  
  20870683.492   109676221.72149      1802.956    20870683.255    85462013.43948
      1404.901  
  21979274.204   115501885.95548      2957.242    21979276.347    90001480.30049
      2304.343  
  23246041.907   122158782.78748      3010.926    23246043.233    95188669.05849
      2346.175  
  21696728.853   115940744.84108       223.828    21696732.337    90176162.19108
       174.090  
  22571552.321   120657900.57807     -3408.741    22571556.244    93845077.09406
     -2651.246  
  21211332.936   113506124.26407     -3621.695    21211338.093    88282567.94307
     -2816.879  
  19288963.001   102929647.27308      -452.227           0.000           0.0000 
         0.000  
  22390061.505   119603695.67206      3653.983    22390065.950    93025121.64405
      2841.987  
  21073521.734   112808248.36208      2656.047    21073526.015    87739763.52008
      2065.812  
  20315028.574   108443013.98308       183.852    20315030.914    84344580.46704
       142.995  
 20 10 02 06 44 50.0000000  0 15G13G27G15G18G20G23G24G10R15R 5R21R 6
                                R16R 7R22
  22401354.732   117719943.41148     -3040.190    22401354.046    91729846.91746
     -2368.980  
  23852238.296   125344354.37747      -237.844    23852239.194    97670937.30949
      -185.332  
  20370299.440   107046704.96849     -1503.128    20370298.764    83413032.43949
     -1171.272  
  20656480.181   108550565.16349     -1414.308    20656480.151    84584850.88048
     -1102.062  
  20538200.632   107929018.12549      1697.875    20538199.347    84100543.04048
      1323.016  
  20868968.928   109667211.56749      1801.348    20868968.642    85454992.54248
      1403.647  
  21976461.466   115487104.66548      2955.195    21976463.578    89989962.41649
      2302.749  
  23243177.615   122143730.61548      3010.175    23243178.898    95176940.08949
      2345.590  
  21696521.653   115939637.40608       219.359    21696525.103    90175300.85208
       170.609  
  22574741.223   120674946.61707     -3409.344    22574745.088    93858335.12506
     -2651.715  
  21214718.306   113524239.68607     -3624.257    21214723.325    88296657.71707
     -2818.871  
  19289387.986   102931915.36008      -454.672           0.000           0.0000 
         0.000  
  22386642.659   119585432.77806      3651.672    22386647.033    93010917.18205
      2840.188  
  21071041.754   112794972.73907      2654.543    21071046.011    87729438.04108
      2064.645  
  20314858.620   108442106.94708       179.261    20314861.020    84343875.00204
       139.425  
 20 10 02 06 44 55.0000000  0 15G13G27G15G18G20G23G24G10R15R 5R21R 6
                                R16R 7R22
  22404248.208   117735148.75848     -3042.297    22404247.509    91741695.22946
     -2370.625  
  23852466.455   125345553.20247      -241.718    23852467.308    97671871.43049
      -188.354  
  20371730.987   107054227.64149     -1506.132    20371730.281    83418894.26349
     -1173.612  
  20657827.470   108557644.99849     -1417.784    20657827.385    84590367.63848
     -1104.769  
  20536586.336   107920534.97349      1695.214    20536585.020    84093932.79748
      1320.945  
  20867256.006   109658210.10049      1799.152    20867255.689    85447978.41048
      1401.934  
  21973650.730   115472334.02148      2952.909    21973652.848    89978452.82449
      2300.965  
  23240313.855   122128681.39248      3009.296    23240315.121    95165213.42849
      2344.902  
  21696318.564   115938552.16008       214.452    21696321.977    90174456.77407
       166.796  
  22577930.585   120691994.99307     -3410.313    22577934.402    93871594.95106
     -2652.469  
  21218106.180   113542368.79407     -3627.386    21218111.137    88310758.13207
     -2821.305  
  19289815.195   102934195.37308      -457.543           0.000           0.0000 
         0.000  
  22383225.769   119567180.49006      3648.801    22383230.114    92996720.95805
      2837.956  
  21068563.177   112781704.50508      2652.464    21068567.325    87719118.29707
      2063.022  
  20314693.166   108441223.45908       174.030    20314695.459    84343187.84104
       135.354  
 20 10 02 06 45  0.0000000  0 15G13G27G15G18G20G23G24G10R15R 5R21R 6
                                R16R 7R22
  22407143.223   117750362.35548     -3043.382    22407142.575    91753549.97646
     -2371.472  
  23852697.963   125346769.88047      -244.910    23852698.869    97672819.50949
      -190.839  
  20373165.167   107061764.21849     -1508.645    20373164.458    83424766.91449
     -1175.569  
  20659177.949   108564741.59249     -1420.781    20659177.857    84595897.44148
     -1107.104  
  20534974.169   107912063.10549      1693.323    20534972.877    84087331.34348
      1319.469  
  20865545.037   109649218.92649      1797.402    20865544.706    85440972.31348
      1400.573  
  21970842.383   115457576.02748      2950.487    21970844.497    89966953.09349
      2299.081  
  23237450.861   122113636.72648      3008.792    23237452.232    95153490.31649
      2344.516  
  21696119.905   115937490.77408       210.055    21696123.306    90173631.24507
       163.371  
  22581120.685   120709047.21607     -3410.573    22581124.418    93884857.76207
     -2652.671  
  21221496.916   113560513.27607     -3630.250    21221501.798    88324870.50207
     -2823.531  
  19290244.941   102936488.89008      -459.940           0.000           0.0000 
         0.000  
  22379811.152   119548940.12506      3646.831    22379815.495    92982534.01005
      2836.426  
  21066086.382   112768445.58808      2651.003    21066090.358    87708805.80907
      2061.886  
  20314532.334   108440364.95708       169.417    20314534.664    84342520.09204
       131.765  
 20 10 02 06 45  5.0000000  0 15G13G27G15G18G20G23G24G10R15R 5R21R 6
                                R16R 7R22
  22410039.734   117765583.59348     -3044.913    22410039.085    91765410.67046
     -2372.663  
  23852932.760   125348003.80647      -248.562    23852933.621    97673780.99648
      -193.683  
  20374601.856   107069314.03549     -1511.093    20374601.156    83430649.88949
     -1177.480  
  20660531.495   108571854.30649     -1424.163    20660531.341    84601439.82548
     -1109.741  
  20533364.017   107903601.88849      1691.206    20533362.792    84080738.18948
      1317.824  
  20863835.916   109640237.40549      1795.402    20863835.586    85433973.72348
      1399.012  
  21968036.252   115442829.86848      2948.285    21968038.416    89955462.56949
      2297.359  
  23234588.645   122098595.98848      3007.901    23234590.068    95141770.26349
      2343.820  
  21695925.633   115936452.67608       205.366    21695928.977    90172823.85307
       159.730  
  22584311.318   120726102.63506     -3411.367    22584315.046    93898123.14606
     -2653.285  
  21224890.397   113578672.41507     -3632.891    21224895.196    88338994.26007
     -2825.586  
  19290677.146   102938795.25308      -462.456           0.000           0.0000 
         0.000  
  22376398.677   119530711.23106      3644.480    22376402.956    92968355.95605
      2834.593  
  21063611.100   112755195.18207      2649.226    21063615.035    87698499.94308
      2060.508  
  20314376.101   108439531.00708       164.492    20314378.441    84341871.48104
       127.937  
 20 10 02 06 45 10.0000000  0 15G13G27G15G18G20G23G24G10R15R 5R21R 6
                                R16R 7R22
  22412937.393   117780810.82948     -3045.879    22412936.697    91777276.06446
     -2373.413  
  23853170.543   125349253.30247      -251.179    23853171.467    97674754.62549
      -195.726  
  20376040.741   107076875.49049     -1513.269    20376040.052    83436541.93049
     -1179.175  
  20661887.782   108578981.45449     -1426.608    20661887.589    84606993.43548
     -1111.647  
  20531755.591   107895149.70849      1689.687    20531754.388    84074152.07548
      1316.636  
  20862128.324   109631263.88449      1794.151    20862127.966    85426981.36848
      1398.034  
  21965232.031   115428093.83548      2946.520    21965234.283    89943979.95849
      2295.988  
  23231726.862   122083557.50048      3007.742    23231728.328    95130051.97849
      2343.694  
  21695735.419   115935436.01208       201.324    21695738.573    90172033.11907
       156.585  
  22587502.220   120743159.58307     -3411.602    22587505.891    93911389.61907
     -2653.445  
  21228286.289   113596844.52007     -3635.527    21228291.028    88353128.12207
     -2827.637  
  19291111.456   102941112.81208      -464.332           0.000           0.0000 
         0.000  
  22372988.078   119512492.17506      3643.090    22372992.326    92954185.61305
      2833.516  
  21061137.043   112741951.64207      2648.120    21061140.950    87688199.42307
      2059.647  
  20314224.125   108438719.78008       160.168    20314226.433    84341240.52504
       124.569  
 20 10 02 06 45 15.0000000  0 15G13G27G15G18G20G23G24G10R15R 5R21R 6
                                R16R 7R22
  22415836.316   117796044.77448     -3047.434    22415835.556    91789146.65646
     -2374.628  
  23853411.340   125350519.13647      -255.187    23853412.455    97675740.99249
      -198.851  
  20377481.977   107084449.26749     -1515.933    20377481.279    83442443.57549
     -1181.250  
  20663246.957   108586123.78049     -1429.952    20663246.712    84612558.87748
     -1114.253  
  20530149.014   107886707.27349      1687.586    20530147.846    84067573.55448
      1315.004  
  20860422.378   109622299.11249      1792.148    20860422.004    85419995.83148
      1396.477  
  21962429.862   115413368.74548      2944.117    21962432.202    89932505.87349
      2294.116  
  23228865.658   122068522.02248      3006.593    23228867.166    95118336.03249
      2342.800  
  21695549.307   115934441.57708       196.813    21695552.374    90171259.67607
       153.077  
  22590693.587   120760218.83207     -3412.027    22590697.155    93924657.92806
     -2653.804  
  21231684.751   113615030.28407     -3638.300    21231689.397    88367272.60207
     -2829.792  
  19291547.981   102943442.12808      -466.878           0.000           0.0000 
         0.000  
  22369579.479   119494283.61106      3640.550    22369583.601    92940023.40105
      2831.538  
  21058664.466   112728715.83507      2646.430    21058668.278    87677904.90808
      2058.332  
  20314076.494   108437932.02808       155.180    20314078.800    84340627.82604
       120.691  
 20 10 02 06 45 20.0000000  0 15G13G27G15G18G20G23G24G10R15R 5R21R 6
                                R16R 7R22
  22418736.965   117811287.72248     -3049.426    22418736.177    91801024.27846
     -2376.175  
  23853655.677   125351803.57447      -259.116    23853656.958    97676741.84849
      -201.913  
  20378926.014   107092037.73449     -1519.098    20378925.285    83448356.66549
     -1183.715  
  20664609.476   108593283.67849     -1433.862    20664609.171    84618138.01448
     -1117.300  
  20528544.747   107878276.98149      1684.832    20528543.632    84061004.50348
      1312.851  
  20858718.547   109613345.45249      1789.648    20858718.194    85413018.95248
      1394.527  
  21959630.253   115398656.95048      2940.770    21959632.635    89921042.14649
      2291.508  
  23226005.423   122053491.91848      3005.456    23226007.003    95106624.26449
      2341.913  
  21695367.856   115933471.83308       191.527    21695370.806    90170505.41707
       148.961  
  22593885.801   120777282.88707     -3413.188    22593889.323    93937929.96606
     -2654.707  
  21235086.173   113633232.16407     -3642.108    21235090.776    88381429.61007
     -2832.754  
  19291987.206   102945785.76508      -470.160           0.000           0.0000 
         0.000  
  22366173.207   119476087.98206      3637.804    22366177.253    92925871.25405
      2829.401  
  21056193.683   112715490.10207      2644.270    21056197.510    87667618.22808
      2056.647  
  20313933.707   108437170.22908       149.632    20313936.069    84340035.32404
       116.383  
 20 10 02 06 45 25.0000000  0 15G13G27G15G18G20G23G24G10R15R 5R21R 6
                                R16R 7R22
  22421638.974   117826537.79248     -3050.222    22421638.116    91812907.45145
     -2376.800  
  23853903.231   125353104.76147      -261.854    23853904.664    97677755.75549
      -204.046  
  20380372.495   107099638.98349     -1521.027    20380371.723    83454279.71249
     -1185.219  
  20665974.954   108600459.15749     -1436.250    20665974.598    84623729.30348
     -1119.156  
  20526942.402   107869856.88149      1683.512    20526941.347    84054443.38048
      1311.827  
  20857016.447   109604401.00849      1788.440    20857016.117    85406049.26248
      1393.590  
  21956832.808   115383956.56148      2939.362    21956835.241    89909587.31549
      2290.414  
  23223145.844   122038465.32148      3005.594    23223147.522    95094915.23449
      2342.016  
  21695190.650   115932524.83708       187.613    21695193.568    90169768.87307
       145.921  
  22597078.495   120794349.60507     -3412.976    22597081.970    93951204.09006
     -2654.538  
  21238490.265   113651448.15107     -3644.309    21238494.799    88395597.59307
     -2834.465  
  19292428.739   102948141.77308      -471.926           0.000           0.0000 
         0.000  
  22362768.985   119457903.42706      3636.202    22362772.957    92911727.69605
      2828.151  
  21053724.432   112702272.41507      2643.176    21053728.244    87657337.79807
      2055.800  
  20313795.414   108436432.35508       145.590    20313797.817    84339461.42204
       113.234  
 20 10 02 06 45 30.0000000  0 15G13G27G15G18G20G23G24G10R15R 5R21R 6
                                R16R 7R22
  22424541.773   117841791.94648     -3051.796    22424540.910    91824793.78446
     -2378.027  
  23854153.418   125354419.78647      -265.116    23854154.974    97678780.45149
      -206.590  
  20381820.832   107107250.01049     -1523.805    20381820.023    83460210.38049
     -1187.379  
  20667342.843   108607647.30549     -1439.511    20667342.440    84629330.45048
     -1121.703  
  20525341.463   107861444.04949      1681.265    20525340.461    84047887.92848
      1310.077  
  20855315.533   109595462.80149      1786.414    20855315.233    85399084.42648
      1392.008  
  21954037.002   115369264.59348      2936.960    21954039.452    89898139.02749
      2288.538  
  23220286.384   122023439.19248      3004.703    23220288.130    95083206.56049
      2341.323  
  21695017.047   115931597.50007       183.190    21695020.097    90169047.61008
       142.476  
  22600271.100   120811416.03206     -3413.944    22600274.581    93964477.96806
     -2655.289  
  21241896.414   113669675.20307     -3646.957    21241900.824    88409774.18507
     -2836.526  
  19292872.013   102950507.16708      -474.633           0.000           0.0000 
         0.000  
  22359366.335   119439726.79906      3633.664    22359370.244    92897590.33805
      2826.183  
  21051256.190   112689059.81907      2641.359    21051259.986    87647061.35008
      2054.391  
  20313661.105   108435715.53208       140.690    20313663.517    84338903.89104
       109.421  
 20 10 02 06 45 35.0000000  0 15G13G27G15G18G20G23G24G10R15R 5R21R 6
                                R16R 7R22
  22427446.037   117857053.89248     -3053.343    22427445.158    91836686.22545
     -2379.230  
  23854406.945   125355752.26447      -268.383    23854408.617    97679818.76349
      -209.129  
  20383271.759   107114874.56149     -1526.406    20383270.898    83466151.59649
     -1189.405  
  20668713.868   108614851.84149     -1442.757    20668713.402    84634944.37148
     -1124.229  
  20523742.647   107853042.21649      1678.991    20523741.655    84041341.05148
      1308.305  
  20853616.525   109586534.58149      1784.457    20853616.228    85392127.37848
      1390.484  
  21951243.558   115354584.88448      2934.405    21951245.995    89886700.28649
      2286.546  
  23217427.714   122008417.34548      3003.695    23217429.595    95071501.24549
      2340.542  
  21694847.867   115930693.76408       178.195    21694851.051    90168344.70508
       138.598  
  22603464.478   120828485.90907     -3414.522    22603467.829    93977754.52706
     -2655.746  
  21245305.315   113687917.07707     -3649.835    21245309.687    88423962.31207
     -2838.762  
  19293317.749   102952885.57408      -477.253           0.000           0.0000 
         0.000  
  22355965.927   119421562.08807      3631.499    22355969.689    92883462.22905
      2824.499  
  21048789.591   112675856.13907      2639.714    21048793.428    87636791.82208
      2053.113  
  20313531.436   108435023.44208       135.637    20313533.780    84338365.58804
       105.491  
 20 10 02 06 45 40.0000000  0 15G13G27G15G18G20G23G24G10R15R 5R21R 6
                                R16R 7R22
  22430352.019   117872324.93248     -3054.960    22430351.134    91848585.74046
     -2380.492  
  23854664.041   125357103.53347      -271.914    23854665.829    97680871.69349
      -211.886  
  20384725.510   107122513.85349     -1529.171    20384724.591    83472104.29049
     -1191.562  
  20670088.210   108622073.96349     -1446.191    20670087.703    84640572.00048
     -1126.906  
  20522146.150   107844652.62749      1676.788    20522145.184    84034803.70848
      1306.589  
  20851919.653   109577617.58449      1782.297    20851919.349    85385179.06748
      1388.804  
  21948452.667   115339918.59048      2931.866    21948455.095    89875272.01749
      2284.570  
  23214570.058   121993400.97948      3002.784    23214572.060    95059800.17949
      2339.832  
  21694683.321   115929814.76108       173.387    21694686.654    90167661.03208
       134.852  
  22606658.676   120845560.63107     -3415.116    22606662.046    93991034.86306
     -2656.206  
  21248717.218   113706175.10907     -3653.195    21248721.529    88438162.99407
     -2841.378  
  19293766.129   102955278.15708      -479.832           0.000           0.0000 
         0.000  
  22352567.906   119403410.46906      3629.194    22352571.669    92869344.30905
      2822.707  
  21046324.921   112662662.69507      2637.800    21046328.760    87626530.25708
      2051.621  
  20313406.645   108434357.42208       130.730    20313408.968    84337847.57804
       101.675  
 20 10 02 06 45 45.0000000  0 15G13G27G15G18G20G23G24G10R15R 5R21R 6
                                R16R 7R22
  22433259.280   117887602.53848     -3055.848    22433258.361    91860490.35045
     -2381.183  
  23854924.283   125358471.01947      -275.000    23854926.089    97681937.25749
      -214.288  
  20386181.596   107130165.35449     -1531.108    20386180.631    83478066.49849
     -1193.073  
  20671465.426   108629311.18649     -1448.675    20671464.893    84646211.39248
     -1128.843  
  20520551.517   107836272.77749      1675.347    20520550.597    84028273.95548
      1305.460  
  20850224.457   109568709.29849      1781.211    20850224.129    85378237.54948
      1387.956  
  21945663.853   115325263.24048      2930.438    21945666.268    89863852.26849
      2283.457  
  23211712.945   121978387.59548      3002.507    23211715.118    95048101.44749
      2339.616  
  21694522.901   115928957.96508       169.266    21694526.405    90166994.65908
       131.652  
  22609853.277   120862637.51007     -3415.480    22609856.629    94004316.88006
     -2656.461  
  21252131.605   113724446.62307     -3655.257    21252135.923    88452374.16907
     -2842.980  
  19294216.713   102957682.68208      -481.534           0.000           0.0000 
         0.000  
  22349171.919   119385269.62207      3627.457    22349175.657    92855234.75905
      2821.352  
  21043861.680   112649476.77207      2636.796    21043865.477    87616274.55207
      2050.844  
  20313286.245   108433714.75008       126.464    20313288.602    84337347.71605
        98.358  
 20 10 02 06 45 50.0000000  0 15G13G27G15G18G20G23G24G10R15R 5R21R 6
                                R16R 7R22
  22436167.422   117902884.86348     -3056.929    22436166.440    91872398.66445
     -2382.023  
  23855187.200   125359852.94247      -278.023    23855189.119    97683014.07249
      -216.644  
  20387639.664   107137827.30449     -1533.660    20387638.652    83484036.85049
     -1195.062  
  20672845.181   108636561.69649     -1451.636    20672844.610    84651861.13348
     -1131.148  
  20518958.394   107827900.88749      1673.354    20518957.526    84021750.40848
      1303.910  
  20848530.569   109559807.94949      1779.531    20848530.236    85371301.43548
      1386.647  
  21942876.771   115310617.02548      2927.949    21942879.217    89852439.63649
      2281.519  
  23208856.153   121963375.42648      3002.254    23208858.355    95036403.63849
      2339.414  
  21694366.317   115928121.56808       164.851    21694369.922    90166344.12607
       128.215  
  22613047.980   120879714.74707     -3415.827    22613051.300    94017599.19706
     -2656.750  
  21255548.222   113742729.84607     -3658.035    21255552.557    88466594.45007
     -2845.140  
  19294669.233   102960097.32608      -483.972           0.000           0.0000 
         0.000  
  22345777.576   119367137.40206      3625.511    22345781.260    92841131.92505
      2819.844  
  21041399.494   112636296.59107      2634.961    21041403.225    87606023.30008
      2049.414  
  20313169.924   108433093.85408       121.800    20313172.312    84336864.80204
        94.734  
 20 10 02 06 45 55.0000000  0 15G13G27G15G18G20G23G24G10R15R 5R21R 6
                                R16R 7R22
  22439077.329   117918176.55648     -3059.230    22439076.306    91884314.26646
     -2383.819  
  23855453.730   125361253.93747      -282.159    23855455.773    97684105.75649
      -219.867  
  20389100.603   107145504.34149     -1536.839    20389099.544    83490018.96149
     -1197.538  
  20674228.342   108643830.13149     -1455.387    20674227.731    84657524.84648
     -1134.069  
  20517367.665   107819541.58249      1670.590    20517366.850    84015236.66548
      1301.758  
  20846838.861   109550918.18749      1776.890    20846838.547    85364374.34648
      1384.590  
  21940092.302   115295984.54148      2925.210    21940094.741    89841037.70449
      2279.387  
  23206000.505   121948369.05248      3000.742    23206002.746    95024710.36549
      2338.237  
  21694214.429   115927310.24008       159.750    21694218.113    90165713.08608
       124.245  
  22616243.558   120896797.04007     -3416.663    22616246.845    94030885.40306
     -2657.414  
  21258967.913   113761029.42807     -3661.394    21258972.258    88480827.43607
     -2847.754  
  19295124.493   102962526.52208      -487.047           0.000           0.0000 
         0.000  
  22342385.706   119349018.79406      3622.452    22342389.476    92827039.69405
      2817.465  
  21038939.178   112623126.94907      2633.073    21038942.951    87595780.24807
      2047.944  
  20313058.533   108432499.23908       116.320    20313060.896    84336402.31604
        90.468  
 20 10 02 06 46  0.0000000  0 15G13G27G15G18G20G23G24G10R15R 5R21R 6
                                R16R 7R22
  22441988.672   117933475.76948     -3060.308    22441987.606    91896235.74146
     -2384.659  
  23855723.592   125362672.13447      -285.008    23855725.640    97685210.84849
      -222.089  
  20390564.037   107153194.58249     -1539.003    20390562.949    83496011.35849
     -1199.226  
  20675614.567   108651114.66549     -1458.227    20675613.931    84663201.10548
     -1136.284  
  20515778.995   107811193.06849      1668.909    20515778.203    84008731.33048
      1300.448  
  20845149.023   109542038.14949      1775.308    20845148.743    85357454.84848
      1383.354  
  21937310.098   115281364.02748      2923.207    21937312.497    89829645.09749
      2277.819  
  23203145.602   121933366.71548      3000.472    23203147.895    95013020.22949
      2338.031  
  21694066.941   115926522.23208       155.624    21694070.615    90165100.17807
       121.039  
  22619439.776   120913882.52906     -3417.199    22619443.026    94044174.09306
     -2657.824  
  21262390.321   113779343.52007     -3663.984    21262394.669    88495071.72907
     -2849.769  
  19295582.134   102964968.58408      -489.387           0.000           0.0000 
         0.000  
  22338996.032   119330911.83107      3620.394    22338999.879    92812956.51605
      2815.863  
  21036480.533   112609965.97507      2631.671    21036484.265    87585543.93207
      2046.855  
  20312951.777   108431929.12308       111.895    20312954.094    84335958.89404
        87.022  
 20 10 02 06 46  5.0000000  0 15G13G27G15G18G20G23G24G10R15R 5R21R 6
                                R16R 7R22
  22444901.006   117948780.06548     -3061.581    22444899.878    91908161.16746
     -2385.651  
  23855996.257   125364105.12647      -288.452    23855998.322    97686327.46749
      -224.769  
  20392029.519   107160895.64849     -1541.558    20392028.414    83502012.19149
     -1201.215  
  20677003.348   108658412.82149     -1461.163    20677002.732    84668887.97848
     -1138.573  
  20514191.940   107802852.87649      1666.968    20514191.135    84002232.48948
      1298.938  
  20843460.589   109533165.43349      1773.604    20843460.312    85350541.03948
      1382.026  
  21934529.745   115266753.07848      2921.015    21934532.064    89818259.93949
      2276.112  
  23200291.025   121918365.93648      2999.886    23200293.367    95001331.31949
      2337.573  
  21693923.357   115925754.96308       150.894    21693926.965    90164503.41707
       117.363  
  22622636.103   120930968.79206     -3417.441    22622639.378    94057463.43206
     -2658.012  
  21265815.009   113797669.52908     -3666.671    21265819.318    88509325.27607
     -2851.858  
  19296041.733   102967421.02608      -491.730           0.000           0.0000 
         0.000  
  22335608.081   119312814.15707      3618.421    22335611.995    92798880.55405
      2814.327  
  21034023.020   112596811.09107      2630.120    21034026.772    87575312.36508
      2045.647  
  20312849.101   108431381.09208       107.070    20312851.474    84335532.64704
        83.272  
 20 10 02 06 46 10.0000000  0 15G13G27G15G18G20G23G24G10R15R 5R21R 6
                                R16R 7R22
  22447814.813   117964092.21948     -3062.983    22447813.637    91920092.70945
     -2386.746  
  23856272.260   125365555.65547      -291.729    23856274.348    97687457.74549
      -227.324  
  20393497.575   107168610.27049     -1544.070    20393496.465    83508023.58549
     -1203.176  
  20678395.249   108665727.37149     -1464.331    20678394.667    84674587.62748
     -1141.043  
  20512606.990   107794523.75249      1664.910    20512606.178    83995742.26248
      1297.332  
  20841774.079   109524302.79249      1771.664    20841773.813    85343635.07648
      1380.512  
  21931751.697   115252154.36748      2918.761    21931753.978    89806884.32849
      2274.359  
  23197437.269   121903369.50448      2999.050    23197439.651    94989645.79749
      2336.922  
  21693784.209   115925011.21308       146.602    21693787.732    90163924.95507
       114.023  
  22625833.147   120948058.54607     -3418.156    22625836.323    94070755.45206
     -2658.566  
  21269242.465   113816010.35307     -3669.390    21269246.782    88523590.35207
     -2853.973  
  19296503.740   102969886.51308      -494.492           0.000           0.0000 
         0.000  
  22332222.452   119294728.48707      3615.718    22332226.394    92784813.91605
      2812.222  
  21031567.171   112583665.26807      2628.460    21031571.029    87565087.83407
      2044.354  
  20312751.108   108430857.90508       102.352    20312753.515    84335125.71904
        79.601  
 20 10 02 06 46 15.0000000  0 15G13G27G15G18G20G23G24G10R15R 5R21R 6
                                R16R 7R22
  22450729.760   117979410.52948     -3064.496    22450728.574    91932029.04345
     -2387.921  
  23856551.256   125367022.03747      -294.855    23856553.415    97688600.38549
      -229.761  
  20394967.861   107176336.70849     -1546.659    20394966.764    83514044.18349
     -1205.195  
  20679789.969   108673056.64349     -1467.602    20679789.412    84680298.75048
     -1143.589  
  20511023.832   107786204.07949      1662.792    20511023.004    83989259.39848
      1295.679  
  20840089.178   109515448.58149      1769.828    20840088.883    85336735.69548
      1379.085  
  21928975.686   115237566.39548      2916.281    21928977.940    89795517.07549
      2272.425  
  23194584.045   121888375.74048      2998.211    23194586.458    94977962.35449
      2336.270  
  21693649.160   115924289.39208       141.761    21693652.648    90163363.55107
       110.257  
  22629030.494   120965150.13307     -3418.699    22629033.590    94084048.91106
     -2658.988  
  21272672.360   113834364.22407     -3672.222    21272676.633    88537865.58107
     -2856.176  
  19296967.939   102972363.47008      -496.554           0.000           0.0000 
         0.000  
  22328838.731   119276653.25407      3613.746    22328842.711    92770755.43505
      2810.691  
  21029112.741   112570526.70007      2626.917    21029116.673    87554868.95308
      2043.156  
  20312657.459   108430357.77908        97.620    20312659.893    84334736.73404
        75.922  
 20 10 02 06 46 20.0000000  0 15G13G27G15G18G20G23G24G10R15R 5R21R 6
                                R16R 7R22
  22453646.021   117994735.83248     -3065.848    22453644.873    91943970.83346
     -2388.976  
  23856833.449   125368505.19147      -298.354    23856835.702    97689756.08449
      -232.483  
  20396440.574   107184075.83749     -1549.198    20396439.479    83520074.67449
     -1207.172  
  20681187.643   108680401.50049     -1470.715    20681187.122    84686022.01348
     -1146.015  
  20509442.653   107777894.73749      1660.729    20509441.758    83982784.58448
      1294.069  
  20838406.043   109506603.64549      1767.944    20838405.750    85329843.54548
      1377.620  
  21926201.916   115222990.03948      2913.890    21926204.133    89784158.89249
      2270.563  
  23191731.516   121873385.54048      2997.754    23191733.924    94966281.67649
      2335.914  
  21693518.412   115923590.37208       137.305    21693521.860    90162819.87407
       106.793  
  22632228.294   120982244.39206     -3418.944    22632231.405    94097344.42706
     -2659.395  
  21276104.845   113852732.05307     -3675.117    21276109.100    88552151.66507
     -2858.429  
  19297434.407   102974852.79208      -499.180           0.000           0.0000 
         0.000  
  22325457.155   119258589.29706      3611.750    22325461.122    92756705.68705
      2809.136  
  21026659.792   112557396.34107      2625.132    21026663.865    87544656.45508
      2041.769  
  20312568.284   108429881.69408        92.761    20312570.693    84334366.45304
        72.148  
 20 10 02 06 46 25.0000000  0 15G13G27G15G18G20G23G24G10R15R 5R21R 6
                                R16R 7R22
  22456563.861   118010069.43448     -3067.691    22456562.791    91955919.09645
     -2390.409  
  23857119.099   125370006.42047      -302.121    23857121.391    97690925.87149
      -235.422  
  20397915.950   107191828.98849     -1552.043    20397914.854    83526116.08749
     -1209.386  
  20682588.515   108687763.25749     -1474.042    20682588.063    84691758.44648
     -1148.608  
  20507863.679   107769597.01749      1658.266    20507862.717    83976318.83048
      1292.151  
  20836724.920   109497769.31849      1765.772    20836724.627    85322959.65948
      1375.926  
  21923430.596   115208426.65848      2911.406    21923432.821    89772810.80249
      2268.628  
  23188879.914   121858400.23848      2996.641    23188882.340    94954604.82149
      2335.042  
  21693392.183   115922915.46908       132.422    21693395.512    90162294.93307
       102.991  
  22635426.725   120999342.68706     -3420.180    22635430.046    94110643.09506
     -2660.144  
  21279540.198   113871115.07207     -3678.234    21279544.405    88566449.56207
     -2860.852  
  19297903.433   102977355.82408      -502.074           0.000           0.0000 
         0.000  
  22322077.916   119240537.88407      3609.008    22322081.869    92742665.70905
      2807.008  
  21024208.478   112544275.33007      2623.058    21024212.814    87534451.24108
      2040.155  
  20312483.909   108429431.01708        87.526    20312486.250    84334015.92304
        68.074  
 20 10 02 06 46 30.0000000  0 15G13G27G15G18G20G23G24G10R15R 5R21R 6
                                R16R 7R22
  22459482.855   118025409.10548     -3068.261    22459481.849    91967872.08745
     -2390.851  
  23857407.764   125371523.39347      -304.641    23857410.075    97692107.92049
      -237.386  
  20399393.546   107199593.87449     -1553.870    20399392.454    83532166.64449
     -1210.813  
  20683992.174   108695139.66249     -1476.461    20683991.823    84697506.29748
     -1150.492  
  20506286.506   107761308.69649      1656.913    20506285.480    83969860.40448
      1291.102  
  20835045.387   109488943.37349      1764.578    20835045.097    85316082.29648
      1374.992  
  21920661.331   115193873.88448      2909.707    21920663.552    89761470.98349
      2267.305  
  23186028.822   121843417.55648      2996.395    23186031.217    94942930.01249
      2334.851  
  21693270.012   115922262.40608       128.628    21693273.241    90161787.00107
       100.038  
  22638625.612   121016442.85306     -3419.750    22638629.020    94123943.21006
     -2659.848  
  21282978.018   113889511.01007     -3680.281    21282982.132    88580757.51007
     -2862.445  
  19298374.609   102979870.14008      -503.820           0.000           0.0000 
         0.000  
  22318700.707   119222496.87707      3607.495    22318704.593    92728633.81705
      2805.831  
  21021758.519   112531161.72607      2622.289    21021763.171    87524251.76608
      2039.555  
  20312403.823   108429003.38608        83.429    20312406.124    84333683.31504
        64.891  
 20 10 02 06 46 35.0000000  0 15G13G27G15G18G20G23G24G10R15R 5R21R 6
                                R16R 7R22
  22462402.704   118040753.17048     -3069.605    22462401.753    91979828.47945
     -2391.901  
  23857699.099   125373054.55647      -308.073    23857701.471    97693301.04649
      -240.058  
  20400873.075   107207368.88149     -1556.351    20400871.967    83538225.09549
     -1212.742  
  20685398.309   108702529.07849     -1479.488    20685398.057    84703264.27748
     -1152.851  
  20504710.825   107753028.12849      1654.980    20504709.709    83963408.01148
      1289.589  
  20833367.161   109480124.17349      1762.847    20833366.890    85309210.19348
      1373.645  
  21917893.769   115179330.18348      2907.530    21917896.025    89750138.23349
      2265.609  
  23183177.931   121828435.86648      2995.723    23183180.289    94931255.97149
      2334.328  
  21693151.576   115921629.45408       124.257    21693154.793    90161294.70407
        96.641  
  22641824.496   121033542.87606     -3420.145    22641827.990    94137243.21506
     -2660.117  
  21286417.857   113907918.22107     -3682.914    21286421.929    88595074.22707
     -2864.491  
  19298847.631   102982394.30508      -506.160           0.000           0.0000 
         0.000  
  22315325.075   119204464.66907      3605.108    22315328.945    92714608.78205
      2803.973  
  21019309.701   112518053.60707      2620.604    21019314.479    87514056.56008
      2038.249  
  20312327.777   108428597.19708        78.710    20312329.993    84333367.38704
        61.215  
 20 10 02 06 46 40.0000000  0 15G13G27G15G18G20G23G24G10R15R 5R21R 6
                                R16R 7R22
  22465324.260   118056106.20848     -3071.937    22465323.385    91991791.88746
     -2393.723  
  23857994.004   125374604.38747      -312.000    23857996.387    97694508.70749
      -243.117  
  20402355.397   107215158.56849     -1559.663    20402354.264    83544294.98049
     -1215.327  
  20686807.776   108709936.03349     -1483.304    20686807.607    84709035.92948
     -1155.823  
  20503137.484   107744759.85349      1652.238    20503136.292    83956965.19448
      1287.453  
  20831691.095   109471316.26149      1760.281    20831690.808    85302346.88548
      1371.647  
  21915128.803   115164800.09648      2904.480    21915131.081    89738816.09749
      2263.229  
  23180328.128   121813459.73848      2994.434    23180330.406    94919586.26949
      2333.323  
  21693037.780   115921021.33608       118.886    21693040.997    90160821.71407
        92.465  
  22645024.191   121050647.73406     -3421.270    22645027.816    94150546.99806
     -2660.992  
  21289860.615   113926341.29807     -3686.366    21289864.727    88609403.28107
     -2867.180  
  19299323.305   102984932.59308      -509.293           0.000           0.0000 
         0.000  
  22311951.975   119186445.89307      3602.313    22311955.786    92700594.18405
      2801.797  
  21016862.799   112504955.74007      2618.422    21016867.701    87503869.32707
      2036.546  
  20312256.597   108428217.07808        73.382    20312258.739    84333071.74004
        57.069  
 20 10 02 06 46 45.0000000  0 15G13G27G15G18G20G23G24G10R15R 5R21R 6
                                R16R 7R22
  22468247.429   118071467.53148     -3072.616    22468246.563    92003761.75046
     -2394.250  
  23858292.372   125376172.35447      -314.875    23858294.745    97695730.49849
      -245.359  
  20403840.415   107222962.26249     -1561.683    20403839.219    83550375.77749
     -1216.897  
  20688220.477   108717359.91849     -1485.968    20688220.371    84714820.77548
     -1157.901  
  20501566.341   107736503.31649      1650.578    20501565.119    83950531.53348
      1286.159  
  20830017.051   109462519.03949      1758.941    20830016.775    85295491.90948
      1370.604  
  21912366.262   115150282.78048      2902.961    21912368.560    89727503.90849
      2262.047  
  23177479.212   121798488.54848      2994.226    23177481.440    94907920.41449
      2333.163  
  21692928.494   115920437.34308       114.909    21692931.716    90160367.48807
        89.370  
  22648224.622   121067756.59006     -3421.819    22648228.467    94163853.89606
     -2661.413  
  21293306.194   113944779.59907     -3688.593    21293310.401    88623744.18107
     -2868.910  
  19299801.563   102987484.63608      -511.406           0.000           0.0000 
         0.000  
  22308581.247   119168439.63207      3600.300    22308584.941    92686589.32705
      2800.233  
  21014417.778   112491867.54107      2617.176    21014422.738    87493689.61708
      2035.578  
  20312190.165   108427862.26908        68.938    20312192.196    84332795.77804
        53.616  
 20 10 02 06 46 50.0000000  0 15G13G27G15G18G20G23G24G10R15R 5R21R 6
                                R16R 7R22
  22471171.716   118086834.76448     -3074.047    22471170.851    92015736.22145
     -2395.359  
  23858593.681   125377755.93347      -318.242    23858596.093    97696964.46749
      -247.980  
  20405327.628   107230777.55649     -1564.335    20405326.375    83556465.61949
     -1218.969  
  20689635.937   108724798.27649     -1489.300    20689635.889    84720616.89548
     -1160.496  
  20499996.973   107728256.10649      1648.410    20499995.734    83944105.13448
      1284.476  
  20828344.589   109453730.06949      1756.910    20828344.298    85288643.36248
      1369.020  
  21909605.758   115135776.26548      2900.137    21909608.078    89716200.13449
      2259.847  
  23174630.802   121783519.90048      2993.237    23174632.916    94896256.53149
      2332.391  
  21692823.294   115919875.08908       110.210    21692826.469    90159930.18407
        85.719  
  22651425.355   121084867.12406     -3422.301    22651429.389    94177162.07906
     -2661.792  
  21296754.128   113963230.56607     -3691.546    21296758.442    88638094.92707
     -2871.207  
  19300281.921   102990047.89108      -513.992           0.000           0.0000 
         0.000  
  22305212.442   119150443.92707      3597.933    22305216.066    92672592.68205
      2798.395  
  21011974.085   112478786.41707      2615.487    21011979.143    87483515.41208
      2034.265  
  20312127.950   108427530.35208        64.148    20312129.977    84332537.61404
        49.890  
 20 10 02 06 46 55.0000000  0 15G13G27G15G18G20G23G24G10R15R 5R21R 6
                                R16R 7R22
  22474097.658   118102210.62748     -3075.789    22474096.833    92027717.40745
     -2396.722  
  23858898.518   125379357.92247      -321.984    23858900.893    97698212.76149
      -250.901  
  20406817.604   107238607.27749     -1567.187    20406816.275    83562566.69949
     -1221.188  
  20691054.693   108732253.88649     -1492.848    20691054.698    84726426.46248
     -1163.261  
  20498429.877   107720020.93049      1645.968    20498428.633    83937688.11548
      1282.573  
  20826674.240   109444952.13449      1754.562    20826673.914    85281803.41948
      1367.191  
  21906847.802   115121283.04948      2897.555    21906850.105    89704906.72649
      2257.836  
  23171783.381   121768556.53648      2992.223    23171785.445    94884596.76849
      2331.602  
  21692722.631   115919337.30308       105.374    21692725.809    90159511.91607
        81.956  
  22654626.936   121101982.00107     -3423.410    22654631.036    94190473.65306
     -2662.655  
  21300205.092   113981697.09307     -3694.737    21300209.419    88652457.77207
     -2873.688  
  19300764.895   102992625.12908      -516.656           0.000           0.0000 
         0.000  
  22301846.031   119132461.22207      3595.352    22301849.660    92658606.14005
      2796.383  
  21009532.193   112465715.24207      2613.233    21009537.382    87473348.94008
      2032.511  
  20312070.623   108427224.30308        58.648    20312072.641    84332299.56104
        45.613  
 20 10 02 06 47  0.0000000  0 15G13G27G15G18G20G23G24G10R15R 5R21R 6
                                R16R 7R22
  22477024.325   118117590.55448     -3076.469    22477023.585    92039701.75045
     -2397.254  
  23859206.004   125380973.83747      -324.863    23859208.365    97699471.89849
      -253.145  
  20408309.432   107246446.73149     -1568.953    20408308.053    83568675.37549
     -1222.563  
  20692475.853   108739722.19649     -1495.086    20692475.915    84732245.92348
     -1165.007  
  20496864.208   107711793.31349      1644.633    20496862.985    83931276.98648
      1281.530  
  20825005.099   109436180.67649      1753.526    20825004.790    85274968.50948
      1366.382  
  21904091.535   115106798.64448      2895.766    21904093.797    89693620.16649
      2256.438  
  23168936.081   121753593.90748      2992.581    23168938.117    94872937.59449
      2331.883  
  21692625.685   115918819.44308       101.328    21692628.766    90159109.11507
        78.808  
  22657828.565   121119096.54707     -3422.875    22657832.683    94203784.94306
     -2662.352  
  21303657.968   114000174.41307     -3696.690    21303662.385    88666829.01707
     -2875.207  
  19301249.660   102995211.71008      -518.538           0.000           0.0000 
         0.000  
  22298481.348   119114487.12607      3593.792    22298484.918    92644626.29305
      2795.172  
  21007091.390   112452649.31007      2612.625    21007096.608    87463186.54808
      2032.042  
  20312017.251   108426939.33908        54.612    20312019.275    84332077.93304
        42.477  
 20 10 02 06 47  5.0000000  0 15G13G27G15G18G20G23G24G10R15R 5R21R 6
                                R16R 7R22
  22479952.247   118132977.11048     -3078.461    22479951.603    92051691.27545
     -2398.805  
  23859516.650   125382606.06947      -328.753    23859518.900    97700743.76849
      -256.175  
  20409803.577   107254298.48249     -1571.938    20409802.162    83574793.62849
     -1224.887  
  20693899.924   108747205.70649     -1498.539    20693900.001    84738077.22348
     -1167.694  
  20495300.441   107703575.72349      1642.319    20495299.245    83924873.66948
      1279.727  
  20823337.705   109427418.24549      1751.227    20823337.364    85268140.64948
      1364.594  
  21901337.442   115092325.59748      2892.945    21901339.618    89682342.48449
      2254.242  
  23166089.401   121738634.56148      2991.414    23166091.431    94861280.95149
      2330.972  
  21692532.844   115918324.07608        96.511    21692536.025    90158723.84907
        75.065  
  22661030.592   121136213.37207     -3423.715    22661034.693    94217098.02906
     -2662.894  
  21307113.459   114018665.16007     -3699.812    21307117.865    88681210.69707
     -2877.636  
  19301736.668   102997810.41608      -521.227           0.000           0.0000 
         0.000  
  22295118.655   119096524.13306      3591.434    22295122.277    92630655.11505
      2793.339  
  21004652.078   112439591.26507      2610.594    21004657.302    87453030.29608
      2030.460  
  20311968.308   108426678.11008        49.487    20311970.396    84331874.74604
        38.487  
 20 10 02 06 47 10.0000000  0 15G13G27G15G18G20G23G24G10R15R 5R21R 6
                                R16R 7R22
  22482881.937   118148372.95248     -3079.883    22482881.325    92063688.02945
     -2399.913  
  23859830.898   125384257.42647      -331.824    23859833.091    97702030.54949
      -258.563  
  20411300.576   107262165.23549     -1574.523    20411299.155    83580923.56149
     -1226.906  
  20695327.388   108754707.14749     -1501.664    20695327.508    84743922.50148
     -1170.133  
  20493739.112   107695370.91549      1639.995    20493737.929    83918480.31148
      1277.913  
  20821672.518   109418667.56749      1749.233    20821672.182    85261321.94448
      1363.039  
  21898586.031   115077866.70948      2890.905    21898588.144    89671075.81349
      2252.652  
  23163243.839   121723681.22048      2990.395    23163245.871    94849629.01449
      2330.176  
  21692444.779   115917853.85908        91.805    21692447.944    90158358.11207
        71.398  
  22664233.658   121153335.37607     -3424.487    22664237.708    94230415.12906
     -2663.496  
  21310571.977   114037172.10607     -3702.647    21310576.368    88695604.98907
     -2879.840  
  19302226.422   103000423.74508      -523.887           0.000           0.0000 
         0.000  
  22291758.571   119078575.16706      3589.046    22291762.238    92616694.80606
      2791.480  
  21002214.752   112426543.78307      2608.582    21002220.012    87442882.24908
      2028.894  
  20311924.337   108426443.32508        44.422    20311926.506    84331692.14904
        34.550  
 20 10 02 06 47 15.0000000  0 15G13G27G15G18G20G23G24G10R15R 5R21R 6
                                R16R 7R22
  22485812.594   118163773.87548     -3080.645    22485812.069    92075688.74845
     -2400.507  
  23860147.994   125385923.67947      -334.820    23860150.120    97703328.91749
      -260.901  
  20412799.633   107270042.80149     -1576.647    20412798.168    83587061.92649
     -1228.562  
  20696757.494   108762222.34049     -1504.371    20696757.609    84749778.49348
     -1172.242  
  20492179.428   107687174.72549      1638.347    20492178.233    83912093.67948
      1276.633  
  20820008.772   109409924.45849      1747.823    20820008.429    85254509.12148
      1361.938  
  21895836.476   115063417.67148      2888.625    21895838.538    89659816.82749
      2250.871  
  23160398.663   121708729.72048      2990.109    23160400.665    94837978.49649
      2329.957  
  21692360.678   115917404.66908        87.629    21692363.772    90158008.74507
        68.155  
  22667436.843   121170458.11207     -3424.586    22667440.794    94243732.81006
     -2663.569  
  21314032.690   114055690.92607     -3705.047    21314037.096    88710008.51007
     -2881.706  
  19302718.164   103003047.67808      -525.773           0.000           0.0000 
         0.000  
  22288400.372   119060635.83106      3587.301    22288403.995    92602741.99206
      2790.120  
  20999778.586   112413502.73607      2607.616    20999783.849    87432739.21208
      2028.147  
  20311884.522   108426230.75908        40.413    20311886.813    84331526.81904
        31.433  
 20 10 02 06 47 20.0000000  0 15G13G27G15G18G20G23G24G10R15R 5R21R 6
                                R16R 7R22
  22488744.523   118179181.32848     -3082.219    22488744.045    92087694.54245
     -2401.734  
  23860468.197   125387606.23447      -338.554    23860470.271    97704640.00749
      -263.808  
  20414301.004   107277932.59049     -1579.366    20414299.530    83593209.81449
     -1230.680  
  20698190.504   108769752.67049     -1507.648    20698190.605    84755646.28048
     -1174.793  
  20490621.633   107678988.55149      1636.093    20490620.485    83905714.83648
      1274.874  
  20818346.729   109401190.33149      1745.680    20818346.411    85247703.31348
      1360.269  
  21893089.085   115048979.87748      2886.309    21893091.072    89648566.59849
      2249.069  
  23157554.128   121693781.43648      2989.215    23157556.072    94826330.48949
      2329.258  
  21692280.782   115916977.88508        82.839    21692283.872    90157676.81707
        64.430  
  22670640.392   121187583.13507     -3425.305    22670644.345    94257052.26906
     -2664.129  
  21317495.989   114074223.04907     -3707.965    21317500.345    88724422.37007
     -2883.976  
  19303212.128   103005683.47408      -528.468           0.000           0.0000 
         0.000  
  22285044.228   119042707.63406      3584.749    22285047.848    92588797.85605
      2788.140  
  20997343.863   112400469.56607      2605.715    20997349.182    87422602.30708
      2026.667  
  20311849.156   108426041.88008        35.328    20311851.429    84331379.91004
        27.472  
 20 10 02 06 47 25.0000000  0 15G13G27G15G18G20G23G24G10R15R 5R21R 6
                                R16R 7R22
  22491678.153   118194597.66048     -3083.969    22491677.676    92099707.27145
     -2403.097  
  23860791.943   125389307.40847      -341.645    23860793.909    97705965.59349
      -266.218  
  20415805.144   107285836.93449     -1581.910    20415803.662    83599369.04649
     -1232.656  
  20699626.833   108777300.44249     -1511.102    20699626.906    84761527.66148
     -1177.484  
  20489066.173   107670814.67849      1633.690    20489065.058    83899345.59248
      1273.007  
  20816686.815   109392467.48649      1743.527    20816686.524    85240906.29148
      1358.594  
  21890344.279   115034555.72948      2883.594    21890346.209    89637327.00249
      2246.952  
  23154710.643   121678838.72548      2988.046    23154712.537    94814686.81549
      2328.347  
  21692205.578   115916575.86308        78.039    21692208.632    90157364.13707
        60.695  
  22673844.880   121204712.80407     -3426.370    22673848.774    94270375.34606
     -2664.957  
  21320962.100   114092770.78407     -3711.000    21320966.585    88738848.39507
     -2886.332  
  19303708.726   103008333.38308      -531.262           0.000           0.0000 
         0.000  
  22281690.554   119024793.06206      3582.016    22281694.228    92574864.31006
      2786.011  
  20994911.142   112387446.58007      2603.766    20994916.357    87412473.31708
      2025.147  
  20311818.630   108425878.95908        30.352    20311820.985    84331253.19704
        23.496  
 20 10 02 06 47 30.0000000  0 15G13G27G15G18G20G23G24G10R15R 5R21R 6
                                R16R 7R22
  22494612.798   118210019.26148     -3084.820    22494612.306    92111724.09245
     -2403.761  
  23861118.563   125391023.74547      -344.758    23861120.402    97707302.99749
      -268.644  
  20417311.353   107293752.30449     -1584.198    20417309.907    83605536.86849
     -1234.444  
  20701065.784   108784862.18349     -1513.804    20701065.863    84767419.91648
     -1179.594  
  20487512.435   107662649.69849      1632.022    20487511.313    83892983.26548
      1271.703  
  20815028.411   109383752.48549      1742.144    20815028.122    85234115.37848
      1357.511  
  21887601.400   115020141.89648      2881.742    21887603.317    89626095.44149
      2245.507  
  23151867.543   121663898.10248      2987.969    23151869.426    94803044.78349
      2328.289  
  21692134.328   115916194.99708        74.027    21692137.305    90157067.90407
        57.577  
  22677049.532   121221843.47307     -3426.277    22677053.318    94283699.18306
     -2664.882  
  21324430.448   114111330.58307     -3713.137    21324435.022    88753283.78407
     -2888.000  
  19304207.323   103010994.11708      -533.026           0.000           0.0000 
         0.000  
  22278338.754   119006888.41406      3579.805    22278342.434    92560938.47905
      2784.292  
  20992479.595   112374430.25907      2602.554    20992484.748    87402349.52208
      2024.211  
  20311792.333   108425738.55708        25.815    20311794.780    84331143.99204
        20.073  
 20 10 02 06 47 35.0000000  0 15G13G27G15G18G20G23G24G10R15R 5R21R 6
                                R16R 7R22
  22497548.559   118225446.60448     -3086.272    22497548.050    92123745.41045
     -2404.887  
  23861448.177   125392755.68847      -348.190    23861449.851    97708652.56649
      -271.316  
  20418819.732   107301679.13849     -1586.641    20418818.348    83611713.62049
     -1236.347  
  20702507.497   108792438.34049     -1516.758    20702507.558    84773323.41848
     -1181.890  
  20485960.484   107654494.04549      1629.996    20485959.345    83886628.21748
      1270.124  
  20813371.569   109375045.75349      1740.367    20813371.303    85227330.91848
      1356.129  
  21884860.525   115005738.69048      2879.430    21884862.448    89614872.16449
      2243.711  
  23149024.929   121648960.03448      2987.163    23149026.805    94791404.72649
      2327.656  
  21692067.163   115915835.86908        69.526    21692070.100    90156788.58707
        54.078  
  22680254.385   121238975.65707     -3426.969    22680258.169    94297024.19906
     -2665.358  
  21327901.133   114129902.85607     -3715.961    21327905.745    88767728.87407
     -2890.194  
  19304708.005   103013665.85208      -535.749           0.000           0.0000 
         0.000  
  22274988.761   118988994.22706      3577.480    22274992.615    92547020.78905
      2782.483  
  20990049.397   112361421.03207      2600.898    20990054.464    87392231.23708
      2022.922  
  20311770.316   108425621.02808        21.039    20311772.832    84331052.58705
        16.362  
 20 10 02 06 47 40.0000000  0 15G13G27G15G18G20G23G24G10R15R 5R21R 6
                                R16R 7R22
  22500486.007   118240882.68248     -3088.180    22500485.397    92135773.50945
     -2406.378  
  23861781.335   125394506.29147      -352.320    23861782.881    97710016.67349
      -274.538  
  20420330.880   107309620.49349     -1589.738    20420329.543    83617901.68149
     -1238.761  
  20703952.530   108800031.94649     -1520.570    20703952.564    84779240.50548
     -1184.862  
  20484410.866   107646350.75049      1627.375    20484409.728    83880282.79448
      1268.085  
  20811716.900   109366350.38049      1737.917    20811716.621    85220555.30548
      1354.222  
  21882122.223   114991349.15848      2876.335    21882124.192    89603659.56049
      2241.301  
  23146183.365   121634027.54348      2985.917    23146185.271    94779769.02249
      2326.688  
  21692004.642   115915501.49308        64.210    21692007.498    90156528.52507
        49.941  
  22683460.165   121256112.41806     -3427.676    22683463.891    94310352.77906
     -2665.972  
  21331374.805   114148490.80307     -3719.042    21331379.360    88782186.15707
     -2892.594  
  19305211.347   103016351.87708      -538.647           0.000           0.0000 
         0.000  
  22271641.445   118971113.80906      3575.086    22271645.364    92533113.79905
      2780.616  
  20987621.116   112348422.09807      2598.699    20987626.108    87382120.95508
      2021.211  
  20311753.142   108425529.50508        15.551    20311755.739    84330981.40205
        12.094  
 20 10 02 06 47 45.0000000  0 15G13G27G15G18G20G23G24G10R15R 5R21R 6
                                R16R 7R22
  22503424.846   118256326.13948     -3089.125    22503424.160    92147807.38045
     -2407.113  
  23862117.737   125396274.06447      -354.941    23862119.222    97711394.15449
      -276.578  
  20421844.521   107317574.94849     -1592.019    20421843.279    83624099.95649
     -1240.538  
  20705400.625   108807641.61449     -1523.488    20705400.604    84785170.11248
     -1187.137  
  20482863.349   107638218.46149      1625.534    20482862.211    83873945.94048
      1266.648  
  20810064.103   109357664.93349      1736.152    20810063.844    85213787.42748
      1352.847  
  21879386.298   114976972.02648      2874.327    21879388.309    89592456.60549
      2239.733  
  23143342.584   121619099.23748      2985.370    23143344.531    94768136.57349
      2326.258  
  21691946.422   115915190.47908        60.022    21691949.248    90156286.61407
        46.684  
  22686666.598   121273252.39207     -3428.117    22686670.335    94323683.86006
     -2666.316  
  21334851.109   114167092.89707     -3721.496    21334855.599    88796654.45207
     -2894.500  
  19305717.109   103019050.81308      -540.750           0.000           0.0000 
         0.000  
  22268296.286   118953245.44506      3572.547    22268300.378    92519216.16106
      2778.645  
  20985194.496   112335431.83407      2597.191    20985199.396    87372017.41907
      2020.034  
  20311740.634   108425462.67608        10.906    20311743.266    84330929.42804
         8.484  
 20 10 02 06 47 50.0000000  0 15G13G27G15G18G20G23G24G10R15R 5R21R 6
                                R16R 7R22
  22506364.788   118271775.66548     -3090.573    22506364.045    92159845.96545
     -2408.241  
  23862457.152   125398057.73447      -358.293    23862458.548    97712784.01349
      -279.191  
  20423360.419   107325541.20449     -1594.426    20423359.245    83630307.42649
     -1242.414  
  20706851.519   108815265.98549     -1526.457    20706851.443    84791111.18248
     -1189.445  
  20481317.661   107630095.84649      1623.508    20481316.539    83867616.63848
      1265.069  
  20808412.949   109348988.12349      1734.559    20808412.693    85207026.27448
      1351.602  
  21876652.471   114962605.89048      2872.229    21876654.517    89581262.21849
      2238.102  
  23140502.427   121604173.85648      2984.758    23140504.380    94756506.41249
      2325.784  
  21691892.346   115914901.54408        55.445    21691895.188    90156061.89607
        43.125  
  22689873.407   121290394.09207     -3428.753    22689877.131    94337016.27507
     -2666.813  
  21338329.709   114185707.68207     -3724.104    21338334.200    88811132.61307
     -2896.531  
  19306225.032   103021761.24708      -543.480           0.000           0.0000 
         0.000  
  22264953.251   118935388.05106      3570.198    22264957.385    92505327.08205
      2776.816  
  20982769.320   112322449.05507      2595.902    20982774.047    87361919.71508
      2019.035  
  20311732.417   108425418.97008         6.398    20311735.117    84330895.43805
         4.977  
 20 10 02 06 47 55.0000000  0 15G13G27G15G18G20G23G24G10R15R 5R21R 6
                                R16R 7R22
  22509305.753   118287230.44948     -3091.656    22509304.872    92171888.66345
     -2409.085  
  23862799.474   125399856.55347      -361.690    23862800.777    97714185.69449
      -281.840  
  20424878.412   107333518.46349     -1596.930    20424877.288    83636523.46749
     -1244.363  
  20708305.066   108822904.30249     -1529.355    20708304.928    84797063.11448
     -1191.711  
  20479773.677   107621982.09349      1621.691    20479772.519    83861294.22848
      1263.651  
  20806763.301   109340319.16249      1732.723    20806763.031    85200271.24548
      1350.168  
  21873920.608   114948250.00948      2869.843    21873922.730    89570075.81849
      2236.241  
  23137662.640   121589250.58248      2983.945    23137664.599    94744877.88849
      2325.148  
  21691842.306   115914633.83108        51.163    21691845.098    90155853.65107
        39.788  
  22693080.375   121307536.82807     -3428.882    22693084.149    94350349.52407
     -2666.914  
  21341810.588   114204334.47407     -3726.745    21341815.044    88825620.10807
     -2898.585  
  19306734.984   103024482.26408      -545.512           0.000           0.0000 
         0.000  
  22261612.235   118917540.59806      3568.362    22261616.245    92491445.73005
      2775.395  
  20980345.299   112309472.98207      2594.386    20980349.987    87351827.22107
      2017.854  
  20311728.450   108425397.82608         1.776    20311731.162    84330878.98905
         1.378  
 20 10 02 06 48  0.0000000  0 15G13G27G15G18G20G23G24G10R15R 5R21R 6
                                R16R 7R22
  22512248.200   118302692.98848     -3093.257    22512247.285    92183937.38145
     -2410.336  
  23863145.108   125401672.99547      -365.112    23863146.369    97715601.11649
      -284.504  
  20426398.957   107341509.16849     -1599.637    20426397.891    83642749.98549
     -1246.473  
  20709761.724   108830559.02949     -1532.690    20709761.545    84803027.84448
     -1194.305  
  20478231.850   107613879.76849      1619.266    20478230.683    83854980.73148
      1261.765  
  20805115.634   109331660.55349      1730.660    20805115.336    85193524.27148
      1348.562  
  21871191.189   114933906.87648      2867.245    21871193.369    89558899.35549
      2234.215  
  23134823.741   121574331.88348      2983.077    23134825.684    94733252.94349
      2324.476  
  21691796.683   115914389.85208        46.288    21691799.433    90155663.88907
        35.999  
  22696288.044   121324683.09407     -3429.862    22696291.806    94363685.49006
     -2667.680  
  21345294.199   114222975.69707     -3729.933    21345298.612    88840118.84707
     -2901.059  
  19307247.411   103027216.61108      -548.159           0.000           0.0000 
         0.000  
  22258273.544   118899705.88006      3565.457    22258277.523    92477574.30405
      2773.133  
  20977922.950   112296506.02207      2592.276    20977927.625    87341741.79808
      2016.210  
  20311729.141   108425401.63708        -3.273    20311731.921    84330881.95104
        -2.547  
 20 10 02 06 48  5.0000000  0 15G13G27G15G18G20G23G24G10R15R 5R21R 6
                                R16R 7R22
  22515192.209   118318163.73248     -3094.648    22515191.238    92195992.50245
     -2411.417  
  23863494.203   125403507.50547      -368.190    23863495.475    97717030.58449
      -286.906  
  20427922.162   107349513.79449     -1601.851    20427921.136    83648987.36049
     -1248.195  
  20711221.597   108838230.65149     -1535.476    20711221.363    84809005.71248
     -1196.479  
  20476692.281   107605789.30749      1617.358    20476691.103    83848676.47248
      1260.277  
  20803470.028   109323012.77349      1728.887    20803469.666    85186785.74648
      1347.179  
  21868464.340   114919577.06448      2865.019    21868466.530    89547733.27849
      2232.484  
  23131985.823   121559418.27248      2982.785    23131987.750    94721631.92549
      2324.245  
  21691755.573   115914170.07608        41.710    21691758.297    90155492.95307
        32.437  
  22699496.377   121341833.41207     -3430.094    22699500.249    94377024.62907
     -2667.680  
  21348780.620   114241631.89907     -3732.359    21348784.987    88854629.20607
     -2902.948  
  19307762.392   103029964.61808      -550.469           0.000           0.0000 
         0.000  
  22254937.360   118881884.27506      3563.460    22254941.153    92463713.05505
      2771.577  
  20975502.455   112283548.86407      2590.711    20975507.114    87331664.01908
      2014.995  
  20311734.645   108425431.02008        -7.890    20311737.424    84330904.79904
        -6.141  
 20 10 02 06 48 10.0000000  0 15G13G27G15G18G20G23G24G10R15R 5R21R 6
                                R16R 7R22
  22518137.064   118333638.89448     -3095.749    22518136.022    92208051.05645
     -2412.277  
  23863846.054   125405356.36847      -371.573    23863847.330    97718471.28049
      -289.539  
  20429447.328   107357528.68849     -1604.382    20429446.333    83655232.72449
     -1250.172  
  20712683.971   108845915.51248     -1538.687    20712683.695    84814993.93447
     -1198.976  
  20475154.269   107597707.00148      1615.281    20475153.076    83842378.57147
      1258.655  
  20801825.768   109314372.09748      1727.003    20801825.344    85180052.74347
      1345.714  
  21865739.290   114905256.70647      2862.777    21865741.510    89536574.55749
      2230.734  
  23129148.166   121544506.06648      2981.996    23129150.077    94710012.03349
      2323.624  
  21691718.244   115913970.79008        37.437    21691721.063    90155337.94807
        29.112  
  22702704.675   121358983.88507     -3430.456    22702708.650    94390363.84506
     -2668.187  
  21352269.162   114260299.38706     -3734.937    21352273.439    88869148.36906
     -2904.953  
  19308279.256   103032722.54708      -552.824           0.000           0.0000 
         0.000  
  22251602.756   118864072.19505      3561.421    22251606.584    92449859.22404
      2769.995  
  20973083.098   112270597.51006      2589.218    20973087.669    87321590.74207
      2013.836  
  20311744.236   108425481.99507       -12.901    20311747.029    84330944.45904
        -9.925  
 20 10 02 06 48 15.0000000  0 15G13G27G15G18G20G23G24G10R15R 5R21R 6
                                R16R 7R22
  22521083.264   118349121.15448     -3096.972    22521082.128    92220115.15245
     -2413.229  
  23864201.128   125407222.17147      -374.694    23864202.374    97719925.15548
      -291.968  
  20430974.904   107365556.37049     -1606.598    20430973.957    83661488.05649
     -1251.897  
  20714149.332   108853616.03548     -1541.550    20714149.039    84820994.33747
     -1201.206  
  20473618.298   107589635.48349      1613.445    20473617.087    83836089.07747
      1257.230  
  20800183.370   109305741.14148      1725.371    20800182.876    85173327.32747
      1344.444  
  21863016.532   114890948.45348      2860.577    21863018.782    89525425.28549
      2229.022  
  23126311.248   121529597.80448      2981.331    23126313.191    94698395.21049
      2323.116  
  21691685.312   115913794.68708        32.871    21691688.109    90155200.98607
        25.566  
  22705913.564   121376137.23307     -3430.957    22705917.495    94403705.31506
     -2668.526  
  21355760.231   114278980.36007     -3737.272    21355764.383    88883678.02406
     -2906.769  
  19308798.436   103035492.95808      -555.246           0.000           0.0000 
         0.000  
  22248270.443   118846272.11005      3559.023    22248274.334    92436014.68704
      2768.120  
  20970665.278   112257654.76007      2587.952    20970669.821    87311524.17307
      2012.851  
  20311758.366   108425557.39507       -17.406    20311761.136    84331003.09204
       -13.539  
 20 10 02 06 48 20.0000000  0 15G13G27G15G18G20G23G24G10R15R 5R21R 6
                                R16R 7R22
  22524030.780   118364610.36448     -3098.402    22524029.605    92232184.66945
     -2414.344  
  23864559.416   125409104.85947      -378.374    23864560.705    97721392.18049
      -294.839  
  20432504.934   107373596.79849     -1609.281    20432504.001    83667753.33049
     -1253.988  
  20715617.643   108861332.15649     -1544.637    20715617.330    84827006.89848
     -1203.616  
  20472084.401   107581574.64349      1611.195    20472083.168    83829807.90348
      1255.472  
  20798542.823   109297119.82549      1723.397    20798542.280    85166609.42348
      1342.902  
  21860296.077   114876652.20548      2858.265    21860298.310    89514285.34549
      2227.215  
  23123475.081   121514693.42848      2980.563    23123477.056    94686781.42849
      2322.515  
  21691656.597   115913641.58708        28.171    21691659.487    90155081.90207
        21.905  
  22709123.105   121393293.32407     -3431.250    22709126.921    94417048.94906
     -2668.750  
  21359253.759   114297675.05907     -3740.261    21359257.902    88898218.33507
     -2909.098  
  19309319.934   103038275.74008      -557.688           0.000           0.0000 
         0.000  
  22244940.472   118828484.15906      3556.741    22244944.220    92422179.61505
      2766.358  
  20968249.111   112244720.45407      2586.059    20968253.575    87301464.15308
      2011.374  
  20311777.051   108425656.97608       -22.230    20311779.805    84331080.53904
       -17.292  
 20 10 02 06 48 25.0000000  0 15G13G27G15G18G20G23G24G10R15R 5R21R 6
                                R16R 7R22
  22526979.498   118380105.94948     -3099.858    22526978.332    92244259.15145
     -2415.480  
  23864920.750   125411003.80647      -381.637    23864922.119    97722871.86249
      -297.382  
  20434037.274   107381649.36049     -1611.940    20434036.343    83674028.04849
     -1256.062  
  20717088.822   108869063.44049     -1547.992    20717088.535    84833031.26748
     -1206.229  
  20470552.400   107573523.89049      1609.003    20470551.153    83823534.58848
      1253.766  
  20796903.962   109288507.58349      1721.202    20796903.404    85159898.59448
      1341.195  
  21857577.768   114862367.58548      2855.613    21857580.020    89503154.46449
      2225.148  
  23120639.536   121499792.41148      2979.565    23120641.586    94675170.24649
      2321.734  
  21691632.126   115913510.85308        23.757    21691635.105    90154980.22007
        18.472  
  22712332.957   121410451.66207     -3432.171    22712336.761    94430394.33606
     -2669.468  
  21362749.842   114316382.87107     -3743.120    21362753.883    88912768.83207
     -2911.320  
  19309843.720   103041070.73108      -560.500           0.000           0.0000 
         0.000  
  22241612.713   118810707.49206      3553.663    22241616.255    92408353.35004
      2763.960  
  20965834.302   112231793.98007      2584.237    20965838.771    87291410.22807
      2009.960  
  20311800.157   108425780.25508       -27.246    20311802.916    84331176.42904
       -21.191  
 20 10 02 06 48 30.0000000  0 15G13G27G15G18G20G23G24G10R15R 5R21R 6
                                R16R 7R22
  22529929.707   118395609.27947     -3101.343    22529928.537    92256339.65443
     -2416.641  
  23865285.453   125412920.42946      -385.097    23865286.933    97724365.33849
      -300.073  
  20435572.198   107389715.47149     -1614.375    20435571.289    83680313.33349
     -1257.957  
  20718563.140   108876811.22149     -1551.108    20718562.906    84839068.50848
     -1208.659  
  20469022.590   107565484.71549      1606.727    20469021.336    83817270.30548
      1251.996  
  20795267.113   109279905.85149      1719.444    20795266.504    85153195.95048
      1339.827  
  21854861.923   114848095.84748      2853.039    21854864.154    89492033.63449
      2223.147  
  23117804.903   121484896.15948      2978.988    23117807.021    94663562.80049
      2321.289  
  21691612.195   115913404.09508        18.844    21691615.201    90154897.18306
        14.652  
  22715543.486   121427613.68805     -3432.581    22715547.258    94443742.54603
     -2669.785  
  21366248.589   114335105.12507     -3745.871    21366252.577    88927330.59107
     -2913.457  
  19310369.939   103043878.76908      -562.960           0.000           0.0000 
         0.000  
  22238287.402   118792943.87205      3550.987    22238290.516    92394537.23801
      2761.882  
  20963421.341   112218876.96408      2582.586    20963425.727    87281363.66107
      2008.676  
  20311827.970   108425928.66008       -32.335    20311830.700    84331291.84604
       -25.148  
 20 10 02 06 48 35.0000000  0 15G13G27G15G18G20G23G24G10R15R 5R21R 6
                                R16R 7R22
  22532881.029   118411118.26847     -3102.241    22532879.926    92268424.62843
     -2417.328  
  23865653.116   125414852.60647      -388.145    23865654.645    97725870.90049
      -302.457  
  20437109.279   107397792.94849     -1616.499    20437108.382    83686607.47149
     -1259.613  
  20720040.184   108884573.29848     -1553.660    20720040.011    84845116.88147
     -1210.645  
  20467494.545   107557454.81849      1605.023    20467493.255    83811013.22747
      1250.663  
  20793631.853   109271312.37648      1717.894    20793631.167    85146499.73647
      1338.617  
  21852148.187   114833835.09848      2851.242    21852150.380    89480921.37349
      2221.742  
  23114970.729   121470002.41348      2978.332    23114972.895    94651957.25149
      2320.773  
  21691596.278   115913318.91407        15.034    21691599.296    90154830.95407
        11.695  
  22718754.271   121444776.92605     -3432.706    22718758.039    94457091.78304
     -2669.883  
  21369749.666   114353839.65807     -3748.301    21369753.565    88941901.86306
     -2915.352  
  19310898.171   103046697.86108      -564.605           0.000           0.0000 
         0.000  
  22234963.977   118775190.92004      3549.917    22234967.265    92380729.49404
      2761.059  
  20961009.643   112205966.98807      2581.198    20961014.020    87271322.57007
      2007.597  
  20311860.030   108426099.79908       -36.769    20311862.771    84331424.96904
       -28.602  
 20 10 02 06 48 40.0000000  0 15G13G27G15G18G20G23G24G10R15R 5R21R 6
                                R16R 7R22
  22535833.818   118426634.93147     -3104.077    22535832.560    92280515.54644
     -2418.762  
  23866024.134   125416802.35046      -391.828    23866025.646    97727390.24449
      -305.313  
  20438648.957   107405883.91648     -1619.488    20438648.043    83692912.15349
     -1261.933  
  20721520.323   108892351.79348     -1557.266    20721520.215    84851178.06946
     -1213.449  
  20465968.706   107549436.44948      1602.574    20465967.380    83804765.17847
      1248.757  
  20791998.577   109262729.39348      1715.499    20791997.816    85139811.71847
      1336.753  
  21849436.814   114819587.05247      2848.422    21849438.950    89469819.01949
      2219.551  
  23112137.473   121455113.39447      2977.593    23112139.647    94640355.47849
      2320.206  
  21691584.862   115913257.62907         9.883    21691587.863    90154783.28007
         7.688  
  22721965.722   121461943.93805     -3433.676    22721969.478    94470443.82005
     -2670.862  
  21373253.405   114372588.46107     -3751.133    21373257.279    88956484.29507
     -2917.547  
  19311428.954   103049530.25207      -567.839           0.000           0.0000 
         0.000  
  22231642.951   118757450.59705      3546.675    22231646.325    92366931.41504
      2758.519  
  20958599.804   112193066.48907      2579.148    20958604.108    87261288.85807
      2006.003  
  20311896.787   108426296.13507       -41.918    20311899.490    84331577.69804
       -32.602  
 20 10 02 06 48 45.0000000  0 13G13G27G15G18G20G23G24G10R15R21R 6R 7
                                R22
  22538787.986   118442158.78746     -3105.328    22538786.508    92292612.03344
     -2419.733  
  23866398.418   125418769.28946      -394.480    23866399.883    97728922.93248
      -307.387  
  20440191.106   107413987.87348     -1621.589    20440190.167    83699226.92549
     -1263.577  
  20723003.539   108900146.26848     -1560.155    20723003.414    84857251.67646
     -1215.706  
  20464444.962   107541429.15148      1600.745    20464443.586    83798525.71646
      1247.336  
  20790367.173   109254156.40048      1713.922    20790366.369    85133131.43446
      1335.515  
  21846727.919   114805351.74147      2846.159    21846729.957    89458726.58449
      2217.792  
  23109304.999   121440228.64448      2976.874    23109307.142    94628756.96849
      2319.645  
  21691577.727   115913219.59606         5.616    21691580.828    90154753.69506
         4.362  
  21376759.672   114391351.14707     -3753.371    21376763.587    88971077.48806
     -2919.292  
  19311962.142   103052375.41007      -569.636           0.000           0.0000 
         0.000  
  20956191.570   112180174.68207      2577.964    20956195.807    87251261.88207
      2005.078  
  20311938.146   108426517.07007       -46.452    20311940.838    84331749.52804
       -36.132  
 20 10 02 06 48 50.0000000  0 13G13G27G15G18G20G23G24G10R15R21R 6R 7
                                R22
  22541743.105   118457687.38346     -3106.641    22541741.491    92304712.22544
     -2420.766  
  23866775.471   125420750.93146      -398.296    23866776.928    97730467.08548
      -310.359  
  20441735.239   107422102.34348     -1624.175    20441734.313    83705549.88349
     -1265.594  
  20724489.321   108907954.19948     -1563.124    20724489.138    84863335.75046
     -1218.023  
  20462922.832   107533430.39648      1598.714    20462921.449    83792292.91547
      1245.745  
  20788737.176   109245590.89248      1712.124    20788736.343    85126457.00346
      1334.121  
  21844020.930   114791126.45046      2843.823    21844022.917    89447641.95848
      2215.969  
  23106472.865   121425345.61548      2976.230    23106475.006    94617159.81449
      2319.141  
  21691574.522   115913202.46906         0.956    21691577.684    90154740.38007
         0.741  
  21380267.981   114410125.22306     -3756.516    21380271.981    88985679.52506
     -2921.741  
  19312497.195   103055230.80907      -572.397           0.000           0.0000 
         0.000  
  20953784.383   112167289.10107      2576.371    20953788.682    87241239.77507
      2003.843  
  20311983.623   108426760.04907       -51.004    20311986.283    84331938.48904
       -39.676  
 20 10 02 06 48 55.0000000  0 13G13G27G15G18G20G23G24G10R15R21R 6R 7
                                R22
  22544699.475   118473222.93347     -3107.672    22544697.809    92316817.85544
     -2421.563  
  23867155.741   125422749.48247      -401.507    23867157.208    97732024.33049
      -312.875  
  20443281.786   107430229.53849     -1626.742    20443280.891    83711882.73849
     -1267.598  
  20725978.090   108915777.88848     -1566.323    20725977.907    84869432.13347
     -1220.519  
  20461402.778   107525442.49349      1596.523    20461401.412    83786068.61847
      1244.043  
  20787109.084   109237035.21149      1710.038    20787108.225    85119790.28847
      1332.495  
  21841316.303   114776913.28947      2841.269    21841318.228    89436566.74049
      2213.968  
  23103641.493   121410466.68948      2975.430    23103643.665    94605565.82249
      2318.511  
  21691575.587   115913208.44507        -3.625    21691578.807    90154745.01506
        -2.824  
  21383778.992   114428912.97307     -3759.089    21383782.965    89000292.21306
     -2923.746  
  19313034.611   103058098.75008      -574.894           0.000           0.0000 
         0.000  
  20951378.843   112154412.15207      2574.633    20951383.181    87231224.36407
      2002.487  
  20312033.721   108427027.38308       -55.894    20312036.374    84332146.42604
       -43.476  
 20 10 02 06 49  0.0000000  0 13G13G27G15G18G20G23G24G10R15R21R 6R 7
                                R22
  22547657.139   118488765.25047     -3109.090    22547655.469    92328928.75744
     -2422.667  
  23867539.188   125424764.73147      -404.617    23867540.721    97733594.66048
      -315.285  
  20444830.719   107438369.23548     -1629.230    20444829.862    83718225.36049
     -1269.534  
  20727469.814   108923617.04748     -1569.440    20727469.571    84875540.56346
     -1222.944  
  20459884.719   107517465.16049      1594.371    20459883.410    83779852.49447
      1242.366  
  20785482.806   109228489.06448      1708.312    20785481.883    85113130.93947
      1331.148  
  21838614.000   114762712.27747      2839.090    21838615.893    89425501.03548
      2212.277  
  23100810.840   121395591.56948      2974.690    23100813.069    94593974.81649
      2317.938  
  21691580.887   115913237.26507        -8.155    21691584.244    90154767.42706
        -6.347  
  21387292.517   114447713.99407     -3761.628    21387296.395    89014915.21006
     -2925.715  
  19313574.362   103060978.84007      -577.526           0.000           0.0000 
         0.000  
  20948974.949   112141543.63907      2572.875    20948979.242    87221215.52107
      2001.125  
  20312088.377   108427318.82508       -60.852    20312090.926    84332373.10204
       -47.327  
 20 10 02 06 49  5.0000000  0 14G13G27G15G18G20G23G24G10R15R 5R21R 6
                                R 7R22
  22550616.139   118504314.55447     -3110.808    22550614.354    92341045.05444
     -2424.015  
  23867925.847   125426796.95047      -408.297    23867927.464    97735178.21548
      -318.152  
  20446382.072   107446521.64948     -1631.953    20446381.255    83724577.89949
     -1271.651  
  20728964.548   108931471.92948     -1572.578    20728964.291    84881661.25446
     -1225.387  
  20458368.731   107509498.65749      1592.023    20458367.482    83773644.83547
      1240.534  
  20783858.406   109219952.72348      1706.245    20783857.463    85106479.24247
      1329.538  
  21835914.042   114748523.53146      2836.487    21835915.917    89414444.86449
      2210.245  
  23097980.949   121380720.48448      2973.753    23097983.205    94582386.96449
      2317.211  
  21691590.616   115913289.25407       -12.723    21691594.010    90154807.85706
        -9.898  
  22738029.958   121547801.14014     -3436.034    22738033.102    94537191.18814
     -2672.477  
  21390808.432   114466528.61707     -3764.680    21390812.375    89029548.81506
     -2928.089  
  19314116.479   103063871.52107      -579.801           0.000           0.0000 
         0.000  
  20946572.635   112128683.76707      2571.246    20946576.964    87211213.40407
      1999.859  
  20312147.565   108427634.64908       -65.761    20312150.113    84332618.74603
       -51.147  
 20 10 02 06 49 10.0000000  0 15G13G27G15G18G20G23G24G10R15R 5R21R 6
                                R16R 7R22
  22553576.258   118519870.24048     -3111.715    22553574.504    92353166.34345
     -2424.719  
  23868315.695   125428845.55447      -410.988    23868317.360    97736774.55349
      -320.249  
  20447935.739   107454686.22449     -1634.030    20447934.955    83730939.88449
     -1273.273  
  20730462.196   108939341.99649     -1575.479    20730461.897    84887793.76348
     -1227.651  
  20456854.698   107501542.51549      1590.304    20456853.499    83767445.20448
      1239.191  
  20782235.768   109211425.67249      1704.551    20782234.808    85099834.77248
      1328.219  
  21833216.203   114734346.38148      2834.171    21833218.096    89403397.70849
      2208.441  
  23095151.708   121365852.94048      2973.335    23095153.962    94570801.87549
      2316.886  
  21691604.546   115913363.78308       -17.004    21691607.982    90154865.83507
       -13.227  
  22741243.984   121564982.11206     -3436.383    22741247.094    94550554.18205
     -2672.742  
  21394326.726   114485356.31307     -3766.660    21394330.737    89044192.55707
     -2929.629  
  19314660.819   103066776.29008      -582.171           0.000           0.0000 
         0.000  
  22211762.184   118651244.82815      3532.664    22211766.761    92284329.68814
      2747.609  
  20944171.886   112115831.96707      2569.815    20944176.220    87201217.58208
      1998.745  
  20312211.155   108427974.32008       -70.004    20312213.752    84332882.90304
       -54.456  
 20 10 02 06 49 15.0000000  0 15G13G27G15G18G20G23G24G10R15R 5R21R 6
                                R16R 7R22
  22556537.786   118535433.05048     -3113.344    22556535.995    92365293.21446
     -2425.980  
  23868708.784   125430911.21947      -415.039    23868710.497    97738384.16549
      -323.406  
  20449491.866   107462863.75549     -1636.887    20449491.133    83737311.98349
     -1275.499  
  20731962.862   108947227.92249     -1578.823    20731962.546    84893938.63748
     -1230.258  
  20455342.780   107493597.39349      1587.840    20455341.617    83761254.20548
      1237.273  
  20780615.016   109202908.56449      1702.394    20780614.066    85093198.07348
      1326.543  
  21830520.767   114720181.80148      2831.602    21830522.661    89392360.38249
      2206.440  
  23092323.237   121350989.62948      2972.301    23092325.492    94559220.07449
      2316.077  
  21691622.858   115913461.67008       -21.858    21691626.321    90154941.96307
       -17.003  
  22744458.508   121582166.08306     -3437.319    22744461.693    94563919.47905
     -2673.477  
  21397847.668   114504197.67807     -3769.781    21397851.708    89058846.93907
     -2932.055  
  19315207.507   103069693.64608      -584.816           0.000           0.0000 
         0.000  
  22208456.820   118633587.85405      3529.945    22208460.585    92270596.54004
      2745.512  
  20941772.818   112102989.00407      2567.546    20941777.107    87191228.60908
      1996.979  
  20312279.403   108428338.44408       -75.437    20312282.003    84333166.11104
       -58.672  
 20 10 02 06 49 20.0000000  0 15G13G27G15G18G20G23G24G10R15R 5R21R 6
                                R16R 7R22
  22559500.491   118551002.23348     -3114.195    22559498.697    92377425.04846
     -2426.647  
  23869105.039   125432993.23847      -417.836    23869106.744    97740006.51149
      -325.590  
  20451050.310   107471053.43749     -1638.925    20451049.615    83743693.55249
     -1277.090  
  20733466.425   108955129.01249     -1581.530    20733466.068    84900095.34148
     -1232.362  
  20453832.827   107485662.59849      1586.156    20453831.716    83755071.26048
      1235.964  
  20778996.024   109194400.73249      1700.784    20778995.073    85086568.60048
      1325.289  
  21827827.561   114706028.97348      2829.554    21827829.469    89381332.21449
      2204.847  
  23089495.433   121336129.82848      2971.847    23089497.697    94547641.01049
      2315.723  
  21691645.384   115913582.13508       -26.086    21691648.870    90155035.65008
       -20.293  
  22747673.564   121599352.30306     -3437.163    22747676.719    94577286.55205
     -2673.258  
  21401371.003   114523051.97507     -3771.934    21401375.118    89073511.40707
     -2933.730  
  19315756.441   103072623.01608      -586.952           0.000           0.0000 
         0.000  
  22205153.976   118615942.65505      3527.823    22205156.691    92256872.50104
      2743.859  
  20939375.165   112090154.05307      2566.301    20939379.439    87181245.87508
      1996.012  
  20312352.082   108428726.43808       -79.886    20312354.689    84333467.89004
       -62.132  
 20 10 02 06 49 25.0000000  0 15G13G27G15G18G20G23G24G10R15R 5R21R 6
                                R16R 7R22
  22562464.560   118566578.61448     -3115.836    22562462.770    92389562.52345
     -2427.922  
  23869504.586   125435092.46847      -421.495    23869506.235    97741642.27049
      -328.441  
  20452611.228   107479256.08749     -1641.569    20452610.545    83750085.23449
     -1279.144  
  20734972.980   108963046.04649     -1584.859    20734972.610    84906264.44048
     -1234.961  
  20452325.001   107477738.91949      1583.699    20452323.914    83748896.96848
      1234.050  
  20777378.916   109185902.96149      1698.676    20777377.963    85079946.95848
      1323.640  
  21825136.732   114691888.78948      2826.917    21825138.690    89370313.89049
      2202.789  
  23086668.437   121321274.36348      2970.793    23086670.765    94536065.32049
      2314.902  
  21691672.231   115913726.03508       -31.000    21691675.801    90155147.61307
       -24.104  
  22750889.233   121616541.55607     -3438.078    22750892.358    94590655.95406
     -2674.066  
  21404896.812   114541920.00907     -3774.792    21404901.064    89088186.52507
     -2935.957  
  19316307.780   103075565.25808      -589.430           0.000           0.0000 
         0.000  
  22201853.321   118598310.11405      3524.909    22201855.286    92243158.33504
      2741.601  
  20936979.181   112077328.07407      2564.331    20936983.450    87171270.13108
      1994.479  
  20312429.397   108429139.02408       -84.938    20312431.908    84333788.77404
       -66.065  
 20 10 02 06 49 30.0000000  0 15G13G27G15G18G20G23G24G10R15R 5R21R 6
                                R16R 7R22
  22565429.743   118582160.88048     -3117.468    22565428.018    92401704.53345
     -2429.198  
  23869907.175   125437207.52447      -424.949    23869908.777    97743290.36149
      -331.132  
  20454174.347   107487470.39149     -1644.409    20454173.683    83756485.99449
     -1281.359  
  20736482.320   108970977.70849     -1588.113    20736481.964    84912444.96148
     -1237.491  
  20450819.067   107469825.06049      1581.444    20450817.964    83742730.32148
      1232.293  
  20775763.476   109177413.95249      1696.460    20775762.528    85073332.15048
      1321.917  
  21822448.035   114677759.90248      2824.179    21822450.076    89359304.37449
      2200.660  
  23083842.053   121306421.89548      2969.789    23083844.383    94524491.97649
      2314.121  
  21691703.252   115913891.98908       -35.863    21691706.826    90155276.68307
       -27.898  
  22754105.174   121633732.63307     -3438.648    22754108.233    94604026.77705
     -2674.512  
  21408425.014   114560800.47407     -3777.995    21408429.332    89102871.31107
     -2938.445  
  19316861.273   103078518.92508      -592.202           0.000           0.0000 
         0.000  
  22198554.403   118580688.91605      3522.344    22198556.343    92229452.96205
      2739.597  
  20934584.584   112064509.45107      2562.433    20934588.832    87161300.09608
      1993.003  
  20312511.010   108429574.86908       -89.937    20312513.513    84334127.77204
       -69.957  
 20 10 02 06 49 35.0000000  0 15G13G27G15G18G20G23G24G10R15R 5R21R 6
                                R16R 7R22
  22568396.266   118597750.18948     -3118.500    22568394.572    92413852.04146
     -2430.003  
  23870312.974   125439339.66647      -428.058    23870314.561    97744951.75949
      -333.554  
  20455739.902   107495697.50249     -1646.671    20455739.241    83762896.72549
     -1283.121  
  20737994.664   108978925.19449     -1590.879    20737994.304    84918637.80448
     -1239.647  
  20449315.206   107461922.24749      1579.559    20449314.131    83736572.28448
      1230.819  
  20774149.919   109168934.93749      1694.886    20774149.049    85066725.12848
      1320.688  
  21819761.707   114663643.43548      2822.304    21819763.850    89348304.53749
      2199.198  
  23081016.506   121291573.67248      2969.382    23081018.774    94512921.92449
      2313.800  
  21691738.575   115914081.24508       -40.019    21691742.174    90155423.87608
       -31.128  
  22757321.765   121650926.62506     -3439.051    22757324.687    94617399.88405
     -2674.815  
  21411955.813   114579694.55707     -3779.972    21411960.157    89117566.70407
     -2939.980  
  19317417.143   103081485.09208      -594.375           0.000           0.0000 
         0.000  
  22195258.148   118563080.19606      3520.551    22195260.023    92215757.26505
      2738.203  
  20932191.560   112051699.71907      2561.034    20932195.920    87151336.97508
      1991.918  
  20312597.282   108430035.30308       -94.433    20312599.784    84334485.89204
       -73.452  
 20 10 02 06 49 40.0000000  0 15G13G27G15G18G20G23G24G10R15R 5R21R 6
                                R16R 7R22
  22571363.822   118613344.83248     -3119.585    22571362.116    92426003.70146
     -2430.852  
  23870721.703   125441487.11847      -431.300    23870723.266    97746625.08649
      -336.081  
  20457307.568   107503935.73949     -1648.949    20457306.895    83769316.12749
     -1284.897  
  20739509.681   108986886.78749     -1593.741    20739509.345    84924841.64448
     -1241.882  
  20447813.113   107454028.75849      1577.672    20447812.050    83730421.51348
      1229.352  
  20772537.938   109160464.16949      1693.180    20772537.147    85060124.53248
      1319.354  
  21817077.480   114649537.91548      2819.831    21817079.673    89337313.22049
      2197.273  
  23078191.464   121276727.97448      2968.815    23078193.645    94501353.83949
      2313.358  
  21691777.918   115914292.04208       -44.258    21691781.571    90155587.80607
       -34.425  
  22760538.502   121668121.74306     -3439.344    22760541.319    94630773.84905
     -2675.078  
  21415488.820   114598600.48107     -3782.648    21415493.125    89132271.29607
     -2942.063  
  19317975.005   103084462.10708      -596.765           0.000           0.0000 
         0.000  
  22191963.777   118545482.25506      3518.624    22191965.944    92202070.00405
      2736.706  
  20929799.894   112038897.16107      2559.710    20929804.319    87141379.43708
      1990.886  
  20312687.758   108430518.42508       -99.117    20312690.314    84334861.66004
       -77.090  
 20 10 02 06 49 45.0000000  0 15G13G27G15G18G20G23G24G10R15R 5R21R 6
                                R16R 7R22
  22574332.616   118628945.82648     -3120.917    22574330.872    92438160.32246
     -2431.887  
  23871133.519   125443650.91247      -434.296    23871135.063    97748311.17049
      -338.414  
  20458877.542   107512186.13249     -1651.397    20458876.894    83775745.01249
     -1286.805  
  20741027.602   108994863.54549     -1597.039    20741027.256    84931057.29748
     -1244.448  
  20446313.014   107446145.71749      1575.468    20446311.965    83724278.88548
      1227.636  
  20770927.740   109152002.73849      1691.390    20770927.021    85053531.21048
      1317.964  
  21814395.491   114635444.15648      2817.465    21814397.736    89326331.07549
      2195.422  
  23075367.111   121261885.83548      2968.102    23075369.238    94489788.55149
      2312.805  
  21691821.592   115914525.42508       -48.973    21691825.179    90155769.33107
       -38.090  
  22763755.606   121685319.16307     -3440.039    22763758.388    94644149.60506
     -2675.589  
  21419024.139   114617519.25207     -3785.046    21419028.475    89146985.90007
     -2943.926  
  19318535.149   103087451.26808      -599.054           0.000           0.0000 
         0.000  
  22188671.727   118527896.46806      3516.055    22188674.276    92188392.20005
      2734.711  
  20927409.734   112026102.54407      2558.210    20927414.142    87131428.08008
      1989.718  
  20312782.732   108431025.40208      -103.886    20312785.334    84335255.98005
       -80.800  
 20 10 02 06 49 50.0000000  0 15G13G27G15G18G20G23G24G10R15R 5R21R 6
                                R16R 7R22
  22577302.948   118644554.90148     -3122.398    22577301.149    92450323.23745
     -2433.043  
  23871548.729   125445832.82647      -437.972    23871550.323    97750011.37449
      -341.277  
  20460450.140   107520450.41049     -1654.132    20460449.534    83782184.71249
     -1288.937  
  20742548.709   109002857.17449     -1600.284    20742548.384    84937286.09448
     -1246.979  
  20444815.206   107438274.74649      1573.065    20444814.184    83718145.66148
      1225.765  
  20769319.646   109143552.36449      1689.054    20769318.982    85046946.50048
      1316.144  
  21811716.073   114621364.12848      2814.688    21811718.390    89315359.63149
      2193.261  
  23072543.756   121247049.04048      2966.874    23072545.859    94478227.40949
      2311.847  
  21691869.873   115914783.20608       -54.034    21691873.361    90155969.83607
       -42.026  
  22766973.509   121702520.54307     -3440.652    22766976.139    94657528.44405
     -2676.065  
  21422562.235   114636452.69107     -3787.862    21422566.571    89161711.89707
     -2946.121  
  19319097.898   103090454.04508      -601.680           0.000           0.0000 
         0.000  
  22185382.237   118510324.26006      3513.168    22185385.090    92174724.92806
      2732.464  
  20925021.281   112013317.80707      2555.930    20925025.816    87121484.39508
      1987.945  
  20312882.537   108431557.98308      -108.859    20312885.139    84335670.20004
       -84.672  
 20 10 02 06 49 55.0000000  0 15G13G27G15G18G20G23G24G10R15R 5R21R 6
                                R16R 7R22
  22580274.536   118660170.57948     -3123.879    22580272.691    92462491.30045
     -2434.191  
  23871967.095   125448031.35147      -441.543    23871968.702    97751724.50349
      -344.062  
  20462025.109   107528727.14549     -1656.551    20462024.543    83788634.10749
     -1290.823  
  20744072.756   109010866.15749     -1603.354    20744072.448    84943526.85148
     -1249.371  
  20443319.417   107430414.35049      1571.027    20443318.402    83712020.68348
      1224.176  
  20767713.369   109135111.54149      1687.249    20767712.771    85040369.24048
      1314.741  
  21809038.947   114607296.13948      2812.347    21809041.327    89304397.56749
      2191.440  
  23069721.116   121232216.02548      2966.210    23069723.192    94466669.21949
      2311.331  
  21691922.406   115915063.73708       -58.202    21691925.859    90156188.03107
       -45.270  
  22770191.756   121719724.35307     -3441.066    22770194.424    94670909.19506
     -2676.391  
  21426102.775   114655399.21107     -3790.659    21426107.142    89176448.07407
     -2948.297  
  19319662.936   103093469.04508      -604.246           0.000           0.0000 
         0.000  
  22182095.071   118492764.33706      3511.117    22182098.261    92161067.19606
      2730.863  
  20922634.303   112000541.47307      2554.312    20922639.029    87111547.24508
      1986.684  
  20312986.780   108432114.59408      -113.660    20312989.427    84336103.12204
       -88.402  
 20 10 02 06 50  0.0000000  0 15G13G27G15G18G20G23G24G10R15R 5R21R 6
                                R16R 7R22
  22583247.049   118675791.17648     -3124.773    22583245.168    92474663.18845
     -2434.891  
  23872388.307   125450244.74147      -444.397    23872389.882    97753449.22649
      -346.284  
  20463602.112   107537014.54049     -1658.594    20463601.573    83795091.81549
     -1292.414  
  20745599.386   109018888.80949     -1605.925    20745599.115    84949778.26648
     -1251.374  
  20441825.332   107422562.91249      1569.265    20441824.324    83705902.68148
      1222.801  
  20766108.608   109126678.59249      1685.698    20766108.049    85033798.10848
      1313.527  
  21806363.814   114593238.65748      2810.344    21806366.285    89293443.68749
      2189.878  
  23066898.924   121217385.15348      2965.793    23066900.971    94455112.69449
      2311.003  
  21691978.908   115915365.44608       -62.484    21691982.381    90156422.69607
       -48.597  
  22773410.188   121736928.99807     -3441.227    22773412.842    94684290.55806
     -2676.477  
  21429645.469   114674356.97907     -3792.823    21429649.877    89191193.00507
     -2949.972  
  19320229.867   103096494.38908      -606.316           0.000           0.0000 
         0.000  
  22178809.791   118475214.71106      3508.722    22178813.280    92147417.51406
      2729.008  
  20920248.702   111987771.78707      2552.999    20920253.520    87101615.26108
      1985.664  
  20313095.181   108432693.59208      -118.280    20313097.857    84336553.46104
       -91.995  
 20 10 02 06 50  5.0000000  0 15G13G27G15G18G20G23G24G10R15R 5R21R 6
                                R16R 7R22
  22586220.897   118691418.91748     -3126.440    22586219.014    92486840.65445
     -2436.188  
  23872812.808   125452475.38247      -448.148    23872814.298    97755187.38949
      -349.210  
  20465181.615   107545314.91649     -1661.477    20465181.082    83801559.64049
     -1294.659  
  20747129.062   109026927.46649     -1609.469    20747128.836    84956042.15448
     -1254.137  
  20440333.397   107414722.77049      1566.741    20440332.401    83699793.47448
      1220.835  
  20764505.805   109118255.86649      1683.265    20764505.288    85027234.94648
      1311.637  
  21803691.133   114579194.03048      2807.386    21803693.659    89282499.82649
      2187.569  
  23064077.573   121202558.72948      2964.629    23064079.591    94443559.64649
      2310.101  
  21692039.837   115915690.63008       -67.667    21692043.304    90156675.62608
       -52.628  
  22776629.232   121754136.72707     -3442.328    22776631.912    94697674.34906
     -2677.371  
  21433190.727   114693328.49207     -3795.820    21433195.187    89205948.62607
     -2952.309  
  19320799.230   103099532.68308      -609.121           0.000           0.0000 
         0.000  
  22175526.953   118457678.10206      3505.777    22175530.748    92133777.91706
      2726.710  
  20917864.853   111975011.07707      2550.968    20917869.696    87091690.26008
      1984.082  
  20313208.214   108433297.18508      -123.309    20313210.877    84337022.92004
       -95.909  
 20 10 02 06 50 10.0000000  0 15G13G27G15G18G20G23G24G10R15R 5R21R 6
                                R16R 7R22
  22589196.148   118707053.96348     -3127.461    22589194.233    92499023.80245
     -2436.988  
  23873240.632   125454723.42547      -451.117    23873241.969    97756939.09749
      -351.526  
  20466763.639   107553628.41549     -1663.867    20466763.089    83808037.69449
     -1296.520  
  20748661.811   109034982.27549     -1612.395    20748661.638    84962318.62648
     -1256.413  
  20438843.640   107406894.07949      1564.819    20438842.650    83693693.19648
      1219.336  
  20762904.988   109109843.51549      1681.636    20762904.525    85020679.87048
      1310.366  
  21801020.949   114565162.46148      2805.108    21801023.515    89271566.12549
      2185.797  
  23061257.089   121187736.95448      2964.179    23061259.079    94432010.21649
      2309.749  
  21692105.123   115916039.55808       -71.929    21692108.661    90156947.01107
       -55.949  
  22779848.966   121771347.77107     -3442.207    22779851.563    94711060.71606
     -2677.276  
  21436738.529   114712313.90307     -3798.336    21436743.104    89220715.05907
     -2954.261  
  19321371.024   103102583.97908      -611.480           0.000           0.0000 
         0.000  
  22172246.475   118440154.59606      3503.363    22172250.462    92120148.52806
      2724.839  
  20915482.755   111962259.61307      2549.690    20915487.668    87081772.45508
      1983.094  
  20313325.941   108433925.83708      -128.140    20313328.622    84337511.87204
       -99.664  
 20 10 02 06 50 15.0000000  0 15G13G27G15G18G20G23G24G10R15R 5R21R 6
                                R16R 7R22
  22592172.543   118722695.05648     -3128.754    22592170.612    92511211.67045
     -2437.988  
  23873671.488   125456987.49747      -454.245    23873672.768    97758703.30549
      -353.956  
  20468347.912   107561953.73149     -1666.167    20468347.351    83814524.95249
     -1298.316  
  20750197.395   109043051.91749     -1615.391    20750197.261    84968606.65548
     -1258.749  
  20437355.826   107399075.52849      1562.793    20437354.838    83687600.82248
      1217.762  
  20761305.896   109101440.26149      1679.816    20761305.477    85014131.87648
      1308.944  
  21798352.995   114551142.45848      2802.796    21798355.583    89260641.45049
      2183.995  
  23058437.237   121172918.53048      2963.496    23058439.199    94420463.40149
      2309.219  
  21692174.636   115916410.76708       -76.304    21692178.187    90157235.72407
       -59.348  
  22783068.995   121788560.70207     -3442.944    22783071.578    94724448.52905
     -2677.852  
  21440288.673   114731311.82007     -3800.855    21440293.354    89235491.20807
     -2956.226  
  19321945.025   103105647.01708      -613.832           0.000           0.0000 
         0.000  
  22168968.399   118422642.86006      3501.343    22168972.287    92106528.28206
      2723.261  
  20913102.172   111949516.01307      2548.003    20913107.095    87071860.76808
      1981.776  
  20313448.129   108434577.86908      -132.647    20313450.777    84338019.00504
      -103.175  
 20 10 02 06 50 20.0000000  0 15G13G27G15G18G20G23G24G10R15R 5R21R 6
                                R16R 7R22
  22595150.061   118738341.95948     -3130.163    22595148.175    92523404.04345
     -2439.094  
  23874105.391   125459267.48447      -457.737    23874106.562    97760479.93049
      -356.679  
  20469934.409   107570290.67349     -1668.656    20469933.818    83821021.26949
     -1300.253  
  20751735.763   109051136.21949     -1618.554    20751735.670    84974906.11848
     -1261.210  
  20435869.918   107391266.93549      1560.522    20435868.935    83681516.20548
      1215.991  
  20759708.506   109093045.89049      1677.930    20759708.087    85007590.80148
      1307.473  
  21795687.211   114537133.94848      2800.257    21795689.838    89249725.73549
      2182.020  
  23055617.985   121158103.26048      2962.359    23055619.922    94408919.02849
      2308.327  
  21692248.249   115916804.10208       -80.938    21692251.793    90157541.65007
       -62.956  
  22786289.321   121805775.40807     -3443.043    22786291.930    94737837.74906
     -2677.925  
  21443841.060   114750321.92107     -3803.387    21443845.904    89250276.83707
     -2958.194  
  19322521.193   103108721.56308      -616.238           0.000           0.0000 
         0.000  
  22165692.326   118405142.53606      3498.331    22165696.252    92092916.92706
      2720.926  
  20910723.037   111936779.87907      2546.305    20910727.894    87061954.89008
      1980.461  
  20313574.664   108435253.35408      -137.633    20313577.311    84338544.38504
      -107.046  
 20 10 02 06 50 25.0000000  0 15G13G27G15G18G20G23G24G10R15R 5R21R 6
                                R16R 7R22
  22598128.888   118753995.70348     -3131.554    22598127.066    92535601.75945
     -2440.175  
  23874542.477   125461564.39047      -461.102    23874543.596    97762269.73249
      -359.300  
  20471523.318   107578640.25549     -1671.206    20471522.706    83827527.43849
     -1302.238  
  20753277.098   109059236.17549     -1621.758    20753277.046    84981217.76248
     -1263.710  
  20434386.108   107383469.33749      1558.348    20434385.123    83675440.14848
      1214.293  
  20758113.004   109084661.44349      1675.780    20758112.598    85001057.47748
      1305.804  
  21793023.843   114523138.07648      2797.862    21793026.482    89238819.86049
      2180.147  
  23052799.564   121143292.13948      2961.727    23052801.432    94397377.90849
      2307.840  
  21692326.160   115917220.61808       -85.769    21692329.725    90157865.61207
       -66.714  
  22789510.182   121822992.84907     -3443.933    22789512.783    94751229.11006
     -2678.608  
  21447395.986   114769345.39207     -3806.137    21447400.870    89265072.86107
     -2960.331  
  19323099.683   103111808.55608      -618.738           0.000           0.0000 
         0.000  
  22162418.671   118387655.13706      3496.034    22162422.758    92079315.63206
      2719.137  
  20908345.554   111924052.67907      2544.530    20908350.381    87052055.94708
      1979.074  
  20313705.758   108435953.26808      -142.531    20313708.430    84339088.76904
      -110.813  
 20 10 02 06 50 30.0000000  0 15G13G27G15G18G20G23G24G10R15R 5R21R 6
                                R16R 7R22
  22601108.989   118769656.33548     -3132.800    22601107.216    92547804.85246
     -2441.148  
  23874982.800   125463878.23648      -464.352    23874983.871    97764072.70949
      -361.835  
  20473114.648   107587002.53449     -1673.711    20473114.027    83834043.50649
     -1304.190  
  20754821.432   109067351.86549     -1624.671    20754821.432    84987541.67448
     -1265.980  
  20432904.405   107375682.81149      1556.195    20432903.397    83669372.72748
      1212.617  
  20756519.414   109076287.00549      1673.855    20756519.041    84994531.94448
      1304.305  
  21790362.860   114509154.79648      2795.359    21790365.523    89227923.80249
      2178.203  
  23049981.966   121128485.31548      2960.952    23049983.774    94385840.13049
      2307.233  
  21692408.508   115917660.41408       -90.293    21692412.085    90158207.66708
       -70.226  
  22792731.555   121840213.18607     -3444.265    22792734.202    94764622.70106
     -2678.878  
  21450953.406   114788382.11507     -3808.789    21450958.326    89279879.18707
     -2962.394  
  19323680.449   103114907.88808      -621.210           0.000           0.0000 
         0.000  
  22159147.307   118370180.37606      3493.961    22159151.592    92065724.16406
      2717.523  
  20905969.681   111911334.13407      2542.832    20905974.469    87042163.76108
      1977.757  
  20313841.491   108436677.65908      -147.296    20313844.175    84339652.17104
      -114.565  
 20 10 02 06 50 35.0000000  0 15G13G27G15G18G20G23G24G10R15R 5R21R 6
                                R16R 7R22
  22604090.412   118785324.10148     -3134.226    22604088.758    92560013.48845
     -2442.258  
  23875426.417   125466209.30347      -467.840    23875427.395    97765889.11849
      -364.554  
  20474708.457   107595377.77649     -1676.249    20474707.821    83840569.66649
     -1306.167  
  20756368.831   109075483.52949     -1628.054    20756368.868    84993878.04148
     -1268.612  
  20431424.854   107367907.59549      1553.913    20431423.824    83663314.12248
      1210.843  
  20754927.794   109067922.83249      1671.749    20754927.430    84988014.40548
      1302.660  
  21787704.386   114495184.41948      2792.848    21787707.034    89217037.79849
      2176.246  
  23047165.226   121113682.99348      2959.796    23047167.004    94374305.86849
      2306.335  
  21692495.185   115918123.68208       -94.898    21692498.864    90158567.99407
       -73.812  
  22795953.445   121857436.56507     -3445.039    22795956.142    94778018.67705
     -2679.477  
  21454513.374   114807432.47207     -3811.632    21454518.356    89294696.13307
     -2964.605  
  19324263.714   103118020.33408      -623.870           0.000           0.0000 
         0.000  
  22155878.459   118352718.59306      3491.074    22155882.848    92052142.78706
      2715.281  
  20903595.401   111898624.61607      2541.159    20903600.203    87032278.58508
      1976.457  
  20313981.831   108437426.74508      -152.426    20313984.564    84340234.79104
      -118.559  
 20 10 02 06 50 40.0000000  0 15G13G27G15G18G20G23G24G10R15R 5R21R 6
                                R16R 7R22
  22607072.938   118800997.56848     -3135.133    22607071.349    92572226.57245
     -2442.965  
  23875873.002   125468556.18648      -470.917    23875873.940    97767717.86049
      -366.949  
  20476304.446   107603764.53749     -1678.335    20476303.801    83847104.81649
     -1307.793  
  20757918.987   109083629.72049     -1630.733    20757919.060    85000225.72348
     -1270.703  
  20429947.191   107360142.29749      1552.233    20429946.121    83657263.23948
      1209.534  
  20753337.857   109059567.49849      1670.379    20753337.502    84981503.76048
      1301.594  
  21785048.042   114481225.39448      2790.902    21785050.719    89206160.63349
      2174.727  
  23044349.051   121098883.74048      2959.699    23044350.792    94362773.97949
      2306.253  
  21692585.996   115918609.04308       -99.184    21692589.782    90158945.49407
       -77.148  
  22799175.581   121874661.54307     -3444.859    22799178.471    94791415.89306
     -2679.335  
  21458075.587   114826494.87307     -3813.604    21458080.635    89309522.44007
     -2966.140  
  19324849.114   103121144.07708      -625.746           0.000           0.0000 
         0.000  
  22152611.761   118335268.63106      3489.065    22152616.201    92038570.59606
      2713.718  
  20901222.612   111885922.85607      2539.875    20901227.401    87022399.44308
      1975.456  
  20314126.518   108438199.15708      -156.672    20314129.203    84340835.56004
      -121.855  
 20 10 02 06 50 45.0000000  0 15G13G27G15G18G20G23G24G10R15R 5R21R 6
                                R16R 7R22
  22610056.451   118816676.09648     -3136.608    22610054.856    92584443.59845
     -2444.113  
  23876322.444   125470918.20847      -474.508    23876323.364    97769558.39749
      -369.750  
  20477902.473   107612162.15949     -1681.093    20477901.851    83853648.40649
     -1309.945  
  20759471.810   109091789.82549     -1633.878    20759471.936    85006584.24148
     -1273.155  
  20428471.289   107352386.28849      1549.824    20428470.179    83651219.59648
      1207.656  
  20751749.491   109051220.39349      1668.069    20751749.115    84974999.51748
      1299.793  
  21782393.799   114467277.16148      2788.078    21782396.437    89195291.88549
      2172.526  
  23041533.349   121084087.00048      2958.659    23041535.051    94351244.05449
      2305.445  
  21692680.823   115919115.80208      -103.945    21692684.677    90159339.64807
       -80.847  
  22802397.968   121891887.64107     -3445.507    22802400.964    94804813.95006
     -2679.844  
  21461640.010   114845568.79107     -3816.511    21461645.099    89324357.68507
     -2968.401  
  19325436.517   103124278.59908      -628.543           0.000           0.0000 
         0.000  
  22149347.123   118317829.42907      3486.492    22149351.586    92025006.78206
      2711.715  
  20898851.093   111873228.11707      2537.815    20898855.835    87012525.76108
      1973.855  
  20314275.453   108438994.08508      -161.698    20314278.118    84341453.83104
      -125.770  
 20 10 02 06 50 50.0000000  0 15G13G27G15G18G20G23G24G10R15R 5R21R 6
                                R16R 7R22
  22613041.564   118832362.94248     -3137.831    22613039.952    92596667.10045
     -2445.065  
  23876775.391   125473298.64647      -477.472    23876776.333    97771413.28949
      -372.059  
  20479503.179   107620573.89849     -1683.386    20479502.567    83860203.00749
     -1311.733  
  20761027.912   109099967.10449     -1636.839    20761028.043    85012956.14548
     -1275.464  
  20426997.754   107344642.83749      1547.758    20426996.634    83645185.74148
      1206.046  
  20750163.324   109042884.77549      1666.374    20750162.930    84968504.23048
      1298.469  
  21779742.282   114453343.21748      2785.683    21779744.896    89184434.26749
      2170.663  
  23038718.737   121069295.99048      2958.046    23038720.392    94339718.58949
      2304.973  
  21692780.275   115919647.33608      -108.358    21692784.164    90159753.04407
       -84.284  
  22805621.128   121909117.96207     -3446.120    22805624.236    94818215.30806
     -2680.319  
  21465207.301   114864657.49107     -3818.675    21465212.308    89339204.44807
     -2970.086  
  19326026.594   103127427.23908      -630.808           0.000           0.0000 
         0.000  
  22146085.239   118300404.65607      3483.918    22146089.598    92011454.19606
      2709.715  
  20896481.407   111860543.44407      2536.351    20896486.128    87002659.90908
      1972.718  
  20314429.245   108439815.03708      -166.425    20314431.856    84342092.34304
      -129.445  
 20 10 02 06 50 55.0000000  0 15G13G27G15G18G20G23G24G10R15R 5R21R 6
                                R16R 7R22
  22616027.827   118848055.79448     -3138.871    22616026.159    92608895.30245
     -2445.878  
  23877231.413   125475695.15647      -480.336    23877232.378    97773280.68649
      -374.293  
  20481106.110   107628997.48049     -1685.604    20481105.529    83866766.83749
     -1313.456  
  20762586.841   109108159.23849     -1639.687    20762586.998    85019339.61948
     -1277.683  
  20425526.175   107336909.63949      1545.972    20425525.018    83639159.87448
      1204.652  
  20748578.920   109034558.33549      1664.647    20748578.477    84962016.09748
      1297.125  
  21777093.018   114439421.08748      2783.655    21777095.581    89173585.86149
      2169.081  
  23035904.764   121054508.43048      2957.366    23035906.392    94328195.82249
      2304.440  
  21692883.980   115920201.28408      -112.586    21692887.845    90160183.90107
       -87.566  
  22808844.609   121926350.25507     -3446.241    22808847.897    94831618.18706
     -2680.414  
  21468776.939   114883758.59407     -3821.007    21468781.767    89354060.85707
     -2971.898  
  19326618.787   103130587.32708      -633.085           0.000           0.0000 
         0.000  
  22142825.568   118282991.88907      3481.789    22142829.818    91997910.93805
      2708.059  
  20894113.250   111847866.82307      2534.718    20894117.911    86992800.32708
      1971.449  
  20314587.449   108440659.66608      -170.961    20314589.972    84342749.28404
      -132.973  
 20 10 02 06 51  0.0000000  0 15G13G27G15G18G20G23G24G10R15R 5R21R 6
                                R16R 7R22
  22619015.083   118863753.86948     -3140.527    22619013.420    92621127.57645
     -2447.163  
  23877690.320   125478107.00747      -484.223    23877691.392    97775160.05449
      -377.320  
  20482711.121   107637432.09149     -1688.418    20482710.590    83873339.26549
     -1315.648  
  20764148.457   109116365.43049     -1643.059    20764148.608    85025734.05748
     -1280.308  
  20424056.391   107329185.93649      1543.362    20424055.222    83633141.40048
      1202.617  
  20746996.107   109026240.31649      1662.332    20746995.602    84955534.51948
      1295.323  
  21774445.872   114425509.99048      2780.762    21774448.374    89162746.05149
      2166.828  
  23033091.282   121039723.51148      2956.581    23033092.923    94316675.10949
      2303.832  
  21692991.703   115920776.86308      -117.730    21692995.585    90160631.56507
       -91.570  
  22812068.306   121943583.69807     -3447.484    22812071.852    94845021.97806
     -2681.378  
  21472348.667   114902871.19907     -3824.156    21472353.392    89368926.21907
     -2974.344  
  19327213.063   103133758.43808      -635.659           0.000           0.0000 
         0.000  
  22139568.028   118265590.28806      3479.093    22139572.062    91984376.37405
      2705.961  
  20891746.436   111835197.24107      2532.848    20891751.028    86982946.20208
      1969.988  
  20314749.974   108441527.08208      -176.159    20314752.430    84343423.93704
      -137.015  
 20 10 02 06 51  5.0000000  0 15G13G27G15G18G20G23G24G10R15R 5R21R 6
                                R16R 7R22
  22622003.841   118879459.74048     -3141.651    22622002.121    92633365.90245
     -2448.043  
  23878152.670   125480536.76547      -487.558    23878153.790    97777053.37449
      -379.913  
  20484318.720   107645880.30049     -1690.652    20484318.245    83879922.27749
     -1317.394  
  20765713.237   109124588.27749     -1645.887    20765713.372    85032141.47348
     -1282.511  
  20422588.907   107321474.28749      1541.414    20422587.715    83627132.32848
      1201.097  
  20745415.382   109017933.29749      1660.605    20745414.829    84949061.52148
      1293.976  
  21771801.332   114411612.55848      2778.522    21771803.734    89151916.88249
      2165.078  
  23030278.796   121024943.89348      2955.726    23030280.472    94305158.52749
      2303.163  
  21693103.898   115921376.55208      -122.155    21693107.877    90161097.99307
       -95.015  
  22815292.864   121960820.93607     -3447.101    22815296.473    94858428.69606
     -2681.081  
  21475923.081   114921997.98507     -3826.534    21475927.649    89383802.59707
     -2976.199  
  19327809.877   103136943.15008      -637.988           0.000           0.0000 
         0.000  
  22136313.048   118248202.55206      3476.723    22136316.883    91970852.57805
      2704.117  
  20889381.521   111822537.63107      2531.280    20889385.996    86973099.84708
      1968.773  
  20314917.250   108442419.91808      -180.722    20314919.636    84344118.36804
      -140.563  
 20 10 02 06 51 10.0000000  0 15G13G27G15G18G20G23G24G10R15R 5R21R 6
                                R16R 7R22
  22624993.402   118895170.14748     -3142.741    22624991.718    92645607.77145
     -2448.894  
  23878617.828   125482981.16047      -490.597    23878619.013    97778958.10249
      -382.289  
  20485928.292   107654338.87449     -1692.914    20485927.872    83886513.37149
     -1319.155  
  20767280.570   109132824.51349     -1648.757    20767280.699    85038559.31948
     -1284.750  
  20421123.095   107313771.48749      1539.449    20421121.898    83621130.14548
      1199.570  
  20743836.116   109009634.04449      1658.862    20743835.550    84942594.57448
      1292.620  
  21769158.787   114397725.60948      2776.023    21769161.113    89141095.88549
      2163.136  
  23027466.694   121010166.29048      2955.097    23027468.435    94293643.51749
      2302.672  
  21693220.064   115921997.24908      -126.507    21693224.128    90161580.75207
       -98.397  
  22818517.448   121978058.62407     -3447.913    22818521.210    94871835.76905
     -2681.788  
  21479499.533   114941135.70407     -3828.784    21479503.928    89398687.48507
     -2977.949  
  19328408.596   103140138.03108      -640.313           0.000           0.0000 
         0.000  
  22133060.042   118230825.42406      3474.101    22133063.658    91957337.05605
      2702.081  
  20887017.871   111809884.33107      2529.797    20887022.170    86963258.39008
      1967.620  
  20315088.652   108443334.87508      -185.651    20315091.023    84344830.00004
      -144.397  
 20 10 02 06 51 15.0000000  0 15G13G27G15G18G20G23G24G10R15R 5R21R 6
                                R16R 7R22
  22627984.335   118910887.54548     -3144.300    22627982.642    92657855.10245
     -2450.104  
  23879086.240   125485442.71048      -494.063    23879087.501    97780876.16949
      -384.988  
  20487540.312   107662810.28649     -1695.656    20487539.935    83893114.46849
     -1321.293  
  20768850.911   109141076.61549     -1652.022    20768851.013    85044989.52548
     -1287.292  
  20419659.435   107306080.05849      1536.983    20419658.253    83615136.82648
      1197.647  
  20742258.801   109001345.03949      1656.746    20742258.236    84936135.61148
      1290.969  
  21766518.677   114383851.52148      2773.488    21766520.942    89130284.91949
      2161.160  
  23024655.439   120995393.17348      2953.973    23024657.274    94282132.00549
      2301.797  
  21693340.615   115922641.33908      -131.164    21693344.721    90162081.70907
      -102.020  
  22821742.660   121995299.35507     -3448.362    22821746.508    94885245.20305
     -2682.065  
  21483078.407   114960286.73207     -3831.835    21483082.732    89413582.72707
     -2980.320  
  19329009.701   103143345.66908      -642.910           0.000           0.0000 
         0.000  
  22129809.363   118213461.44206      3471.418    22129812.924    91943831.76105
      2699.996  
  20884655.934   111797240.22707      2527.949    20884660.079    86953424.09308
      1966.184  
  20315264.734   108444274.46408      -190.538    20315266.985    84345560.78304
      -148.198  
 20 10 02 06 51 20.0000000  0 15G13G27G15G18G20G23G24G10R15R 5R21R 6
                                R16R 7R22
  22630976.502   118926611.61548     -3145.327    22630974.817    92670107.62345
     -2450.910  
  23879557.870   125487920.98547      -497.176    23879559.202    97782807.29949
      -387.414  
  20489154.730   107671294.20549     -1697.913    20489154.386    83899725.31349
     -1323.054  
  20770424.219   109149344.25049     -1655.043    20770424.292    85051431.84148
     -1289.647  
  20418197.905   107298399.63249      1535.030    20418196.693    83609152.07548
      1196.124  
  20740683.369   108993065.96649      1654.879    20740682.796    84929684.38448
      1289.511  
  21763880.980   114369990.17148      2771.116    21763883.178    89119483.87149
      2159.313  
  23021845.018   120980624.24948      2953.495    23021846.903    94270623.75449
      2301.425  
  21693465.475   115923308.58708      -135.633    21693469.569    90162600.70007
      -105.492  
  22824968.325   122012542.75607     -3448.840    22824972.246    94898656.72305
     -2682.433  
  21486659.784   114979450.81207     -3834.046    21486664.012    89428488.11207
     -2982.039  
  19329613.161   103146565.84908      -645.167           0.000           0.0000 
         0.000  
  22126561.174   118196110.26106      3469.058    22126564.636    91930336.40805
      2698.155  
  20882295.586   111784604.66107      2526.363    20882299.651    86943596.43708
      1964.949  
  20315445.332   108445238.38508      -194.995    20315447.545    84346310.49904
      -151.667  
 20 10 02 06 51 25.0000000  0 15G13G27G15G18G20G23G24G10R15R 5R21R 6
                                R16R 7R22
  22633969.756   118942341.51748     -3146.433    22633968.127    92682364.69445
     -2451.766  
  23880032.541   125490415.30548      -500.456    23880033.932    97784750.92649
      -389.969  
  20490771.402   107679789.83849     -1700.054    20490771.036    83906345.28649
     -1324.723  
  20772000.322   109157626.63349     -1657.792    20772000.384    85057885.64148
     -1291.788  
  20416738.306   107290729.45149      1533.183    20416737.097    83603175.30648
      1194.684  
  20739109.648   108984796.03549      1653.214    20739109.126    84923240.28348
      1288.214  
  21761245.536   114356140.63248      2768.862    21761247.667    89108692.02249
      2157.555  
  23019035.231   120965858.71448      2952.827    23019037.192    94259118.14449
      2300.905  
  21693594.454   115923998.15308      -139.992    21693598.536    90163137.02307
      -108.886  
  22828194.382   122029787.91507     -3448.906    22828198.312    94912069.60005
     -2682.527  
  21490243.411   114998627.02507     -3836.413    21490247.615    89443402.95207
     -2983.878  
  19330218.790   103149797.60308      -647.433           0.000           0.0000 
         0.000  
  22123315.180   118178771.17806      3466.718    22123318.624    91916850.47705
      2696.339  
  20879936.756   111771977.06808      2524.761    20879940.758    86933774.98708
      1963.703  
  20315630.356   108446225.86808      -199.854    20315632.571    84347078.53904
      -155.375  
 20 10 02 06 51 30.0000000  0 15G13G27G15G18G20G23G24G10R15R 5R21R 6
                                R16R 7R22
  22636964.263   118958077.94848     -3147.852    22636962.714    92694626.84145
     -2452.875  
  23880510.347   125492926.25447      -503.687    23880511.825    97786707.50849
      -392.488  
  20492390.430   107688297.82849     -1702.805    20492390.038    83912974.89349
     -1326.859  
  20773579.331   109165924.41549     -1661.046    20773579.406    85064351.44048
     -1294.323  
  20415280.790   107283070.15449      1530.835    20415279.582    83597207.02748
      1192.858  
  20737537.794   108976535.91949      1651.176    20737537.331    84916803.82548
      1286.625  
  21758612.488   114342303.68648      2766.254    21758614.592    89097909.98749
      2155.520  
  23016226.225   120951097.26148      2951.742    23016228.268    94247615.72649
      2300.059  
  21693727.783   115924710.72008      -144.816    21693731.741    90163691.24407
      -112.641  
  22831420.827   122047035.64107     -3449.651    22831424.716    94925484.51205
     -2683.063  
  21493829.494   115017816.12907     -3838.973    21493833.622    89458327.79807
     -2985.871  
  19330826.706   103153041.49708      -649.992           0.000           0.0000 
         0.000  
  22120071.497   118161444.82306      3463.984    22120075.049    91903374.42205
      2694.210  
  20877579.432   111759357.97008      2522.965    20877583.472    86923960.13108
      1962.305  
  20315819.886   108447237.50108      -204.788    20315822.130    84347865.37004
      -159.281  
 20 10 02 06 51 35.0000000  0 15G13G27G15G18G20G23G24G10R15R 5R21R 6
                                R16R 7R22
  22639960.129   118973821.54948     -3149.332    22639958.632    92706894.59445
     -2454.023  
  23880991.499   125495454.47747      -507.323    23880993.045    97788677.55549
      -395.320  
  20494011.923   107696818.70749     -1705.253    20494011.485    83919614.54049
     -1328.769  
  20775161.392   109174238.16849     -1664.202    20775161.467    85070829.68648
     -1296.784  
  20413825.460   107275422.31149      1528.737    20413824.238    83591247.66548
      1191.223  
  20735967.927   108968286.21449      1649.159    20735967.496    84910375.48948
      1285.058  
  21755981.941   114328479.78248      2763.746    21755984.008    89087138.12449
      2153.570  
  23013418.109   120936340.47848      2951.129    23013420.229    94236116.93449
      2299.577  
  21693865.523   115925446.91608      -149.449    21693869.298    90164263.83807
      -116.238  
  22834647.931   122064286.45607     -3450.121    22834651.781    94938901.79505
     -2683.430  
  21497417.953   115037018.60607     -3841.573    21497422.130    89473263.05207
     -2987.895  
  19331437.055   103156298.27908      -652.444           0.000           0.0000 
         0.000  
  22116830.365   118144131.80506      3461.383    22116833.992    91889908.73706
      2692.184  
  20875223.815   111746748.17007      2521.125    20875227.933    86914152.51908
      1960.875  
  20316014.045   108448273.96508      -209.617    20316016.309    84348671.50304
      -163.039  
 20 10 02 06 51 40.0000000  0 15G13G27G15G18G20G23G24G10R15R 5R21R 6
                                R16R 7R22
  22642956.993   118989570.58148     -3150.694    22642955.557    92719166.56045
     -2455.086  
  23881475.567   125497998.05147      -510.762    23881477.125    97790659.56249
      -397.995  
  20495635.514   107705350.60949     -1707.878    20495635.045    83926262.77949
     -1330.816  
  20776746.117   109182566.01949     -1667.363    20776746.211    85077318.91648
     -1299.245  
  20412371.963   107267784.10349      1526.297    20412370.743    83585295.81948
      1189.315  
  20734399.685   108960045.04349      1647.038    20734399.300    84903953.80148
      1283.406  
  21753353.512   114314667.10948      2760.917    21753355.560    89076375.00649
      2151.363  
  23010610.535   120921586.48448      2950.145    23010612.722    94224620.31849
      2298.813  
  21694007.375   115926204.74208      -154.214    21694010.972    90164853.25507
      -119.949  
  22837875.291   122081538.51507     -3451.187    22837879.032    94952320.07205
     -2684.258  
  21501008.623   115056232.62707     -3844.515    21501012.773    89488207.28607
     -2990.184  
  19332049.415   103159565.88808      -655.116           0.000           0.0000 
         0.000  
  22113591.409   118126830.29206      3458.484    22113595.191    91876452.01906
      2689.934  
  20872869.522   111734145.54907      2519.229    20872873.740    86904350.48208
      1959.401  
  20316212.536   108449333.33608      -214.507    20316214.741    84349495.45404
      -166.844  
 20 10 02 06 51 45.0000000  0 15G13G27G15G18G20G23G24G10R15R 5R21R 6
                                R16R 7R22
  22645955.339   119005327.34048     -3151.964    22645954.005    92731444.54745
     -2456.081  
  23881963.087   125500559.45448      -513.641    23881964.613    97792655.46049
      -400.238  
  20497261.662   107713896.01349     -1710.226    20497261.159    83932921.53749
     -1332.647  
  20778334.002   109190910.43749     -1670.270    20778334.071    85083821.06248
     -1301.507  
  20410920.786   107260157.98949      1524.222    20410919.565    83579353.39448
      1187.707  
  20732833.539   108951814.92249      1645.102    20732833.176    84897540.72448
      1281.894  
  21750727.719   114300868.25648      2758.605    21750729.756    89065622.65149
      2149.558  
  23007803.947   120906837.76648      2949.519    23007806.212    94213127.81549
      2298.328  
  21694153.752   115926986.81408      -158.629    21694157.181    90165461.52707
      -123.378  
  22841103.373   122098794.27207     -3451.160    22841107.006    94965741.19705
     -2684.238  
  21504601.846   115075460.59607     -3846.530    21504605.992    89503162.36707
     -2991.749  
  19332664.336   103162847.19308      -657.304           0.000           0.0000 
         0.000  
  22110355.108   118109542.80506      3456.288    22110359.016    91863006.21106
      2688.226  
  20870517.070   111721552.81207      2517.788    20870521.357    86894556.13508
      1958.281  
  20316415.776   108450418.08708      -219.237    20316417.982    84350339.15304
      -170.519  
 20 10 02 06 51 50.0000000  0 15G13G27G15G18G20G23G24G10R15R 5R21R 6
                                R16R 7R22
  22648954.540   119021088.65148     -3152.772    22648953.333    92743726.07745
     -2456.714  
  23882453.400   125503135.72248      -516.844    23882454.897    97794662.93649
      -402.737  
  20498889.814   107722451.97749     -1712.242    20498889.275    83939588.52549
     -1334.214  
  20779924.447   109199268.47249     -1673.070    20779924.537    85090333.81648
     -1303.694  
  20409471.336   107252541.04949      1522.354    20409470.119    83573418.12148
      1186.250  
  20731268.910   108943592.86649      1643.473    20731268.585    84891133.92148
      1280.624  
  21748103.971   114287080.14748      2756.495    21748105.989    89054878.67049
      2147.918  
  23004997.816   120892091.38448      2948.870    23005000.131    94201637.13349
      2297.819  
  21694304.122   115927790.03308      -162.909    21694307.360    90166086.26307
      -126.707  
  22844331.591   122116050.82507     -3451.624    22844335.206    94979162.94705
     -2684.605  
  21508197.189   115094699.56607     -3848.855    21508201.274    89518126.00107
     -2993.559  
  19333281.199   103166138.89108      -659.495           0.000           0.0000 
         0.000  
  22107120.877   118092266.24706      3454.042    22107124.870    91849568.89806
      2686.476  
  20868165.818   111708966.72007      2516.395    20868170.179    86884766.96308
      1957.194  
  20316623.153   108451525.27108      -223.773    20316625.387    84351200.29304
      -174.046  
 20 10 02 06 51 55.0000000  0 15G13G27G15G18G20G23G24G10R15R 5R21R 6
                                R16R 7R22
  22651955.002   119036856.43948     -3154.375    22651953.935    92756012.66645
     -2457.953  
  23882946.931   125505728.74748      -520.569    23882948.354    97796683.46949
      -405.645  
  20500520.317   107731020.36049     -1715.097    20500519.762    83946265.18849
     -1336.441  
  20781517.865   109207641.97049     -1676.484    20781517.944    85096858.61348
     -1306.355  
  20408023.991   107244935.13749      1519.976    20408022.754    83567491.43648
      1184.397  
  20729706.191   108935380.75549      1641.336    20729705.880    84884734.87248
      1278.964  
  21745482.619   114273304.81648      2753.640    21745484.600    89044144.64649
      2145.690  
  23002192.492   120877349.18048      2947.898    23002194.828    94190149.69949
      2297.063  
  21694458.769   115928616.35408      -167.859    21694461.914    90166728.96707
      -130.558  
  22847560.240   122133309.80207     -3452.179    22847563.783    94992586.57905
     -2685.031  
  21511794.909   115113951.35107     -3851.859    21511798.947    89533099.62107
     -2995.891  
  19333900.386   103169442.96108      -662.175           0.000           0.0000 
         0.000  
  22103889.118   118075002.77006      3451.285    22103893.166    91836141.72806
      2684.328  
  20865816.220   111696389.48208      2514.313    20865820.654    86874984.66808
      1955.574  
  20316835.121   108452656.73508      -228.808    20316837.364    84352080.32404
      -177.961  
 20 10 02 06 52  0.0000000  0 15G13G27G15G18G20G23G24G10R15R 5R21R 6
                                R16R 7R22
  22654956.621   119052630.20648     -3155.104    22654955.619    92768303.90545
     -2458.526  
  23883443.485   125508337.87448      -523.180    23883444.832    97798716.55349
      -407.675  
  20502153.051   107739600.55949     -1717.085    20502152.481    83952951.05849
     -1337.991  
  20783114.113   109216030.34449     -1679.112    20783114.182    85103395.00448
     -1308.401  
  20406578.642   107237339.68049      1518.191    20406577.373    83561572.90348
      1183.007  
  20728145.258   108927177.99849      1639.862    20728144.964    84878343.12248
      1277.815  
  21742863.569   114259541.62048      2751.578    21742865.560    89033420.08249
      2144.085  
  22999387.864   120862610.60648      2947.757    22999390.202    94178665.09749
      2296.949  
  21694617.676   115929465.25408      -171.859    21694620.717    90167389.23407
      -133.667  
  22850789.214   122150570.80007     -3452.570    22850792.818    95006011.80705
     -2685.331  
  21515394.940   115133215.34507     -3853.922    21515398.906    89548082.72207
     -2997.499  
  19334521.770   103172758.78508      -664.199           0.000           0.0000 
         0.000  
  22100659.661   118057751.65306      3448.729    22100663.756    91822724.21106
      2682.347  
  20863468.172   111683820.29007      2513.335    20863472.607    86865208.62708
      1954.816  
  20317051.508   108453811.91908      -233.229    20317053.829    84352978.79804
      -181.401  
 20 10 02 06 52  5.0000000  0 15G13G27G15G18G20G23G24G10R15R 5R21R 6
                                R16R 7R22
  22657959.422   119068410.18948     -3157.070    22657958.533    92780599.99045
     -2460.058  
  23883943.193   125510963.54548      -527.129    23883944.497    97800762.53549
      -410.754  
  20503788.108   107748192.90349     -1720.180    20503787.512    83959646.39249
     -1340.401  
  20784713.261   109224433.92449     -1682.660    20784713.321    85109943.24448
     -1311.168  
  20405135.343   107229755.00049      1515.391    20405134.062    83555662.75548
      1180.819  
  20726586.172   108918984.97749      1637.120    20726585.853    84871958.94648
      1275.675  
  21740246.846   114245790.77348      2748.550    21740248.869    89022705.14049
      2141.726  
  22996583.956   120847876.03448      2946.163    22996586.314    94167183.61549
      2295.707  
  21694780.839   115930336.90208      -177.120    21694783.771    90168067.16907
      -137.765  
  22854018.707   122167834.13407     -3453.644    22854022.279    95019438.80105
     -2686.176  
  21518997.314   115152491.93607     -3856.870    21519001.203    89563075.61407
     -2999.792  
  19335145.452   103176086.71308      -667.066           0.000           0.0000 
         0.000  
  22097432.575   118040513.26606      3445.805    22097436.729    91809316.59906
      2680.070  
  20861121.694   111671259.50607      2510.879    20861126.102    86855439.12908
      1952.905  
  20317272.415   108454991.13508      -238.973    20317274.773    84353895.96404
      -185.870  
 20 10 02 06 52 10.0000000  0 15G13G27G15G18G20G23G24G10R15R 5R21R 6
                                R16R 7R22
  22660963.906   119084198.76348     -3158.015    22660963.051    92792902.76945
     -2460.796  
  23884446.482   125513608.00448      -530.335    23884447.733    97802823.14149
      -413.253  
  20505425.894   107756799.68649     -1722.445    20505425.281    83966352.97049
     -1342.163  
  20786315.727   109232855.02949     -1685.531    20786315.779    85116505.13648
     -1313.406  
  20403694.554   107222183.44649      1513.464    20403693.253    83549762.85348
      1179.324  
  20725029.389   108910803.96249      1635.480    20725029.004    84865584.13048
      1274.397  
  21737632.927   114232054.62648      2746.253    21737634.938    89012001.65549
      2139.938  
  22993781.249   120833147.70848      2945.512    22993783.596    94155707.01449
      2295.202  
  21694948.693   115931233.76608      -181.366    21694951.595    90168764.74307
      -141.063  
  22857249.094   122185102.18607     -3453.616    22857252.589    95032869.48205
     -2686.155  
  21522602.470   115171783.35707     -3859.281    21522606.290    89578080.05907
     -3001.667  
  19335771.813   103179429.00308      -669.207           0.000           0.0000 
         0.000  
  22094208.282   118023289.95106      3443.386    22094212.534    91795920.65906
      2678.188  
  20858777.301   111658709.53407      2509.437    20858781.625    86845678.03908
      1951.785  
  20317498.227   108456196.72508      -243.253    20317500.712    84354833.65004
      -189.211  
 20 10 02 06 52 15.0000000  0 15G13G27G15G18G20G23G24G10R15R 5R21R 6
                                R16R 7R22
  22663969.146   119099991.37748     -3159.145    22663968.357    92805208.71445
     -2461.671  
  23884952.432   125516266.63447      -533.281    23884953.668    97804894.79949
      -415.546  
  20507065.561   107765416.38149     -1724.434    20507064.923    83973067.27949
     -1343.718  
  20787920.683   109241289.07149     -1688.222    20787920.709    85123077.11848
     -1315.504  
  20402255.393   107214620.44749      1511.633    20402254.069    83543869.60248
      1177.894  
  20723474.027   108902630.42149      1633.823    20723473.578    84859215.13948
      1273.108  
  21735020.968   114218328.81748      2743.992    21735023.004    89001306.22249
      2138.176  
  22990978.902   120818421.11848      2945.265    22990981.204    94144231.75149
      2295.012  
  21695120.405   115932151.24908      -185.672    21695123.326    90169478.34007
      -144.413  
  22860479.447   122202370.21307     -3453.820    22860482.905    95046300.18905
     -2686.305  
  21526209.467   115191085.06207     -3861.508    21526213.279    89593092.48307
     -3003.397  
  19336399.997   103182781.11508      -671.492           0.000           0.0000 
         0.000  
  22090986.065   118006077.13306      3441.445    22090990.330    91782532.92706
      2676.680  
  20856434.096   111646165.73707      2508.051    20856438.354    86835921.75708
      1950.707  
  20317728.128   108457424.07708      -247.870    20317730.718    84355788.25104
      -192.792  
 20 10 02 06 52 20.0000000  0 15G13G27G15G18G20G23G24G10R15R 5R21R 6
                                R16R 7R22
  22666975.569   119115790.23848     -3160.401    22666974.830    92817519.50345
     -2462.656  
  23885461.487   125518941.79947      -536.648    23885462.712    97806979.34149
      -418.171  
  20508707.530   107774045.20249     -1726.934    20508706.887    83979791.03549
     -1345.664  
  20789528.513   109249738.33649     -1691.297    20789528.527    85129660.95748
     -1317.898  
  20400818.285   107207068.30149      1509.406    20400816.951    83537984.81648
      1176.159  
  20721920.519   108894466.65049      1631.980    20721920.003    84852853.75748
      1271.668  
  21732411.429   114204615.59748      2741.500    21732413.434    88990620.59549
      2136.233  
  22988177.298   120803698.55748      2944.074    22988179.593    94132759.62149
      2294.077  
  21695296.364   115933091.52308      -190.234    21695299.313    90170209.65307
      -147.964  
  22863710.286   122219640.61607     -3454.262    22863713.744    95059732.72706
     -2686.648  
  21529818.831   115210399.24707     -3864.020    21529822.673    89608114.63307
     -3005.352  
  19337030.450   103186145.33108      -673.933           0.000           0.0000 
         0.000  
  22087766.221   117988877.21207      3438.651    22087770.544    91769155.21306
      2674.507  
  20854092.469   111633630.54308      2506.269    20854096.713    86826172.16608
      1949.320  
  20317962.561   108458675.49408      -252.640    20317965.206    84356761.58904
      -196.500  
 20 10 02 06 52 25.0000000  0 15G13G27G15G18G20G23G24G10R15R 5R21R 6
                                R16R 7R22
  22669983.276   119131595.81048     -3161.941    22669982.514    92829835.52745
     -2463.854  
  23885973.753   125521633.92747      -540.105    23885975.031    97809077.10949
      -420.867  
  20510351.913   107782686.65049     -1729.531    20510351.254    83986524.62949
     -1347.690  
  20791139.336   109258203.29949     -1694.612    20791139.356    85136257.03148
     -1320.480  
  20399383.324   107199527.50049      1506.933    20399381.985    83532108.86648
      1174.229  
  20720368.952   108886313.10849      1629.608    20720368.352    84846500.35248
      1269.823  
  21729804.329   114190915.22548      2738.843    21729806.349    88979944.98549
      2134.163  
  22985376.540   120788980.47448      2943.144    22985378.821    94121290.99249
      2293.355  
  21695476.625   115934055.12308      -194.991    21695479.743    90170959.12107
      -151.663  
  22866941.700   122236913.84707     -3454.957    22866945.140    95073167.42305
     -2687.195  
  21533430.532   115229726.43607     -3866.594    21533434.456    89623146.88307
     -3007.354  
  19337663.277   103189522.18408      -676.625           0.000           0.0000 
         0.000  
  22084548.921   117971690.50306      3435.862    22084553.226    91755787.77905
      2672.340  
  20851752.433   111621104.21307      2504.323    20851756.727    86816429.46608
      1947.804  
  20318201.597   108459951.42308      -257.668    20318204.237    84357753.97404
      -200.413  
 20 10 02 06 52 30.0000000  0 15G13G27G15G18G20G23G24G10R15R 5R21R 6
                                R16R 7R22
  22672992.213   119147407.82348     -3163.437    22672991.448    92842156.57745
     -2465.020  
  23886489.129   125524342.68747      -543.793    23886490.467    97811187.82649
      -423.738  
  20511998.649   107791340.36949     -1732.332    20511998.002    83993267.78749
     -1349.871  
  20792753.086   109266683.61349     -1697.937    20792753.106    85142865.06848
     -1323.065  
  20397950.471   107191997.71249      1504.628    20397949.122    83526241.50248
      1172.437  
  20718819.263   108878169.50049      1627.464    20718818.617    84840154.69448
      1268.156  
  21727199.631   114177227.60248      2735.910    21727201.652    88969279.31049
      2131.878  
  22982576.538   120774266.58448      2941.854    22982578.832    94109825.63049
      2292.354  
  21695661.197   115935041.79808      -199.973    21695664.531    90171726.54208
      -155.534  
  22870173.555   122254189.55607     -3455.601    22870176.986    95086604.08506
     -2687.776  
  21537044.681   115249066.26007     -3869.402    21537048.617    89638188.97107
     -3009.535  
  19338298.369   103192911.28208      -679.379           0.000           0.0000 
         0.000  
  22081334.047   117954516.81706      3432.983    22081338.295    91742430.48406
      2670.097  
  20849414.082   111608586.58508      2502.324    20849418.381    86806693.53108
      1946.250  
  20318445.174   108461251.71408      -262.866    20318447.784    84358765.32704
      -204.452  
 20 10 02 06 52 35.0000000  0 15G13G27G15G18G20G23G24G10R15R 5R21R 6
                                R16R 7R22
  22676002.387   119163226.39348     -3164.188    22676001.609    92854482.74544
     -2465.601  
  23887007.708   125527068.24647      -546.593    23887009.116    97813311.63849
      -425.922  
  20513647.748   107800006.50749     -1734.214    20513647.105    84000020.62249
     -1351.339  
  20794369.806   109275179.43749     -1700.582    20794369.814    85149485.18848
     -1325.132  
  20396519.736   107184479.08349      1502.792    20396518.390    83520382.83048
      1171.008  
  20717271.485   108870035.96849      1625.960    20717270.764    84833816.87348
      1266.980  
  21724597.410   114163552.99348      2733.819    21724599.461    88958623.77549
      2130.250  
  22979777.391   120759557.03148      2941.683    22979779.628    94098363.63949
      2292.222  
  21695850.067   115936051.65308      -204.117    21695853.620    90172511.96807
      -158.761  
  22873405.921   122271467.90407     -3455.593    22873409.374    95100042.81106
     -2687.684  
  21540661.105   115268418.88307     -3871.577    21540665.146    89653241.00407
     -3011.229  
  19338935.774   103196312.75408      -681.538           0.000           0.0000 
         0.000  
  22078121.490   117937356.34906      3430.852    22078125.826    91729083.45206
      2668.437  
  20847077.395   111596077.77507      2501.019    20847081.706    86796964.45908
      1945.238  
  20318693.276   108462576.19708      -267.038    20318695.841    84359795.46904
      -207.698  
 20 10 02 06 52 40.0000000  0 15G13G27G15G18G20G23G24G10R15R 5R21R 6
                                R16R 7R22
  22679013.665   119179050.66948     -3165.636    22679012.904    92866813.34045
     -2466.734  
  23887529.259   125529809.69947      -550.246    23887530.789    97815447.83349
      -428.762  
  20515299.079   107808684.18549     -1736.949    20515298.442    84006782.44649
     -1353.473  
  20795989.322   109283689.86449     -1703.656    20795989.302    85156116.68748
     -1327.527  
  20395090.949   107176970.72649      1500.527    20395089.598    83514532.16848
      1169.242  
  20715725.448   108861911.64049      1623.738    20715724.711    84827486.23148
      1265.246  
  21721997.456   114149890.36248      2731.022    21721999.526    88947977.57049
      2128.070  
  22976978.854   120744850.93248      2940.473    22976981.084    94086904.34949
      2291.277  
  21696043.128   115937083.84508      -208.862    21696046.878    90173314.78207
      -162.453  
  22876638.588   122288747.89307     -3456.379    22876642.049    95113482.79206
     -2688.297  
  21544279.760   115287783.34907     -3874.188    21544283.904    89668302.25307
     -3013.261  
  19339575.405   103199725.79508      -683.887           0.000           0.0000 
         0.000  
  22074911.339   117920208.23807      3428.269    22074915.674    91715746.04106
      2666.434  
  20844742.154   111583576.82808      2499.171    20844746.433    86787241.50608
      1943.800  
  20318945.842   108463924.31808      -272.281    20318948.359    84360844.00604
      -211.777  
 20 10 02 06 52 45.0000000  0 15G13G27G15G18G20G23G24G10R15R 5R21R 6
                                R16R 7R22
  22682026.282   119194882.01948     -3166.948    22682025.533    92879149.45745
     -2467.758  
  23888054.092   125532568.43247      -553.069    23888055.755    97817597.51349
      -430.965  
  20516952.860   107817374.80049     -1739.401    20516952.250    84013554.35449
     -1355.382  
  20797611.908   109292216.33349     -1706.905    20797611.850    85162760.68847
     -1330.063  
  20393664.398   107169474.08749      1498.211    20393663.034    83508690.62748
      1167.434  
  20714181.437   108853797.93449      1621.738    20714180.671    84821163.86548
      1263.691  
  21719400.030   114136241.01648      2728.714    21719402.105    88937341.72049
      2126.269  
  22974181.212   120730149.69348      2939.852    22974183.455    94075448.84049
      2290.793  
  21696240.725   115938139.74408      -213.379    21696244.599    90174136.02207
      -165.965  
  22879871.807   122306031.14507     -3456.840    22879875.332    95126925.30506
     -2688.656  
  21547900.790   115307161.05507     -3876.703    21547905.128    89683373.80107
     -3015.218  
  19340217.459   103203151.79208      -686.473           0.000           0.0000 
         0.000  
  22071703.775   117903073.97507      3425.652    22071708.080    91702419.38706
      2664.391  
  20842408.723   111571085.16008      2497.526    20842412.871    86777525.77008
      1942.520  
  20319203.101   108465297.33308      -277.051    20319205.524    84361911.89804
      -215.488  
 20 10 02 06 52 50.0000000  0 15G13G27G15G18G20G23G24G10R15R 5R21R 6
                                R16R 7R22
  22685039.928   119210718.98948     -3167.741    22685039.278    92891489.95745
     -2468.374  
  23888582.011   125535343.01347      -556.456    23888583.753    97819759.51549
      -433.605  
  20518608.839   107826076.87249     -1741.398    20518608.243    84020335.18449
     -1356.937  
  20799237.252   109300757.32349     -1709.612    20799237.191    85169415.99848
     -1332.172  
  20392239.799   107161987.68049      1496.332    20392238.418    83502857.06148
      1165.969  
  20712639.160   108845693.36949      1620.176    20712638.394    84814848.62048
      1262.472  
  21716804.863   114122603.66048      2726.402    21716806.974    88926715.21849
      2124.468  
  22971384.232   120715451.86848      2939.452    22971386.475    94063995.98849
      2290.479  
  21696442.519   115939217.82108      -217.581    21696446.398    90174974.52007
      -169.233  
  22883105.336   122323316.02507     -3457.102    22883108.950    95140369.08206
     -2688.863  
  21551524.001   115326550.49607     -3879.011    21551528.507    89698454.46907
     -3017.011  
  19340861.659   103206589.27208      -688.343           0.000           0.0000 
         0.000  
  22068498.582   117885951.94107      3423.347    22068502.794    91689102.26006
      2662.604  
  20840076.793   111558601.50308      2496.047    20840080.775    86767816.26408
      1941.370  
  20319464.740   108466693.79108      -281.558    20319467.060    84362998.03204
      -218.991  
 20 10 02 06 52 55.0000000  0 15G13G27G15G18G20G23G24G10R15R 5R21R 6
                                R16R 7R22
  22688054.637   119226561.51648     -3169.007    22688054.057    92903834.78845
     -2469.359  
  23889112.911   125538133.40847      -559.930    23889114.742    97821933.85949
      -436.313  
  20520267.006   107834790.44049     -1743.922    20520266.449    84027124.97849
     -1358.901  
  20800865.341   109309312.86049     -1712.628    20800865.295    85176082.65748
     -1334.519  
  20390817.141   107154511.55749      1494.183    20390815.760    83497031.51448
      1164.300  
  20711098.635   108837597.98249      1618.116    20711097.848    84808540.53048
      1260.867  
  21714211.988   114108978.29448      2723.878    21714214.107    88916098.04849
      2122.504  
  22968587.916   120700757.47648      2938.515    22968590.166    94052545.81849
      2289.750  
  21696648.452   115940318.16908      -222.237    21696652.333    90175830.33507
      -172.854  
  22886339.237   122340602.64407     -3457.813    22886342.900    95153814.24106
     -2689.410  
  21555149.499   115345951.64107     -3881.253    21555154.050    89713544.24207
     -3018.758  
  19341507.976   103210038.14108      -690.976           0.000           0.0000 
         0.000  
  22065295.631   117868842.22807      3420.702    22065299.774    91675794.70305
      2660.546  
  20837746.221   111546125.61408      2494.297    20837750.153    86758112.80208
      1940.008  
  20319730.775   108468113.59308      -286.269    20319733.044    84364102.32004
      -222.655  
 20 10 02 06 53  0.0000000  0 15G13G27G15G18G20G23G24G10R15R 5R21R 6
                                R16R 7R22
  22691070.633   119242410.84248     -3170.558    22691070.151    92916184.90845
     -2470.569  
  23889647.122   125540940.83547      -563.155    23889648.960    97824121.45349
      -438.828  
  20521927.586   107843516.62749     -1746.465    20521927.056    84033924.60449
     -1360.887  
  20802496.442   109317884.13849     -1715.772    20802496.375    85182761.56448
     -1336.969  
  20389396.654   107147046.91249      1491.766    20389395.270    83491214.90948
      1162.413  
  20709560.082   108829512.95949      1615.957    20709559.318    84802240.50848
      1259.183  
  21711621.645   114095366.17048      2721.089    21711623.762    88905491.20649
      2120.328  
  22965792.502   120686067.69248      2937.546    22965794.762    94041099.23349
      2288.995  
  21696858.845   115941441.91508      -227.073    21696862.576    90176704.37007
      -176.612  
  22889573.601   122357892.04807     -3458.210    22889577.237    95167261.54206
     -2689.702  
  21558777.437   115365365.81407     -3884.223    21558782.028    89728644.14707
     -3021.066  
  19342156.672   103213499.70808      -693.762           0.000           0.0000 
         0.000  
  22062095.135   117851746.09307      3417.879    22062099.298    91662497.71406
      2658.348  
  20835417.406   111533659.00207      2492.487    20835421.241    86748416.54908
      1938.601  
  20320001.397   108469558.03208      -291.351    20320003.636    84365225.77504
      -226.604  
 20 10 02 06 53  5.0000000  0 15G13G27G15G18G20G23G24G10R15R 5R21R 6
                                R16R 7R22
  22694087.806   119258266.47548     -3171.667    22694087.429    92928539.93745
     -2471.433  
  23890184.491   125543764.88247      -566.386    23890186.327    97826322.00649
      -441.344  
  20523590.500   107852255.01849     -1748.969    20523589.976    84040733.73449
     -1362.835  
  20804130.438   109326470.72249     -1718.854    20804130.370    85189452.40748
     -1339.371  
  20387978.279   107139593.30049      1489.663    20387976.895    83485406.89948
      1160.777  
  20708023.438   108821437.90349      1614.026    20708022.655    84795948.25548
      1257.679  
  21709033.798   114081766.94048      2718.430    21709035.882    88894894.39749
      2118.254  
  22962997.893   120671382.14148      2936.679    22963000.175    94029655.96049
      2288.319  
  21697073.464   115942588.74308      -231.827    21697077.123    90177596.35007
      -180.313  
  22892808.391   122375183.85107     -3458.398    22892812.035    95180710.72806
     -2689.867  
  21562407.702   115384792.41207     -3886.522    21562412.330    89743753.72307
     -3022.854  
  19342807.686   103216973.52208      -695.964           0.000           0.0000 
         0.000  
  22058897.261   117834663.12807      3415.422    22058901.293    91649210.96205
      2656.434  
  20833090.114   111521200.85508      2490.793    20833093.927    86738726.89108
      1937.285  
  20320276.560   108471026.74608      -296.315    20320278.774    84366368.09904
      -230.472  
 20 10 02 06 53 10.0000000  0 15G13G27G15G18G20G23G24G10R15R 5R21R 6
                                R16R 7R22
  22697106.048   119274127.53348     -3172.945    22697105.787    92940899.20145
     -2472.430  
  23890724.849   125546604.57447      -569.832    23890726.657    97828534.75449
      -444.026  
  20525255.576   107861004.67949     -1751.336    20525255.042    84047551.64949
     -1364.679  
  20805767.153   109335071.65549     -1721.777    20805767.113    85196154.43748
     -1341.648  
  20386561.823   107132149.80549      1487.461    20386560.430    83479606.77448
      1159.054  
  20706488.509   108813371.85849      1612.078    20706487.721    84789663.01948
      1256.160  
  21706448.205   114068179.58748      2715.995    21706450.264    88884306.84749
      2116.355  
  22960203.931   120656699.86448      2935.879    22960206.193    94018215.22549
      2287.698  
  21697292.216   115943757.56408      -236.116    21697295.792    90178505.43507
      -183.651  
  22896043.294   122392477.13507     -3459.175    22896047.061    95194161.07906
     -2690.468  
  21566040.112   115404230.57307     -3888.883    21566044.763    89758872.29507
     -3024.687  
  19343460.770   103220458.53208      -698.277           0.000           0.0000 
         0.000  
  22055701.611   117817592.34907      3412.996    22055705.594    91635933.69606
      2654.551  
  20830764.264   111508750.52608      2489.050    20830768.096    86729043.31208
      1935.930  
  20320556.092   108472518.66008      -300.972    20320558.222    84367528.47704
      -234.108  
 20 10 02 06 53 15.0000000  0 15G13G27G15G18G20G23G24G10R15R 5R21R 6
                                R16R 7R22
  22700125.670   119289995.82048     -3174.387    22700125.473    92953264.09345
     -2473.550  
  23891268.538   125549461.74347      -573.145    23891270.299    97830761.12949
      -446.605  
  20526923.146   107869767.53849     -1753.745    20526922.597    84054379.85249
     -1366.559  
  20807406.943   109343688.80849     -1725.008    20807406.932    85202869.10048
     -1344.164  
  20385147.623   107124718.25949      1485.211    20385146.246    83473815.95948
      1157.304  
  20704955.662   108805316.69049      1609.918    20704954.874    84783386.26748
      1254.476  
  21703865.220   114054605.84748      2713.516    21703867.268    88873729.91049
      2114.429  
  22957410.923   120642022.72948      2935.051    22957413.171    94006778.48849
      2287.046  
  21697515.457   115944950.34008      -240.824    21697518.886    90179433.15907
      -187.308  
  22899278.977   122409773.87607     -3459.718    22899282.711    95207614.08706
     -2690.863  
  21569675.046   115423682.05807     -3891.617    21569679.639    89774001.22307
     -3026.816  
  19344116.305   103223956.81108      -700.898           0.000           0.0000 
         0.000  
  22052508.562   117800535.68707      3410.094    22052512.560    91622667.40806
      2652.297  
  20828440.212   111496309.78608      2487.316    20828444.054    86719367.18408
      1934.577  
  20320840.273   108474035.69708      -305.688    20320842.415    84368708.39704
      -237.762  
 20 10 02 06 53 20.0000000  0 15G13G27G15G18G20G23G24G10R15R 5R21R 6
                                R16R 7R22
  22703146.172   119305868.66348     -3174.964    22703145.964    92965632.53045
     -2474.003  
  23891815.069   125552333.78247      -575.840    23891816.763    97832999.05849
      -448.711  
  20528592.708   107878540.83349     -1755.667    20528592.115    84061216.18749
     -1368.058  
  20809049.305   109352319.50749     -1727.438    20809049.338    85209594.31948
     -1346.058  
  20383735.175   107117296.01349      1483.530    20383733.824    83468032.39048
      1155.996  
  20703424.383   108797269.76649      1608.468    20703423.580    84777115.93448
      1253.347  
  21701284.348   114041043.15248      2711.382    21701286.372    88863161.57449
      2112.762  
  22954618.389   120627348.08248      2934.742    22954620.644    93995343.71049
      2286.812  
  21697742.677   115946164.40708      -244.909    21697745.958    90180377.42107
      -190.487  
  22902514.749   122427071.17807     -3459.699    22902518.529    95221067.54206
     -2690.883  
  21573312.008   115443144.20807     -3893.305    21573316.529    89789138.43707
     -3028.129  
  19344773.788   103227465.39208      -702.680           0.000           0.0000 
         0.000  
  22049317.641   117783490.55007      3407.710    22049321.698    91609410.08506
      2650.441  
  20826117.503   111483875.95608      2486.140    20826121.304    86709696.43208
      1933.664  
  20321128.684   108475575.16108      -310.043    20321130.838    84369905.75604
      -241.147  
 20 10 02 06 53 25.0000000  0 15G13G27G15G18G20G23G24G10R15R 5R21R 6
                                R16R 7R22
  22706167.658   119321746.46348     -3176.210    22706167.401    92978004.84046
     -2474.969  
  23892364.531   125555221.07047      -579.328    23892366.133    97835248.88349
      -451.430  
  20530264.338   107887324.96149     -1758.020    20530263.677    84068060.95749
     -1369.891  
  20810694.298   109360964.16049     -1730.594    20810694.374    85216330.40448
     -1348.519  
  20382324.578   107109883.52649      1481.292    20382323.268    83462256.43048
      1154.253  
  20701894.754   108789231.47849      1606.569    20701893.945    84770852.33948
      1251.870  
  21698705.683   114027492.01748      2708.937    21698707.701    88852602.25149
      2110.858  
  22951826.420   120612676.31448      2933.858    22951828.654    93983911.16649
      2286.124  
  21697973.916   115947400.13908      -249.472    21697977.112    90181338.55107
      -194.035  
  22905750.804   122444369.59107     -3460.183    22905754.530    95234521.85406
     -2691.258  
  21576951.044   115462617.46107     -3895.941    21576955.485    89804284.28607
     -3030.179  
  19345433.342   103230984.90008      -705.206           0.000           0.0000 
         0.000  
  22046128.954   117766457.24607      3405.140    22046133.090    91596161.96706
      2648.441  
  20823796.075   111471449.45007      2484.339    20823799.935    86700031.37008
      1932.265  
  20321421.353   108477137.54108      -314.898    20321423.508    84371120.93404
      -244.925  
 20 10 02 06 53 30.0000000  0 15G13G27G15G18G20G23G24G10R15R 5R21R 6
                                R16R 7R22
  22709190.541   119337631.59948     -3177.953    22709190.237    92990382.88045
     -2476.328  
  23892917.318   125558125.92447      -582.969    23892918.854    97837512.40449
      -454.265  
  20531938.467   107896122.25649     -1760.895    20531937.732    84074915.99249
     -1372.125  
  20812342.406   109369625.08849     -1734.015    20812342.516    85223079.17748
     -1351.184  
  20380916.303   107102483.15049      1478.645    20380914.993    83456489.90248
      1152.191  
  20700367.217   108781204.18949      1604.191    20700366.402    84764597.30548
      1250.015  
  21696129.647   114013954.79348      2705.938    21696131.669    88842053.76849
      2108.519  
  22949035.488   120598009.83648      2932.546    22949037.649    93972482.74749
      2285.102  
  21698209.663   115948659.93208      -254.586    21698212.812    90182318.38707
      -198.015  
  22908987.516   122461671.42507     -3461.030    22908991.120    95247978.83506
     -2691.917  
  21580592.615   115482103.98807     -3898.769    21580596.879    89819440.46407
     -3032.379  
  19346095.358   103234517.60408      -708.000           0.000           0.0000 
         0.000  
  22042942.989   117749438.27107      3402.078    22042947.164    91582924.99306
      2646.063  
  20821476.453   111459032.70908      2482.089    20821480.437    86690373.90808
      1930.515  
  20321718.790   108478725.02908      -320.214    20321720.837    84372355.64404
      -249.055  
 20 10 02 06 53 35.0000000  0 15G13G27G15G18G20G23G24G10R15R 5R21R 6
                                R16R 7R22
  22712214.460   119353522.18048     -3178.777    22712214.075    93002765.14745
     -2476.973  
  23893473.152   125561046.53647      -585.863    23893474.595    97839788.19549
      -456.520  
  20533614.729   107904930.85449     -1762.930    20533613.900    84081779.83949
     -1373.711  
  20813993.233   109378300.46649     -1736.676    20813993.385    85229839.21248
     -1353.257  
  20379509.963   107095093.03149      1476.961    20379508.669    83450731.36648
      1150.874  
  20698841.426   108773186.07349      1602.688    20698840.613    84758349.42348
      1248.844  
  21693555.884   114000429.64148      2703.843    21693557.941    88831514.68949
      2106.886  
  22946245.226   120583346.75448      2932.184    22946247.296    93961056.97049
      2284.819  
  21698449.530   115949941.83708      -258.620    21698452.724    90183315.41807
      -201.151  
  22912224.503   122478974.84907     -3461.266    22912228.006    95261437.04206
     -2692.097  
  21584236.370   115501602.14607     -3900.969    21584240.436    89834605.68107
     -3034.090  
  19346759.534   103238061.71108      -710.180           0.000           0.0000 
         0.000  
  22039759.271   117732431.70207      3399.918    22039763.567    91569697.66406
      2644.379  
  20819158.211   111446623.66508      2480.871    20819162.364    86680722.44208
      1929.566  
  20322020.530   108480335.86508      -324.593    20322022.535    84373608.52404
      -252.460  
 20 10 02 06 53 40.0000000  0 15G13G27G15G18G20G23G24G10R15R 5R21R 6
                                R16R 7R22
  22715239.685   119369419.87948     -3179.965    22715239.282    93015152.95945
     -2477.898  
  23894032.265   125563984.53847      -589.026    23894033.660    97842077.53649
      -458.983  
  20535293.451   107913752.41149     -1765.354    20535292.525    84088653.78049
     -1375.601  
  20815647.115   109386991.92149     -1739.718    20815647.330    85236611.77648
     -1355.628  
  20378105.898   107087714.80849      1474.698    20378104.601    83444982.10148
      1149.117  
  20697317.690   108765178.75549      1600.699    20697316.849    84752109.95748
      1247.296  
  21690984.704   113986918.12448      2701.195    21690986.808    88820986.23749
      2104.827  
  22943455.955   120568688.75248      2931.323    22943457.919    93949635.15449
      2284.148  
  21698693.989   115951247.58908      -263.324    21698697.152    90184330.99708
      -204.813  
  22915461.992   122496281.49007     -3460.945    22915465.570    95274897.75806
     -2691.851  
  21587882.566   115521113.45907     -3903.328    21587886.513    89849781.13407
     -3035.925  
  19347426.142   103241618.83008      -712.590           0.000           0.0000 
         0.000  
  22036578.238   117715439.37807      3397.073    22036582.548    91556481.42006
      2642.168  
  20816841.815   111434224.34407      2479.124    20816846.126    86671078.52308
      1928.206  
  20322326.960   108481971.79508      -329.390    20322328.945    84374880.90704
      -256.195  
 20 10 02 06 53 45.0000000  0 15G13G27G15G18G20G23G24G10R15R 5R21R 6
                                R16R 7R22
  22718265.922   119385322.89048     -3181.038    22718265.556    93027544.91945
     -2478.730  
  23894594.382   125566938.10948      -592.180    23894595.721    97844379.02049
      -461.441  
  20536974.284   107922585.15449     -1767.659    20536973.265    84095536.44049
     -1377.402  
  20817303.724   109395697.65149     -1742.495    20817303.967    85243395.46048
     -1357.793  
  20376703.767   107080346.71549      1472.749    20376702.492    83439240.72848
      1147.597  
  20695795.656   108757180.47449      1598.788    20695794.835    84745877.53248
      1245.809  
  21688415.771   113973418.44448      2698.804    21688417.914    88810467.01149
      2102.964  
  22940667.288   120554034.02348      2930.703    22940669.186    93938215.88749
      2283.659  
  21698942.546   115952575.33108      -267.625    21698945.748    90185363.68608
      -208.156  
  22918699.828   122513589.54507     -3461.616    22918703.397    95288359.56806
     -2692.371  
  21591530.970   115540636.12007     -3905.808    21591534.750    89864965.42007
     -3037.854  
  19348094.892   103245187.31308      -714.871           0.000           0.0000 
         0.000  
  22033399.455   117698459.20407      3394.831    22033403.779    91543274.62206
      2640.426  
  20814526.904   111421832.56907      2477.577    20814531.290    86661440.47308
      1926.999  
  20322637.735   108483630.86208      -334.102    20322639.736    84376171.28804
      -259.858  
 20 10 02 06 53 50.0000000  0 15G13G27G15G18G20G23G24G10R15R 5R21R 6
                                R16R 7R22
  22721293.284   119401231.97548     -3182.312    22721293.035    93039941.59645
     -2479.726  
  23895159.625   125569908.04647      -595.594    23895160.932    97846693.24349
      -464.101  
  20538657.369   107931429.79449     -1770.054    20538656.268    84102428.36749
     -1379.262  
  20818963.211   109404418.43649     -1745.585    20818963.469    85250190.87448
     -1360.198  
  20375303.734   107072989.52449      1470.444    20375302.427    83433507.85348
      1145.797  
  20694275.490   108749192.00749      1596.863    20694274.688    84739652.75348
      1244.305  
  21685849.280   113959931.44448      2696.367    21685851.447    88799957.66649
      2101.065  
  22937879.434   120539383.37548      2929.862    22937881.231    93926799.80249
      2283.012  
  21699195.290   115953925.92008      -272.273    21699198.577    90186414.15207
      -211.770  
  22921938.079   122530899.79007     -3462.121    22921941.669    95301823.07306
     -2692.765  
  21595181.556   115560170.82807     -3907.956    21595185.298    89880159.07307
     -3039.527  
  19348765.846   103248767.62208      -717.172           0.000           0.0000 
         0.000  
  22030223.164   117681492.31007      3392.273    22030227.506    91530078.16006
      2638.434  
  20812213.596   111409449.34708      2475.909    20812218.031    86651809.08208
      1925.706  
  20322952.993   108485313.97808      -338.965    20322955.021    84377480.39204
      -263.641  
 20 10 02 06 53 55.0000000  0 15G13G27G15G18G20G23G24G10R15R 5R21R 6
                                R16R 7R22
  22724321.817   119417146.92848     -3183.637    22724321.571    93052342.85145
     -2480.761  
  23895727.918   125572894.13247      -598.934    23895729.219    97849020.06549
      -466.707  
  20540342.670   107940286.20649     -1772.644    20540341.503    84109329.46949
     -1381.285  
  20820625.555   109413154.08449     -1748.715    20820625.807    85256997.87048
     -1362.640  
  20373905.747   107065643.08649      1468.160    20373904.422    83427783.35148
      1144.016  
  20692757.167   108741213.17049      1594.651    20692756.359    84733435.48048
      1242.582  
  21683285.187   113946456.98248      2693.429    21683287.352    88789458.09549
      2098.776  
  22935092.283   120524736.60948      2928.874    22935094.029    93915386.73949
      2282.242  
  21699452.265   115955299.11408      -276.964    21699455.591    90187482.19907
      -215.417  
  22925176.818   122548212.11307     -3462.870    22925180.367    95315288.19006
     -2693.351  
  21598834.365   115579717.53007     -3910.585    21598838.103    89895362.06007
     -3041.570  
  19349439.007   103252359.86008      -719.750           0.000           0.0000 
         0.000  
  22027049.352   117664538.34207      3389.422    22027053.626    91516891.73406
      2636.214  
  20809901.850   111397074.51108      2474.097    20809906.299    86642184.20508
      1924.296  
  20323272.703   108487020.95708      -343.988    20323274.764    84378808.03804
      -267.551  
 20 10 02 06 54  0.0000000  0 15G13G27G15G18G20G23G24G10R15R 5R21R 6
                                R16R 7R22
  22727351.413   119433067.46948     -3185.147    22727351.167    93064748.47745
     -2481.933  
  23896299.171   125575896.14847      -602.440    23896300.537    97851359.29949
      -469.438  
  20542030.156   107949154.06649     -1775.043    20542028.932    84116239.48849
     -1383.147  
  20822290.681   109421904.34749     -1751.999    20822290.942    85263816.25748
     -1365.199  
  20372509.757   107058307.10849      1465.797    20372508.402    83422067.00648
      1142.180  
  20691240.636   108733243.71449      1592.620    20691239.822    84727225.51448
      1241.000  
  21680723.411   113932994.69548      2690.832    21680725.557    88778968.00149
      2096.753  
  22932305.842   120510093.48548      2927.851    22932307.544    93903976.51549
      2281.437  
  21699713.449   115956694.61508      -281.621    21699716.716    90188567.58007
      -219.042  
  22928415.846   122565526.10707     -3463.551    22928419.285    95328754.63106
     -2693.874  
  21602489.274   115599275.80807     -3913.371    21602493.110    89910574.05307
     -3043.737  
  19350114.346   103255963.57108      -722.249           0.000           0.0000 
         0.000  
  22023877.957   117647597.10507      3386.723    22023882.154    91503715.21706
      2634.113  
  20807591.610   111384707.58507      2472.073    20807596.047    86632565.49008
      1922.722  
  20323596.847   108488751.44708      -348.917    20323598.937    84380153.97804
      -271.383  
 20 10 02 06 54  5.0000000  0 15G13G27G15G18G20G23G24G10R15R 5R21R 6
                                R16R 7R22
  22730382.241   119448994.23348     -3185.734    22730381.953    93077158.94545
     -2482.391  
  23896873.561   125578914.68047      -605.179    23896874.973    97853711.39349
      -471.573  
  20543719.918   107958034.04249     -1776.988    20543718.706    84123158.95549
     -1384.667  
  20823958.691   109430669.79849     -1754.371    20823958.951    85270646.47648
     -1367.046  
  20371115.873   107050982.22949      1464.046    20371114.502    83416359.31348
      1140.816  
  20689726.013   108725284.25449      1591.043    20689725.196    84721023.34448
      1239.773  
  21678164.118   113919545.27348      2688.961    21678166.203    88768487.93749
      2095.293  
  22929520.208   120495454.62548      2927.651    22929521.893    93892569.61549
      2281.288  
  21699978.945   115958113.09608      -285.726    21699982.113    90189670.84507
      -222.234  
  22931655.315   122582842.45807     -3463.284    22931658.657    95342222.89706
     -2693.672  
  21606146.528   115618846.26407     -3915.047    21606150.412    89925795.50807
     -3045.039  
  19350791.974   103259579.46208      -724.121           0.000           0.0000 
         0.000  
  22020708.979   117630669.27307      3384.523    22020713.147    91490549.13306
      2632.405  
  20805283.022   111372349.44108      2470.945    20805287.415    86622953.61108
      1921.848  
  20323925.483   108490506.10008      -353.284    20323927.621    84381518.71204
      -274.776  
 20 10 02 06 54 10.0000000  0 15G13G27G15G18G20G23G24G10R15R 5R21R 6
                                R16R 7R22
  22733414.395   119464928.15548     -3187.395    22733414.115    93089574.98645
     -2483.688  
  23897451.207   125581950.57947      -608.628    23897452.686    97856077.03349
      -474.262  
  20545412.135   107966926.98449     -1779.836    20545410.975    84130088.51649
     -1386.886  
  20825629.754   109439451.32449     -1757.629    20825630.058    85277489.22448
     -1369.586  
  20369724.283   107043669.34349      1461.683    20369722.891    83410660.96048
      1138.968  
  20688213.459   108717335.69549      1588.836    20688212.634    84714829.65648
      1238.050  
  21675607.471   113906109.69048      2685.972    21675609.473    88758018.65149
      2092.964  
  22926735.564   120480820.91048      2926.390    22926737.213    93881166.72449
      2280.305  
  21700248.839   115959555.48208      -290.590    21700251.968    90190792.70007
      -226.019  
  22934895.341   122600161.96806     -3464.066    22934898.644    95355693.62106
     -2694.277  
  21609806.207   115638429.78807     -3917.938    21609810.173    89941027.13107
     -3047.289  
  19351472.047   103263208.58708      -726.788           0.000           0.0000 
         0.000  
  22017542.704   117613755.66407      3381.449    22017546.795    91477394.10806
      2630.012  
  20802976.217   111360000.90308      2468.996    20802980.574    86613349.19408
      1920.332  
  20324258.798   108492285.64308      -358.015    20324260.998    84382902.80604
      -278.457  
 20 10 02 06 54 15.0000000  0 15G13G27G15G18G20G23G24G10R15R 5R21R 6
                                R16R 7R22
  22736447.534   119480867.19148     -3188.641    22736447.289    93101995.01245
     -2484.659  
  23898031.719   125585001.78347      -612.191    23898033.304    97858454.59749
      -477.034  
  20547106.426   107975830.79349     -1782.269    20547105.320    84137026.54349
     -1388.784  
  20827303.466   109448246.83649     -1760.780    20827303.832    85284342.86148
     -1372.042  
  20368334.577   107036366.35649      1459.284    20368333.170    83404970.31848
      1137.101  
  20686702.583   108709395.92649      1586.741    20686701.747    84708642.82348
      1236.421  
  21673053.060   113892685.95048      2683.098    21673055.013    88747558.59349
      2090.723  
  22923951.471   120466190.24648      2925.495    22923953.114    93869766.21149
      2279.605  
  21700522.811   115961019.63308      -295.332    21700525.901    90191931.47307
      -229.706  
  22938135.635   122617482.70006     -3464.874    22938138.868    95369165.30206
     -2694.906  
  21613467.870   115658024.30607     -3920.448    21613472.027    89956267.31207
     -3049.237  
  19352154.120   103266848.29108      -729.324           0.000           0.0000 
         0.000  
  22014378.740   117596854.30107      3378.636    22014382.737    91464248.61806
      2627.828  
  20800670.827   111347659.78108      2467.218    20800675.135    86603750.54808
      1918.948  
  20324596.449   108494088.26408      -363.133    20324598.756    84384304.84004
      -282.440  
 20 10 02 06 54 20.0000000  0 15G13G27G15G18G20G23G24G10R15R 5R21R 6
                                R16R 7R22
  22739481.962   119496812.96448     -3189.542    22739481.610    93114420.29945
     -2485.363  
  23898615.442   125588070.11247      -615.277    23898617.181    97860845.50549
      -479.438  
  20548803.144   107984747.29549     -1784.227    20548802.083    84143974.47249
     -1390.308  
  20828980.215   109457058.17949     -1763.594    20828980.620    85291208.83748
     -1374.234  
  20366947.127   107029075.13449      1457.332    20366945.682    83399288.84848
      1135.577  
  20685193.723   108701466.81249      1585.031    20685192.917    84702464.29448
      1235.089  
  21670501.232   113879275.78548      2680.867    21670503.135    88737109.11449
      2088.988  
  22921168.315   120451564.50648      2924.878    22921169.946    93858369.53949
      2279.125  
  21700801.117   115962507.40708      -299.522    21700804.264    90193088.62807
      -232.965  
  22941376.462   122634806.40306     -3464.702    22941379.659    95382639.27906
     -2694.773  
  21617131.886   115677631.66807     -3922.449    21617136.257    89971517.47507
     -3050.797  
  19352838.623   103270500.96008      -731.617           0.000           0.0000 
         0.000  
  22011217.376   117579966.95807      3376.433    22011221.340    91451114.02406
      2626.112  
  20798367.182   111335328.09608      2465.738    20798371.490    86594159.24708
      1917.796  
  20324938.780   108495915.62108      -367.707    20324941.075    84385726.11904
      -285.999  
 20 10 02 06 54 25.0000000  0 15G13G27G15G18G20G23G24G10R15R 5R21R 6
                                R16R 7R22
  22742517.551   119512765.15848     -3191.163    22742517.170    93126850.56745
     -2486.624  
  23899202.422   125591155.27347      -618.848    23899204.257    97863249.54649
      -482.218  
  20550502.244   107993676.22049     -1786.859    20550501.213    84150932.06349
     -1392.362  
  20830659.920   109465885.02749     -1766.690    20830660.350    85298086.89748
     -1376.648  
  20365561.857   107021795.42949      1454.901    20365560.399    83393616.34748
      1133.687  
  20683686.841   108693548.06449      1582.914    20683686.030    84696293.84348
      1233.441  
  21667951.906   113865878.86048      2678.082    21667953.772    88726669.95849
      2086.816  
  22918386.062   120436943.38948      2923.773    22918387.640    93846976.46049
      2278.265  
  21701083.863   115964018.50508      -304.508    21701087.016    90194263.92907
      -236.844  
  22944617.829   122652132.80406     -3465.827    22944620.955    95396115.35906
     -2695.648  
  21620798.202   115697251.45907     -3925.145    21620802.782    89986777.31407
     -3052.894  
  19353525.518   103274166.26908      -734.152           0.000           0.0000 
         0.000  
  22008058.636   117563093.59807      3373.488    22008062.555    91437990.31306
      2623.824  
  20796065.190   111323005.47508      2463.737    20796069.537    86584574.99208
      1916.241  
  20325285.741   108497767.56108      -372.956    20325288.005    84387166.51404
      -290.081  
 20 10 02 06 54 30.0000000  0 15G13G27G15G18G20G23G24G10R15R 5R21R 6
                                R16R 7R22
  22745554.064   119528722.35848     -3191.785    22745553.701    93139284.74745
     -2487.108  
  23899792.343   125594255.79847      -621.128    23899794.242    97865665.53149
      -483.996  
  20552203.415   108002616.06249     -1788.945    20552202.417    84157898.17749
     -1393.984  
  20832342.309   109474725.94949     -1769.418    20832342.745    85304975.92848
     -1378.769  
  20364178.501   107014525.75049      1453.077    20364177.049    83387951.66648
      1132.269  
  20682181.651   108685638.24049      1581.194    20682180.849    84690130.34848
      1232.101  
  21665404.802   113852493.80248      2675.792    21665406.650    88716240.04449
      2085.035  
  22915604.396   120422325.44748      2923.308    22915605.924    93835585.86049
      2277.901  
  21701370.718   115965551.43208      -308.602    21701373.857    90195456.19107
      -240.026  
  22947859.260   122669460.39006     -3465.371    22947862.443    95409592.35906
     -2695.293  
  21624466.661   115716882.21907     -3927.293    21624471.340    90002045.67707
     -3054.565  
  19354214.441   103277842.40008      -736.332           0.000           0.0000 
         0.000  
  22004902.173   117546232.52707      3371.284    22004906.089    91424876.14606
      2622.108  
  20793764.558   111310690.35908      2462.351    20793768.979    86574996.57308
      1915.163  
  20325636.991   108499642.50008      -377.190    20325639.274    84388624.80104
      -293.374  
 20 10 02 06 54 35.0000000  0 15G13G27G15G18G20G23G24G10R15R 5R21R 6
                                R16R 7R22
  22748591.815   119544686.06648     -3193.323    22748591.461    93151723.99345
     -2488.308  
  23900385.506   125597373.26647      -625.030    23900387.468    97868094.72249
      -487.042  
  20553906.974   108011568.35149     -1791.651    20553905.996    84164873.98649
     -1396.093  
  20834027.660   109483582.46049     -1773.020    20834028.105    85311877.10448
     -1381.577  
  20362797.338   107007267.65949      1450.421    20362795.912    83382296.01348
      1130.199  
  20680678.436   108677738.88449      1578.702    20680677.644    84683975.00748
      1230.155  
  21662860.236   113839122.17448      2672.934    21662862.099    88705820.59949
      2082.805  
  22912823.621   120407712.22148      2922.223    22912825.111    93824198.92949
      2277.050  
  21701661.919   115967107.77608      -313.620    21701665.114    90196666.68807
      -243.926  
  22951101.290   122686790.77406     -3466.718    22951104.454    95423071.52906
     -2696.339  
  21628137.394   115736525.55107     -3930.055    21628142.226    90017323.82207
     -3056.715  
  19354905.752   103281531.21008      -739.035           0.000           0.0000 
         0.000  
  22001748.379   117529385.40107      3368.034    22001752.221    91411772.83406
      2619.582  
  20791465.615   111298384.46708      2460.280    20791470.135    86565425.32608
      1913.550  
  20325992.854   108501542.05408      -382.456    20325995.183    84390102.22404
      -297.469  
 20 10 02 06 54 40.0000000  0 15G13G27G15G18G20G23G24G10R15R 5R21R 6
                                R16R 7R22
  22751630.506   119560654.49848     -3194.230    22751630.100    93164166.92845
     -2489.012  
  23900981.550   125600505.81347      -627.789    23900983.599    97870535.68749
      -489.188  
  20555612.587   108020531.28449     -1793.566    20555611.579    84171858.09549
     -1397.590  
  20835715.649   109492452.74849     -1775.288    20835716.096    85318789.01848
     -1383.343  
  20361418.031   107000019.31749      1448.836    20361416.659    83376647.95648
      1128.961  
  20679176.870   108669848.19449      1577.378    20679176.080    84677826.41548
      1229.120  
  21660317.885   113825762.05848      2670.957    21660319.762    88695410.12049
      2081.262  
  22910043.395   120393101.94248      2921.913    22910044.860    93812814.29749
      2276.813  
  21701957.175   115968685.68708      -317.488    21701960.420    90197893.94707
      -246.937  
  22954343.293   122704121.95205     -3466.433    22954346.606    95436551.32106
     -2696.117  
  21631810.213   115756179.54507     -3931.789    21631815.065    90032610.25407
     -3058.063  
  19355599.021   103285230.69008      -740.824           0.000           0.0000 
         0.000  
  21998596.846   117512550.47807      3365.964    21998600.643    91398679.00606
      2617.969  
  20789168.081   111286085.86607      2459.147    20789172.625    86555859.75208
      1912.672  
  20326352.966   108503464.26608      -386.516    20326355.301    84391597.28004
      -300.625  
 20 10 02 06 54 45.0000000  0 15G13G27G15G18G20G23G24G10R15R 5R21R 6
                                R16R 7R22
  22754670.451   119576629.54348     -3195.777    22754670.063    93176615.01045
     -2490.218  
  23901580.874   125603655.37347      -631.664    23901582.942    97872989.89749
      -492.206  
  20557320.590   108029506.74349     -1796.242    20557319.559    84178851.95549
     -1399.672  
  20837406.610   109501338.71449     -1778.894    20837407.069    85325713.14648
     -1386.156  
  20360040.941   106992782.63149      1446.203    20360039.640    83371008.98048
      1126.910  
  20677677.319   108661968.06549      1574.883    20677676.541    84671686.05348
      1227.176  
  21657778.117   113812415.55148      2667.862    21657780.020    88685010.24049
      2078.854  
  22907264.043   120378496.47348      2920.464    22907265.517    93801433.41549
      2275.688  
  21702256.847   115970287.07708      -322.629    21702260.189    90199139.47607
      -250.934  
  22957585.703   122721455.95905     -3467.219    22957589.315    95450033.33506
     -2696.726  
  21635485.464   115775846.09107     -3934.738    21635490.288    90047906.45107
     -3060.354  
  19356294.679   103288942.88608      -743.762           0.000           0.0000 
         0.000  
  21995447.967   117495729.57407      3362.858    21995451.745    91385596.08906
      2615.559  
  20786872.208   111273796.50608      2456.757    20786876.840    86546301.36408
      1910.812  
  20326717.671   108505411.27208      -391.921    20326720.049    84393111.61805
      -304.831  
 20 10 02 06 54 50.0000000  0 15G13G27G15G18G20G23G24G10R15R 5R21R 6
                                R16R 7R22
  22757711.652   119592611.16447     -3196.613    22757711.189    93189068.22245
     -2490.867  
  23902183.460   125606821.89247      -634.949    23902185.541    97875457.31349
      -494.770  
  20559030.974   108038494.71949     -1798.651    20559029.929    84185855.57349
     -1401.550  
  20839100.525   109510240.29749     -1781.441    20839101.015    85332649.44648
     -1388.140  
  20358666.059   106985557.57749      1444.206    20358664.814    83365379.07648
      1125.355  
  20676179.762   108654098.47249      1573.047    20676179.007    84665553.90048
      1225.746  
  21655240.954   113799082.70248      2665.441    21655242.887    88674621.00849
      2076.968  
  22904485.615   120363895.79448      2920.063    22904487.079    93790056.26949
      2275.374  
  21702560.973   115971911.92308      -327.019    21702564.355    90200403.24507
      -254.352  
  22960828.708   122738792.83706     -3467.035    22960832.556    95463517.56106
     -2696.586  
  21639162.929   115795525.16707     -3936.808    21639167.823    90063212.39807
     -3061.965  
  19356992.696   103292667.60608      -746.069           0.000           0.0000 
         0.000  
  21992301.652   117478922.67807      3360.386    21992305.506    91372524.07106
      2613.632  
  20784578.053   111261516.37307      2455.375    20784582.755    86536750.15008
      1909.734  
  20327086.966   108507382.81208      -396.456    20327089.391    84394645.03504
      -308.359  
 20 10 02 06 54 55.0000000  0 15G13G27G15G18G20G23G24G10R15R 5R21R 6
                                R16R 7R22
  22760753.959   119608598.62948     -3198.233    22760753.454    93201525.97645
     -2492.133  
  23902789.179   125610004.65347      -638.324    23902791.238    97877937.38449
      -497.398  
  20560743.615   108047494.55049     -1801.195    20560742.564    84192868.43349
     -1403.526  
  20840797.270   109519156.81549     -1784.777    20840797.764    85339597.37848
     -1390.738  
  20357293.268   106978343.48249      1441.737    20357292.086    83359757.70348
      1123.429  
  20674684.091   108646238.72949      1570.996    20674683.332    84659429.42648
      1224.151  
  21652706.198   113785762.65648      2662.651    21652708.197    88664241.75349
      2074.789  
  22901707.967   120349299.24948      2918.926    22901709.443    93778682.34649
      2274.487  
  21702869.400   115973559.53008      -331.859    21702872.779    90201684.71507
      -258.116  
  22964072.161   122756131.82606     -3468.011    22964076.270    95477003.43906
     -2697.348  
  21642842.531   115815216.02207     -3939.469    21642847.516    90078527.50907
     -3064.034  
  19357692.937   103296404.35308      -748.438           0.000           0.0000 
         0.000  
  21989157.898   117462129.25007      3357.023    21989161.788    91359462.52106
      2611.019  
  20782285.461   111249244.75707      2453.344    20782290.307    86527205.56008
      1908.152  
  20327460.746   108509378.29608      -401.379    20327463.204    84396197.07404
      -312.187  
 20 10 02 06 55  0.0000000  0 15G13G27G15G18G20G23G24G10R15R 5R21R 6
                                R16R 7R22
  22763797.109   119624590.49148     -3198.746    22763796.618    93213987.16446
     -2492.534  
  23903397.753   125613202.17048      -641.007    23903399.742    97880428.95049
      -499.492  
  20562458.202   108056504.70249     -1803.258    20562457.176    84199889.32849
     -1405.140  
  20842496.583   109528086.76549     -1787.354    20842497.069    85346555.78148
     -1392.750  
  20355922.264   106971138.83949      1439.918    20355921.140    83354143.69348
      1122.011  
  20673190.001   108638387.36249      1569.265    20673189.260    84653311.48048
      1222.805  
  21650173.604   113772453.84948      2660.660    21650175.638    88653871.25449
      2073.238  
  22898930.813   120334705.30348      2918.526    22898932.269    93767310.44049
      2274.171  
  21703181.833   115975228.41808      -335.941    21703185.158    90202982.74507
      -261.289  
  22967315.776   122773471.36706     -3467.934    22967320.131    95490489.74506
     -2697.304  
  21646524.027   115834917.16707     -3941.430    21646529.107    90093850.62007
     -3065.558  
  19358395.143   103300151.45708      -750.582           0.000           0.0000 
         0.000  
  21986016.319   117445347.49707      3355.000    21986020.232    91346410.04906
      2609.444  
  20779994.297   111236980.16507      2452.300    20779999.178    86517666.43408
      1907.339  
  20327838.745   108511396.20208      -405.765    20327841.241    84397766.55604
      -315.598  
 20 10 02 06 55  5.0000000  0 15G13G27G15G18G20G23G24G10R15R 5R21R 6
                                R16R 7R22
  22766841.419   119640588.35347     -3200.511    22766840.993    93226453.02546
     -2493.909  
  23904009.445   125616416.07148      -644.675    23904011.363    97882933.28149
      -502.348  
  20564175.054   108065526.69649     -1805.672    20564174.050    84206919.45349
     -1407.015  
  20844198.740   109537031.75549     -1790.730    20844199.242    85353525.89448
     -1395.378  
  20354553.347   106963945.16249      1437.496    20354552.275    83348538.23148
      1120.121  
  20671697.821   108630545.96149      1567.179    20671697.091    84647201.29948
      1221.176  
  21647643.452   113759158.08848      2657.684    21647645.554    88643510.92049
      2070.917  
  22896154.490   120320115.62448      2917.309    22896155.931    93755941.86249
      2273.226  
  21703498.530   115976920.16208      -340.883    21703501.783    90204298.54707
      -265.136  
  22970559.724   122790813.06706     -3468.527    22970564.342    95503977.72006
     -2697.746  
  21650207.784   115854630.19507     -3943.707    21650212.864    90109182.96107
     -3067.332  
  19359099.590   103303910.48908      -753.226           0.000           0.0000 
         0.000  
  21982877.329   117428579.51407      3351.980    21982881.179    91333368.29106
      2607.094  
  20777704.784   111224724.18907      2450.289    20777709.614    86508134.00708
      1905.777  
  20328221.273   108513438.16608      -410.836    20328223.739    84399354.74704
      -319.542  
 20 10 02 06 55 10.0000000  0 15G13G27G15G18G20G23G24G10R15R 5R21R 6
                                R16R 7R22
  22769886.916   119656592.60848     -3201.129    22769886.576    93238923.86645
     -2494.390  
  23904624.312   125619646.74847      -647.534    23904626.161    97885450.68249
      -504.577  
  20565894.244   108074561.00949     -1807.983    20565893.277    84213959.17949
     -1408.820  
  20845903.863   109545992.20549     -1793.354    20845904.360    85360508.07048
     -1397.417  
  20353186.641   106956763.04349      1435.644    20353185.609    83342941.77348
      1118.684  
  20670207.635   108622714.98249      1565.469    20670206.912    84641099.23348
      1219.844  
  21645115.831   113745875.60148      2655.331    21645117.981    88633160.93349
      2069.086  
  22893379.048   120305530.61148      2916.855    22893380.495    93744576.91649
      2272.874  
  21703819.529   115978635.13608      -345.132    21703822.711    90205632.42407
      -268.438  
  22973804.145   122808157.45406     -3468.976    22973809.030    95517467.77606
     -2698.102  
  21653893.994   115874355.56707     -3945.824    21653898.942    90124524.89707
     -3068.976  
  19359806.409   103307682.08908      -755.229           0.000           0.0000 
         0.000  
  21979740.970   117411825.39907      3349.668    21979744.689    91320337.30606
      2605.293  
  20775416.971   111212477.34907      2448.687    20775421.757    86498608.69308
      1904.535  
  20328608.361   108515504.52908      -415.573    20328610.816    84400961.91804
      -323.227  
 20 10 02 06 55 15.0000000  0 15G13G27G15G18G20G23G24G10R15R 5R21R 6
                                R16R 7R22
  22772933.561   119672602.77548     -3202.565    22772933.210    93251399.32545
     -2495.511  
  23905242.313   125622893.70647      -650.914    23905244.030    97887980.78449
      -507.210  
  20567615.659   108083607.10449     -1810.440    20567614.744    84221008.08249
     -1410.737  
  20847611.853   109554967.59749     -1796.418    20847612.327    85367501.87748
     -1399.809  
  20351822.033   106949592.00749      1433.198    20351821.037    83337353.95548
      1116.772  
  20668719.308   108614893.93149      1563.242    20668718.630    84635004.90548
      1218.104  
  21642590.685   113732606.18348      2652.522    21642592.883    88622821.14149
      2066.902  
  22890604.400   120290949.79848      2915.934    22890605.882    93733215.24249
      2272.152  
  21704144.717   115980372.96708      -349.769    21704147.918    90206984.08007
      -272.042  
  22977049.026   122825504.01506     -3469.633    22977054.092    95530959.54006
     -2698.604  
  21657582.359   115894092.72407     -3948.457    21657587.212    90139876.02107
     -3071.026  
  19360515.473   103311465.66508      -757.867           0.000           0.0000 
         0.000  
  21976607.099   117395084.78907      3346.652    21976610.722    91307316.83306
      2602.953  
  20773130.865   111200239.02008      2446.866    20773135.472    86489089.98008
      1903.113  
  20329000.001   108517594.97208      -420.437    20329002.358    84402587.81704
      -327.008  
 20 10 02 06 55 20.0000000  0 15G13G27G15G18G20G23G24G10R15R 5R21R 6
                                R16R 7R22
  22775981.454   119688619.50048     -3204.211    22775981.080    93263879.87445
     -2496.793  
  23905863.494   125626157.59747      -654.378    23905865.149    97890524.06949
      -509.910  
  20569339.417   108092665.60849     -1812.895    20569338.566    84228066.65549
     -1412.648  
  20849322.806   109563958.59049     -1799.434    20849323.284    85374507.83548
     -1402.160  
  20350459.644   106942432.67049      1430.797    20350458.691    83331775.25248
      1114.901  
  20667233.004   108607083.44449      1561.245    20667232.338    84628918.82048
      1216.555  
  21640068.131   113719350.22648      2649.948    21640070.337    88612491.82949
      2064.895  
  22887830.677   120276373.82048      2914.754    22887832.172    93721857.33649
      2271.233  
  21704474.285   115982134.26608      -354.313    21704477.529    90208353.98307
      -275.582  
  22980294.505   122842853.27206     -3470.184    22980299.626    95544453.36106
     -2699.042  
  21661273.069   115913842.27007     -3951.042    21661277.819    90155236.78107
     -3073.034  
  19361226.888   103315261.84608      -760.343           0.000           0.0000 
         0.000  
  21973475.824   117378358.29707      3344.030    21973479.391    91294307.34406
      2600.914  
  20770846.591   111188010.02707      2445.086    20770850.949    86479578.54408
      1901.730  
  20329396.261   108519709.98908      -425.358    20329398.534    84404232.82704
      -330.840  
 20 10 02 06 55 25.0000000  0 15G13G27G15G18G20G23G24G10R15R 5R21R 6
                                R16R 7R22
  22779030.248   119704640.70547     -3204.921    22779029.769    93276363.93445
     -2497.343  
  23906487.470   125629436.39947      -657.745    23906489.097    97893078.96649
      -512.535  
  20571065.167   108101734.55049     -1814.862    20571064.366    84235133.36349
     -1414.183  
  20851036.344   109572963.16749     -1802.476    20851036.799    85381524.39148
     -1404.531  
  20349099.105   106935283.08149      1428.820    20349098.191    83326204.13848
      1113.362  
  20665748.340   108599281.54449      1559.406    20665747.693    84622839.41648
      1215.121  
  21637547.823   113706105.98248      2647.519    21637549.981    88602171.64349
      2063.003  
  22885057.481   120261800.66848      2914.132    22885058.994    93710501.63449
      2270.754  
  21704807.830   115983916.97608      -358.745    21704811.110    90209740.54107
      -279.022  
  22983540.176   122860203.30206     -3470.211    22983545.227    95557947.83905
     -2699.055  
  21664965.628   115933602.12107     -3953.362    21664970.343    90170605.54707
     -3074.844  
  19361940.279   103319068.60708      -762.414           0.000           0.0000 
         0.000  
  21970346.853   117361644.05207      3341.500    21970350.405    91281307.37806
      2598.944  
  20768563.602   111175788.22608      2443.398    20768567.794    86470072.71008
      1900.422  
  20329796.739   108521847.63808      -430.055    20329798.987    84405895.44404
      -334.508  
