     2.11           OBSERVATION DATA    M                   RINEX VERSION / TYPE
LEICA GEO OFFICE 8.4                    4-10-20 09:29       PGM / RUN BY / DATE
                                                            OBSERVER / AGENCY
SUTY                                                        MARKER NAME
SUTY                                                        MARKER NUMBER
468588              LEICA GX1220GG      5.60                REC # / TYPE / VERS
                    LEIAX1202GG                             ANT # / TYPE
 -1228634.9582  3807159.4625  4951915.9306                  APPROX POSITION XYZ
        1.5910        0.0000        0.0000                  ANTENNA: DELTA H/E/N
L1PhaOff:   0.0644  L2PhaOff:   0.0640                      COMMENT
     1     1                                                WAVELENGTH FACT L1/2
     6    C1    L1    D1    P2    L2    D2                  # / TYPES OF OBSERV
  2020    10     3    11     0    0.0000000     GPS         TIME OF FIRST OBS
  2020    10     3    11    46   45.0000000     GPS         TIME OF LAST OBS
    18                                                      LEAP SECONDS
    17                                                      # OF SATELLITES
          C1    L1    D1    P2    L2    D2                  COMMENT
   G 1   467   467   467   466   466   466                  PRN / # OF OBS
   G 2     0     0     0     0     0     0                  PRN / # OF OBS
   G 3   562   562   562   562   562   562                  PRN / # OF OBS
   G 4     0     0     0     0     0     0                  PRN / # OF OBS
   G 5     0     0     0     0     0     0                  PRN / # OF OBS
   G 6     0     0     0     0     0     0                  PRN / # OF OBS
   G 7     0     0     0     0     0     0                  PRN / # OF OBS
   G 8     0     0     0     0     0     0                  PRN / # OF OBS
   G 9     0     0     0     0     0     0                  PRN / # OF OBS
   G10   393   393   393   393   393   393                  PRN / # OF OBS
   G11     0     0     0     0     0     0                  PRN / # OF OBS
   G12   562   562   562   562   562   562                  PRN / # OF OBS
   G13     0     0     0     0     0     0                  PRN / # OF OBS
   G14     0     0     0     0     0     0                  PRN / # OF OBS
   G15     0     0     0     0     0     0                  PRN / # OF OBS
   G16     0     0     0     0     0     0                  PRN / # OF OBS
   G17     0     0     0     0     0     0                  PRN / # OF OBS
   G18     0     0     0     0     0     0                  PRN / # OF OBS
   G19     0     0     0     0     0     0                  PRN / # OF OBS
   G20     0     0     0     0     0     0                  PRN / # OF OBS
   G21     0     0     0     0     0     0                  PRN / # OF OBS
   G22   562   562   562   562   562   562                  PRN / # OF OBS
   G23     0     0     0     0     0     0                  PRN / # OF OBS
   G24     0     0     0     0     0     0                  PRN / # OF OBS
   G25     0     0     0     0     0     0                  PRN / # OF OBS
   G26   385   385   385   384   384   384                  PRN / # OF OBS
   G27     0     0     0     0     0     0                  PRN / # OF OBS
   G28     0     0     0     0     0     0                  PRN / # OF OBS
   G29     0     0     0     0     0     0                  PRN / # OF OBS
   G30     0     0     0     0     0     0                  PRN / # OF OBS
   G31   562   562   562   562   562   562                  PRN / # OF OBS
   G32   562   562   562   562   562   562                  PRN / # OF OBS
   R 1   562   562   562   562   562   562                  PRN / # OF OBS
   R 2   562   562   562   562   562   562                  PRN / # OF OBS
   R 3   391   391   391   387   387   387                  PRN / # OF OBS
   R 4     0     0     0     0     0     0                  PRN / # OF OBS
   R 5     0     0     0     0     0     0                  PRN / # OF OBS
   R 6     0     0     0     0     0     0                  PRN / # OF OBS
   R 7     0     0     0     0     0     0                  PRN / # OF OBS
   R 8    48    48    48    49    49    49                  PRN / # OF OBS
   R 9     0     0     0     0     0     0                  PRN / # OF OBS
   R10   263   263   263     0     0     0                  PRN / # OF OBS
   R11   562   562   562   562   562   562                  PRN / # OF OBS
   R12   562   562   562   562   562   562                  PRN / # OF OBS
   R13     0     0     0     0     0     0                  PRN / # OF OBS
   R14     0     0     0     0     0     0                  PRN / # OF OBS
   R15     0     0     0     0     0     0                  PRN / # OF OBS
   R16     0     0     0     0     0     0                  PRN / # OF OBS
   R17     0     0     0     0     0     0                  PRN / # OF OBS
   R18    24    24    24    13    13    13                  PRN / # OF OBS
   R19   190   190   190   190   190   190                  PRN / # OF OBS
   R20     0     0     0     0     0     0                  PRN / # OF OBS
   R21     0     0     0     0     0     0                  PRN / # OF OBS
   R22     0     0     0     0     0     0                  PRN / # OF OBS
   R23     0     0     0     0     0     0                  PRN / # OF OBS
   R24     0     0     0     0     0     0                  PRN / # OF OBS
                                                            END OF HEADER
 20 10 03 11 00  0.0000000  0 14G22G12G 1G 3G32G10G31R 2R18R 1R11R12
                                R 8R10
  23062636.868   121194999.77348      2130.062    23062633.629    94437636.85946
      1659.788  
  22333944.140   117365704.70248     -1717.632    22333942.989    91453799.72147
     -1338.418  
  23773855.689   124932458.11947     -1652.813    23773858.164    97349983.06148
     -1287.906  
  24301383.914   127704658.80947      3321.999    24301386.154    99510109.12349
      2588.570  
  20191663.566   106107949.48849      -472.081    20191664.655    82681535.81349
      -367.854  
  23258756.888   122225599.55648     -3648.995    23258759.253    95240742.00649
     -2843.375  
  20882499.506   109738307.57849      2012.840    20882498.705    85510375.60649
      1568.445  
  19950357.699   106458949.36308      2461.823    19950362.550    82801441.02508
      1914.750  
         0.000           0.0000          0.000    23580340.048    97901561.30916
     -1762.613  
  20051614.890   107187403.45008     -2450.414    20051621.315    83368014.17106
     -1905.883  
  19320348.405   103242117.98309      -510.980    19320352.533    80299463.67208
      -397.429  
  20633256.696   110219179.71608      3257.237    20633262.464    85726063.87007
      2533.406  
  23444533.541   125544417.98206     -4058.199    23444537.803    97645689.22406
     -3156.379  
  22645374.168   120712609.04306     -4025.387           0.000           0.0000 
         0.000  
 20 10 03 11 00  5.0000000  0 14G22G12G 1G 3G32G10G31R 2R18R 1R11R12
                                R 8R10
  23060611.636   121184357.07648      2127.077    23060608.399    94429343.84947
      1657.464  
  22335580.438   117374303.50548     -1721.749    22335579.310    91460500.09047
     -1341.629  
  23775430.120   124940731.71947     -1656.637    23775432.603    97356430.03449
     -1290.891  
  24298224.272   127688054.68747      3319.938    24298226.481    99497170.85049
      2586.965  
  20192114.268   106110317.94649      -475.246    20192115.350    82683381.36649
      -370.320  
  23262229.674   122243848.98448     -3650.792    23262232.012    95254962.33949
     -2844.777  
  20880585.861   109728251.33449      2009.578    20880585.051    85502539.57549
      1565.906  
  19948052.522   106446648.59509      2458.371    19948057.399    82791873.76208
      1912.066  
  23582449.565   125884707.78617     -2270.434    23582452.422    97910383.46605
     -1765.890  
  20053908.752   107199665.36208     -2454.483    20053915.129    83377551.21206
     -1909.042  
  19320828.849   103244685.23809      -515.843    19320832.945    80301460.42508
      -401.211  
  20630209.656   110202902.97508      3253.559    20630215.426    85713404.19107
      2530.547  
  23448323.164   125564711.30107     -4059.895    23448327.360    97661472.90906
     -3157.694  
  22649150.911   120732741.42706     -4027.269           0.000           0.0000 
         0.000  
 20 10 03 11 00 10.0000000  0 14G22G12G 1G 3G32G10G31R 2R18R 1R11R12
                                R 8R10
  23058588.808   121173726.97948      2125.270    23058585.551    94421060.65946
      1656.055  
  22337219.973   117382919.41648     -1724.309    22337218.878    91467213.78447
     -1343.621  
  23777007.393   124949020.24847     -1658.620    23777009.857    97362888.62448
     -1292.437  
  24295066.096   127671458.42046      3319.004    24295068.283    99484238.68149
      2586.233  
  20192567.300   106112698.64549      -476.808    20192568.390    82685236.45849
      -371.543  
  23265703.791   122262105.34148     -3651.496    23265706.126    95269188.07149
     -2845.324  
  20878674.645   109718207.82849      2007.843    20878673.821    85494713.47349
      1564.554  
  19945749.931   106434361.52809      2456.608    19945754.809    82782317.15708
      1910.694  
  23584577.913   125896068.36304     -2273.601    23584575.523    97919219.68805
     -1768.324  
  20056205.590   107211943.09008     -2456.594    20056211.917    83387100.55706
     -1910.687  
  19321313.188   103247273.36709      -519.093    19321317.264    80303473.41808
      -403.742  
  20627165.324   110186640.82508      3251.477    20627171.105    85700755.86407
      2528.926  
  23452113.877   125585010.36506     -4059.601    23452118.153    97677261.08206
     -3157.465  
  22652928.955   120752880.40406     -4028.128           0.000           0.0000 
         0.000  
 20 10 03 11 00 15.0000000  0 14G22G12G 1G 3G32G10G31R 2R18R 1R11R12
                                R 8R10
  23056567.729   121163106.13848      2122.793    23056564.480    94412784.67846
      1654.125  
  22338862.163   117391549.12148     -1727.702    22338861.035    91473938.23347
     -1346.266  
  23778586.860   124957320.40747     -1661.929    23778589.316    97369356.27948
     -1295.016  
  24291908.788   127654866.77947      3317.499    24291911.016    99471310.14149
      2585.062  
  20193022.029   106115088.25949      -479.276    20193023.111    82687098.49549
      -373.464  
  23269178.542   122280365.25048     -3652.690    23269180.916    95283416.56649
     -2846.257  
  20876765.221   109708173.73549      2005.351    20876764.390    85486894.70249
      1562.612  
  19943449.264   106422084.72409      2453.858    19943454.141    82772768.53308
      1908.554  
  23586708.171   125907443.54405     -2276.601    23586722.081    97928057.89716
     -1770.691  
  20058504.753   107224233.27508     -2459.772    20058511.050    83396659.58806
     -1913.159  
  19321800.790   103249878.93309      -523.227    19321804.868    80305499.97208
      -406.957  
  20624123.163   110170389.99008      3248.694    20624128.863    85688116.33207
      2526.761  
  23455905.082   125605311.75007     -4061.140    23455909.268    97693051.03806
     -3158.664  
  22656707.505   120773022.29406     -4029.059           0.000           0.0000 
         0.000  
 20 10 03 11 00 20.0000000  0 14G22G12G 1G 3G32G10G31R 2R18R 1R11R12
                                R 8R10
  23054549.252   121152498.96948      2120.309    23054545.975    94404519.36146
      1652.187  
  22340507.811   117400196.96648     -1731.082    22340506.664    91480676.81247
     -1348.897  
  23780169.404   124965636.60547     -1664.858    23780171.862    97375836.44549
     -1297.293  
  24288753.186   127638284.00947      3315.988    24288755.417    99458388.52349
      2583.887  
  20193479.286   106117491.16449      -481.590    20193480.368    82688970.88449
      -375.270  
  23272654.779   122298633.12548     -3653.937    23272657.236    95297651.26649
     -2847.226  
  20874858.422   109698153.43949      2002.902    20874857.585    85479086.68649
      1560.703  
  19941151.278   106409822.39109      2451.276    19941156.178    82763231.16408
      1906.547  
  23588842.746   125918837.42807     -2280.198    23588855.988    97936919.76706
     -1773.479  
  20060807.020   107236540.43108     -2462.823    20060813.371    83406231.81306
     -1915.534  
  19322292.489   103252506.45509      -527.387    19322296.581    80307543.60008
      -410.195  
  20621083.936   110154154.89208      3245.723    20621089.559    85675489.03507
      2524.449  
  23459697.490   125625619.98607     -4062.336    23459701.722    97708846.31606
     -3159.602  
  22660487.569   120793171.75406     -4030.238           0.000           0.0000 
         0.000  
 20 10 03 11 00 25.0000000  0 14G22G12G 1G 3G32G10G31R 2R18R 1R11R12
                                R 8R10
  23052533.014   121141903.53348      2117.863    23052529.753    94396263.17846
      1650.277  
  22342156.549   117408861.01448     -1734.512    22342155.388    91487428.02847
     -1351.565  
  23781754.562   124973966.75847     -1667.644    23781757.026    97382327.45748
     -1299.465  
  24285598.912   127621708.25147      3314.480    24285601.140    99445472.34549
      2582.710  
  20193938.712   106119905.43249      -484.047    20193939.788    82690852.13249
      -377.183  
  23276132.117   122316907.00348     -3655.477    23276134.704    95311890.63449
     -2848.426  
  20872953.877   109688144.99149      2000.348    20872953.041    85471287.89749
      1558.711  
  19938855.781   106397573.17909      2448.383    19938860.689    82753704.00308
      1904.297  
  23590980.584   125930248.31705     -2283.605    23590988.837    97945794.96505
     -1776.132  
  20063112.131   107248862.54108     -2466.147    20063118.489    83415815.66506
     -1918.121  
  19322787.948   103255153.88009      -531.570    19322792.003    80309602.70908
      -413.449  
  20618047.294   110137933.53808      3242.727    20618052.873    85662872.42807
      2522.121  
  23463490.790   125645932.93706     -4063.577    23463494.944    97724645.32806
     -3160.559  
  22664268.630   120813326.78406     -4031.691           0.000           0.0000 
         0.000  
 20 10 03 11 00 30.0000000  0 14G22G12G 1G 3G32G10G31R 2R18R 1R11R12
                                R 8R10
  23050519.038   121131320.11548      2114.964    23050515.788    94388016.35946
      1648.022  
  22343808.395   117417541.49148     -1737.902    22343807.218    91494192.02847
     -1354.215  
  23783342.482   124982311.33747     -1670.695    23783344.936    97388829.71649
     -1301.848  
  24282446.017   127605139.80247      3312.551    24282448.263    99432561.87549
      2581.206  
  20194400.344   106122331.32249      -486.585    20194401.420    82692742.43749
      -379.159  
  23279610.644   122335187.09648     -3656.871    23279613.348    95326134.85049
     -2849.515  
  20871051.645   109678148.69149      1997.715    20871050.803    85463498.57949
      1556.660  
  19936562.633   106385336.53009      2445.788    19936567.554    82744186.60608
      1902.280  
  23593121.047   125941676.35004     -2287.570    23593124.499    97954683.43405
     -1779.219  
  20065420.064   107261199.86208     -2469.444    20065426.440    83425411.35906
     -1920.684  
  19323287.139   103257821.46509      -535.991    19323291.198    80311677.49908
      -416.882  
  20615013.255   110121726.21308      3239.645    20615018.830    85650266.73907
      2519.722  
  23467285.035   125666250.69607     -4064.542    23467289.399    97740447.97606
     -3161.316  
  22668050.718   120833487.53406     -4032.698           0.000           0.0000 
         0.000  
 20 10 03 11 00 35.0000000  0 14G22G12G 1G 3G32G10G31R 2R18R 1R11R12
                                R 8R10
  23048507.385   121120748.83948      2112.629    23048504.133    94379779.00146
      1646.203  
  22345463.398   117426238.56148     -1741.352    22345462.217    91500968.97046
     -1356.898  
  23784933.140   124990670.23847     -1673.726    23784935.545    97395343.15048
     -1304.203  
  24279294.558   127588578.80547      3311.184    24279296.796    99419657.20649
      2580.145  
  20194864.233   106124768.98549      -489.004    20194865.283    82694641.91349
      -381.047  
  23283090.391   122353473.57448     -3658.008    23283093.192    95340384.04249
     -2850.398  
  20869151.751   109668164.64949      1995.242    20869150.897    85455718.81449
      1554.733  
  19934272.027   106373113.45309      2442.854    19934276.963    82734679.77408
      1900.000  
  23595264.905   125953121.56406     -2290.788    23595269.879    97963585.25006
     -1781.726  
  20067730.897   107273552.49008     -2472.354    20067737.232    83435018.95706
     -1922.944  
  19323790.137   103260509.39809      -539.871    19323794.208    80313768.11408
      -419.897  
  20611981.834   110105533.12808      3236.824    20611987.460    85637672.12707
      2517.530  
  23471080.174   125686573.99107     -4065.313    23471084.425    97756254.99806
     -3161.914  
  22671833.974   120853654.19906     -4034.452           0.000           0.0000 
         0.000  
 20 10 03 11 00 40.0000000  0 14G22G12G 1G 3G32G10G31R 2R18R 1R11R12
                                R 8R10
  23046498.132   121110190.11148      2111.085    23046494.883    94371551.42346
      1645.003  
  22347121.645   117434952.64748     -1744.132    22347120.474    91507759.16346
     -1359.070  
  23786526.612   124999044.02147     -1675.901    23786529.031    97401868.17748
     -1305.897  
  24276144.579   127572025.61747      3310.421    24276146.815    99406758.62149
      2579.550  
  20195330.434   106127218.82349      -490.719    20195331.472    82696550.87749
      -382.383  
  23286571.454   122371766.83948     -3658.956    23286574.320    95354638.52449
     -2851.140  
  20867254.256   109658193.31149      1993.534    20867253.407    85447948.94249
      1553.402  
  19931983.960   106360903.88709      2441.094    19931988.881    82725183.44508
      1898.628  
  23597412.247   125964584.53606     -2293.788    23597420.002    97972500.85206
     -1784.070  
  20070044.624   107285920.87708     -2474.867    20070050.986    83444638.80906
     -1924.901  
  19324297.007   103263218.11609      -543.237    19324301.100    80315874.89708
      -422.520  
  20608953.157   110089354.66808      3234.620    20608958.822    85625088.89207
      2515.815  
  23474876.448   125706902.80506     -4065.909    23474880.612    97772066.29505
     -3162.375  
  22675618.379   120873827.24106     -4034.613           0.000           0.0000 
         0.000  
 20 10 03 11 00 45.0000000  0 14G22G12G 1G 3G32G10G31R 2R18R 1R11R12
                                R 8R10
  23044490.713   121099641.08448      2108.214    23044487.417    94363331.40746
      1642.762  
  22348782.552   117443680.80348     -1747.702    22348781.403    91514560.32847
     -1361.852  
  23788122.358   125007429.78347     -1679.043    23788124.800    97408402.52149
     -1308.352  
  24272995.565   127555477.49747      3308.694    24272997.818    99393863.97549
      2578.198  
  20195798.396   106129677.98049      -493.429    20195799.433    82698467.10249
      -384.495  
  23290053.260   122390063.97548     -3660.500    23290056.164    95368896.03049
     -2852.339  
  20865358.640   109648231.77949      1990.542    20865357.785    85440186.71549
      1551.074  
  19929697.890   106348705.10509      2437.977    19929702.834    82715695.50508
      1896.203  
  23599562.316   125976062.21804     -2298.089    23599571.200    97981427.98306
     -1787.398  
  20072360.818   107298302.13408     -2478.191    20072367.133    83454268.67306
     -1927.483  
  19324807.240   103265944.64309      -547.890    19324811.333    80317995.52908
      -426.137  
  20605926.713   110073187.91408      3231.480    20605932.350    85612514.75507
      2513.374  
  23478673.173   125727234.34807     -4067.867    23478677.464    97787879.70706
     -3163.901  
  22679403.453   120894003.75006     -4036.569           0.000           0.0000 
         0.000  
 20 10 03 11 00 50.0000000  0 14G22G12G 1G 3G32G10G31R 2R18R 1R11R12
                                R 8R10
  23042485.931   121089105.94748      2105.770    23042482.678    94355122.20847
      1640.854  
  22350446.932   117452427.24248     -1750.925    22350445.787    91521375.73547
     -1364.362  
  23789721.161   125015831.64347     -1682.082    23789723.592    97414949.43248
     -1310.715  
  24269848.307   127538938.57847      3306.793    24269850.573    99380976.53449
      2576.722  
  20196268.927   106132150.63949      -495.801    20196269.965    82700393.85049
      -386.344  
  23293536.623   122408369.17648     -3661.737    23293539.512    95383159.82049
     -2853.305  
  20863465.711   109638284.30749      1988.159    20863464.837    85432435.44349
      1549.214  
  19927414.621   106336521.17309      2435.401    19927419.556    82706219.11408
      1894.199  
  23601716.002   125987558.89506     -2301.003    23601722.219    97990369.77305
     -1789.672  
  20074680.173   107310700.54308     -2481.163    20074686.526    83463911.87806
     -1929.797  
  19325321.609   103268693.24409      -551.901    19325325.689    80320133.33308
      -429.261  
  20602903.305   110057037.25208      3228.601    20602908.882    85599953.13107
      2511.132  
  23482471.273   125747572.71507     -4068.249    23482475.519    97803698.44206
     -3164.202  
  22683189.933   120914187.85106     -4037.762           0.000           0.0000 
         0.000  
 20 10 03 11 00 55.0000000  0 14G22G12G 1G 3G32G10G31R 2R18R 1R11R12
                                R 8R10
  23040483.288   121078582.04648      2103.520    23040480.031    94346921.76946
      1639.104  
  22352114.290   117461189.29748     -1754.097    22352113.166    91528203.30847
     -1366.828  
  23791322.529   125024246.98347     -1684.047    23791325.015    97421506.83449
     -1312.254  
  24266702.290   127522406.20646      3305.473    24266704.555    99368094.14849
      2575.688  
  20196741.527   106134634.13649      -497.976    20196742.558    82702329.03949
      -388.038  
  23297021.049   122426679.77048     -3662.988    23297023.849    95397427.81649
     -2854.280  
  20861574.929   109628348.18149      1985.828    20861574.048    85424693.00949
      1547.398  
  19925133.726   106324349.81709      2432.906    19925138.642    82696752.50408
      1892.261  
  23603872.874   125999071.86507     -2304.835    23603878.700    97999324.36706
     -1792.645  
  20077002.233   107323113.31708     -2484.159    20077008.630    83473566.26006
     -1932.128  
  19325839.613   103271461.17809      -555.875    19325843.678    80322286.17008
      -432.352  
  20599882.336   110040899.75108      3225.863    20599887.871    85587401.74307
      2509.003  
  23486270.049   125767915.24207     -4068.922    23486274.243    97819520.46106
     -3164.714  
  22686977.357   120934376.88806     -4038.867           0.000           0.0000 
         0.000  
 20 10 03 11 01  0.0000000  0 15G22G12G 1G 3G32G10G31R 2R18R 1R19R11
                                R12R 8R10
  23038482.835   121068069.59648      2101.316    23038479.564    94338730.25046
      1637.386  
  22353784.640   117469967.11048     -1757.249    22353783.521    91535043.16347
     -1369.285  
  23792926.479   125032675.89347     -1687.261    23792928.976    97428074.81848
     -1314.750  
  24263557.562   127505880.55147      3304.370    24263559.830    99355217.05249
      2574.835  
  20197216.211   106137128.61549      -500.016    20197217.242    82704272.79249
      -389.621  
  23300506.509   122444995.89248     -3663.773    23300509.238    95411700.12249
     -2854.887  
  20859686.337   109618423.56649      1983.726    20859685.457    85416959.54649
      1545.762  
  19922855.129   106312190.81809      2430.651    19922860.036    82687295.50908
      1890.508  
  23606032.759   126010601.19703     -2307.616    23606039.491    98008291.69906
     -1794.809  
  20079327.021   107335540.57908     -2486.831    20079333.421    83483231.90606
     -1934.207  
  23363175.520   124977233.25514       743.460    23363179.275    97204531.37515
       578.242  
  19326361.264   103274248.72109      -559.523    19326365.329    80324454.26008
      -435.188  
  20596863.870   110024775.67408      3223.362    20596869.397    85574860.80408
      2507.058  
  23490069.723   125788262.03907     -4069.870    23490073.682    97835345.70806
     -3165.457  
  22690765.700   120954570.79806     -4039.300           0.000           0.0000 
         0.000  
 20 10 03 11 01  5.0000000  0 15G22G12G 1G 3G32G10G31R 2R18R 1R19R11
                                R12R 8R10
  23036484.220   121057566.86448      2099.386    23036480.970    94330546.31146
      1635.886  
  22355457.662   117478758.93048     -1760.026    22355456.540    91541893.93147
     -1371.448  
  23794532.704   125041116.69146     -1689.543    23794535.246    97434652.07149
     -1316.530  
  24260413.785   127489359.89247      3303.289    24260416.027    99342343.79949
      2573.991  
  20197692.657   106139632.35649      -501.867    20197693.688    82706223.75849
      -391.070  
  23303992.702   122463315.80048     -3664.434    23303995.333    95425975.37849
     -2855.402  
  20857799.629   109608508.75449      1981.835    20857798.725    85409233.72449
      1544.289  
  19920578.504   106300042.24909      2428.437    19920583.401    82677846.62608
      1888.785  
  23608195.288   126022149.29715     -2310.815           0.000           0.0000 
         0.000  
  20081654.161   107347980.56708     -2489.562    20081660.578    83492907.45106
     -1936.331  
  23362482.582   124973524.72104       740.081    23362485.707    97201646.94705
       575.617  
  19326886.200   103277053.94409      -563.059    19326890.296    80326636.10308
      -437.934  
  20593847.568   110008663.35008      3221.058    20593853.123    85562329.00408
      2505.269  
  23493869.814   125808611.54507     -4070.601    23493874.092    97851173.09505
     -3166.034  
  22694554.635   120974768.04406     -4039.715           0.000           0.0000 
         0.000  
 20 10 03 11 01 10.0000000  0 15G22G12G 1G 3G32G10G31R 2R18R 1R19R11
                                R12R 8R10
  23034487.981   121047076.65448      2097.023    23034484.755    94322372.11646
      1634.043  
  22357133.898   117487567.54648     -1763.280    22357132.780    91548757.78747
     -1373.983  
  23796141.715   125049572.13547     -1692.569    23796144.245    97441240.68248
     -1318.895  
  24257271.479   127472847.02246      3301.867    24257273.731    99329476.62549
      2572.883  
  20198171.408   106142148.17949      -504.304    20198172.425    82708184.13749
      -392.968  
  23307480.120   122481642.30648     -3665.948    23307482.693    95440255.78249
     -2856.581  
  20855915.300   109598606.53749      1979.233    20855914.389    85401517.71349
      1542.262  
  19918304.488   106287907.60509      2425.839    19918309.366    82668408.56908
      1886.766  
  23610361.055   126033710.58906     -2313.741           0.000           0.0000 
         0.000  
  20083984.282   107360436.21308     -2492.542    20083990.664    83502595.17706
     -1938.648  
  23361793.618   124969838.63704       735.015    23361796.048    97198779.96705
       571.672  
  19327415.047   103279879.78909      -567.113    19327419.114    80328833.98208
      -441.090  
  20590834.029   109992565.59608      3218.187    20590839.584    85549808.53608
      2503.035  
  23497671.004   125828966.40006     -4071.245    23497675.092    97867004.68906
     -3166.523  
  22698344.777   120994971.32206     -4041.289           0.000           0.0000 
         0.000  
 20 10 03 11 01 15.0000000  0 14G22G12G 1G 3G32G10G31R 2R18R 1R11R12
                                R 8R10
  23032494.586   121036601.29448      2093.343    23032491.355    94314209.50547
      1631.176  
  22358813.761   117496395.19548     -1767.504    22358812.648    91555636.47347
     -1377.281  
  23797753.988   125058044.49846     -1696.526    23797756.506    97447842.58949
     -1321.964  
  24254131.104   127456344.39947      3299.574    24254133.381    99316617.44749
      2571.093  
  20198652.887   106144678.37149      -507.520    20198653.905    82710155.71549
      -395.472  
  23310969.204   122499977.69548     -3668.202    23310971.747    95454543.09749
     -2858.344  
  20854033.803   109588719.20349      1976.016    20854032.894    85393813.30549
      1539.753  
  19916033.421   106275788.69109      2422.027    19916038.280    82658982.74908
      1883.801  
  23612530.528   126045291.91404     -2318.687           0.000           0.0000 
         0.000  
  20086317.752   107372909.82208     -2496.605    20086324.132    83512296.86806
     -1941.808  
  19327948.150   103282728.56009      -572.202    19327952.216    80331049.69408
      -445.046  
  20587823.677   109976484.80708      3214.354    20587829.243    85537301.26108
      2500.054  
  23501473.482   125849328.99506     -4072.867    23501477.613    97882842.24206
     -3167.784  
  22702136.492   121015183.17006     -4042.910           0.000           0.0000 
         0.000  
 20 10 03 11 01 20.0000000  0 14G22G12G 1G 3G32G10G31R 2R18R 1R11R12
                                R 8R10
  23030503.567   121026138.44648      2091.835    23030500.342    94306056.63947
      1630.000  
  22360496.815   117505239.67248     -1770.073    22360495.688    91562528.27347
     -1379.280  
  23799369.011   125066531.50347     -1698.105    23799371.498    97454455.77748
     -1323.202  
  24250992.225   127439849.51146      3298.598    24250994.504    99303764.30049
      2570.335  
  20199136.654   106147220.61649      -509.257    20199137.678    82712136.68449
      -396.823  
  23314459.517   122518319.63047     -3668.769    23314462.077    95468835.50649
     -2858.784  
  20852154.704   109578844.44049      1974.101    20852153.790    85386118.68849
      1538.261  
  19913764.927   106263683.54409      2420.129    19913769.773    82649567.63408
      1882.319  
  23614703.425   126056890.60906     -2321.206           0.000           0.0000 
         0.000  
  20088654.114   107385399.08108     -2498.961    20088660.514    83522010.73506
     -1943.640  
  19328485.096   103285597.86709      -575.628    19328489.160    80333281.37808
      -447.711  
  20584816.046   109960418.58008      3212.050    20584821.622    85524805.31908
      2498.261  
  23505277.036   125869697.10706     -4073.836    23505281.328    97898684.11006
     -3168.539  
  22705929.402   121035401.01506     -4044.203           0.000           0.0000 
         0.000  
 20 10 03 11 01 25.0000000  0 14G22G12G 1G 3G32G10G31R 2R18R 1R11R12
                                R 8R10
  23028514.431   121015685.53148      2089.441    23028511.221    94297911.52047
      1628.136  
  22362182.568   117514098.30048     -1773.081    22362181.438    91569431.10547
     -1381.620  
  23800986.325   125075030.51546     -1701.297    23800988.825    97461078.42749
     -1325.688  
  24247854.332   127423359.95747      3297.258    24247856.631    99290915.29748
      2569.289  
  20199622.227   106149772.31949      -511.300    20199623.258    82714125.02349
      -398.417  
  23317950.542   122536665.49847     -3669.948    23317953.170    95483130.98349
     -2859.703  
  20850277.497   109568979.65249      1971.984    20850276.575    85378431.84149
      1536.609  
  19911498.488   106251589.32909      2417.624    19911503.315    82640161.02208
      1880.371  
  23616879.166   126068503.89306     -2324.339           0.000           0.0000 
         0.000  
  20090992.861   107397901.08608     -2501.805    20090999.265    83531734.51706
     -1945.851  
  19329025.411   103288485.08409      -579.421    19329029.464    80335526.99408
      -450.660  
  20581810.632   109944364.26408      3209.582    20581816.228    85512318.62908
      2496.340  
  23509081.148   125890067.82907     -4075.011    23509085.308    97914527.98906
     -3169.457  
  22709722.814   121055622.32106     -4044.516           0.000           0.0000 
         0.000  
 20 10 03 11 01 30.0000000  0 14G22G12G 1G 3G32G10G31R 2R18R 1R11R12
                                R 8R10
  23026527.661   121005244.89148      2086.918    23026524.431    94289775.95047
      1626.164  
  22363871.456   117522973.46748     -1776.648    22363870.311    91576346.81947
     -1384.402  
  23802606.366   125083543.85447     -1704.125    23802608.864    97467712.15549
     -1327.894  
  24244717.901   127406877.87046      3296.163    24244720.172    99278072.11749
      2568.445  
  20200110.050   106152335.81549      -513.815    20200111.067    82716122.55349
      -400.379  
  23321442.758   122555017.62147     -3671.003    23321445.468    95497431.32749
     -2860.527  
  20848402.638   109559127.19949      1969.249    20848401.696    85370754.61849
      1534.480  
  19909234.505   106239508.37209      2414.757    19909239.326    82630764.72408
      1878.140  
  23619057.734   126080134.52305     -2327.926           0.000           0.0000 
         0.000  
  20093334.500   107410418.54908     -2504.952    20093340.914    83541470.31706
     -1948.300  
  19329569.492   103291392.54809      -583.558    19329573.564    80337788.35408
      -453.878  
  20578807.923   109928324.36208      3206.449    20578813.512    85499843.15808
      2493.905  
  23512886.163   125910443.73105     -4075.879    23512890.484    97930375.94406
     -3170.129  
  22713517.265   121075849.31306     -4046.062           0.000           0.0000 
         0.000  
 20 10 03 11 01 35.0000000  0 14G22G12G 1G 3G32G10G31R 2R18R 1R11R12
                                R 8R10
  23024543.455   120994817.81648      2084.366    23024540.263    94281650.95846
      1624.183  
  22365563.744   117531866.43948     -1780.199    22365562.594    91583276.40647
     -1387.171  
  23804229.376   125092072.82747     -1707.069    23804231.914    97474358.11849
     -1330.187  
  24241583.176   127390404.87147      3293.847    24241585.454    99265236.03149
      2566.629  
  20200600.355   106154912.41649      -516.358    20200601.386    82718130.29349
      -402.363  
  23324936.405   122573377.29647     -3672.387    23324939.241    95511737.55549
     -2861.604  
  20846530.368   109549288.38449      1966.647    20846529.426    85363088.01449
      1532.452  
  19906973.280   106227442.04309      2412.026    19906978.102    82621379.80208
      1876.016  
  23621240.063   126091783.47406     -2331.229           0.000           0.0000 
         0.000  
  20095679.247   107422952.50108     -2508.327    20095685.656    83551218.94306
     -1950.926  
  19330117.593   103294321.62509      -587.636    19330121.694    80340066.52908
      -457.050  
  20575808.165   109912300.13208      3203.534    20575813.690    85487379.87007
      2491.636  
  23516692.391   125930825.90906     -4076.359    23516696.521    97946228.76906
     -3170.488  
  22717313.164   121096083.46906     -4047.136           0.000           0.0000 
         0.000  
 20 10 03 11 01 40.0000000  0 14G22G12G 1G 3G32G10G31R 2R18R 1R11R12
                                R 8R10
  23022561.443   120984402.21048      2082.179    23022558.210    94273534.90646
      1622.476  
  22367259.026   117540775.04648     -1783.137    22367257.854    91590218.18147
     -1389.461  
  23805854.937   125100615.27146     -1710.078    23805857.513    97481014.58049
     -1332.531  
  24238449.741   127373938.53246      3292.758    24238452.020    99252405.11349
      2565.785  
  20201092.763   106157500.00449      -518.449    20201093.788    82720146.59849
      -403.988  
  23328431.147   122591742.38648     -3673.305    23328434.038    95526048.00949
     -2862.320  
  20844660.285   109539461.06749      1964.594    20844659.343    85355430.36849
      1530.851  
  19904714.475   106215388.56709      2409.715    19904719.279    82612004.88008
      1874.223  
  23623425.399   126103448.66605     -2334.238           0.000           0.0000 
         0.000  
  20098026.706   107435500.98408     -2511.063    20098033.116    83560978.87406
     -1953.051  
  19330669.342   103297270.06309      -591.367    19330673.476    80342359.75708
      -459.956  
  20572810.943   109896289.47508      3200.913    20572816.426    85474927.14608
      2489.601  
  23520499.491   125951212.56607     -4078.065    23520503.625    97962085.00105
     -3171.832  
  22721109.877   121116322.52106     -4047.968           0.000           0.0000 
         0.000  
 20 10 03 11 01 45.0000000  0 14G22G12G 1G 3G32G10G31R 2R18R 1R11R12
                                R 8R10
  23020581.571   120973997.88148      2079.765    23020578.333    94265427.64247
      1620.598  
  22368957.216   117549699.12948     -1786.258    22368956.011    91597172.00747
     -1391.894  
  23807483.046   125109170.98347     -1712.386    23807485.591    97487681.34648
     -1334.328  
  24235317.580   127357478.91347      3290.973    24235319.865    99239579.46249
      2564.395  
  20201587.213   106160098.39049      -520.816    20201588.244    82722171.31549
      -405.836  
  23331926.909   122610112.70848     -3674.594    23331929.823    95540362.53849
     -2863.323  
  20842792.369   109529645.13249      1962.085    20842791.425    85347781.58849
      1528.898  
  19902457.929   106203347.20009      2406.910    19902462.748    82602639.37508
      1872.038  
  23625613.544   126115129.94405     -2337.926           0.000           0.0000 
         0.000  
  20100376.841   107448063.74108     -2514.098    20100383.246    83570749.90006
     -1955.413  
  19331224.720   103300237.80509      -595.445    19331228.841    80344668.00108
      -463.125  
  20569816.210   109880292.18308      3198.089    20569821.686    85462484.81208
      2487.402  
  23524307.272   125971603.09507     -4078.726    23524311.414    97977944.34106
     -3172.347  
  22724907.519   121136566.31206     -4049.312           0.000           0.0000 
         0.000  
 20 10 03 11 01 50.0000000  0 14G22G12G 1G 3G32G10G31R 2R18R 1R11R12
                                R 8R10
  23018603.783   120963604.59948      2076.917    23018600.518    94257328.97747
      1618.379  
  22370658.279   117558638.33648     -1789.820    22370657.072    91604137.62747
     -1394.668  
  23809113.644   125117739.76846     -1715.214    23809116.179    97494358.33449
     -1336.535  
  24232186.595   127341025.57147      3289.875    24232188.893    99226758.65649
      2563.543  
  20202083.670   106162707.31749      -523.245    20202084.707    82724204.24549
      -407.723  
  23335423.628   122628487.96248     -3675.999    23335426.548    95554680.91749
     -2864.418  
  20840926.551   109519840.25749      1959.402    20840925.621    85340141.43449
      1526.808  
  19900203.673   106191318.02709      2404.147    19900208.479    82593283.35408
      1869.890  
  23627804.729   126126827.07406     -2341.198           0.000           0.0000 
         0.000  
  20102729.611   107460640.48908     -2516.991    20102735.987    83580531.81606
     -1957.663  
  19331783.630   103303224.45009      -599.762    19331787.744    80346990.95008
      -466.479  
  20566823.933   109864307.91508      3195.108    20566829.399    85450052.61008
      2485.086  
  23528115.815   125991997.51307     -4080.051    23528119.927    97993806.66406
     -3173.370  
  22728706.013   121156814.38906     -4050.386           0.000           0.0000 
         0.000  
 20 10 03 11 01 55.0000000  0 15G22G12G 1G 3G32G10G31R 2R18R 1R19R11
                                R12R 8R10
  23016628.331   120953223.53048      2074.979    23016625.060    94249239.83746
      1616.866  
  22372362.446   117567593.88848     -1792.926    22372361.241    91611115.97947
     -1397.089  
  23810746.888   125126322.74446     -1718.117    23810749.471    97501046.36049
     -1338.797  
  24229057.070   127324579.86746      3288.534    24229059.401    99213943.84449
      2562.496  
  20202582.361   106165327.95649      -525.313    20202583.406    82726246.30449
      -409.336  
  23338921.543   122646869.35248     -3676.801    23338924.432    95569004.07449
     -2865.042  
  20839063.078   109510047.66749      1957.227    20839062.147    85332510.85049
      1525.113  
  19897951.927   106179302.25209      2401.754    19897956.736    82583937.75308
      1868.027  
  23629999.240   126138541.02205     -2344.394           0.000           0.0000 
         0.000  
  20105085.212   107473232.36908     -2520.137    20105091.559    83590325.50206
     -1960.109  
  23355778.922   124937668.32114       695.112    23355781.901    97173754.30515
       540.640  
  19332346.307   103306231.28909      -603.445    19332350.433    80349329.60308
      -469.351  
  20563834.370   109848338.01608      3192.406    20563839.824    85437631.58208
      2482.984  
  23531925.178   126012396.88107     -4080.804    23531929.303    98009672.82806
     -3173.965  
  22732505.594   121177068.10506     -4051.483           0.000           0.0000 
         0.000  
 20 10 03 11 02  0.0000000  0 15G22G12G 1G 3G32G10G31R 2R18R 1R19R11
                                R12R 8R10
  23014655.285   120942855.19448      2072.762    23014652.010    94241160.62046
      1615.141  
  22374069.830   117576566.31548     -1795.730    22374068.652    91618107.47847
     -1399.272  
  23812382.986   125134920.34147     -1720.641    23812385.539    97507745.78548
     -1340.758  
  24225929.091   127308142.25546      3286.949    24225931.428    99201135.29049
      2561.254  
  20203083.373   106167960.79149      -527.344    20203084.419    82728297.86949
      -410.921  
  23342420.690   122665257.30348     -3677.910    23342423.542    95583332.34649
     -2865.906  
  20837202.032   109500267.83949      1955.093    20837201.108    85324890.20849
      1523.449  
  19895702.753   106167300.28809      2399.417    19895707.566    82574602.89408
      1866.214  
  23632196.954   126150272.56805     -2347.577           0.000           0.0000 
         0.000  
  20107443.739   107485839.89408     -2522.726    20107450.057    83600131.35406
     -1962.125  
  23355130.876   124934202.33704       690.711    23355134.042    97171058.55105
       537.218  
  19332912.864   103309258.76609      -606.992    19332916.969    80351684.30808
      -472.109  
  20560847.569   109832382.93608      3189.765    20560853.032    85425222.08508
      2480.930  
  23535735.526   126032801.52806     -4081.020    23535739.837    98025543.10206
     -3174.132  
  22736306.343   121197327.92606     -4052.426           0.000           0.0000 
         0.000  
 20 10 03 11 02  5.0000000  0 13G22G12G 1G 3G32G10G31R 2R 1R11R12R 8
                                R10
  23012684.389   120932498.09848      2070.355    23012681.096    94233090.15146
      1613.266  
  22375780.141   117585554.06048     -1799.144    22375778.948    91625110.91947
     -1401.934  
  23814021.576   125143531.12646     -1723.495    23814024.144    97514455.47549
     -1342.992  
  24222802.322   127291711.19347      3285.551    24222804.728    99188331.91348
      2560.168  
  20203586.412   106170604.31049      -529.867    20203587.465    82730357.75649
      -412.883  
  23345920.805   122683650.31448     -3679.085    23345923.601    95597664.56449
     -2866.823  
  20835343.121   109490499.22749      1952.520    20835342.196    85317278.30549
      1521.445  
  19893455.899   106155310.67809      2396.813    19893460.718    82565277.64108
      1864.183  
  20109804.891   107498461.57008     -2525.718    20109811.209    83609948.20806
     -1964.452  
  19333482.969   103312305.29809      -611.222    19333487.079    80354053.83508
      -475.394  
  20557863.221   109816441.14608      3187.090    20557868.705    85412822.92408
      2478.848  
  23539546.795   126053210.26707     -4082.366    23539550.994    98041416.56106
     -3175.184  
  22740107.855   121217592.18806     -4053.133           0.000           0.0000 
         0.000  
 20 10 03 11 02 10.0000000  0 13G22G12G 1G 3G32G10G31R 2R 1R11R12R 8
                                R10
  23010715.910   120922153.61048      2067.809    23010712.613    94225029.51046
      1611.280  
  22377493.638   117594558.51548     -1802.573    22377492.462    91632127.37747
     -1404.605  
  23815662.909   125152156.32747     -1726.051    23815665.457    97521176.40949
     -1344.976  
  24219677.063   127275287.97246      3284.262    24219679.473    99175534.57749
      2559.163  
  20204091.740   106173259.86249      -532.159    20204092.799    82732427.01649
      -414.671  
  23349422.128   122702049.70548     -3680.194    23349424.874    95612001.75249
     -2867.688  
  20833486.616   109480743.22449      1950.175    20833485.684    85309676.22849
      1519.617  
  19891211.577   106143334.66809      2394.016    19891216.419    82555962.96908
      1862.011  
  20112168.926   107511098.72408     -2528.660    20112175.242    83619777.10406
     -1966.738  
  19334056.906   103315372.27209      -615.277    19334061.021    80356439.25808
      -478.555  
  20554881.607   109800514.05608      3184.183    20554887.091    85400435.19108
      2476.585  
  23543358.959   126073624.22806     -4082.604    23543363.187    98057294.08206
     -3175.366  
  22743910.549   121237862.36906     -4054.519           0.000           0.0000 
         0.000  
 20 10 03 11 02 15.0000000  0 13G22G12G 1G 3G32G10G31R 2R 1R11R12R 8
                                R10
  23008749.742   120911821.42048      2065.062    23008746.479    94216978.45747
      1609.140  
  22379210.283   117603579.38848     -1805.960    22379209.085    91639156.62947
     -1407.241  
  23817306.942   125160795.77847     -1729.586    23817309.504    97527908.44448
     -1347.730  
  24216553.300   127258872.57947      3282.191    24216555.703    99162743.38549
      2557.550  
  20204599.322   106175927.22449      -534.702    20204600.374    82734505.48449
      -416.651  
  23352924.613   122720455.29048     -3681.906    23352927.302    95626343.76749
     -2869.019  
  20831632.459   109470999.59549      1947.327    20831631.526    85302083.79149
      1517.398  
  19888969.833   106131372.22909      2391.034    19888974.656    82546658.84908
      1859.690  
  20114535.840   107523751.14408     -2532.065    20114542.137    83629617.86806
     -1969.391  
  19334634.642   103318459.45809      -619.499    19334638.755    80358840.40708
      -481.831  
  20551902.708   109784601.40408      3180.964    20551908.180    85388058.68508
      2474.081  
  23547172.062   126094043.22306     -4084.008    23547176.256    98073175.56906
     -3176.444  
  22747714.240   121258138.15406     -4056.030           0.000           0.0000 
         0.000  
 20 10 03 11 02 20.0000000  0 13G22G12G 1G 3G32G10G31R 2R 1R11R12R 8
                                R10
  23006786.098   120901502.43148      2062.504    23006782.833    94208937.68846
      1607.141  
  22380930.186   117612617.48148     -1809.261    22380928.969    91646199.29947
     -1409.815  
  23818953.839   125169450.31047     -1732.288    23818956.424    97534652.24349
     -1349.840  
  24213431.159   127242465.64846      3280.527    24213433.556    99149958.74849
      2556.249  
  20205109.303   106178607.19149      -537.184    20205110.356    82736593.77549
      -418.590  
  23356428.391   122738867.80248     -3683.210    23356431.033    95640691.17849
     -2870.035  
  20829780.816   109461269.11649      1944.757    20829779.879    85294501.60849
      1515.395  
  19886730.723   106119424.06609      2388.227    19886735.576    82537365.83608
      1857.508  
  20116905.728   107536419.55108     -2535.257    20116912.038    83639471.06906
     -1971.871  
  19335216.315   103321567.74109      -623.772    19335220.427    80361257.96008
      -485.155  
  20548926.682   109768704.01008      3177.883    20548932.118    85375694.05008
      2471.687  
  23550986.215   126114467.96406     -4085.757    23550990.420    98089061.45705
     -3177.808  
  22751519.113   121278420.23806     -4057.167           0.000           0.0000 
         0.000  
 20 10 03 11 02 25.0000000  0 14G22G12G 1G 3G32G10G31R 2R 1R19R11R12
                                R 8R10
  23004824.646   120891194.96448      2060.547    23004821.396    94200905.89847
      1605.617  
  22382653.048   117621671.14848     -1811.887    22382651.825    91653254.10547
     -1411.863  
  23820603.243   125178118.14647     -1734.730    23820605.864    97541406.39449
     -1351.742  
  24210310.337   127226065.61747      3279.667    24210312.743    99137179.54049
      2555.589  
  20205621.363   106181298.11649      -539.000    20205622.422    82738690.59949
      -420.004  
  23359933.123   122757285.57248     -3683.852    23359935.764    95655042.68449
     -2870.538  
  20827931.360   109451550.16149      1942.835    20827930.417    85286928.40149
      1513.898  
  19884494.017   106107488.60909      2386.054    19884498.885    82528082.70708
      1855.819  
  20119278.286   107549102.42308     -2537.773    20119284.652    83649335.51606
     -1973.828  
  23351952.322   124917198.15314       669.273    23351955.839    97157835.39315
       520.542  
  19335801.604   103324695.31909      -627.257    19335805.711    80363690.52208
      -487.866  
  20545953.207   109752820.20808      3175.491    20545958.630    85363339.98608
      2469.828  
  23554801.180   126134896.74007     -4085.688    23554805.461    98104950.50006
     -3177.762  
  22755324.795   121298707.25506     -4057.719           0.000           0.0000 
         0.000  
 20 10 03 11 02 30.0000000  0 14G22G12G 1G 3G32G10G31R 2R 1R19R11R12
                                R 8R10
  23002865.488   120880899.55248      2057.581    23002862.252    94192883.50046
      1603.313  
  22384378.962   117630740.85648     -1815.593    22384377.724    91660321.40747
     -1414.753  
  23822255.310   125186799.84846     -1738.129    23822257.953    97548171.35649
     -1354.386  
  24207190.902   127209672.97046      3277.562    24207193.311    99124406.02049
      2553.940  
  20206135.607   106184000.51749      -541.785    20206136.673    82740796.36949
      -422.172  
  23363438.975   122775709.13748     -3685.340    23363441.591    95669398.70949
     -2871.698  
  20826084.189   109441843.24049      1940.035    20826083.260    85279364.57149
      1511.715  
  19882259.796   106095566.40509      2382.995    19882264.677    82518809.88308
      1853.440  
  20121653.640   107561800.04808     -2541.144    20121659.996    83659211.43706
     -1976.449  
  23351329.169   124913864.10803       664.147    23351332.572    97155242.26905
       516.558  
  19336390.617   103327842.73209      -631.761    19336394.707    80366138.51208
      -491.370  
  20542982.344   109736950.58008      3172.370    20542987.827    85350996.95008
      2467.397  
  23558617.000   126155330.28707     -4086.898    23558621.051    98120843.26806
     -3178.703  
  22759131.468   121318999.37106     -4059.488           0.000           0.0000 
         0.000  
 20 10 03 11 02 35.0000000  0 14G22G12G 1G 3G32G10G31R 2R 1R19R11R12
                                R 8R10
  23000908.837   120870617.37148      2055.738    23000905.628    94184871.42147
      1601.875  
  22386108.138   117639827.80148     -1818.741    22386106.891    91667402.14947
     -1417.203  
  23823910.268   125195496.61347     -1740.515    23823912.889    97554948.04349
     -1356.250  
  24204073.075   127193288.99547      3276.339    24204075.560    99111639.31949
      2552.992  
  20206652.257   106186715.59549      -543.687    20206653.335    82742912.01449
      -423.655  
  23366946.167   122794139.71148     -3686.172    23366948.758    95683760.19249
     -2872.344  
  20824239.523   109432149.54749      1937.909    20824238.605    85271811.05049
      1510.058  
  19880028.245   106083658.48409      2380.629    19880033.137    82509548.16608
      1851.598  
  20124032.011   107574513.80808     -2543.945    20124038.359    83669099.91406
     -1978.629  
  23350710.317   124910553.01104       660.672    23350713.616    97152666.95305
       513.851  
  19336983.556   103331011.18709      -635.503    19336987.633    80368602.86708
      -494.281  
  20540014.357   109721096.34308      3169.566    20540019.904    85338665.88008
      2465.218  
  23562433.875   126175769.88106     -4087.448    23562438.192    98136740.74205
     -3179.132  
  22762939.440   121339297.91406     -4060.026           0.000           0.0000 
         0.000  
 20 10 03 11 02 40.0000000  0 14G22G12G 1G 3G32G10G31R 2R 1R19R11R12
                                R 8R10
  22998954.286   120860346.13748      2053.227    22998951.076    94176867.85947
      1599.917  
  22387840.150   117648929.58448     -1821.699    22387838.880    91674494.44747
     -1419.507  
  23825567.590   125204206.05547     -1743.378    23825570.221    97561734.63349
     -1358.476  
  24200956.482   127176911.24847      3275.020    24200958.969    99098877.42949
      2551.965  
  20207170.876   106189440.98349      -545.961    20207171.952    82745035.69549
      -425.425  
  23370454.252   122812574.85248     -3687.233    23370456.847    95698125.23249
     -2873.171  
  20822396.947   109422466.75049      1935.628    20822396.031    85264266.01749
      1508.280  
  19877798.994   106071762.71109      2378.101    19877803.874    82500295.89708
      1849.629  
  20126412.936   107587241.21508     -2546.757    20126419.282    83678999.00006
     -1980.815  
  23350095.674   124907262.55403       656.405    23350098.549    97150107.69405
       510.534  
  19337579.986   103334198.29509      -639.195    19337584.064    80371081.72608
      -497.156  
  20537048.843   109705255.03808      3167.031    20537054.396    85326344.87608
      2463.245  
  23566251.477   126196212.56306     -4088.140    23566255.572    98152640.62306
     -3179.660  
  22766748.140   121359600.58206     -4060.949           0.000           0.0000 
         0.000  
 20 10 03 11 02 45.0000000  0 14G22G12G 1G 3G32G10G31R 2R 1R19R11R12
                                R 8R10
  22997001.870   120850086.06048      2050.995    22996998.657    94168872.99647
      1598.176  
  22389575.039   117658046.48748     -1824.887    22389573.807    91681598.52647
     -1421.991  
  23827227.399   125212928.44246     -1745.785    23827230.035    97568531.29649
     -1360.351  
  24197841.130   127160540.08947      3273.621    24197843.654    99086120.70549
      2550.874  
  20207691.513   106192176.94949      -548.223    20207692.590    82747167.61949
      -427.187  
  23373963.298   122831014.86148     -3688.492    23373965.850    95712494.07349
     -2874.148  
  20820556.482   109412795.13349      1933.245    20820555.585    85256729.69749
      1506.425  
  19875572.048   106059879.08309      2375.637    19875576.890    82491053.08308
      1847.719  
  20128796.472   107599982.55008     -2549.715    20128802.819    83688908.92206
     -1983.116  
  23349484.270   124903993.02003       652.335    23349487.335    97147564.74805
       507.370  
  19338179.955   103337404.31909      -642.972    19338184.028    80373575.30408
      -500.094  
  20534085.808   109689427.00708      3164.328    20534091.349    85314034.19108
      2461.144  
  23570069.717   126216659.28207     -4089.511    23570073.987    98168543.56106
     -3180.741  
  22770557.713   121379907.47106     -4061.644           0.000           0.0000 
         0.000  
 20 10 03 11 02 50.0000000  0 14G22G12G 1G 3G32G10G31R 2R 1R19R11R12
                                R 8R10
  22995051.482   120839836.79548      2048.551    22995048.256    94160886.55447
      1596.269  
  22391312.752   117667178.10548     -1828.055    22391311.472    91688714.06947
     -1424.456  
  23828889.613   125221663.40447     -1748.465    23828892.237    97575337.73448
     -1362.444  
  24194726.965   127144175.07047      3272.120    24194729.477    99073368.73249
      2549.703  
  20208214.087   106194923.13049      -550.503    20208215.163    82749307.50349
      -428.969  
  23377473.230   122849459.30048     -3689.578    23377475.740    95726866.36349
     -2875.000  
  20818718.091   109403134.29349      1930.843    20818717.182    85249201.77549
      1504.554  
  19873347.312   106048007.49509      2372.917    19873352.160    82481819.62808
      1845.602  
  20131182.574   107612737.57108     -2552.480    20131188.930    83698829.48706
     -1985.266  
  23348876.871   124900743.96804       646.675    23348879.955    97145037.72405
       502.968  
  19338783.391   103340628.92809      -646.984    19338787.462    80376083.33308
      -503.210  
  20531125.212   109673611.91108      3161.499    20531130.685    85301733.56108
      2458.945  
  23573888.642   126237109.14107     -4090.483    23573892.818    98184449.04506
     -3181.491  
  22774367.923   121400218.24906     -4062.757           0.000           0.0000 
         0.000  
 20 10 03 11 02 55.0000000  0 14G22G12G 1G 3G32G10G31R 2R 1R19R11R12
                                R 8R10
  22993103.854   120829602.00348      2045.777    22993100.656    94152911.39847
      1594.108  
  22393053.947   117676328.11548     -1831.484    22393052.677    91695843.94947
     -1427.133  
  23830554.910   125230414.47347     -1751.293    23830557.564    97582156.75248
     -1364.644  
  24191614.706   127127819.94547      3270.397    24191617.160    99060624.50349
      2548.366  
  20208739.300   106197683.17149      -552.996    20208740.374    82751458.18249
      -430.909  
  23380984.717   122867911.88348     -3690.968    23380987.181    95741245.00149
     -2876.078  
  20816882.442   109393487.89049      1928.148    20816881.526    85241685.10349
      1502.452  
  19871125.511   106036151.57209      2369.843    19871130.371    82472598.35108
      1843.207  
  20133571.876   107625509.85508     -2555.729    20133578.270    83708763.47606
     -1987.793  
  23348273.941   124897519.23204       643.480    23348277.136    97142529.61005
       500.483  
  19339390.973   103343875.65909      -651.206    19339395.037    80378608.57208
      -506.496  
  20528167.665   109657813.41308      3158.280    20528173.129    85289445.84508
      2456.441  
  23577708.879   126257566.05607     -4091.738    23577712.923    98200359.96006
     -3182.468  
  22778179.584   121420536.42506     -4064.176           0.000           0.0000 
         0.000  
 20 10 03 11 03  0.0000000  0 14G22G12G 1G 3G32G10G31R 2R 1R19R11R12
                                R 8R10
  22991158.478   120819378.98248      2043.617    22991155.259    94144945.41646
      1592.430  
  22394798.114   117685493.80748     -1834.465    22394796.866    91702986.04947
     -1429.453  
  23832222.773   125239179.12347     -1754.012    23832225.415    97588986.35349
     -1366.766  
  24188503.759   127111471.96746      3269.312    24188506.258    99047885.78449
      2547.511  
  20209266.639   106200454.39049      -555.156    20209267.713    82753617.57849
      -432.590  
  23384497.231   122886369.86348     -3692.109    23384499.679    95755627.84349
     -2876.973  
  20815049.041   109383853.27049      1925.953    20815048.112    85234177.60849
      1500.742  
  19868906.178   106024308.69509      2367.684    19868911.029    82463387.22508
      1841.530  
  20135963.917   107638296.65108     -2558.491    20135970.317    83718708.75206
     -1989.940  
  23347675.291   124894316.13704       638.531    23347678.334    97140038.27605
       496.628  
  19340002.221   103347141.92009      -654.948    19340006.273    80381148.99608
      -509.409  
  20525212.748   109642028.77608      3155.891    20525218.190    85277168.90708
      2454.581  
  23581529.792   126278027.24406     -4092.730    23581534.162    98216274.22006
     -3183.242  
  22781992.181   121440859.40106     -4064.324           0.000           0.0000 
         0.000  
 20 10 03 11 03  5.0000000  0 14G22G12G 1G 3G32G10G31R 2R 1R19R11R12
                                R 8R10
  22989215.185   120809166.97248      2041.078    22989211.994    94136988.00747
      1590.444  
  22396545.138   117694674.41848     -1837.645    22396543.871    91710139.77647
     -1431.930  
  23833893.061   125247956.45546     -1757.258    23833895.702    97595825.83749
     -1369.292  
  24185394.038   127095130.46047      3267.604    24185396.565    99035152.17449
      2546.183  
  20209795.946   106203235.97749      -557.354    20209797.023    82755785.04849
      -434.304  
  23388010.600   122904832.42748     -3693.027    23388013.057    95770014.25549
     -2877.688  
  20813217.703   109374229.61749      1923.542    20813216.778    85226678.66549
      1498.862  
  19866689.131   106012478.04409      2364.870    19866693.972    82454185.61308
      1839.344  
  20138358.527   107651097.09008     -2561.453    20138364.933    83728664.64606
     -1992.245  
  23347080.243   124891133.62504       634.211    23347083.357    97137562.97805
       493.269  
  19340616.952   103350426.92209      -658.797    19340621.025    80383704.00308
      -512.457  
  20522260.290   109626257.36608      3152.805    20522265.759    85264902.26508
      2452.180  
  23585351.410   126298491.74406     -4093.445    23585355.614    98232191.09006
     -3183.780  
  22785805.481   121461186.49906     -4066.253           0.000           0.0000 
         0.000  
 20 10 03 11 03 10.0000000  0 13G22G12G 1G 3G32G10G31R 2R 1R11R12R 8
                                R10
  22987274.088   120798966.65748      2039.016    22987270.924    94129039.71147
      1588.840  
  22398295.109   117703870.63948     -1840.776    22398293.829    91717305.65547
     -1434.375  
  23835565.901   125256747.10047     -1759.191    23835568.518    97602675.67948
     -1370.797  
  24182285.740   127078796.02747      3266.109    24182288.213    99022424.05849
      2545.020  
  20210327.375   106206028.65749      -559.659    20210328.453    82757961.16549
      -436.098  
  23391524.987   122923300.28348     -3694.007    23391527.450    95784404.79449
     -2878.449  
  20811388.614   109364617.65849      1921.284    20811387.683    85219188.82749
      1497.101  
  19864474.472   106000660.20009      2362.308    19864479.313    82444993.95808
      1837.347  
  20140755.817   107663911.94808     -2564.378    20140762.215    83738631.74806
     -1994.519  
  19341235.323   103353731.27809      -662.781    19341239.390    80386274.05708
      -515.495  
  20519310.425   109610499.68708      3150.152    20519315.928    85252646.30008
      2450.117  
  23589173.930   126318960.60107     -4094.522    23589178.076    98248111.26006
     -3184.633  
  22789619.663   121481518.38806     -4066.672           0.000           0.0000 
         0.000  
 20 10 03 11 03 15.0000000  0 13G22G12G 1G 3G32G10G31R 2R 1R11R12R 8
                                R10
  22985335.564   120788779.73848      2036.269    22985332.410    94121101.85547
      1586.702  
  22400048.364   117713084.05448     -1844.171    22400047.092    91724484.94047
     -1437.019  
  23837241.586   125265552.88346     -1762.414    23837244.201    97609537.32149
     -1373.316  
  24179179.067   127062470.34646      3264.512    24179181.559    99009702.73349
      2543.769  
  20210861.223   106208834.07949      -562.117    20210862.307    82760147.20649
      -438.015  
  23395040.674   122941775.09548     -3695.566    23395043.142    95798800.74649
     -2879.667  
  20809562.049   109355019.06049      1918.648    20809561.123    85211709.40149
      1495.050  
  19862262.587   105988857.18809      2359.351    19862267.441    82435813.83708
      1835.046  
  20143156.138   107676742.91308     -2567.722    20143162.511    83748611.38006
     -1997.121  
  19341857.652   103357056.75409      -666.934    19341861.701    80388860.54008
      -518.730  
  20516363.451   109594757.57708      3147.188    20516369.027    85240402.44608
      2447.813  
  23592997.405   126339435.32606     -4095.438    23593001.605    98264036.05806
     -3185.351  
  22793435.074   121501856.52306     -4067.836           0.000           0.0000 
         0.000  
 20 10 03 11 03 20.0000000  0 13G22G12G 1G 3G32G10G31R 2R 1R11R12R 8
                                R10
  22983399.392   120778605.14748      2033.589    22983396.281    94113173.60247
      1584.613  
  22401804.697   117722313.58648     -1847.667    22401803.408    91731676.79347
     -1439.742  
  23838919.882   125274372.48047     -1765.433    23838922.522    97616409.73449
     -1375.663  
  24176073.857   127046152.36047      3262.918    24176076.341    98996987.44749
      2542.534  
  20211397.284   106211651.12749      -564.715    20211398.365    82762342.30749
      -440.043  
  23398557.452   122960255.73148     -3696.875    23398559.927    95813201.23949
     -2880.687  
  20807737.823   109345432.65349      1915.940    20807736.876    85204239.47949
      1492.941  
  19860053.176   105977067.34809      2356.504    19860058.046    82426643.96308
      1832.835  
  20145559.221   107689588.89508     -2570.742    20145565.624    83758602.69406
     -1999.469  
  19342483.665   103360402.06709      -671.147    19342487.738    80391462.44908
      -522.007  
  20513419.178   109579029.86108      3144.104    20513424.783    85228169.78908
      2445.413  
  23596821.722   126359914.74504     -4097.293    23596826.022    98279964.59106
     -3186.769  
  22797251.401   121522200.03606     -4069.547           0.000           0.0000 
         0.000  
 20 10 03 11 03 25.0000000  0 13G22G12G 1G 3G32G10G31R 2R 1R11R12R 8
                                R10
  22981465.561   120768442.95748      2031.477    22981462.487    94105255.01146
      1582.964  
  22403564.113   117731559.31848     -1850.832    22403562.780    91738881.25247
     -1442.210  
  23840600.854   125283206.08047     -1768.191    23840603.516    97623293.05849
     -1377.813  
  24172970.151   127029842.24347      3261.331    24172972.649    98984278.25549
      2541.292  
  20211935.578   106214479.91349      -566.801    20211936.658    82764546.55649
      -441.667  
  23402075.303   122978742.25648     -3697.727    23402077.840    95827606.31649
     -2881.348  
  20805915.939   109335858.59349      1913.769    20805914.987    85196779.17649
      1491.249  
  19857846.313   105965291.19809      2353.933    19857851.200    82417484.73308
      1830.831  
  20147965.142   107702449.89008     -2573.479    20147971.551    83768605.67906
     -2001.602  
  19343113.447   103363767.39909      -674.972    19343117.521    80394079.92908
      -524.980  
  20510477.615   109563316.68108      3141.258    20510483.229    85215948.43108
      2443.199  
  23600647.040   126380398.86706     -4097.379    23600649.956    98295871.64315
     -3186.851  
  22801068.837   121542548.89606     -4070.132           0.000           0.0000 
         0.000  
 20 10 03 11 03 30.0000000  0 13G22G12G 1G 3G32G10G31R 2R 1R11R12R 8
                                R10
  22979534.244   120758293.84748      2028.410    22979531.162    94097346.62047
      1580.577  
  22405326.720   117740821.84948     -1854.379    22405325.374    91746098.81247
     -1444.972  
  23842284.623   125292054.34847     -1771.184    23842287.294    97630187.78749
     -1380.148  
  24169868.039   127013540.50347      3259.479    24169870.510    98971575.60649
      2539.855  
  20212476.228   106217321.08249      -569.559    20212477.314    82766760.45249
      -443.815  
  23405594.404   122997235.35148     -3699.468    23405596.988    95842016.51449
     -2882.707  
  20804096.516   109326297.52349      1910.922    20804095.568    85189328.99349
      1489.030  
  19855642.104   105953529.24209      2350.809    19855647.023    82408336.55108
      1828.405  
  20150374.032   107715326.69308     -2576.934    20150380.423    83778620.96806
     -2004.284  
  19343747.096   103367153.43109      -679.347    19343751.165    80396713.51608
      -528.382  
  20507538.920   109547618.73308      3137.926    20507544.510    85203738.91608
      2440.608  
         0.000           0.0000          0.000    23604478.094    98311816.01115
     -3187.715  
  22804887.343   121562903.52906     -4071.562           0.000           0.0000 
         0.000  
 20 10 03 11 03 35.0000000  0 13G22G12G 1G 3G32G10G31R 2R 1R11R12R 8
                                R10
  22977605.075   120748155.90148      2026.703    22977601.959    94089446.91747
      1579.249  
  22407092.168   117750099.34348     -1856.659    22407090.816    91753328.03447
     -1446.750  
  23843970.783   125300915.33447     -1773.184    23843973.491    97637092.45048
     -1381.707  
  24166767.174   126997245.40947      3258.554    24166769.636    98958878.14049
      2539.132  
  20213018.879   106220172.76149      -571.051    20213019.963    82768982.54049
      -444.977  
  23409114.398   123015733.07448     -3699.848    23409117.001    95856430.31649
     -2883.004  
  20802279.199   109316747.54949      1909.280    20802278.262    85181887.46149
      1487.749  
  19853440.290   105941779.93709      2349.008    19853445.216    82399198.20408
      1827.008  
  20152785.456   107728217.16608     -2579.198    20152791.888    83788646.88406
     -2006.047  
  19344384.247   103370558.20509      -682.477    19344388.321    80399361.66908
      -530.816  
  20504602.697   109531933.95408      3136.066    20504608.251    85191539.65307
      2439.164  
  23608300.071   126421374.71516     -4099.004    23608304.453    98327755.16205
     -3188.124  
  22808706.580   121583262.27306     -4071.695           0.000           0.0000 
         0.000  
 20 10 03 11 03 40.0000000  0 13G22G12G 1G 3G32G10G31R 2R 1R11R12R 8
                                R10
  22975678.401   120738031.22548      2022.632    22975675.284    94081557.56746
      1576.074  
  22408860.873   117759393.85448     -1861.511    22408859.525    91760570.50647
     -1450.531  
  23845659.818   125309791.14647     -1777.624    23845662.506    97644008.68449
     -1385.167  
  24163667.976   126980958.95247      3255.883    24163670.410    98946187.38949
      2537.046  
  20213563.935   106223037.05149      -575.078    20213565.019    82771214.45649
      -448.112  
  23412635.652   123034237.54448     -3702.598    23412638.283    95870849.37849
     -2885.145  
  20800464.397   109307210.79649      1905.164    20800463.471    85174456.22549
      1484.543  
  19851241.175   105930044.97509      2344.617    19851246.090    82390071.01508
      1823.589  
  20155199.885   107741123.61108     -2583.711    20155206.311    83798685.22206
     -2009.558  
  19345025.329   103373983.86009      -688.254    19345029.378    80402026.06808
      -535.309  
  20501669.373   109516264.66508      3131.312    20501674.905    85179352.42908
      2435.465  
  23612127.974   126441873.21405     -4100.449    23612132.372    98343698.46706
     -3189.229  
  22812527.008   121603627.24005     -4074.581           0.000           0.0000 
         0.000  
 20 10 03 11 03 45.0000000  0 13G22G12G 1G 3G32G10G31R 2R 1R11R12R 8
                                R10
  22973754.054   120727918.74248      2022.195    22973750.964    94073677.70546
      1575.737  
  22410632.565   117768704.25348     -1862.710    22410631.243    91767825.36347
     -1451.469  
  23847351.480   125318680.64347     -1778.254    23847354.147    97650935.54748
     -1385.656  
  24160570.225   126964680.15947      3256.035    24160572.638    98933502.62649
      2537.171  
  20214111.184   106225912.83449      -575.324    20214112.247    82773455.32549
      -448.308  
  23416157.988   123052747.61148     -3701.479    23416160.601    95885272.80749
     -2884.272  
  20798651.928   109297686.14149      1904.672    20798650.976    85167034.42449
      1484.160  
  19849044.563   105918323.37109      2344.070    19849049.468    82380954.21408
      1823.159  
  20157617.063   107754044.78108     -2584.800    20157623.505    83808735.01806
     -2010.406  
  19345670.112   103377429.16109      -690.055    19345674.127    80404705.74708
      -536.714  
  20498738.760   109500609.73308      3130.554    20498744.279    85167176.38208
      2434.875  
  23615956.890   126462376.57407     -4100.175    23615960.623    98359645.43604
     -3189.035  
  22816348.406   121623997.25405     -4073.526           0.000           0.0000 
         0.000  
 20 10 03 11 03 50.0000000  0 13G22G12G 1G 3G32G10G31R 2R 1R11R12R 8
                                R10
  22971831.400   120717815.00548      2019.456    22971828.275    94065804.67746
      1573.602  
  22412406.646   117778027.14448     -1866.410    22412405.330    91775089.95247
     -1454.348  
  23849045.061   125327580.40847     -1781.632    23849047.713    97657870.44849
     -1388.285  
  24157473.292   126948405.54447      3253.640    24157475.703    98920821.13049
      2535.304  
  20214659.963   106228796.65649      -578.191    20214661.012    82775702.45749
      -450.538  
  23419680.755   123071259.84348     -3703.277    23419683.339    95899697.92249
     -2885.675  
  20796841.087   109288170.13949      1901.718    20796840.134    85159619.36049
      1481.858  
  19846849.833   105906611.81109      2340.675    19846854.718    82371845.22208
      1820.526  
  20160036.347   107766977.30308     -2588.246    20160042.837    83818793.64206
     -2013.085  
  19346317.889   103380890.71609      -694.593    19346321.911    80407398.07308
      -540.238  
  20495810.151   109484965.59708      3127.210    20495815.687    85155008.72408
      2432.272  
  23619785.966   126482880.97407     -4102.473    23619791.074    98375593.37707
     -3190.816  
  22820170.034   121644368.65306     -4075.198           0.000           0.0000 
         0.000  
 20 10 03 11 03 55.0000000  0 13G22G12G 1G 3G32G10G31R 2R 1R11R12R 8
                                R10
  22969911.470   120707725.76848      2016.464    22969908.304    94057942.93646
      1571.269  
  22414184.185   117787368.17348     -1869.684    22414182.868    91782368.67647
     -1456.898  
  23850741.680   125336496.10547     -1784.562    23850744.292    97664817.71748
     -1390.569  
  24154378.212   126932140.72747      3252.086    24154380.591    98908147.22949
      2534.090  
  20215211.345   106231694.21549      -580.608    20215212.392    82777960.29849
      -452.422  
  23423205.051   123089779.89548     -3704.507    23423207.573    95914129.13349
     -2886.629  
  20795032.986   109278668.47349      1899.296    20795032.013    85152215.46949
      1479.973  
  19844658.040   105894916.01509      2337.855    19844662.917    82362748.49508
      1818.332  
  20162458.818   107779926.76808     -2591.234    20162465.316    83828865.44106
     -2015.409  
  19346969.814   103384374.34709      -698.776    19346973.818    80410107.56608
      -543.496  
  20492884.655   109469338.09308      3124.054    20492890.203    85142854.00908
      2429.819  
  23623616.313   126503391.84406     -4102.570    23623619.379    98391546.22504
     -3190.886  
  22823992.993   121664747.39505     -4076.187           0.000           0.0000 
         0.000  
 20 10 03 11 04  0.0000000  0 13G22G12G 1G 3G32G10G31R 2R 1R11R12R 8
                                R10
  22967993.740   120697648.12148      2014.280    22967990.567    94050090.21846
      1569.565  
  22415964.643   117796724.51448     -1873.030    22415963.313    91789659.33247
     -1459.503  
  23852440.743   125345424.86747     -1786.809    23852443.405    97671775.20548
     -1392.324  
  24151284.494   126915883.03447      3250.999    24151286.846    98895478.92249
      2533.246  
  20215764.807   106234602.67749      -582.761    20215765.854    82780226.62949
      -454.105  
  23426730.288   123108304.92148     -3705.484    23426732.753    95928564.21949
     -2887.391  
  20793227.057   109269178.31649      1896.875    20793226.082    85144820.54449
      1478.086  
  19842468.626   105883232.94109      2335.261    19842473.508    82353661.66408
      1816.315  
  20164883.937   107792890.48108     -2594.129    20164890.452    83838948.32206
     -2017.659  
  19347625.296   103387877.07209      -702.375    19347629.304    80412831.90508
      -546.296  
  20489961.726   109453724.26608      3121.363    20489967.272    85130709.92908
      2427.727  
  23627447.373   126523906.86705     -4103.222    23627452.603    98407502.40506
     -3191.397  
  22827816.831   121685130.47505     -4076.992           0.000           0.0000 
         0.000  
 20 10 03 11 04  5.0000000  0 12G22G12G 1G 3G32G10G31R 2R 1R11R12R10
  22966079.071   120687586.46848      2010.797    22966075.907    94042249.97447
      1566.855  
  22417748.819   117806100.48448     -1877.370    22417747.531    91796965.28147
     -1462.891  
  23854143.117   125354371.02547     -1791.062    23854145.805    97678746.25049
     -1395.633  
  24148192.960   126899636.69347      3247.996    24148195.282    98882819.42349
      2530.902  
  20216321.176   106237526.38449      -586.312    20216322.216    82782504.84149
      -456.870  
  23430257.321   123126839.29048     -3708.133    23430259.735    95943006.58949
     -2889.453  
  20791424.149   109259704.00349      1893.301    20791423.165    85137437.96449
      1475.300  
  19840282.517   105871567.31909      2331.354    19840287.353    82344588.40308
      1813.273  
  20167312.500   107805872.73108     -2598.496    20167319.065    83849045.62206
     -2021.055  
  19348285.187   103391403.29909      -707.679    19348289.190    80415574.52808
      -550.421  
  20487042.207   109438128.72008      3117.097    20487047.738    85118580.06408
      2424.410  
  22831642.332   121705522.20405     -4079.155           0.000           0.0000 
         0.000  
 20 10 03 11 04 10.0000000  0 12G22G12G 1G 3G32G10G31R 2R 1R11R12R10
  22964166.691   120677536.87248      2009.051    22964163.540    94034419.12146
      1565.491  
  22419535.994   117815492.15048     -1879.937    22419534.714    91804283.46547
     -1464.890  
  23855848.065   125363330.71247     -1793.328    23855850.794    97685727.80249
     -1397.401  
  24145102.803   126883397.83947      3247.062    24145105.130    98870165.79649
      2530.183  
  20216879.691   106240461.43249      -588.073    20216880.729    82784791.89149
      -458.242  
  23433785.339   123145379.02548     -3708.487    23433787.744    95957453.13649
     -2889.730  
  20789623.530   109250241.65449      1891.300    20789622.541    85130064.71049
      1473.741  
  19838098.852   105859914.77609      2329.370    19838103.671    82335525.31608
      1811.734  
  20169743.790   107818869.46308     -2600.729    20169750.378    83859154.18506
     -2022.793  
  19348948.725   103394948.98409      -711.147    19348952.709    80418332.28308
      -553.116  
  20484125.324   109422547.32108      3115.003    20484130.847    85106461.20508
      2422.780  
  22835468.693   121725918.61505     -4079.961           0.000           0.0000 
         0.000  
 20 10 03 11 04 15.0000000  0 13G22G12G 1G 3G32G10G31R 2R 1R19R11R12
                                R10
  22962256.227   120667497.40948      2007.034    22962253.095    94026596.16847
      1563.921  
  22421325.767   117824897.53148     -1882.011    22421324.506    91811612.33447
     -1466.503  
  23857555.220   125372301.84647     -1795.386    23857557.973    97692718.29048
     -1399.003  
  24142013.727   126867164.60647      3246.426    24142016.007    98857516.51049
      2529.680  
  20217439.993   106243405.83949      -589.492    20217441.024    82787086.23649
      -459.348  
  23437314.026   123163922.18348     -3708.785    23437316.419    95971902.34449
     -2889.964  
  20787824.802   109240789.30349      1889.659    20787823.812    85122699.24549
      1472.460  
  19835917.308   105848273.66809      2327.331    19835922.119    82326471.12508
      1810.148  
  20172177.458   107831878.81508     -2602.792    20172184.039    83869272.56906
     -2024.398  
  23339184.850   124848900.81414       572.839    23339188.303    97104714.51515
       445.542  
  19349615.560   103398512.28709      -714.203    19349619.541    80421103.74308
      -555.492  
  20481210.736   109406978.20608      3112.792    20481216.239    85094351.89508
      2421.059  
  22839295.518   121746317.77705     -4079.933           0.000           0.0000 
         0.000  
 20 10 03 11 04 20.0000000  0 13G22G12G 1G 3G32G10G31R 2R 1R19R11R12
                                R10
  22960347.771   120657468.34748      2004.574    22960344.620    94018781.31346
      1562.007  
  22423118.228   117834316.94948     -1885.440    22423116.969    91818952.14047
     -1469.175  
  23859264.675   125381284.80947     -1797.828    23859267.397    97699718.00248
     -1400.910  
  24138925.730   126850937.19547      3244.550    24138928.038    98844871.79349
      2528.222  
  20218002.143   106246359.92849      -591.914    20218003.168    82789388.12249
      -461.234  
  23440843.369   123182469.03448     -3709.956    23440845.805    95986354.43449
     -2890.879  
  20786028.033   109231347.28349      1887.312    20786027.048    85115341.82849
      1470.633  
  19833737.972   105836644.25209      2324.617    19833742.756    82317426.02208
      1808.031  
  20174613.538   107844901.02508     -2605.934    20174620.120    83879400.95506
     -2026.839  
  23338651.414   124846046.98004       568.886    23338654.695    97102494.89305
       442.468  
  19350285.711   103402093.33809      -718.073    19350289.678    80423889.00408
      -558.503  
  20478298.509   109391421.55108      3110.077    20478303.979    85082252.27808
      2418.948  
  22843122.890   121766720.00905     -4080.976           0.000           0.0000 
         0.000  
 20 10 03 11 04 25.0000000  0 13G22G12G 1G 3G32G10G31R 2R 1R19R11R12
                                R10
  22958441.811   120647452.45548      2001.519    22958438.653    94010976.72846
      1559.624  
  22424913.864   117843753.07748     -1889.215    22424912.589    91826304.96547
     -1472.121  
  23860976.827   125390282.29247     -1801.355    23860979.562    97706729.02949
     -1403.656  
  24135839.420   126834718.40147      3242.664    24135841.700    98832233.75549
      2526.745  
  20218566.646   106249326.40949      -594.714    20218567.671    82791699.66549
      -463.418  
  23444373.921   123201022.30648     -3711.499    23444376.435    96000811.52249
     -2892.081  
  20784233.753   109221918.27749      1884.140    20784232.755    85107994.56049
      1468.159  
  19831561.342   105825029.33609      2321.190    19831566.118    82308392.19908
      1805.367  
  20177052.555   107857938.90808     -2609.500    20177059.162    83889541.52406
     -2029.608  
  23338122.241   124843216.07404       563.914    23338125.330    97100293.04705
       438.597  
  19350959.712   103405694.96109      -722.816    19350963.673    80426690.26808
      -562.195  
  20475389.137   109375880.23708      3106.336    20475394.621    85070164.59608
      2416.039  
  22846951.328   121787128.14506     -4082.366           0.000           0.0000 
         0.000  
 20 10 03 11 04 30.0000000  0 13G22G12G 1G 3G32G10G31R 2R 1R19R11R12
                                R10
  22956538.434   120637450.23948      1999.262    22956535.318    94003182.79446
      1557.867  
  22426712.751   117853206.42148     -1891.999    22426711.510    91833671.21347
     -1474.288  
  23862691.818   125399294.72546     -1803.387    23862694.566    97713751.71749
     -1405.238  
  24132754.806   126818508.70747      3241.262    24132757.096    98819602.85149
      2525.659  
  20219133.615   106252305.79049      -596.769    20219134.620    82794021.25849
      -465.019  
  23447905.755   123219582.49848     -3712.487    23447908.380    96015273.99949
     -2892.851  
  20782442.043   109212502.77749      1882.043    20782441.038    85100657.81149
      1466.527  
  19829387.446   105813429.13309      2319.042    19829392.238    82299369.82108
      1803.698  
  20179494.585   107870992.92308     -2612.195    20179501.222    83899694.64206
     -2031.710  
  23337597.591   124840408.61504       558.854    23337600.319    97098109.44405
       434.655  
  19351637.691   103409317.71909      -726.394    19351641.638    80429507.96908
      -564.977  
  20472482.757   109360354.75408      3103.804    20472488.259    85058089.23108
      2414.069  
  22850780.980   121807542.56406     -4082.839           0.000           0.0000 
         0.000  
 20 10 03 11 04 35.0000000  0 13G22G12G 1G 3G32G10G31R 2R 1R19R11R12
                                R10
  22954637.377   120627460.14548      1996.730    22954634.267    93995398.31046
      1555.894  
  22428514.647   117862675.38248     -1895.163    22428513.393    91841049.62547
     -1476.749  
  23864409.414   125408320.65647     -1806.523    23864412.158    97720784.87249
     -1407.688  
  24129671.640   126802306.59247      3239.687    24129673.929    98806977.82649
      2524.434  
  20219702.740   106255296.53149      -599.343    20219703.747    82796351.70749
      -467.020  
  23451438.596   123238148.01647     -3713.530    23451441.345    96029740.61949
     -2893.663  
  20780652.614   109203099.26349      1879.660    20780651.594    85093330.40049
      1464.672  
  19827216.115   105801842.52809      2316.077    19827220.914    82290358.01908
      1801.395  
  20181939.337   107884061.43108     -2615.043    20181945.956    83909859.03606
     -2033.925  
  23337076.862   124837622.81604       554.858    23337079.458    97095942.70205
       431.554  
  19352319.281   103412959.93009      -730.366    19352323.229    80432340.80408
      -568.063  
  20469579.072   109344843.60208      3100.719    20469584.570    85046025.00908
      2411.672  
  22854611.592   121827961.53606     -4084.448           0.000           0.0000 
         0.000  
 20 10 03 11 04 40.0000000  0 12G22G12G 1G 3G32G10G31R 2R 1R11R12R10
  22952738.692   120617482.55548      1994.598    22952735.632    93987623.55946
      1554.230  
  22430319.586   117872160.30748     -1898.300    22430318.299    91848440.47546
     -1479.199  
  23866129.591   125417360.28047     -1809.104    23866132.327    97727828.74348
     -1409.691  
  24126589.988   126786112.37147      3238.379    24126592.286    98794358.95049
      2523.410  
  20220274.082   106258298.92549      -601.348    20220275.084    82798691.23649
      -468.585  
  23454972.510   123256719.20447     -3714.594    23454975.375    96044211.66149
     -2894.492  
  20778865.508   109193708.05249      1877.309    20778864.500    85086012.58049
      1462.835  
  19825047.338   105790269.61009      2313.508    19825052.154    82281356.86208
      1799.391  
  20184386.868   107897144.82508     -2617.776    20184393.459    83920035.00506
     -2036.055  
  19353004.578   103416622.01209      -734.059    19353008.545    80435189.09008
      -570.937  
  20466678.066   109329347.01208      3098.046    20466683.592    85033972.11108
      2409.593  
  22858443.066   121848385.57706     -4085.171           0.000           0.0000 
         0.000  
 20 10 03 11 04 45.0000000  0 12G22G12G 1G 3G32G10G31R 2R 1R11R12R10
  22950842.407   120607517.53748      1992.098    22950839.370    93979858.62047
      1552.285  
  22432127.577   117881661.30448     -1901.367    22432126.264    91855843.85147
     -1481.586  
  23867852.389   125426413.80047     -1812.015    23867855.172    97734883.44249
     -1411.964  
  24123509.859   126769926.21647      3236.617    24123512.153    98781746.38648
      2522.039  
  20220847.664   106261313.08349      -603.683    20220848.651    82801039.92949
      -470.406  
  23458507.497   123275296.09547     -3715.578    23458510.490    96058687.14749
     -2895.257  
  20777080.784   109184329.23749      1874.835    20777079.764    85078704.41449
      1460.910  
  19822881.166   105778710.50409      2310.862    19822885.991    82272366.44808
      1797.339  
  20186837.193   107910243.21908     -2620.687    20186843.762    83930222.64206
     -2038.315  
  19353693.620   103420304.01409      -737.979    19353697.590    80438052.87008
      -573.987  
  20463779.843   109313865.19008      3095.324    20463785.319    85021930.69708
      2407.473  
  22862275.564   121868814.69306     -4085.996           0.000           0.0000 
         0.000  
 20 10 03 11 04 50.0000000  0 12G22G12G 1G 3G32G10G31R 2R 1R11R12R10
  22948948.195   120597563.29648      1989.620    22948945.155    93972102.06546
      1550.352  
  22433938.259   117891176.49948     -1904.562    22433936.915    91863258.28747
     -1484.077  
  23869577.516   125435479.21646     -1814.609    23869580.281    97741947.41149
     -1413.979  
  24120430.895   126753746.15347      3235.133    24120433.188    98769138.53749
      2520.882  
  20221423.134   106264337.17149      -605.952    20221424.123    82803396.35849
      -472.176  
  23462043.251   123293876.88947     -3716.652    23462046.317    96073165.67249
     -2896.098  
  20775298.061   109174960.99249      1872.421    20775297.039    85071404.48749
      1459.031  
  19820717.215   105767163.31009      2308.027    19820722.052    82263385.29908
      1795.132  
  20189290.017   107923354.71708     -2623.737    20189296.530    83940420.47106
     -2040.688  
  19354386.022   103424004.00109      -741.901    19354389.999    80440930.63708
      -577.038  
  20460884.046   109298396.21008      3092.429    20460889.427    85009899.27607
      2405.222  
  22866108.574   121889247.11005     -4087.151           0.000           0.0000 
         0.000  
 20 10 03 11 04 55.0000000  0 12G22G12G 1G 3G32G10G31R 2R 1R11R12R10
  22947056.589   120587622.80848      1986.645    22947053.543    93964356.22946
      1548.034  
  22435752.179   117900708.83948     -1908.065    22435750.858    91870686.08247
     -1486.808  
  23871305.486   125444559.66746     -1817.316    23871308.251    97749023.06549
     -1416.093  
  24117353.707   126737575.39047      3233.456    24117355.965    98756537.94849
      2519.577  
  20222001.063   106267374.20549      -608.640    20222002.051    82805762.88049
      -474.270  
  23465580.353   123312464.54647     -3718.000    23465583.429    96087649.55549
     -2897.148  
  20773517.929   109165606.33949      1869.604    20773516.902    85064115.15349
      1456.831  
  19818556.126   105755631.32209      2305.043    19818560.955    82254415.97708
      1792.812  
  20191745.785   107936482.23508     -2627.081    20191752.310    83950630.75606
     -2043.288  
  19355082.386   103427725.06309      -746.254    19355086.353    80443824.79808
      -580.418  
  20457991.207   109282943.08908      3089.147    20457996.517    84997880.18007
      2402.668  
  22869942.691   121909685.82905     -4088.340           0.000           0.0000 
         0.000  
 20 10 03 11 05  0.0000000  0 12G22G12G 1G 3G32G10G31R 2R 1R11R12R10
  22945167.077   120577693.38248      1984.984    22945163.992    93956619.02246
      1546.741  
  22437568.878   117910255.75148     -1910.727    22437567.591    91878125.23947
     -1488.878  
  23873035.785   125453652.32547     -1819.679    23873038.539    97756108.24548
     -1417.933  
  24114277.716   126721411.10247      3232.809    24114280.011    98743942.40149
      2519.069  
  20222580.935   106270421.48749      -610.379    20222581.937    82808137.38449
      -475.624  
  23469118.263   123331056.38948     -3718.660    23469121.323    96102136.70349
     -2897.659  
  20771739.869   109156262.57049      1867.828    20771738.834    85056834.29449
      1455.444  
  19816397.314   105744111.45709      2302.695    19816402.131    82245456.08408
      1790.984  
  20194204.077   107949623.21708     -2629.465    20194210.608    83960851.51306
     -2045.145  
  19355782.179   103431464.48509      -749.559    19355786.135    80446733.23708
      -582.987  
  20455100.845   109267503.20108      3086.730    20455106.101    84985871.38308
      2400.789  
  22873777.522   121930127.82105     -4088.878           0.000           0.0000 
         0.000  
 20 10 03 11 05  5.0000000  0 13G22G12G 1G 3G32G10G31R 2R 1R19R11R12
                                R10
  22943279.979   120567776.55748      1981.785    22943276.901    93948891.63546
      1544.249  
  22439388.648   117919818.70448     -1914.577    22439387.368    91885576.89147
     -1491.878  
  23874768.725   125462758.89447     -1822.617    23874771.464    97763204.28149
     -1420.226  
  24111203.312   126705254.96847      3230.281    24111205.605    98731353.22249
      2517.101  
  20223163.056   106273480.55549      -613.246    20223164.057    82810521.06849
      -477.859  
  23472657.264   123349653.93448     -3720.098    23472660.309    96116628.29249
     -2898.780  
  20769964.172   109146931.24749      1864.772    20769963.135    85049563.13649
      1453.066  
  19814241.176   105732605.89009      2299.465    19814245.992    82236507.30608
      1788.468  
  20196665.137   107962779.11808     -2632.976    20196671.706    83971083.87906
     -2047.875  
  23334037.622   124821366.05714       528.477    23334041.301    97083300.40515
       411.038  
  19356485.683   103435223.76309      -753.991    19356489.633    80449657.12308
      -586.441  
  20452213.256   109252078.12108      3083.199    20452218.518    84973874.10408
      2398.042  
  22877613.334   121950574.86105     -4089.719           0.000           0.0000 
         0.000  
 20 10 03 11 05 10.0000000  0 13G22G12G 1G 3G32G10G31R 2R 1R19R11R12
                                R10
  22941395.413   120557873.12548      1978.862    22941392.337    93941174.66246
      1541.968  
  22441211.598   117929398.43648     -1918.035    22441210.331    91893041.61747
     -1494.574  
  23876504.358   125471879.89346     -1825.632    23876507.119    97770311.56149
     -1422.569  
  24108130.556   126689107.58947      3228.261    24108132.830    98718770.84649
      2515.526  
  20223747.568   106276552.15249      -615.901    20223748.572    82812914.52549
      -479.929  
  23476197.482   123368257.90248     -3721.601    23476200.489    96131124.89249
     -2899.948  
  20768190.993   109137613.10049      1862.101    20768189.929    85042302.24549
      1450.988  
  19812087.725   105721114.69709      2296.422    19812092.541    82227569.71808
      1786.104  
  20199129.144   107975950.70608     -2636.172    20199135.707    83981328.44006
     -2050.359  
  23333545.764   124818734.28904       524.434    23333549.350    97081253.47605
       407.890  
  19357193.032   103439003.71609      -758.355    19357197.007    80452597.08708
      -589.836  
  20449328.537   109236668.56308      3080.102    20449333.849    84961888.90108
      2395.633  
  22881450.286   121971027.81605     -4091.027           0.000           0.0000 
         0.000  
 20 10 03 11 05 15.0000000  0 13G22G12G 1G 3G32G10G31R 2R 1R19R11R12
                                R10
  22939513.130   120547981.66348      1977.211    22939510.042    93933467.04147
      1540.684  
  22443037.480   117938993.57648     -1920.374    22443036.179    91900518.34847
     -1496.394  
  23878242.533   125481014.12646     -1828.343    23878245.329    97777429.14649
     -1424.683  
  24105059.226   126672967.76747      3227.156    24105061.534    98706194.37149
      2514.668  
  20224334.199   106279634.91949      -617.594    20224335.210    82815316.68249
      -481.241  
  23479738.704   123386866.93348     -3722.335    23479741.610    96145625.44149
     -2900.523  
  20766420.049   109128306.75749      1860.120    20766418.991    85035050.55249
      1449.445  
  19809936.805   105709636.97509      2294.276    19809941.622    82218642.60508
      1784.438  
  20201595.849   107989136.60008     -2638.687    20201602.385    83991584.13006
     -2052.316  
  23333058.088   124816124.36304       519.793    23333061.491    97079223.50605
       404.276  
  19357904.022   103442802.87409      -761.757    19357907.976    80455551.98808
      -592.479  
  20446446.484   109221273.21908      3077.566    20446451.834    84949914.75708
      2393.663  
  22885288.169   121991485.26605     -4092.098           0.000           0.0000 
         0.000  
 20 10 03 11 05 20.0000000  0 13G22G12G 1G 3G32G10G31R 2R 1R19R11R12
                                R10
  22937633.053   120538101.82348      1974.895    22937629.985    93925768.45846
      1538.874  
  22444866.230   117948603.72248     -1923.637    22444864.937    91908006.77547
     -1498.938  
  23879983.183   125490161.05447     -1830.913    23879985.931    97784556.58948
     -1426.690  
  24101989.248   126656834.95447      3226.007    24101991.556    98693623.35749
      2513.776  
  20224922.875   106282728.43249      -619.871    20224923.887    82817727.21349
      -483.020  
  23483280.775   123405480.60947     -3723.355    23483283.613    96160129.60049
     -2901.316  
  20764651.276   109119011.85349      1857.703    20764650.231    85027807.77449
      1447.563  
  19807788.303   105698172.09409      2291.671    19807793.115    82209725.47308
      1782.405  
  20204065.135   108002336.37508     -2641.241    20204071.706    84001850.62106
     -2054.304  
  23332574.132   124813535.49604       515.422    23332577.613    97077209.94605
       400.882  
  19358618.516   103446620.85009      -765.539    19358622.458    80458521.52608
      -595.417  
  20443566.996   109205891.63608      3074.921    20443572.354    84937951.30508
      2391.604  
  22889126.622   122011946.50806     -4092.444           0.000           0.0000 
         0.000  
 20 10 03 11 05 25.0000000  0 13G22G12G 1G 3G32G10G31R 2R 1R19R11R12
                                R10
  22935755.419   120528234.75548      1972.222    22935752.339    93918079.84646
      1536.796  
  22446698.038   117958229.93848     -1926.550    22446696.752    91915507.72047
     -1501.206  
  23881726.427   125499321.83247     -1833.418    23881729.195    97791694.87048
     -1428.636  
  24098920.825   126640710.40647      3224.293    24098923.141    98681058.77149
      2512.438  
  20225513.822   106285833.85049      -622.093    20225514.836    82820147.02049
      -484.753  
  23486823.922   123424100.03647     -3724.347    23486826.719    96174638.24749
     -2902.089  
  20762884.898   109109729.50549      1855.473    20762883.860    85020574.78049
      1445.824  
  19805642.439   105686721.29309      2288.777    19805647.240    82200819.29608
      1780.155  
  20206537.260   108015551.27108     -2644.313    20206543.838    84012128.86106
     -2056.691  
  23332094.341   124810968.96804       510.793    23332097.897    97075213.76805
       397.284  
  19359336.731   103450458.80909      -769.487    19359340.673    80461506.60808
      -598.496  
  20440690.334   109190524.98908      3072.078    20440695.649    84925999.47008
      2389.395  
  22892966.032   122032412.75206     -4093.507           0.000           0.0000 
         0.000  
 20 10 03 11 05 30.0000000  0 13G22G12G 1G 3G32G10G31R 2R 1R19R11R12
                                R10
  22933880.128   120518380.03848      1969.612    22933877.010    93910400.84147
      1534.761  
  22448532.861   117967871.87148     -1930.108    22448531.576    91923020.92247
     -1503.979  
  23883472.234   125508496.07746     -1836.296    23883474.980    97798843.63149
     -1430.882  
  24095853.949   126624593.74047      3222.483    24095856.250    98668500.33549
      2511.026  
  20226106.950   106288950.75549      -624.566    20226107.970    82822575.77449
      -486.679  
  23490368.074   123442724.80447     -3725.480    23490370.840    96189151.04949
     -2902.976  
  20761120.830   109100459.33049      1852.702    20761119.806    85013351.27449
      1443.663  
  19803499.117   105675284.08309      2285.979    19803503.920    82191923.68808
      1777.984  
  20209012.080   108028780.66808     -2647.441    20209018.690    84022418.38406
     -2059.125  
  23331618.707   124808424.49303       506.632    23331622.256    97073234.72705
       394.042  
  19360058.619   103454316.32609      -773.508    19360062.540    80464506.90208
      -601.617  
  20437816.353   109175172.79608      3068.944    20437821.649    84914058.88008
      2386.957  
  22896806.323   122052883.66506     -4094.906           0.000           0.0000 
         0.000  
 20 10 03 11 05 35.0000000  0 12G22G12G 1G 3G32G10G31R 2R 1R11R12R10
  22932007.209   120508537.77848      1967.292    22932004.129    93902731.55147
      1532.953  
  22450370.648   117977529.53948     -1933.133    22450369.404    91930546.36747
     -1506.340  
  23885220.614   125517683.84547     -1838.891    23885223.357    97806002.91048
     -1432.905  
  24092788.535   126608485.00947      3220.922    24092790.853    98655948.08049
      2509.809  
  20226702.284   106292079.25749      -626.727    20226703.312    82825013.56849
      -488.362  
  23493913.256   123461355.01847     -3726.523    23493916.013    96203668.09749
     -2903.789  
  20759359.111   109091201.40049      1850.386    20759358.081    85006137.30449
      1441.855  
  19801358.425   105663860.90809      2283.203    19801363.215    82183038.99808
      1775.820  
  20211489.709   108042024.82308     -2650.343    20211496.291    84032719.39206
     -2061.382  
  19360784.154   103458193.49109      -777.277    19360788.098    80467522.47208
      -604.554  
  20434945.143   109159835.37108      3066.038    20434950.437    84902129.77708
      2384.694  
  22900647.529   122073359.39006     -4095.515           0.000           0.0000 
         0.000  
 20 10 03 11 05 40.0000000  0 12G22G12G 1G 3G32G10G31R 2R 1R11R12R10
  22930136.770   120498708.52548      1964.659    22930133.708    93895072.39547
      1530.902  
  22452211.553   117987203.53048     -1936.473    22452210.282    91938084.54847
     -1508.944  
  23886971.694   125526885.67547     -1841.933    23886974.424    97813173.17548
     -1435.281  
  24089724.708   126592384.77147      3219.066    24089727.092    98643402.45649
      2508.362  
  20227299.925   106295219.84949      -629.340    20227300.946    82827460.78149
      -490.398  
  23497459.562   123479991.13947     -3728.051    23497462.348    96218189.74249
     -2904.980  
  20757599.811   109081956.24749      1847.710    20757598.780    84998933.29449
      1439.773  
  19799220.405   105652452.11809      2280.331    19799225.205    82174165.49708
      1773.589  
  20213970.123   108055284.12408     -2653.367    20213976.723    84043032.17406
     -2063.734  
  19361513.491   103462090.81409      -781.551    19361517.437    80470553.72508
      -607.874  
  20432076.770   109144513.09608      3062.988    20432082.078    84890212.46208
      2382.324  
  22904489.694   122093840.45006     -4097.113           0.000           0.0000 
         0.000  
 20 10 03 11 05 45.0000000  0 12G22G12G 1G 3G32G10G31R 2R 1R11R12R10
  22928268.830   120488892.43648      1962.133    22928265.807    93887423.49646
      1528.933  
  22454055.565   117996893.96848     -1939.262    22454054.304    91945635.53947
     -1511.112  
  23888725.464   125536101.67447     -1844.570    23888728.156    97820354.47749
     -1437.332  
  24086662.604   126576293.20746      3217.593    24086664.964    98630863.55549
      2507.210  
  20227899.891   106298372.72649      -631.511    20227900.918    82829917.56549
      -492.089  
  23501007.013   123498633.36747     -3728.854    23501009.859    96232716.14849
     -2905.605  
  20755842.977   109072724.02649      1845.440    20755841.933    84991739.36249
      1438.008  
  19797085.071   105641057.63009      2277.710    19797089.884    82165303.12008
      1771.551  
  20216453.428   108068558.84108     -2656.047    20216460.025    84053356.95006
     -2065.815  
  19362246.619   103466008.49209      -785.183    19362250.577    80473600.80908
      -610.703  
  20429211.267   109129206.18808      3060.055    20429216.608    84878307.09108
      2380.042  
  22908332.989   122114326.87606     -4097.289           0.000           0.0000 
         0.000  
 20 10 03 11 05 50.0000000  0 12G22G12G 1G 3G32G10G31R 2R 1R11R12R10
  22926403.170   120479088.35648      1959.550    22926400.141    93879783.96847
      1526.922  
  22455902.485   118006599.66448     -1942.676    22455901.221    91953198.42047
     -1513.777  
  23890481.674   125545330.65146     -1847.234    23890484.375    97827545.89949
     -1439.402  
  24083601.918   126560209.13547      3216.465    24083604.281    98618330.53649
      2506.335  
  20228501.964   106301536.70449      -633.949    20228503.011    82832383.00349
      -493.992  
  23504555.412   123517280.52147     -3730.105    23504558.337    96247246.38549
     -2906.577  
  20754088.382   109063503.59449      1842.867    20754087.336    84984554.61249
      1435.999  
  19794952.252   105629676.46509      2274.766    19794957.059    82156451.10608
      1769.258  
  20218939.384   108081847.79308     -2659.195    20218945.997    84063692.79706
     -2068.265  
  19362983.302   103469945.22509      -789.234    19362987.283    80476662.71208
      -613.847  
  20426348.414   109113913.40308      3057.101    20426353.792    84866412.71308
      2377.745  
  22912176.895   122134817.49205     -4098.422           0.000           0.0000 
         0.000  
 20 10 03 11 05 55.0000000  0 13G22G12G 1G 3G32G10G31R 2R 1R19R11R12
                                R10
  22924539.793   120469296.24348      1957.469    22924536.776    93872153.73847
      1525.296  
  22457752.315   118016320.55248     -1945.344    22457751.044    91960773.13547
     -1515.851  
  23892240.377   125554572.66746     -1849.344    23892243.063    97834747.43449
     -1441.054  
  24080542.646   126544132.55047      3214.852    24080545.003    98605803.33849
      2505.078  
  20229106.160   106304711.74549      -635.902    20229107.201    82834857.05949
      -495.512  
  23508104.730   123535932.49947     -3730.843    23508107.727    96261780.38749
     -2907.156  
  20752336.031   109054294.89949      1840.848    20752334.973    84977379.00749
      1434.425  
  19792821.924   105618308.53409      2272.519    19792826.721    82147609.38108
      1767.516  
  20221428.018   108095150.84408     -2661.706    20221434.607    84074039.60906
     -2070.218  
  23329302.476   124796036.43513       485.296    23329305.793    97063597.81815
       377.452  
  19363723.581   103473901.08209      -792.995    19363727.568    80479739.48808
      -616.776  
  20423488.201   109098634.75408      3054.339    20423493.591    84854529.32608
      2375.597  
  22916021.622   122155312.27105     -4099.180           0.000           0.0000 
         0.000  
 20 10 03 11 06  0.0000000  0 13G22G12G 1G 3G32G10G31R 2R 1R19R11R12
                                R10
  22922678.540   120459515.23248      1954.733    22922675.519    93864532.17247
      1523.168  
  22459604.848   118026055.71248     -1948.656    22459603.575    91968358.97347
     -1518.437  
  23894001.331   125563826.57547     -1852.222    23894004.009    97841958.27649
     -1443.289  
  24077484.601   126528062.48047      3213.093    24077486.994    98593281.21049
      2503.710  
  20229712.275   106307896.93149      -638.297    20229713.328    82837339.01949
      -497.379  
  23511654.830   123554588.39848     -3731.938    23511657.878    96276317.44349
     -2908.008  
  20750585.740   109045097.02549      1838.281    20750584.676    84970211.83349
      1432.426  
  19790693.953   105606953.30409      2269.554    19790698.764    82138777.53908
      1765.210  
  20223919.125   108108467.14708     -2664.847    20223925.704    84084396.73306
     -2072.664  
  23328851.408   124793623.12104       479.434    23328854.575    97061720.79905
       372.895  
  19364467.243   103477875.02109      -796.813    19364471.229    80482830.33108
      -619.741  
  20420630.516   109083369.38608      3051.398    20420635.853    84842656.26608
      2373.309  
  22919866.965   122175810.14605     -4100.417           0.000           0.0000 
         0.000  
 20 10 03 11 06  5.0000000  0 13G22G12G 1G 3G32G10G31R 2R 1R19R11R12
                                R10
  22920819.904   120449748.09648      1952.042    22920816.882    93856921.42447
      1521.073  
  22461460.643   118035807.95048     -1952.125    22461459.373    91975958.12447
     -1521.136  
  23895765.125   125573095.43447     -1855.421    23895767.807    97849180.76449
     -1445.788  
  24074428.363   126512001.87147      3211.051    24074430.756    98580766.45549
      2502.117  
  20230320.863   106311095.08249      -640.965    20230321.924    82839831.08849
      -499.457  
  23515206.251   123573251.02348     -3733.093    23515209.301    96290859.73749
     -2908.906  
  20748838.049   109035912.78849      1835.484    20748836.968    84963055.29249
      1430.245  
  19788568.849   105595613.22009      2266.484    19788573.637    82129957.47408
      1762.815  
  20226413.220   108121799.32608     -2667.992    20226419.777    84094766.19706
     -2075.108  
  23328404.576   124791233.21204       475.819    23328407.745    97059861.97605
       370.082  
  19365214.817   103481869.95509      -801.117    19365218.827    80485937.50408
      -623.089  
  20417775.804   109068120.06208      3048.327    20417781.103    84830795.68308
      2370.921  
  22923713.381   122196314.02006     -4101.765           0.000           0.0000 
         0.000  
 20 10 03 11 06 10.0000000  0 13G22G12G 1G 3G32G10G31R 2R 1R19R11R12
                                R10
  22918963.447   120439992.34948      1949.651    22918960.433    93849319.54447
      1519.211  
  22463319.201   118045574.73648     -1955.155    22463317.938    91983568.60347
     -1523.500  
  23897531.289   125582376.53447     -1857.905    23897533.950    97856412.79449
     -1447.718  
  24071373.425   126495948.12846      3209.425    24071375.813    98568257.03649
      2500.848  
  20230931.433   106314303.67949      -643.065    20230932.507    82842331.29249
      -501.094  
  23518758.466   123591917.85348     -3734.159    23518761.542    96305405.31949
     -2909.738  
  20747092.461   109026739.68749      1833.093    20747091.379    84955907.42949
      1428.383  
  19786446.101   105584285.82509      2263.844    19786450.875    82121147.28308
      1760.766  
  20228909.826   108135145.08408     -2670.898    20228916.398    84105146.22706
     -2077.370  
  23327961.810   124788864.30604       471.496    23327964.896    97058019.49605
       366.718  
  19365965.870   103485883.25809      -804.878    19365969.870    80489058.96408
      -626.015  
  20414923.628   109052884.28008      3045.246    20414928.866    84818945.63408
      2368.523  
  22927560.562   122216821.66006     -4102.120           0.000           0.0000 
         0.000  
 20 10 03 11 06 15.0000000  0 13G22G12G 1G 3G32G10G31R 2R 1R19R11R12
                                R10
  22917109.507   120430249.85948      1947.171    22917106.461    93841727.99846
      1517.277  
  22465180.883   118055357.91348     -1958.199    22465179.631    91991191.86447
     -1525.874  
  23899300.110   125591671.78247     -1860.246    23899302.775    97863655.83949
     -1449.546  
  24068320.191   126479903.18147      3208.003    24068322.541    98555754.49249
      2499.737  
  20231544.346   106317524.58949      -645.370    20231545.427    82844841.09449
      -502.891  
  23522311.850   123610590.73148     -3735.176    23522314.909    96319955.60749
     -2910.530  
  20745349.362   109017579.58349      1830.800    20745348.262    84948769.69049
      1426.597  
  19784326.083   105572973.06509      2261.167    19784330.868    82112348.47008
      1758.688  
  20231409.282   108148506.10908     -2673.651    20231415.868    84115538.13006
     -2079.511  
  23327523.431   124786518.18004       467.464    23327526.384    97056194.71605
       363.577  
  19366720.699   103489916.80809      -808.679    19366724.678    80492196.16708
      -628.910  
  20412074.344   109037663.97708      3042.582    20412079.579    84807107.62608
      2366.453  
  22931408.689   122237334.53106     -4103.129           0.000           0.0000 
         0.000  
 20 10 03 11 06 20.0000000  0 13G22G12G 1G 3G32G10G31R 2R 1R19R11R12
                                R10
  22915257.825   120420519.20648      1944.542    22915254.781    93834145.67747
      1515.227  
  22467045.426   118065156.09048     -1961.238    22467044.177    91998826.80447
     -1528.237  
  23901071.359   125600979.82347     -1862.836    23901074.057    97870908.84749
     -1451.565  
  24065268.308   126463865.58047      3206.918    24065270.687    98543257.66349
      2498.894  
  20232159.329   106320756.38249      -647.624    20232160.424    82847359.37249
      -504.648  
  23525866.105   123629268.21948     -3736.332    23525869.116    96334509.49349
     -2911.429  
  20743608.461   109008431.05349      1828.438    20743607.355    84941640.96649
      1424.757  
  19782208.565   105561673.55309      2258.430    19782213.345    82103559.96108
      1756.555  
  20233911.356   108161881.12608     -2676.605    20233917.948    84125940.91506
     -2081.809  
  23327088.981   124784193.35504       464.050    23327091.900    97054386.50905
       360.926  
  19367479.062   103493969.20609      -812.507    19367483.029    80495348.03308
      -631.952  
  20409227.683   109022457.65708      3039.780    20409232.933    84795280.49608
      2364.273  
  22935257.649   122257851.27605     -4104.124           0.000           0.0000 
         0.000  
 20 10 03 11 06 25.0000000  0 13G22G12G 1G 3G32G10G31R 2R 1R19R11R12
                                R10
  22913408.769   120410802.41448      1942.323    22913405.720    93826574.14447
      1513.499  
  22468913.199   118074971.24048     -1964.300    22468911.960    92006474.97147
     -1530.624  
  23902845.426   125610302.51647     -1865.609    23902848.112    97878173.30549
     -1453.722  
  24062218.261   126447837.41347      3204.468    24062220.616    98530768.19349
      2496.987  
  20232776.789   106324001.12349      -649.996    20232777.886    82849887.74449
      -506.492  
  23529421.634   123647952.36548     -3737.254    23529424.575    96349068.56649
     -2912.144  
  20741870.148   108999296.12349      1825.929    20741869.038    84934522.84749
      1422.801  
  19780093.908   105550389.40409      2255.625    19780098.709    82094783.40508
      1754.375  
  20236416.433   108175272.10508     -2679.343    20236423.021    84136356.11706
     -2083.938  
  23326658.803   124781891.94104       458.370    23326661.818    97052596.55005
       356.512  
  19368241.317   103498042.56009      -816.515    19368245.294    80498516.19608
      -635.069  
  20406384.051   109007267.51708      3036.789    20406389.355    84783465.95108
      2361.945  
  22939107.665   122278373.96506     -4104.793           0.000           0.0000 
         0.000  
 20 10 03 11 06 30.0000000  0 12G22G12G 1G 3G32G10G31R 2R 1R11R12R10
  22911562.057   120401097.81348      1939.727    22911558.982    93819012.12347
      1511.476  
  22470783.871   118084801.59448     -1967.453    22470782.569    92014134.99047
     -1533.085  
  23904622.006   125619638.25547     -1868.492    23904624.675    97885447.87649
     -1455.977  
  24059169.646   126431816.89647      3203.636    24059172.014    98518284.67849
      2496.340  
  20233396.359   106327257.01749      -652.223    20233397.462    82852424.80549
      -508.230  
  23532978.068   123666641.39948     -3738.378    23532980.928    96363631.45449
     -2913.023  
  20740134.086   108990173.06049      1823.515    20740132.969    84927413.96749
      1420.921  
  19777981.779   105539118.71109      2252.901    19777986.578    82086017.31008
      1752.253  
  20238924.191   108188677.25808     -2682.414    20238930.754    84146782.34506
     -2086.323  
  19369007.174   103502135.00409      -820.409    19369011.132    80501699.21208
      -638.102  
  20403543.104   108992091.71908      3033.887    20403548.453    84771662.56108
      2359.691  
  22942958.585   122298900.81906     -4105.637           0.000           0.0000 
         0.000  
 20 10 03 11 06 35.0000000  0 12G22G12G 1G 3G32G10G31R 2R 1R11R12R10
  22909717.973   120391407.05348      1936.870    22909714.923    93811460.88646
      1509.245  
  22472657.785   118094648.92148     -1971.183    22472656.438    92021808.23247
     -1535.992  
  23906401.350   125628988.70846     -1871.324    23906404.010    97892733.95649
     -1458.184  
  24056122.879   126415805.80747      3201.398    24056125.217    98505808.52249
      2494.598  
  20234018.392   106330525.82149      -654.968    20234019.502    82854971.92349
      -510.370  
  23536535.746   123685336.99648     -3739.640    23536538.476    96378199.45749
     -2914.004  
  20738400.619   108981063.59549      1820.625    20738399.489    84920315.68749
      1418.668  
  19775872.586   105527863.55609      2249.492    19775877.375    82077263.30208
      1749.604  
  20241434.927   108202098.36208     -2685.773    20241441.454    84157220.97106
     -2088.937  
  19369776.914   103506248.35709      -824.569    19369780.890    80504898.48608
      -641.336  
  20400705.175   108976932.04108      3030.397    20400710.546    84759871.70508
      2356.976  
  22946810.433   122319433.58706     -4106.952           0.000           0.0000 
         0.000  
 20 10 03 11 06 40.0000000  0 12G22G12G 1G 3G32G10G31R 2R 1R11R12R10
  22907876.000   120381727.32848      1935.069    22907872.925    93803918.24047
      1507.848  
  22474534.363   118104510.34148     -1973.476    22474532.966    92029492.45847
     -1537.772  
  23908182.935   125638350.90847     -1873.336    23908185.602    97900029.18549
     -1459.738  
  24053077.310   126399801.26847      3200.550    24053079.646    98493337.45049
      2493.937  
  20234642.343   106333804.67549      -656.644    20234643.446    82857526.87149
      -511.675  
  23540094.121   123704036.32148     -3740.031    23540096.742    96392770.36649
     -2914.308  
  20736669.198   108971964.88649      1818.844    20736668.055    84913225.78449
      1417.281  
  19773765.646   105516620.48909      2247.479    19773770.430    82068518.69808
      1748.034  
  20243948.094   108215532.55808     -2688.055    20243954.644    84167669.78906
     -2090.714  
  19370550.038   103510379.63309      -828.000    19370554.002    80508111.70108
      -644.003  
  20397869.729   108961785.60008      3028.284    20397875.079    84748091.14708
      2355.332  
  22950662.835   122339969.27206     -4107.729           0.000           0.0000 
         0.000  
 20 10 03 11 06 45.0000000  0 12G22G12G 1G 3G32G10G31R 2R 1R11R12R10
  22906036.300   120372059.60748      1931.804    22906033.182    93796384.95747
      1505.301  
  22476413.777   118114386.79448     -1977.316    22476412.370    92037188.39747
     -1540.770  
  23909966.943   125647725.99446     -1877.133    23909969.606    97907334.44749
     -1462.702  
  24050033.156   126383804.25647      3198.081    24050035.497    98480872.26149
      2492.016  
  20235268.379   106337094.51449      -659.585    20235269.482    82860090.38449
      -513.969  
  23543653.372   123722740.30948     -3741.671    23543655.887    96407344.90749
     -2915.590  
  20734939.993   108962877.88349      1815.737    20734938.856    84906145.00649
      1414.858  
  19771661.223   105505390.82509      2244.004    19771665.995    82059784.51408
      1745.332  
  20246463.879   108228980.68208     -2691.461    20246470.400    84178129.43606
     -2093.362  
  19371326.682   103514529.78009      -832.382    19371330.638    80511339.59308
      -647.410  
  20395036.941   108946653.23108      3024.562    20395042.231    84736321.52808
      2352.437  
  22954515.920   122360508.75906     -4108.401           0.000           0.0000 
         0.000  
 20 10 03 11 06 50.0000000  0 13G22G12G 1G 3G32G10G31R 2R 1R19R11R12
                                R10
  22904199.298   120362406.06548      1929.535    22904196.174    93788862.71646
      1503.530  
  22478296.476   118124280.43948     -1979.984    22478295.092    92044897.73246
     -1542.847  
  23911753.793   125657115.85847     -1879.366    23911756.439    97914651.19848
     -1464.441  
  24046990.887   126367816.95947      3197.285    24046993.219    98468414.61049
      2491.390  
  20235896.931   106340397.54649      -661.645    20235898.027    82862664.17049
      -515.570  
  23547213.907   123741451.14348     -3742.351    23547216.342    96421924.78249
     -2916.117  
  20733213.455   108953804.83149      1813.659    20733212.313    84899075.09949
      1413.241  
  19769559.749   105494176.92209      2241.624    19769564.515    82051062.59108
      1743.480  
  20248982.609   108242444.95408     -2694.152    20248989.168    84188601.63906
     -2095.457  
  23324569.812   124770720.62313       436.262    23324572.240    97043903.83615
       339.312  
  19372107.296   103518701.02009      -836.023    19372111.230    80514583.89508
      -650.242  
  20392207.216   108931537.31608      3021.898    20392212.456    84724564.70908
      2350.367  
  22958370.147   122381054.39605     -4109.651           0.000           0.0000 
         0.000  
 20 10 03 11 06 55.0000000  0 13G22G12G 1G 3G32G10G31R 2R 1R19R11R12
                                R10
  22902364.302   120352763.09948      1927.202    22902361.172    93781348.72346
      1501.714  
  22480181.779   118134187.68248     -1982.819    22480180.362    92052617.66347
     -1545.059  
  23913542.838   125666517.19947     -1881.390    23913545.477    97921976.91549
     -1466.031  
  24043949.763   126351835.83847      3195.507    24043952.116    98455961.80149
      2490.007  
  20236527.296   106343710.13849      -663.586    20236528.399    82865245.40749
      -517.081  
  23550775.044   123760165.19848     -3743.324    23550777.469    96436507.16049
     -2916.878  
  20731488.874   108944742.03549      1811.539    20731487.714    84892013.18549
      1411.590  
  19767460.492   105482974.91709      2239.105    19767465.266    82042349.92608
      1741.527  
  20251503.759   108255921.91508     -2696.690    20251510.319    84199083.71706
     -2097.429  
  23324164.099   124768550.30304       432.273    23324166.528    97042215.83605
       336.210  
  19372891.159   103522889.78009      -839.504    19372895.092    80517841.82108
      -652.952  
  20389379.878   108916434.18408      3019.261    20389385.112    84712817.83608
      2348.315  
  22962224.896   122401602.44106     -4109.590           0.000           0.0000 
         0.000  
 20 10 03 11 07  0.0000000  0 13G22G12G 1G 3G32G10G31R 2R 1R19R11R12
                                R10
  22900531.729   120343132.79748      1924.409    22900528.593    93773844.58747
      1499.535  
  22482070.049   118144110.57948     -1986.378    22482068.649    92060349.78647
     -1547.832  
  23915334.346   125675931.76247     -1884.362    23915337.028    97929312.95349
     -1468.331  
  24040910.211   126335862.88747      3193.703    24040912.544    98443515.35549
      2488.602  
  20237159.882   106347034.36849      -666.229    20237160.979    82867835.71549
      -519.144  
  23554337.175   123778884.48048     -3744.414    23554339.622    96451093.61149
     -2917.729  
  20729766.626   108935691.56149      1808.676    20729765.459    84884960.87149
      1409.359  
  19765363.890   105471787.01609      2235.937    19765368.657    82033648.22308
      1739.062  
  20254027.614   108269413.33608     -2699.964    20254034.159    84209577.03706
     -2099.977  
  23323762.385   124766402.15104       426.972    23323764.950    97040545.03805
       332.085  
  19373678.662   103527098.02009      -843.866    19373682.591    80521114.89508
      -656.344  
  20386555.314   108901345.87108      3015.957    20386560.550    84701082.49008
      2345.746  
  22966080.547   122422155.13506     -4111.180           0.000           0.0000 
         0.000  
 20 10 03 11 07  5.0000000  0 12G22G12G 1G 3G32G10G31R 2R 1R11R12R10
  22898701.867   120333516.74748      1922.293    22898698.706    93766351.56946
      1497.891  
  22483961.597   118154050.69648     -1989.402    22483960.206    92068095.33547
     -1550.188  
  23917128.743   125685361.35246     -1886.729    23917131.445    97936660.69849
     -1470.180  
  24037872.553   126319899.73147      3192.011    24037874.827    98431076.53849
      2487.281  
  20237794.986   106350371.83449      -668.340    20237796.077    82870436.33549
      -520.788  
  23557900.651   123797610.61048     -3745.233    23557903.109    96465685.40049
     -2918.362  
  20728047.023   108926655.01949      1806.319    20728045.855    84877919.41149
      1407.522  
  19763270.180   105460614.51709      2233.215    19763274.930    82024958.50608
      1736.945  
  20256554.509   108282920.94308     -2702.773    20256561.020    84220082.94906
     -2102.160  
  19374470.146   103531327.47109      -847.691    19374474.076    80524404.47208
      -659.315  
  20383733.801   108886274.04008      3013.136    20383739.073    84689359.96008
      2343.550  
  22969937.357   122442713.94906     -4112.210           0.000           0.0000 
         0.000  
 20 10 03 11 07 10.0000000  0 12G22G12G 1G 3G32G10G31R 2R 1R11R12R10
  22896874.408   120323913.38548      1919.598    22896871.254    93758868.42747
      1495.784  
  22485856.122   118164006.42948     -1992.766    22485854.734    92075853.04746
     -1552.809  
  23918925.692   125694804.29047     -1889.895    23918928.366    97944018.79049
     -1472.652  
  24034836.408   126303944.80347      3190.125    24034838.700    98418644.13649
      2485.812  
  20238432.298   106353720.92749      -670.843    20238433.388    82873046.01849
      -522.738  
  23561465.117   123816342.00448     -3746.526    23561467.642    96480281.28649
     -2919.374  
  20726329.767   108917630.77649      1803.805    20726328.592    84870887.53849
      1405.562  
  19761179.205   105449456.60909      2230.383    19761183.936    82016280.13608
      1734.737  
  20259084.106   108296443.18708     -2705.858    20259090.621    84230600.24906
     -2104.562  
  19375265.298   103535576.39309      -851.628    19375269.197    80527709.18908
      -662.382  
  20380915.100   108871217.11008      3009.883    20380920.371    84677649.02208
      2341.020  
  22973795.027   122463277.24806     -4113.183           0.000           0.0000 
         0.000  
 20 10 03 11 07 15.0000000  0 12G22G12G 1G 3G32G10G31R 2R 1R11R12R10
  22895049.167   120314321.64548      1917.319    22895045.983    93751394.34247
      1494.012  
  22487753.386   118173976.71448     -1995.410    22487752.016    92083622.10047
     -1554.866  
  23920724.941   125704259.43747     -1892.266    23920727.647    97951386.45048
     -1474.492  
  24031801.652   126287997.08547      3189.203    24031803.927    98406217.34249
      2485.093  
  20239071.620   106357080.58949      -672.891    20239072.711    82875663.93749
      -524.335  
  23565030.404   123835077.52648     -3747.339    23565032.961    96494880.38949
     -2920.007  
  20724614.664   108908617.81749      1801.598    20724613.484    84863864.45849
      1403.843  
  19759090.594   105438311.35009      2227.780    19759095.311    82007611.60108
      1732.718  
  20261616.191   108309978.97308     -2708.363    20261622.760    84241128.07706
     -2106.508  
  19376063.862   103539843.71109      -855.128    19376067.775    80531028.21608
      -665.102  
  20378099.001   108856173.98408      3007.246    20378104.245    84665948.81808
      2338.969  
  22977653.264   122483843.82506     -4114.008           0.000           0.0000 
         0.000  
 20 10 03 11 07 20.0000000  0 12G22G12G 1G 3G32G10G31R 2R 1R11R12R10
  22893226.418   120304743.00748      1914.511    22893223.216    93743930.47747
      1491.828  
  22489653.702   118183962.94548     -1998.512    22489652.342    92091403.58647
     -1557.280  
  23922526.793   125713728.35847     -1894.863    23922529.533    97958764.80849
     -1476.522  
  24028768.515   126272057.93947      3186.992    24028770.819    98393797.24249
      2483.371  
  20239713.237   106360452.27649      -675.448    20239714.321    82878291.22649
      -526.327  
  23568596.776   123853818.65848     -3748.785    23568599.356    96509483.86949
     -2921.136  
  20722901.967   108899617.56749      1798.953    20722900.780    84856851.28349
      1401.780  
  19757004.732   105427180.85509      2224.770    19757009.462    81998954.55108
      1730.374  
  20264151.083   108323529.54808     -2711.315    20264157.681    84251667.40506
     -2108.804  
  19376866.164   103544130.84609      -859.300    19376870.047    80534362.65408
      -668.344  
  20375285.761   108841146.12808      3004.089    20375290.970    84654260.49208
      2336.516  
  22981512.451   122504415.37105     -4114.691           0.000           0.0000 
         0.000  
 20 10 03 11 07 25.0000000  0 12G22G12G 1G 3G32G10G31R 2R 1R11R12R10
  22891405.918   120295176.36648      1912.277    22891402.715    93736475.95247
      1490.085  
  22491556.843   118193964.07848     -2001.702    22491555.493    92099196.67047
     -1559.772  
  23924331.068   125723209.82747     -1897.983    23924333.803    97966152.99549
     -1478.948  
  24025736.832   126256126.39747      3185.655    24025739.146    98381383.04549
      2482.328  
  20240356.935   106363834.90149      -677.632    20240358.013    82880927.03849
      -528.030  
  23572163.990   123872564.27848     -3749.465    23572166.596    96524090.83949
     -2921.663  
  20721191.502   108890628.98349      1796.582    20721190.309    84849847.19149
      1399.934  
  19754921.418   105416063.89209      2222.108    19754926.140    81990308.02408
      1728.309  
  20266688.579   108337094.10508     -2714.418    20266695.219    84262217.61406
     -2111.218  
  19377671.965   103548436.80209      -863.077    19377675.856    80537711.73408
      -671.280  
  20372475.182   108826132.52008      3001.183    20372480.362    84642583.24508
      2334.253  
  22985372.345   122524990.55606     -4115.651           0.000           0.0000 
         0.000  
 20 10 03 11 07 30.0000000  0 12G22G12G 1G 3G32G10G31R 2R 1R11R12R10
  22889587.717   120285621.65748      1909.585    22889584.530    93729030.72846
      1487.987  
  22493462.811   118203979.97548     -2005.026    22493461.470    92107001.26647
     -1562.363  
  23926137.714   125732703.84547     -1900.504    23926140.464    97973550.90549
     -1480.922  
  24022706.558   126240202.32447      3183.468    24022708.877    98368974.69549
      2480.624  
  20241002.685   106367228.37349      -680.042    20241003.769    82883571.30149
      -529.906  
  23575732.034   123891314.28948     -3750.921    23575734.686    96538701.22949
     -2922.801  
  20719483.238   108881651.96249      1793.921    20719482.033    84842852.11649
      1397.859  
  19752840.559   105404960.05909      2219.175    19752845.280    81981671.71308
      1726.026  
  20269228.676   108350672.44408     -2717.254    20269235.319    84272778.53706
     -2113.422  
  19378481.251   103552761.37909      -867.129    19378485.141    80541075.29208
      -674.437  
  20369667.220   108811132.95408      2998.148    20369672.406    84630916.92208
      2331.894  
  22989232.943   122545569.40506     -4116.515           0.000           0.0000 
         0.000  
 20 10 03 11 07 35.0000000  0 12G22G12G 1G 3G32G10G31R 2R 1R11R12R10
  22887772.370   120276081.97848      1906.719    22887769.204    93721597.21046
      1485.750  
  22495372.161   118214013.74048     -2008.211    22495370.847    92114819.78246
     -1564.839  
  23927947.307   125742213.41146     -1903.418    23927950.065    97980960.98049
     -1483.184  
  24019678.334   126224288.84146      3182.218    24019680.624    98356574.56849
      2479.648  
  20241651.099   106370635.78049      -682.535    20241652.178    82886226.42649
      -531.847  
  23579301.522   123910071.79148     -3751.808    23579304.166    96553317.46349
     -2923.492  
  20717777.753   108872689.60949      1791.320    20717776.547    84835868.46849
      1395.835  
  19750762.831   105393872.90509      2216.043    19750767.560    81973048.37408
      1723.590  
  20271771.936   108364267.62608     -2720.437    20271778.601    84283352.56606
     -2115.898  
  19379294.628   103557107.72309      -871.128    19379298.500    80544455.78308
      -677.542  
  20366862.491   108796150.68808      2995.195    20366867.696    84619264.05708
      2329.598  
  22993094.804   122566155.20306     -4117.386           0.000           0.0000 
         0.000  
 20 10 03 11 07 40.0000000  0 13G22G12G 1G 3G32G10G31R 2R 1R19R11R12
                                R10
  22885959.015   120266552.69948      1904.460    22885955.844    93714171.80147
      1483.996  
  22497284.051   118224060.76048     -2011.089    22497282.749    92122648.63947
     -1567.082  
  23929759.023   125751733.95147     -1905.383    23929761.772    97988379.55648
     -1484.719  
  24016651.226   126208381.37547      3180.730    24016653.524    98344179.16049
      2478.492  
  20242301.286   106374052.53549      -684.601    20242302.357    82888888.83349
      -533.456  
  23582871.547   123928832.18248     -3752.769    23582874.186    96567935.94449
     -2924.237  
  20716074.185   108863737.33149      1789.159    20716072.978    84828892.67049
      1394.148  
  19748687.292   105382797.55609      2213.479    19748692.038    81964434.21608
      1721.597  
  20274317.482   108377875.02608     -2723.219    20274324.153    84293936.09306
     -2118.062  
  23320699.507   124750016.22614       392.362    23320702.148    97027801.76415
       305.168  
  19380111.204   103561471.28909      -874.762    19380115.082    80547849.66708
      -680.370  
  20364060.100   108781181.03808      2992.340    20364065.370    84607620.99908
      2327.375  
  22996957.004   122586742.93405     -4118.324           0.000           0.0000 
         0.000  
 20 10 03 11 07 45.0000000  0 12G22G12G 1G 3G32G10G31R 2R 1R11R12R10
  22884148.288   120257037.32848      1901.741    22884145.107    93706757.23247
      1481.878  
  22499199.106   118234124.50448     -2014.222    22499197.814    92130490.51147
     -1569.527  
  23931573.522   125761268.98846     -1908.660    23931576.265    97995809.47849
     -1487.273  
  24013625.906   126192483.42947      3178.925    24013628.221    98331791.14549
      2477.081  
  20242953.920   106377482.12249      -687.141    20242954.987    82891561.24149
      -535.433  
  23586442.745   123947598.89148     -3753.690    23586445.395    96582559.35449
     -2924.957  
  20714373.217   108854798.62049      1786.483    20714371.992    84821927.44749
      1392.066  
  19746614.659   105371737.68309      2210.581    19746619.415    81955832.09308
      1719.339  
  20276865.957   108391498.11808     -2726.004    20276872.626    84304531.83006
     -2120.230  
  19380931.632   103565855.47009      -878.886    19380935.522    80551259.58808
      -683.581  
  20361260.770   108766227.58308      2989.188    20361266.068    84595990.54008
      2324.922  
  23000820.243   122607336.20505     -4118.987           0.000           0.0000 
         0.000  
 20 10 03 11 07 50.0000000  0 12G22G12G 1G 3G32G10G31R 2R 1R11R12R10
  22882340.051   120247534.94648      1899.637    22882336.865    93699352.78347
      1480.238  
  22501117.160   118244204.07248     -2017.284    22501115.870    92138344.72346
     -1571.914  
  23933390.561   125770817.53247     -1910.663    23933393.313    98003249.86049
     -1488.835  
  24010602.240   126176594.04847      3177.222    24010604.537    98319409.82049
      2475.758  
  20243608.819   106380923.63549      -689.258    20243609.877    82894242.93849
      -537.090  
  23590014.967   123966371.04548     -3754.664    23590017.601    96597187.00349
     -2925.714  
  20712674.636   108845872.54749      1784.136    20712673.410    84814972.06949
      1390.237  
  19744544.718   105360692.17709      2207.770    19744549.485    81947241.14708
      1717.152  
  20279417.192   108405136.05808     -2728.890    20279423.884    84315139.11406
     -2122.472  
  19381755.769   103570259.44009      -882.629    19381759.665    80554684.89808
      -686.491  
  20358464.254   108751289.34208      2986.339    20358469.623    84584371.91808
      2322.706  
  23004684.410   122627934.22806     -4119.675           0.000           0.0000 
         0.000  
 20 10 03 11 07 55.0000000  0 12G22G12G 1G 3G32G10G31R 2R 1R11R12R10
  22880534.002   120238044.28248      1896.901    22880530.834    93691957.45146
      1478.102  
  22503037.988   118254298.08848     -2020.301    22503036.696    92146210.18547
     -1574.266  
  23935209.908   125780378.20147     -1913.086    23935212.678    98010699.76249
     -1490.715  
  24007579.977   126160711.94846      3175.742    24007582.265    98307034.15649
      2474.602  
  20244265.727   106384375.71149      -691.452    20244266.793    82896932.86749
      -538.796  
  23593587.960   123985147.24847     -3755.640    23593590.533    96611817.81249
     -2926.472  
  20710978.217   108836957.74649      1781.910    20710976.973    84808025.47349
      1388.499  
  19742477.235   105349659.75209      2205.108    19742482.006    81938660.37308
      1715.085  
  20281970.955   108418787.41708     -2731.680    20281977.644    84325756.83106
     -2124.645  
  19382583.315   103574681.65909      -886.289    19382587.223    80558124.40308
      -689.339  
  20355670.394   108736365.04508      2983.449    20355675.749    84572764.13508
      2320.461  
  23008549.213   122648535.52305     -4120.362           0.000           0.0000 
         0.000  
 20 10 03 11 08  0.0000000  0 12G22G12G 1G 3G32G10G31R 2R 1R11R12R10
  22878730.410   120228566.40748      1894.397    22878727.273    93684572.10547
      1476.155  
  22504961.759   118264407.66648     -2023.386    22504960.478    92154087.78047
     -1576.664  
  23937031.713   125789952.22446     -1916.147    23937034.566    98018160.02649
     -1493.104  
  24004559.306   126144838.31247      3173.460    24004561.631    98294665.10149
      2472.828  
  20244924.853   106387839.47549      -693.836    20244925.918    82899631.90449
      -540.656  
  23597161.871   124003928.61947     -3756.648    23597164.410    96626452.64549
     -2927.261  
  20709284.154   108828055.38149      1779.284    20709282.902    84801088.56949
      1386.457  
  19740412.466   105338641.81209      2202.167    19740417.235    81930090.86808
      1712.797  
  20284527.444   108432453.31508     -2734.664    20284534.132    84336385.86006
     -2126.965  
  19383414.524   103579123.35609      -890.082    19383418.426    80561579.05608
      -692.288  
  20352879.307   108721455.74808      2980.472    20352884.669    84561168.02008
      2318.145  
  23012414.741   122669141.15205     -4121.273           0.000           0.0000 
         0.000  
 20 10 03 11 08  5.0000000  0 12G22G12G 1G 3G32G10G31R 2R 1R11R12R10
  22876929.310   120219101.59448      1891.719    22876926.170    93677196.92247
      1474.062  
  22506888.548   118274533.01548     -2026.484    22506887.237    92161977.66347
     -1579.078  
  23938856.166   125799539.60647     -1918.565    23938858.999    98025630.71249
     -1494.984  
  24001540.273   126128973.24546      3171.999    24001542.594    98282302.71049
      2471.687  
  20245586.253   106391315.15449      -696.198    20245587.317    82902340.22649
      -542.496  
  23600736.807   124022715.38147     -3757.789    23600739.319    96641091.67649
     -2928.152  
  20707592.487   108819165.67649      1776.827    20707591.248    84794161.52849
      1384.543  
  19738350.391   105327638.25009      2199.409    19738355.180    81921532.54508
      1710.651  
  20287086.747   108446134.03408     -2737.320    20287093.409    84347026.42006
     -2129.031  
  19384249.419   103583584.75309      -894.030    19384253.324    80565049.03508
      -695.358  
  20350091.125   108706561.71808      2977.551    20350096.446    84549583.77908
      2315.871  
  23016281.180   122689751.44606     -4122.323           0.000           0.0000 
         0.000  
 20 10 03 11 08 10.0000000  0 12G22G12G 1G 3G32G10G31R 2R 1R11R12R10
  22875130.532   120209648.95248      1888.945    22875127.355    93669831.23146
      1471.905  
  22508818.189   118284673.31548     -2030.070    22508816.882    92169879.20546
     -1581.871  
  23940683.013   125809139.74947     -1921.465    23940685.858    98033111.33249
     -1497.253  
  23998522.741   126113116.00847      3170.332    23998525.073    98269946.43449
      2470.383  
  20246249.758   106394801.89549      -698.874    20246250.829    82905057.16649
      -544.581  
  23604312.626   124041506.62447     -3758.675    23604315.060    96655734.20649
     -2928.840  
  20705903.071   108810287.76849      1774.019    20705901.824    84787243.68049
      1382.352  
  19736290.916   105316648.61709      2196.120    19736295.721    81912985.05608
      1708.094  
  20289648.614   108459828.62108     -2740.613    20289655.270    84357677.75606
     -2131.594  
  19385087.836   103588064.93609      -898.340    19385091.722    80568533.62208
      -698.711  
  20347305.641   108691682.16308      2974.223    20347310.955    84538010.79308
      2313.284  
  23020148.261   122710365.32006     -4123.074           0.000           0.0000 
         0.000  
 20 10 03 11 08 15.0000000  0 12G22G12G 1G 3G32G10G31R 2R 1R11R12R10
  22873334.412   120200210.40048      1886.675    22873331.298    93662476.52147
      1470.133  
  22510750.998   118294830.35548     -2032.851    22510749.685    92177793.77447
     -1584.043  
  23942512.582   125818754.26547     -1924.093    23942515.448    98040603.16648
     -1499.293  
  23995507.037   126097268.41147      3168.769    23995509.376    98257597.66249
      2469.172  
  20246915.736   106398301.57149      -700.976    20246916.795    82907784.18449
      -546.218  
  23607889.648   124060304.28547     -3759.921    23607892.052    96670381.73649
     -2929.812  
  20704216.260   108801423.54449      1771.711    20704215.018    84780336.49349
      1380.555  
  19734234.349   105305674.35109      2193.530    19734239.141    81904449.51608
      1706.077  
  20292213.446   108473539.05308     -2743.418    20292220.089    84368341.42506
     -2133.772  
  19385930.077   103592565.86409      -902.042    19385934.002    80572034.34308
      -701.594  
  20344523.170   108676818.88508      2971.343    20344528.527    84526450.47408
      2311.046  
  23024016.469   122730984.88806     -4124.198           0.000           0.0000 
         0.000  
 20 10 03 11 08 20.0000000  0 12G22G12G 1G 3G32G10G31R 2R 1R11R12R10
  22871540.633   120190783.93648      1884.097    22871537.492    93655131.21947
      1468.125  
  22512686.610   118305002.12648     -2035.598    22512685.286    92185719.82747
     -1586.184  
  23944344.575   125828381.29446     -1926.710    23944347.431    98048104.76649
     -1501.336  
  23992492.845   126081428.53547      3167.472    23992495.149    98245254.90549
      2468.160  
  20247583.781   106401812.17249      -703.082    20247584.841    82910519.72049
      -547.854  
  23611467.526   124079106.28347     -3760.812    23611469.931    96685032.64349
     -2930.504  
  20702531.676   108792570.99549      1769.469    20702530.428    84773438.40949
      1378.809  
  19732180.351   105294713.79709      2190.890    19732185.131    81895924.64208
      1704.027  
  20294780.827   108487263.24108     -2746.109    20294787.490    84379015.79106
     -2135.866  
  19386775.852   103597085.43009      -905.749    19386779.785    80575549.56408
      -704.476  
  20341743.411   108661969.91608      2968.421    20341748.801    84514901.28208
      2308.773  
  23027885.297   122751608.01406     -4124.847           0.000           0.0000 
         0.000  
 20 10 03 11 08 25.0000000  0 12G22G12G 1G 3G32G10G31R 2R 1R11R12R10
  22869749.099   120181369.48348      1881.476    22869745.982    93647795.28647
      1466.086  
  22514625.021   118315188.64348     -2039.035    22514623.700    92193657.37147
     -1588.858  
  23946178.874   125838020.72747     -1929.430    23946181.750    98055615.96649
     -1503.461  
  23989480.086   126065596.25447      3165.858    23989482.354    98232918.07549
      2466.902  
  20248253.893   106405333.66349      -705.438    20248254.959    82913263.73949
      -549.695  
  23615046.232   124097912.57247     -3761.828    23615048.688    96699686.89949
     -2931.293  
  20700849.295   108783730.08949      1767.015    20700848.045    84766549.39549
      1376.895  
  19730128.821   105283766.49809      2188.004    19730133.597    81887410.08008
      1701.780  
  20297350.806   108501001.03408     -2749.069    20297357.405    84389700.74006
     -2138.168  
  19387625.095   103601623.55809      -909.640    19387629.018    80579079.21708
      -707.504  
  20338966.309   108647135.22608      2965.273    20338971.725    84503363.19708
      2306.323  
  23031754.670   122772234.54306     -4126.008           0.000           0.0000 
         0.000  
 20 10 03 11 08 30.0000000  0 12G22G12G 1G 3G32G10G31R 2R 1R11R12R10
  22867960.033   120171967.97248      1879.116    22867956.898    93640469.43946
      1464.246  
  22516566.367   118325390.70348     -2041.758    22516565.095    92201607.03147
     -1590.980  
  23948015.690   125847673.35246     -1931.141    23948018.600    98063137.52849
     -1504.785  
  23986468.945   126049772.57047      3163.855    23986471.206    98220587.92949
      2465.344  
  20248926.238   106408866.89449      -707.503    20248927.302    82916016.90449
      -551.304  
  23618625.927   124116723.99848     -3762.906    23618628.435    96714345.14849
     -2932.137  
  20699169.311   108774901.71349      1764.586    20699168.054    84759670.14349
      1374.999  
  19728080.035   105272833.81409      2185.339    19728084.826    81878906.88608
      1699.703  
  20299923.500   108514753.43008     -2751.729    20299930.067    84400397.04406
     -2140.237  
  19388477.991   103606181.14409      -913.277    19388481.909    80582624.00708
      -710.327  
  20336192.065   108632315.68308      2962.641    20336197.484    84491836.89008
      2304.277  
  23035625.076   122792865.45206     -4126.133           0.000           0.0000 
         0.000  
 20 10 03 11 08 35.0000000  0 12G22G12G 1G 3G32G10G31R 2R 1R11R12R10
  22866173.440   120162579.27248      1876.305    22866170.296    93633153.57146
      1462.054  
  22518510.686   118335608.22848     -2045.277    22518509.401    92209568.73347
     -1593.722  
  23949855.035   125857339.23647     -1934.855    23949857.958    98070669.36049
     -1507.684  
  23983459.427   126033957.26147      3162.358    23983461.637    98208264.30849
      2464.172  
  20249600.803   106412411.79049      -710.293    20249601.873    82918779.16149
      -553.480  
  23622206.618   124135540.46748     -3763.827    23622209.166    96729007.33149
     -2932.855  
  20697491.684   108766085.72249      1761.913    20697490.419    84752800.54149
      1372.922  
  19726033.878   105261915.22609      2182.141    19726038.687    81870414.64908
      1697.215  
  20302498.889   108528520.33008     -2754.801    20302505.450    84411104.63206
     -2142.624  
  19389334.502   103610758.14409      -917.507    19389338.426    80586183.90208
      -713.616  
  20333420.672   108617511.27308      2959.136    20333426.061    84480322.35208
      2301.550  
  23039496.105   122813500.52706     -4127.815           0.000           0.0000 
         0.000  
 20 10 03 11 08 40.0000000  0 12G22G12G 1G 3G32G10G31R 2R 1R11R12R10
  22864389.259   120153203.30648      1873.784    22864386.078    93625847.62246
      1460.089  
  22520457.930   118345841.06348     -2048.144    22520456.669    92217542.37446
     -1595.961  
  23951696.841   125867017.99647     -1936.851    23951699.771    98078211.27649
     -1509.229  
  23980451.449   126018150.38347      3160.148    23980453.677    98195947.27549
      2462.452  
  20250277.565   106415968.22749      -712.593    20250278.648    82921550.40849
      -555.272  
  23625788.233   124154361.88748     -3765.296    23625790.869    96743673.36849
     -2933.999  
  20695816.396   108757282.02549      1759.499    20695815.126    84745940.52649
      1371.039  
  19723990.478   105251011.27909      2179.250    19723995.293    81861933.80708
      1694.972  
  20305076.929   108542301.52808     -2757.753    20305083.514    84421823.33506
     -2144.922  
  19390194.620   103615354.41509      -921.230    19390198.562    80589758.77608
      -716.512  
  20330652.058   108602721.74008      2956.261    20330657.438    84468819.38908
      2299.315  
  23043368.033   122834139.86306     -4128.391           0.000           0.0000 
         0.000  
 20 10 03 11 08 45.0000000  0 12G22G12G 1G 3G32G10G31R 2R 1R11R12R10
  22862607.599   120143840.58748      1871.327    22862604.426    93618551.99547
      1458.180  
  22522408.182   118356089.73948     -2051.069    22522406.965    92225528.35446
     -1598.242  
  23953541.240   125876710.47347     -1939.617    23953544.151    98085763.79949
     -1511.401  
  23977445.175   126002352.36947      3158.793    23977447.397    98183637.12649
      2461.394  
  20250956.627   106419536.72249      -714.772    20250957.710    82924331.05449
      -556.968  
  23629370.883   124173188.68247     -3765.637    23629373.578    96758343.58749
     -2934.266  
  20694143.551   108748491.16249      1757.051    20694142.281    84739090.50449
      1369.128  
  19721949.785   105240121.72009      2176.479    19721954.602    81853464.15108
      1692.815  
  20307657.790   108556097.55108     -2760.460    20307664.352    84432553.57006
     -2147.027  
  19391058.423   103619970.34909      -925.090    19391062.363    80593348.94608
      -719.519  
  20327886.323   108587947.74208      2953.312    20327891.724    84457328.50808
      2297.020  
  23047240.782   122854783.92106     -4129.120           0.000           0.0000 
         0.000  
 20 10 03 11 08 50.0000000  0 12G22G12G 1G 3G32G10G31R 2R 1R11R12R10
  22860828.283   120134490.24748      1868.663    22860825.132    93611266.01846
      1456.098  
  22524361.300   118366353.35048     -2054.395    22524360.075    92233525.98047
     -1600.827  
  23955388.021   125886415.43346     -1942.199    23955390.939    98093326.15049
     -1513.397  
  23974440.424   125986562.36247      3157.058    23974442.679    98171333.24649
      2460.046  
  20251637.812   106423116.40549      -717.277    20251638.909    82927120.41949
      -558.922  
  23632954.370   124192020.03747     -3766.832    23632957.156    96773017.36549
     -2935.198  
  20692472.975   108739712.22949      1754.456    20692471.698    84732249.77949
      1367.108  
  19719911.768   105229246.47409      2173.620    19719916.586    81845005.62608
      1690.594  
  20310241.252   108569907.63608     -2763.613    20310247.820    84443294.74406
     -2149.480  
  19391925.762   103624605.20609      -929.094    19391929.714    80596953.83508
      -722.633  
  20325123.316   108573188.38208      2950.227    20325128.750    84445849.01208
      2294.620  
  23051114.211   122875431.56906     -4130.012           0.000           0.0000 
         0.000  
 20 10 03 11 08 55.0000000  0 13G22G12G 1G 3G32G10G31R 2R 1R19R11R12
                                R10
  22859051.325   120125152.08248      1866.473    22859048.109    93603989.53346
      1454.395  
  22526317.205   118376631.67248     -2057.141    22526315.960    92241535.06646
     -1602.965  
  23957237.223   125896132.92847     -1944.547    23957240.095    98100898.16448
     -1515.242  
  23971437.156   125970780.14647      3155.859    23971439.417    98159035.41949
      2459.108  
  20252321.094   106426707.07649      -719.120    20252322.191    82929918.34449
      -560.354  
  23636538.694   124210855.72247     -3767.347    23636541.557    96787694.51049
     -2935.598  
  20690804.643   108730945.08449      1752.297    20690803.368    84725418.24649
      1365.426  
  19717876.265   105218384.44809      2170.938    19717881.040    81836557.38808
      1688.508  
  20312827.233   108583731.40308     -2766.012    20312833.841    84454046.55906
     -2151.347  
  23315669.626   124723110.25614       325.477    23315673.095    97006877.48415
       253.148  
  19392796.576   103629258.66809      -932.483    19392800.546    80600573.19408
      -725.270  
  20322363.016   108558443.41508      2947.632    20322368.464    84434380.71508
      2292.601  
  23054988.383   122896082.74306     -4130.636           0.000           0.0000 
         0.000  
 20 10 03 11 09  0.0000000  0 12G22G12G 1G 3G32G10G31R 2R 1R11R12R10
  22857276.836   120115827.14648      1863.593    22857273.625    93596723.34947
      1452.151  
  22528276.092   118386925.68848     -2060.461    22528274.829    92249556.36946
     -1605.559  
  23959088.934   125905863.76846     -1947.874    23959091.852    98108480.70449
     -1517.820  
  23968435.616   125955006.78747      3153.750    23968437.834    98146744.50149
      2457.469  
  20253006.647   106430309.71549      -721.933    20253007.750    82932725.59549
      -562.550  
  23640123.980   124229696.74747     -3769.082    23640126.942    96802375.81649
     -2936.948  
  20689138.738   108722190.66349      1749.464    20689137.457    84718596.62049
      1363.214  
  19715843.621   105207537.83909      2167.655    19715848.390    81828121.13608
      1685.952  
  20315416.049   108597569.98408     -2769.401    20315422.646    84464809.88906
     -2153.984  
  19393671.060   103633931.80009      -936.812    19393675.066    80604207.85308
      -728.636  
  20319605.662   108543713.93708      2944.104    20319611.075    84422924.45808
      2289.859  
  23058863.421   122916738.40906     -4131.765           0.000           0.0000 
         0.000  
 20 10 03 11 09  5.0000000  0 12G22G12G 1G 3G32G10G31R 2R 1R11R12R10
  22855504.913   120106515.56148      1861.222    22855501.667    93589467.56846
      1450.300  
  22530238.001   118397235.59348     -2063.477    22530236.708    92257590.06346
     -1607.905  
  23960943.223   125915608.18547     -1949.862    23960946.150    98116073.71749
     -1519.379  
  23965435.722   125939242.39747      3152.262    23965437.971    98134460.56649
      2456.309  
  20253694.512   106433924.50049      -723.999    20253695.621    82935542.31049
      -564.159  
  23643710.277   124248543.17847     -3769.749    23643713.318    96817061.33249
     -2937.473  
  20687475.273   108713449.13049      1747.238    20687473.984    84711785.03949
      1361.484  
  19713813.647   105196705.54309      2165.105    19713818.416    81819696.01808
      1683.973  
  20318007.586   108611423.36208     -2772.129    20318014.191    84475584.73306
     -2156.104  
  19394549.261   103638624.70509      -940.418    19394553.271    80607857.88808
      -731.441  
  20316851.207   108529000.04308      2941.348    20316856.582    84411480.32208
      2287.715  
  23062739.240   122937398.79806     -4132.379           0.000           0.0000 
         0.000  
 20 10 03 11 09 10.0000000  0 12G22G12G 1G 3G32G10G31R 2R 1R11R12R10
  22853735.458   120097217.07548      1858.738    22853732.193    93582221.99646
      1448.366  
  22532202.885   118407561.09648     -2066.410    22532201.609    92265635.91147
     -1610.191  
  23962800.077   125925365.89446     -1952.819    23962802.997    98123677.13149
     -1521.679  
  23962437.536   125923486.81947      3150.645    23962439.777    98122183.49249
      2455.047  
  20254384.639   106437551.14249      -726.171    20254385.754    82938368.26149
      -565.852  
  23647297.558   124267394.81147     -3770.472    23647300.699    96831750.90149
     -2938.034  
  20685814.215   108704720.23849      1744.757    20685812.931    84704983.30449
      1359.546  
  19711786.520   105185888.37109      2162.300    19711791.275    81811282.66508
      1681.789  
  20320601.922   108625291.47808     -2774.956    20320608.508    84486371.04206
     -2158.305  
  19395431.114   103643337.18409      -944.199    19395435.155    80611523.14908
      -734.382  
  20314099.626   108514301.56008      2938.383    20314104.981    84400048.17108
      2285.410  
  23066615.983   122958063.39706     -4133.058           0.000           0.0000 
         0.000  
 20 10 03 11 09 15.0000000  0 12G22G12G 1G 3G32G10G31R 2R 1R11R12R10
  22851968.350   120087930.86148      1856.105    22851965.070    93574985.98446
      1446.313  
  22534170.564   118417901.31948     -2069.456    22534169.290    92273693.23446
     -1612.562  
  23964659.260   125935135.99947     -1955.159    23964662.200    98131290.19449
     -1523.500  
  23959440.824   125907739.12147      3148.680    23959443.083    98109912.56549
      2453.516  
  20255076.867   106441188.82549      -728.590    20255077.976    82941202.82349
      -567.733  
  23650885.672   124286250.75847     -3771.773    23650888.871    96846443.83549
     -2939.046  
  20684155.406   108696003.13849      1742.313    20684154.122    84698190.76049
      1357.644  
  19709761.896   105175084.71709      2159.492    19709766.675    81802879.82408
      1679.604  
  20323198.854   108639173.38008     -2777.597    20323205.403    84497168.07206
     -2160.359  
  19396316.479   103648068.27409      -948.000    19396320.514    80615202.88608
      -737.335  
  20311350.755   108499617.52008      2935.456    20311356.092    84388627.25908
      2283.132  
  23070493.304   122978731.38606     -4133.820           0.000           0.0000 
         0.000  
 20 10 03 11 09 20.0000000  0 12G22G12G 1G 3G32G10G31R 2R 1R11R12R10
  22850203.766   120078657.88148      1852.996    22850200.482    93567760.29047
      1443.890  
  22536141.211   118428257.23148     -2072.952    22536139.931    92281762.77246
     -1615.289  
  23966520.988   125944919.47747     -1958.234    23966523.925    98138913.67949
     -1525.901  
  23956445.840   125892000.34147      3146.499    23956448.079    98097648.58549
      2451.815  
  20255771.362   106444838.48449      -731.359    20255772.490    82944046.71249
      -569.895  
  23654474.794   124305111.94147     -3772.788    23654477.994    96861140.84749
     -2939.839  
  20682499.011   108687298.79049      1739.327    20682497.732    84691408.15149
      1355.316  
  19707740.120   105164296.13109      2155.929    19707744.899    81794488.70208
      1676.835  
  20325798.486   108653069.87508     -2780.961    20325805.022    84507976.45706
     -2162.973  
  19397205.511   103652819.05309      -952.413    19397209.558    80618897.93808
      -740.770  
  20308604.778   108484949.00408      2931.855    20308610.124    84377218.41908
      2280.332  
  23074371.362   122999403.96406     -4135.069           0.000           0.0000 
         0.000  
 20 10 03 11 09 25.0000000  0 12G22G12G 1G 3G32G10G31R 2R 1R11R12R10
  22848441.687   120069398.02848      1850.585    22848438.398    93560544.81946
      1442.012  
  22538114.846   118438628.69248     -2075.780    22538113.583    92289844.42347
     -1617.495  
  23968385.244   125954716.26847     -1960.749    23968388.190    98146547.52949
     -1527.862  
  23953452.514   125876270.33947      3144.495    23953454.746    98085391.45149
      2450.253  
  20256468.123   106448500.01849      -733.516    20256469.257    82946899.85449
      -571.573  
  23658064.934   124323978.28348     -3773.593    23658068.070    96875841.89149
     -2940.465  
  20680845.039   108678607.10849      1737.065    20680843.761    84684635.41649
      1353.558  
  19705721.064   105153522.06109      2153.304    19705725.845    81786108.87608
      1674.793  
  20328400.836   108666980.98808     -2783.737    20328407.390    84518796.20706
     -2165.132  
  19398098.174   103657589.23609      -956.058    19398102.240    80622608.08108
      -743.602  
  20305861.672   108470295.85708      2928.925    20305867.026    84365821.53408
      2278.054  
  23078250.285   123020080.83706     -4135.983           0.000           0.0000 
         0.000  
 20 10 03 11 09 30.0000000  0 12G22G12G 1G 3G32G10G31R 2R 1R11R12R10
  22846681.954   120060150.56848      1848.464    22846678.666    93553339.01247
      1440.363  
  22540091.291   118449014.94748     -2078.366    22540089.969    92297937.61247
     -1619.512  
  23970251.829   125964525.39847     -1962.913    23970254.832    98154191.02549
     -1529.538  
  23950460.663   125860548.36847      3143.710    23950462.965    98073140.57449
      2449.640  
  20257167.001   106452172.67849      -735.397    20257168.140    82949761.66449
      -573.038  
  23661655.953   124342848.99648     -3774.195    23661658.965    96890546.34749
     -2940.933  
  20679193.331   108669927.32249      1735.113    20679192.046    84677871.95049
      1352.030  
  19703704.633   105142761.97009      2150.777    19703709.400    81777739.91308
      1672.827  
  20331005.764   108680906.00908     -2786.207    20331012.338    84529626.77706
     -2167.055  
  19398994.355   103662378.15709      -959.383    19398998.422    80626332.79808
      -746.188  
  20303121.317   108455657.36908      2926.499    20303126.679    84354436.05008
      2276.168  
  23082129.898   123040761.29106     -4136.137           0.000           0.0000 
         0.000  
 20 10 03 11 09 35.0000000  0 12G22G12G 1G 3G32G10G31R 2R 1R11R12R10
  22844924.403   120050914.51448      1845.886    22844921.111    93546142.08946
      1438.351  
  22542070.330   118459414.99448     -2081.644    22542069.055    92306041.54547
     -1622.065  
  23972120.678   125974346.14147     -1965.460    23972123.656    98161843.51649
     -1531.535  
  23947470.197   125844833.42347      3142.050    23947472.483    98060895.17449
      2448.352  
  20257867.812   106455855.46249      -737.644    20257868.959    82952631.36949
      -574.793  
  23665247.636   124361723.07448     -3775.495    23665250.494    96905253.43649
     -2941.944  
  20677543.711   108661258.44649      1732.633    20677542.415    84671116.98549
      1350.101  
  19701690.636   105132014.89309      2148.012    19701695.395    81769381.07808
      1670.671  
  20333613.161   108694843.85308     -2788.965    20333619.713    84540467.31406
     -2169.199  
  19399893.829   103667184.76709      -963.206    19399897.905    80630071.27108
      -749.163  
  20300383.526   108441032.55308      2923.445    20300388.899    84343061.19808
      2273.789  
  23086009.958   123061444.19406     -4136.914           0.000           0.0000 
         0.000  
 20 10 03 11 09 40.0000000  0 12G22G12G 1G 3G32G10G31R 2R 1R11R12R10
  22843169.286   120041691.27948      1843.253    22843165.957    93538955.15047
      1436.300  
  22544052.280   118469830.24548     -2084.800    22544051.027    92314157.32647
     -1624.520  
  23973991.974   125984179.70846     -1968.069    23973994.929    98169506.06749
     -1533.563  
  23944481.363   125829127.02747      3140.223    23944483.671    98048656.42749
      2446.926  
  20258570.822   106459549.80649      -740.180    20258571.968    82955510.07549
      -576.765  
  23668840.218   124380601.94248     -3776.499    23668842.941    96919964.24649
     -2942.726  
  20675896.447   108652601.95349      1730.081    20675895.132    84664371.66949
      1348.117  
  19699679.326   105121282.15909      2144.773    19699684.078    81761033.39608
      1668.151  
  20336223.191   108708795.96108     -2791.979    20336229.751    84551318.95206
     -2171.543  
  19400796.908   103672010.51309      -967.409    19400800.985    80633824.62908
      -752.430  
  20297648.547   108426422.81508      2920.293    20297653.920    84331698.07508
      2271.339  
  23089890.819   123082131.18006     -4137.929           0.000           0.0000 
         0.000  
 20 10 03 11 09 45.0000000  0 13G22G12G 1G 3G32G10G31R 2R 1R19R11R12
                                R10
  22841417.009   120032482.97148      1840.085    22841413.743    93531779.84746
      1433.832  
  22546037.514   118480262.74948     -2088.293    22546036.273    92322286.54747
     -1627.245  
  23975866.055   125994028.22546     -1971.332    23975869.028    98177180.22049
     -1536.104  
  23941494.543   125813431.18147      3138.164    23941496.861    98036425.90949
      2445.328  
  20259276.427   106463257.75349      -742.945    20259277.567    82958399.38449
      -578.921  
  23672434.086   124399487.59148     -3777.586    23672436.694    96934680.34649
     -2943.574  
  20674251.902   108643959.84449      1727.176    20674250.595    84657637.56449
      1345.851  
  19697671.160   105110566.13609      2141.664    19697675.893    81752698.71308
      1665.737  
  20338836.259   108722764.39708     -2795.382    20338842.821    84562183.29206
     -2174.190  
  23312834.078   124707941.20514       279.714    23312837.213    96995079.11415
       217.550  
  19401703.964   103676857.48309      -971.468    19401708.023    80637594.49708
      -755.589  
  20294916.781   108411830.30708      2916.769    20294922.167    84320348.35808
      2268.598  
  23093772.778   123102824.11406     -4139.344           0.000           0.0000 
         0.000  
 20 10 03 11 09 50.0000000  0 13G22G12G 1G 3G32G10G31R 2R 1R19R11R12
                                R10
  22839666.839   120023285.79848      1838.022    22839663.580    93524613.22147
      1432.222  
  22548025.318   118490708.76148     -2090.823    22548024.060    92330426.29546
     -1629.218  
  23977742.261   126003887.85147     -1973.151    23977745.269    98184863.05049
     -1537.519  
  23938509.032   125797742.18647      3136.843    23938511.346    98024200.72649
      2444.296  
  20259983.893   106466975.54549      -744.698    20259985.039    82961296.36649
      -580.288  
  23676028.575   124418376.32348     -3778.305    23676031.079    96949398.84549
     -2944.133  
  20672609.387   108635328.40049      1725.046    20672608.079    84650911.76849
      1344.190  
  19695665.299   105099862.51209      2139.250    19695670.023    81744373.67208
      1663.859  
  20341451.688   108736745.27108     -2797.659    20341458.223    84573057.29706
     -2175.960  
  23312573.144   124706545.22704       277.116    23312576.347    96993993.35505
       215.531  
  19402614.243   103681721.89509      -974.766    19402618.338    80641377.92708
      -758.151  
  20292187.558   108397251.19408      2914.382    20292192.911    84309009.04808
      2266.741  
  23097655.282   123123519.17006     -4139.511           0.000           0.0000 
         0.000  
 20 10 03 11 09 55.0000000  0 13G22G12G 1G 3G32G10G31R 2R 1R19R11R12
                                R10
  22837919.349   120014102.64448      1835.480    22837916.084    93517457.51746
      1430.242  
  22550016.249   118501171.07948     -2093.597    22550014.983    92338578.75946
     -1631.375  
  23979621.189   126013761.56046     -1975.801    23979624.162    98192556.83449
     -1539.594  
  23935525.346   125782062.86947      3135.191    23935527.695    98011983.07749
      2443.011  
  20260693.787   106470706.06349      -747.003    20260694.933    82964203.26049
      -582.086  
  23679624.138   124437270.97748     -3779.253    23679626.619    96964121.95349
     -2944.875  
  20670969.443   108626710.43549      1722.644    20670968.128    84644196.47449
      1342.319  
  19693662.392   105089174.74309      2136.304    19693667.141    81736060.96508
      1661.569  
  20344069.963   108750741.51508     -2800.663    20344076.517    84583943.26606
     -2178.296  
  23312316.590   124705172.83604       272.457    23312319.832    96992925.94505
       211.909  
  19403528.346   103686606.52109      -978.566    19403532.423    80645177.08408
      -761.105  
  20289461.389   108382688.39408      2911.223    20289466.712    84297682.43608
      2264.284  
  23101538.616   123144219.33906     -4140.141           0.000           0.0000 
         0.000  
 20 10 03 11 10  0.0000000  0 13G22G12G 1G 3G32G10G31R 2R 1R19R11R12
                                R10
  22836174.025   120004930.93848      1832.933    22836170.790    93510310.73647
      1428.262  
  22552009.805   118511647.19748     -2096.934    22552008.506    92346741.96547
     -1633.972  
  23981502.262   126023646.63047     -1978.770    23981505.206    98200259.48849
     -1541.897  
  23932543.015   125766390.70747      3133.383    23932545.375    97999771.01049
      2441.597  
  20261405.607   106474446.73449      -749.456    20261406.766    82967118.06849
      -583.996  
  23683220.337   124456168.94248     -3780.257    23683222.828    96978847.63849
     -2945.659  
  20669331.570   108618103.41649      1719.961    20669330.261    84637489.71449
      1340.230  
  19691661.967   105078500.18509      2133.237    19691666.733    81727758.53308
      1659.180  
  20346690.708   108764750.67908     -2803.449    20346697.205    84594839.27806
     -2180.465  
  23312064.050   124703821.01304       267.305    23312067.170    96991874.53505
       207.902  
  19404445.731   103691508.84509      -982.620    19404449.833    80648989.99908
      -764.262  
  20286737.780   108368139.30308      2908.164    20286743.061    84286366.47308
      2261.902  
  23105422.355   123164922.01005     -4140.940           0.000           0.0000 
         0.000  
 20 10 03 11 10  5.0000000  0 13G22G12G 1G 3G32G10G31R 2R 1R19R11R12
                                R10
  22834431.304   119995772.87548      1830.445    22834428.055    93503174.58946
      1426.320  
  22554006.341   118522139.18748     -2099.612    22554005.097    92354917.54947
     -1636.063  
  23983385.910   126033545.33147     -1980.734    23983388.866    98207972.76249
     -1543.430  
  23929562.458   125750727.90047      3131.914    23929564.842    97987566.22349
      2440.453  
  20262119.783   106478199.72049      -751.574    20262120.936    82970042.47249
      -585.644  
  23686817.573   124475072.41948     -3781.108    23686820.108    96993577.61749
     -2946.323  
  20667696.201   108609509.49649      1717.729    20667694.892    84630793.15249
      1338.492  
  19689664.374   105067840.64109      2130.604    19689669.132    81719467.77508
      1657.136  
  20349314.226   108778774.72908     -2806.008    20349320.713    84605746.85806
     -2182.453  
  23311815.601   124702491.97604       263.102    23311818.680    96990840.86005
       204.632  
  19405366.843   103696431.02009      -986.156    19405370.943    80652818.35808
      -767.015  
  20284017.135   108353606.10208      2905.195    20284022.417    84275062.87808
      2259.598  
  23109306.819   123185629.23105     -4141.977           0.000           0.0000 
         0.000  
 20 10 03 11 10 10.0000000  0 13G22G12G 1G 3G32G10G31R 2R 1R19R11R12
                                R10
  22832691.136   119986628.29648      1827.479    22832687.884    93496048.94247
      1424.012  
  22556005.862   118532646.92648     -2103.276    22556004.626    92363105.38047
     -1638.921  
  23985272.152   126043457.44247     -1984.054    23985275.076    98215696.47749
     -1546.015  
  23926583.632   125735074.25547      3129.949    23926586.047    97975368.58949
      2438.921  
  20262836.266   106481964.86549      -754.344    20262837.419    82972976.35049
      -587.805  
  23690415.772   124493981.20747     -3782.363    23690418.404    97008311.72549
     -2947.300  
  20666063.294   108600928.54449      1714.773    20666061.986    84624106.70649
      1336.188  
  19687669.653   105057196.33509      2127.262    19687674.393    81711188.87008
      1654.530  
  20351940.545   108792813.69408     -2809.234    20351947.013    84616666.05006
     -2184.965  
  23311571.403   124701185.80904       258.957    23311574.474    96989824.94305
       201.406  
  19406291.652   103701372.88609      -990.312    19406295.754    80656662.03208
      -770.246  
  20281299.439   108339088.72008      2901.874    20281304.720    84263771.59308
      2257.015  
  23113192.163   123206340.89605     -4142.854           0.000           0.0000 
         0.000  
 20 10 03 11 10 15.0000000  0 13G22G12G 1G 3G32G10G31R 2R 1R19R11R12
                                R10
  22830953.642   119977497.63948      1825.051    22830950.377    93488934.14247
      1422.116  
  22558008.478   118543170.87048     -2106.147    22558007.253    92371305.86546
     -1641.160  
  23987161.000   126053383.40746     -1986.249    23987163.926    98223430.99949
     -1547.730  
  23923606.680   125719430.23547      3128.184    23923609.065    97963178.43649
      2437.547  
  20263555.149   106485742.62149      -756.425    20263556.302    82975920.05749
      -589.426  
  23694015.036   124512895.72047     -3783.050    23694017.820    97023050.29349
     -2947.836  
  20664432.944   108592360.99549      1712.542    20664431.629    84617430.69849
      1334.449  
  19685677.816   105046567.57409      2124.523    19685682.569    81702922.06008
      1652.401  
  20354569.661   108806867.82208     -2811.925    20354576.158    84627597.03606
     -2187.059  
  23311331.367   124699902.86904       254.835    23311334.629    96988827.07605
       198.202  
  19407220.221   103706334.84709      -994.164    19407224.310    80660521.33608
      -773.241  
  20278584.755   108324587.49108      2898.828    20278590.061    84252492.86308
      2254.645  
  23117078.383   123227057.60505     -4143.183           0.000           0.0000 
         0.000  
 20 10 03 11 10 20.0000000  0 13G22G12G 1G 3G32G10G31R 2R 1R19R11R12
                                R10
  22829218.442   119968379.07148      1822.522    22829215.190    93481828.77747
      1420.148  
  22560013.844   118553709.11048     -2109.097    22560012.593    92379517.48947
     -1643.453  
  23989052.130   126063321.29947     -1988.582    23989055.063    98231174.79449
     -1549.542  
  23920631.175   125703794.00447      3126.444    23920633.592    97950994.37449
      2436.190  
  20264276.076   106489531.11749      -758.762    20264277.221    82978872.13049
      -591.246  
  23697615.008   124531814.10947     -3783.676    23697617.956    97037791.87549
     -2948.323  
  20662804.800   108583805.01249      1710.031    20662803.480    84610763.69749
      1332.492  
  19683688.553   105035952.42509      2121.738    19683693.287    81694665.83308
      1650.238  
  20357201.278   108820935.29608     -2814.769    20357207.799    84638538.39806
     -2189.269  
  23311095.201   124698641.04103       250.348    23311098.663    96987845.66605
       194.715  
  19408152.228   103711315.08509      -997.784    19408156.301    80664394.85408
      -776.059  
  20275872.748   108310100.59108      2895.979    20275878.061    84241225.28108
      2252.429  
  23120965.346   123247777.30306     -4143.843           0.000           0.0000 
         0.000  
 20 10 03 11 10 25.0000000  0 12G22G12G 1G 3G32G10G31R 2R 1R11R12R10
  22827485.591   119959272.90848      1819.598    22827482.320    93474733.05847
      1417.862  
  22562021.982   118564261.91648     -2112.500    22562020.702    92387740.45547
     -1646.109  
  23990945.569   126073271.51646     -1991.175    23990948.536    98238928.21949
     -1551.574  
  23917657.218   125688165.88147      3124.155    23917659.651    97938816.61249
      2434.402  
  20264999.108   106493330.64649      -761.465    20265000.254    82981832.79949
      -593.351  
  23701215.826   124550736.68647     -3785.765    23701218.882    97052536.72149
     -2949.953  
  20661178.913   108575260.85349      1707.198    20661177.582    84604105.91649
      1330.285  
  19681701.924   105025351.45309      2118.378    19681706.662    81686420.63308
      1647.628  
  20359835.462   108835016.51608     -2817.991    20359841.973    84649490.45306
     -2191.777  
  19409087.672   103716313.81409     -1002.043    19409091.738    80668282.75608
      -779.371  
  20273163.501   108295628.37808      2892.441    20273168.812    84229969.12108
      2249.675  
  23124852.868   123268500.26206     -4145.281           0.000           0.0000 
         0.000  
 20 10 03 11 10 30.0000000  0 12G22G12G 1G 3G32G10G31R 2R 1R11R12R10
  22825755.506   119950181.28048      1817.043    22825752.265    93467648.67946
      1415.879  
  22564033.308   118574831.41048     -2115.354    22564032.001    92395976.41746
     -1648.332  
  23992841.771   126083235.99747     -1993.781    23992844.694    98246692.73448
     -1553.598  
  23914685.224   125672547.97647      3123.000    23914687.646    97926646.84249
      2433.508  
  20265724.644   106497143.33149      -763.656    20265725.784    82984803.72349
      -595.063  
  23704817.824   124569665.50348     -3786.093    23704820.982    97067286.43849
     -2950.207  
  20659555.678   108566730.66749      1704.796    20659554.342    84597459.02149
      1328.414  
  19679718.313   105014766.49409      2115.543    19679723.038    81678187.88808
      1645.421  
  20362472.593   108849113.40208     -2820.565    20362479.086    84660454.69006
     -2193.777  
  19410027.001   103721333.26909     -1005.648    19410031.053    80672186.77908
      -782.171  
  20270457.432   108281173.00808      2889.620    20270462.722    84218726.05708
      2247.483  
  23128741.494   123289228.57906     -4145.784           0.000           0.0000 
         0.000  
 20 10 03 11 10 35.0000000  0 12G22G12G 1G 3G32G10G31R 2R 1R11R12R10
  22824027.553   119941100.82948      1815.483    22824024.274    93460573.00147
      1414.663  
  22566047.161   118585414.24848     -2117.559    22566045.841    92404222.78846
     -1650.047  
  23994740.080   126093211.61546     -1995.813    23994743.002    98254465.95749
     -1555.184  
  23911714.566   125656937.00247      3121.862    23911716.959    97914482.44049
      2432.621  
  20266452.041   106500965.82749      -765.055    20266453.188    82987782.28949
      -596.148  
  23708420.403   124588597.21848     -3786.112    23708423.610    97082038.41049
     -2950.222  
  20657934.448   108558211.07349      1703.230    20657933.111    84590820.38349
      1327.191  
  19677737.091   105004194.40709      2113.668    19677741.842    81669965.15808
      1643.965  
  20365111.996   108863222.76908     -2822.750    20365118.541    84671428.64006
     -2195.477  
  19410969.528   103726369.94309     -1008.569    19410973.590    80676104.19008
      -784.449  
  20267753.883   108266731.04508      2887.448    20267759.149    84207493.42308
      2245.793  
  23132630.482   123309958.95105     -4146.042           0.000           0.0000 
         0.000  
 20 10 03 11 10 40.0000000  0 12G22G12G 1G 3G32G10G31R 2R 1R11R12R10
  22822301.965   119932032.89548      1811.996    22822298.674    93453507.08347
      1411.944  
  22568063.771   118596011.70048     -2121.176    22568062.486    92412480.54747
     -1652.862  
  23996640.711   126103199.46946     -1999.354    23996643.651    98262248.70049
     -1557.938  
  23908745.448   125641334.18147      3119.484    23908747.829    97902324.40949
      2430.766  
  20267181.563   106504799.43249      -768.008    20267182.699    82990769.51649
      -598.452  
  23712023.807   124607533.10848     -3787.637    23712027.011    97096793.64249
     -2951.410  
  20656315.478   108549703.45449      1700.022    20656314.159    84584191.07549
      1324.694  
  19675758.544   104993636.50209      2109.961    19675763.288    81661753.45408
      1641.081  
  20367753.932   108877345.83908     -2826.108    20367760.560    84682413.24606
     -2198.089  
  19411915.533   103731425.14009     -1013.184    19411919.601    80680036.00908
      -788.034  
  20265053.078   108252303.89008      2883.788    20265058.357    84196272.30708
      2242.944  
  23136520.011   123330692.54606     -4147.249           0.000           0.0000 
         0.000  
 20 10 03 11 10 45.0000000  0 13G22G12G 1G 3G32G10G31R 2R 1R19R11R12
                                R10
  22820579.112   119922979.33648      1809.836    22820575.815    93446452.35946
      1410.262  
  22570083.507   118606625.64048     -2123.957    22570082.305    92420751.15047
     -1655.034  
  23998544.041   126113201.47346     -2001.429    23998546.988    98270042.45549
     -1559.559  
  23905778.291   125625741.51247      3118.097    23905780.627    97890174.27549
      2429.684  
  20267913.566   106508646.06749      -770.136    20267914.681    82993766.89149
      -600.109  
  23715628.388   124626475.09048     -3788.461    23715631.551    97111553.62649
     -2952.051  
  20654699.156   108541209.65549      1697.894    20654697.836    84577572.53349
      1323.034  
  19673782.996   104983094.66309      2107.230    19673787.751    81653554.24408
      1638.952  
  20370398.894   108891484.48908     -2828.762    20370405.486    84693409.96806
     -2200.152  
  23309977.915   124692663.06614       228.327    23309981.368    96983196.90515
       177.589  
  19412865.395   103736500.88309     -1016.766    19412869.450    80683983.81208
      -790.819  
  20262355.402   108237893.51308      2880.870    20262360.706    84185064.24408
      2240.675  
  23140410.641   123351431.51205     -4147.555           0.000           0.0000 
         0.000  
 20 10 03 11 10 50.0000000  0 13G22G12G 1G 3G32G10G31R 2R 1R19R11R12
                                R10
  22818858.498   119913937.47948      1806.980    22818855.161    93439406.75647
      1408.031  
  22572105.880   118617253.37648     -2127.410    22572104.748    92429032.49947
     -1657.727  
  24000449.582   126123215.00047     -2004.206    24000452.505    98277845.19949
     -1561.718  
  23902812.507   125610156.27247      3116.026    23902814.842    97878029.94349
      2428.070  
  20268647.515   106512503.00049      -772.604    20268648.631    82996772.29349
      -602.034  
  23719233.644   124645420.43248     -3789.801    23719236.708    97126316.23849
     -2953.089  
  20653084.961   108532726.97549      1695.219    20653083.621    84570962.65649
      1320.949  
  19671809.946   104972566.15109      2104.167    19671814.721    81645365.40308
      1636.573  
  20373046.254   108905636.02208     -2831.788    20373052.822    84704416.71406
     -2202.508  
  23309766.467   124691533.42604       223.039    23309770.308    96982318.30405
       173.477  
  19413818.546   103741594.29509     -1020.776    19413822.613    80687945.35408
      -793.937  
  20259660.331   108223496.96108      2877.741    20259665.658    84173866.93208
      2238.241  
  23144301.633   123372172.90906     -4148.890           0.000           0.0000 
         0.000  
 20 10 03 11 10 55.0000000  0 13G22G12G 1G 3G32G10G31R 2R 1R19R11R12
                                R10
  22817140.387   119904908.74348      1804.363    22817137.051    93432371.37947
      1405.996  
  22574131.185   118627896.33148     -2130.012    22574130.057    92437325.70746
     -1659.750  
  24002357.537   126133241.31246     -2006.527    24002360.440    98285657.93649
     -1563.523  
  23899848.404   125594579.87147      3114.328    23899850.755    97865892.50349
      2426.750  
  20269383.698   106516371.63649      -774.695    20269384.807    82999786.81249
      -603.663  
  23722839.810   124664370.52148     -3790.234    23722842.708    97141082.54649
     -2953.429  
  20651473.141   108524256.83649      1692.895    20651471.809    84564362.55649
      1319.137  
  19669839.652   104962052.43909      2101.492    19669844.448    81637188.07308
      1634.492  
  20375696.268   108919801.89408     -2834.335    20375702.855    84715434.60906
     -2204.487  
  23309559.432   124690425.93104       219.433    23309563.299    96981456.93305
       170.671  
  19414775.307   103746706.87309     -1024.405    19414779.354    80691921.80308
      -796.765  
  20256968.153   108209115.85908      2874.796    20256973.472    84162681.63908
      2235.952  
  23148193.381   123392918.17706     -4149.554           0.000           0.0000 
         0.000  
 20 10 03 11 11  0.0000000  0 13G22G12G 1G 3G32G10G31R 2R 1R19R11R12
                                R10
  22815424.771   119895893.15148      1802.066    22815421.427    93425346.25046
      1404.206  
  22576159.362   118638554.47348     -2132.852    22576158.250    92445630.75646
     -1661.964  
  24004267.912   126143280.55447     -2008.792    24004270.797    98293480.65048
     -1565.301  
  23896886.007   125579012.33647      3112.957    23896888.344    97853761.95949
      2425.679  
  20270122.113   106520252.03249      -777.202    20270123.230    83002810.49749
      -605.617  
  23726446.871   124683325.41548     -3791.453    23726449.600    97155852.60549
     -2954.378  
  20649863.719   108515799.26549      1690.391    20649862.381    84557772.25049
      1317.188  
  19667872.172   104951553.59009      2098.375    19667876.962    81629022.30308
      1632.065  
  20378348.952   108933981.98208     -2837.406    20378355.533    84726463.56206
     -2206.874  
  23309356.588   124689340.79104       214.269    23309360.508    96980612.91905
       166.648  
  19415735.666   103751838.61709     -1028.104    19415739.692    80695913.16408
      -799.637  
  20254278.857   108194750.21508      2871.608    20254284.171    84151508.36308
      2233.468  
  23152085.878   123413667.40606     -4149.995           0.000           0.0000 
         0.000  
 20 10 03 11 11  5.0000000  0 13G22G12G 1G 3G32G10G31R 2R 1R19R11R12
                                R10
  22813711.575   119886890.27848      1799.043    22813708.282    93418331.01847
      1401.848  
  22578190.364   118649227.36748     -2136.293    22578189.227    92453947.29746
     -1664.647  
  24006180.657   126153332.12947     -2011.332    24006183.568    98301313.09949
     -1567.269  
  23893925.188   125563453.22447      3110.870    23893927.537    97841637.97849
      2424.055  
  20270862.672   106524143.69549      -779.612    20270863.788    83005842.96049
      -607.495  
  23730054.741   124702284.55448     -3792.465    23730057.277    97170625.97049
     -2955.167  
  20648256.597   108507353.78049      1687.733    20648255.261    84551191.36049
      1315.116  
  19665907.374   104941069.17909      2095.277    19665912.181    81620867.76508
      1629.660  
  20381004.266   108948175.93608     -2840.312    20381010.804    84737503.29806
     -2209.136  
  23309157.821   124688277.58303       209.921    23309161.850    96979785.98005
       163.273  
  19416699.501   103756989.05809     -1032.183    19416703.526    80699919.06108
      -802.813  
  20251592.401   108180399.59008      2868.543    20251597.683    84140346.76908
      2231.089  
  23155979.020   123434420.04706     -4151.613           0.000           0.0000 
         0.000  
 20 10 03 11 11 10.0000000  0 13G22G12G 1G 3G32G10G31R 2R 1R19R11R12
                                R10
  22812001.036   119877901.36648      1796.355    22811997.734    93411326.67546
      1399.757  
  22580224.413   118659916.30448     -2139.430    22580223.257    92462276.34347
     -1667.093  
  24008096.048   126163397.45247     -2014.297    24008098.943    98309156.17548
     -1569.586  
  23890966.219   125547903.88847      3109.190    23890968.588    97829521.61149
      2422.741  
  20271605.618   106528047.93549      -781.999    20271606.740    83008885.22449
      -609.354  
  23733663.657   124721249.31848     -3793.452    23733666.033    97185403.72249
     -2955.937  
  20646652.023   108498921.71849      1684.973    20646650.701    84544620.92549
      1312.965  
  19663945.517   104930600.33509      2092.366    19663950.324    81612725.32908
      1627.394  
  20383662.389   108962385.16108     -2843.339    20383668.924    84748554.91006
     -2211.491  
  23308963.437   124687237.60504       206.215    23308967.487    96978977.12805
       160.391  
  19417667.061   103762159.46509     -1036.097    19417671.098    80703940.49208
      -805.858  
  20248908.974   108166065.23108      2865.233    20248914.247    84129197.83008
      2228.515  
  23159873.027   123455177.29506     -4151.976           0.000           0.0000 
         0.000  
 20 10 03 11 11 15.0000000  0 13G22G12G 1G 3G32G10G31R 2R 1R19R11R12
                                R10
  22810292.843   119868924.81248      1794.151    22810289.552    93404331.95446
      1398.034  
  22582261.183   118670619.60448     -2141.976    22582259.989    92470616.57446
     -1669.078  
  24010013.661   126173474.79746     -2016.737    24010016.584    98317008.65949
     -1571.492  
  23888008.792   125532362.66147      3107.284    23888011.169    97817411.56549
      2421.258  
  20272350.660   106531963.09249      -784.042    20272351.777    83011935.99649
      -610.944  
  23737273.266   124740217.97048     -3794.108    23737275.557    97200184.49849
     -2956.449  
  20645049.681   108490501.38849      1682.887    20645048.358    84538059.63149
      1311.340  
  19661986.295   104920145.51909      2089.527    19661991.104    81604593.80708
      1625.184  
  20386323.005   108976607.58408     -2845.999    20386329.530    84759616.79306
     -2213.558  
  23308773.105   124686219.20404       201.383    23308777.114    96978185.00405
       156.625  
  19418638.068   103767348.23609     -1039.621    19418642.098    80707976.20208
      -808.594  
  20246228.294   108151745.52008      2862.551    20246233.583    84118060.28108
      2226.429  
  23163767.688   123475937.55905     -4152.883           0.000           0.0000 
         0.000  
 20 10 03 11 11 20.0000000  0 12G22G12G 1G 3G32G10G31R 2R 1R11R12R10
  22808587.296   119859962.13348      1790.909    22808584.021    93397348.05946
      1395.515  
  22584300.913   118681338.76848     -2145.805    22584299.817    92478969.17346
     -1672.054  
  24011933.872   126183565.60547     -2019.945    24011936.797    98324871.61148
     -1573.987  
  23885053.217   125516831.04547      3104.882    23885055.595    97805309.01649
      2419.391  
  20273098.056   106535890.68549      -787.043    20273099.173    83014996.45849
      -613.284  
  23740883.889   124759192.05047     -3795.444    23740886.174    97214969.49349
     -2957.487  
  20643449.863   108482094.35049      1679.676    20643448.553    84531508.69549
      1308.839  
  19660029.981   104909706.28309      2086.124    19660034.796    81596474.40408
      1622.543  
  20388986.410   108990845.10308     -2849.312    20388992.942    84770690.40906
     -2216.137  
  19419612.793   103772556.77509     -1043.949    19419616.798    80712027.28908
      -811.960  
  20243550.632   108137441.99308      2858.815    20243555.942    84106935.32308
      2223.522  
  23167662.963   123496702.31805     -4153.945           0.000           0.0000 
         0.000  
 20 10 03 11 11 25.0000000  0 12G22G12G 1G 3G32G10G31R 2R 1R11R12R10
  22806884.460   119851013.66948      1788.272    22806881.168    93390375.22446
      1393.457  
  22586343.754   118692074.09648     -2148.746    22586342.642    92487334.35746
     -1674.351  
  24013856.732   126193670.30246     -2022.586    24013859.671    98332745.42649
     -1576.043  
  23882099.509   125501309.42247      3103.211    23882101.909    97793214.26049
      2418.086  
  20273847.888   106539831.04949      -789.238    20273848.999    83018066.86949
      -614.995  
  23744495.582   124778171.90647     -3796.530    23744497.928    97229758.99049
     -2958.339  
  20641852.634   108473700.88749      1677.609    20641851.316    84524968.34049
      1307.226  
  19658076.661   104899283.05509      2083.148    19658081.480    81588367.45108
      1620.227  
  20391652.734   109005097.88508     -2851.781    20391659.205    84781775.90506
     -2218.055  
  19420591.269   103777785.48509     -1047.590    19420595.280    80716094.06408
      -814.828  
  20240876.080   108123154.98908      2855.866    20240881.394    84095823.21608
      2221.230  
  23171559.210   123517471.91105     -4154.147           0.000           0.0000 
         0.000  
 20 10 03 11 11 30.0000000  0 12G22G12G 1G 3G32G10G31R 2R 1R11R12R10
  22805183.964   119842077.56548      1786.144    22805180.670    93383412.03047
      1391.797  
  22588389.319   118702823.70348     -2151.105    22588388.225    92495710.68046
     -1676.190  
  24015781.894   126203786.84546     -2024.598    24015784.767    98340628.43549
     -1577.608  
  23879147.395   125485795.83047      3101.855    23879149.751    97781125.76149
      2417.034  
  20274599.785   106543782.29349      -791.145    20274600.895    83021145.75949
      -616.480  
  23748107.987   124797155.56547     -3796.835    23748110.433    97244551.44049
     -2958.578  
  20640257.641   108465319.13949      1675.469    20640256.322    84518437.10749
      1305.559  
  19656125.948   104888873.64809      2080.590    19656130.747    81580271.24708
      1618.238  
  20394321.580   109019364.04908     -2854.496    20394327.992    84792871.80506
     -2220.168  
  19421573.147   103783032.46609     -1050.984    19421577.181    80720175.05108
      -817.433  
  20238204.266   108108882.63508      2853.198    20238209.558    84084722.49908
      2219.155  
  23175456.032   123538244.47805     -4154.523           0.000           0.0000 
         0.000  
 20 10 03 11 11 35.0000000  0 12G22G12G 1G 3G32G10G31R 2R 1R11R12R10
  22803485.721   119833153.11648      1783.339    22803482.373    93376457.91447
      1389.616  
  22590437.473   118713586.89248     -2154.362    22590436.422    92504097.57847
     -1678.730  
  24017709.146   126213914.65347     -2026.979    24017712.060    98348520.22149
     -1579.464  
  23876196.653   125470289.64047      3100.315    23876199.020    97769043.01049
      2415.832  
  20275353.623   106547743.70849      -793.625    20275354.735    83024232.57649
      -618.413  
  23751720.987   124816142.35347     -3798.121    23751723.572    97259346.32649
     -2959.578  
  20638664.729   108456948.39549      1672.612    20638663.409    84511914.45449
      1303.335  
  19654177.824   104878477.95709      2077.444    19654182.592    81572185.71108
      1615.788  
  20396992.719   109033642.75808     -2857.245    20396999.142    84803977.46506
     -2222.305  
  19422558.304   103788296.85009     -1055.063    19422562.330    80724269.56908
      -820.609  
  20235535.035   108094624.11308      2850.112    20235540.318    84073632.53908
      2216.754  
  23179353.277   123559019.24006     -4155.526           0.000           0.0000 
         0.000  
 20 10 03 11 11 40.0000000  0 12G22G12G 1G 3G32G10G31R 2R 1R11R12R10
  22801790.201   119824243.06548      1781.277    22801786.832    93369515.02146
      1388.003  
  22592488.761   118724366.32248     -2156.854    22592487.702    92512497.13446
     -1680.671  
  24019639.036   126224056.38847     -2028.991    24019641.971    98356422.85449
     -1581.034  
  23873247.868   125454793.60847      3098.555    23873250.232    97756968.18349
      2414.457  
  20276109.904   106551717.98949      -795.543    20276111.014    83027329.41049
      -619.905  
  23755335.114   124835134.93347     -3798.648    23755337.820    97274145.72749
     -2959.988  
  20637074.436   108448591.37749      1670.526    20637073.122    84505402.49549
      1301.711  
  19652232.667   104868098.13109      2074.948    19652237.410    81564112.51308
      1613.844  
  20399666.783   109047937.00308     -2859.840    20399673.174    84815095.20506
     -2224.323  
  19423547.255   103793581.53509     -1058.390    19423551.295    80728379.88208
      -823.190  
  20232868.952   108080382.31508      2847.394    20232874.217    84062555.59008
      2214.641  
  23183251.533   123579798.98106     -4156.370           0.000           0.0000 
         0.000  
 20 10 03 11 11 45.0000000  0 13G22G12G 1G 3G32G10G31R 2R 1R19R11R12
                                R10
  22800096.828   119815344.39548      1778.387    22800093.465    93362580.99746
      1385.753  
  22594542.570   118735159.03848     -2160.034    22594541.474    92520907.04947
     -1683.144  
  24021571.015   126234208.97647     -2031.961    24021573.954    98364333.97049
     -1583.348  
  23870300.454   125439304.71847      3097.160    23870302.792    97744898.91249
      2413.366  
  20276868.062   106555702.16949      -798.027    20276869.185    83030433.96349
      -621.844  
  23758949.805   124854130.33047     -3799.374    23758952.613    97288947.32449
     -2960.554  
  20635486.178   108440245.09249      1668.093    20635484.879    84498898.90549
      1299.813  
  19650289.993   104857731.62009      2071.808    19650294.716    81556049.67508
      1611.406  
  20402343.115   109062243.53508     -2862.640    20402349.505    84826222.49906
     -2226.504  
  23307719.301   124680580.66114       175.379    23307722.659    96973798.91215
       136.401  
  19424539.447   103798883.44709     -1062.116    19424543.462    80732503.59408
      -826.089  
  20230205.389   108066154.13408      2844.223    20230210.673    84051489.23308
      2212.172  
  23187150.150   123600580.45706     -4156.785           0.000           0.0000 
         0.000  
 20 10 03 11 11 50.0000000  0 12G22G12G 1G 3G32G10G31R 2R 1R11R12R10
  22798405.964   119806458.93748      1775.397    22798402.603    93355657.26147
      1383.422  
  22596599.230   118745966.89248     -2163.616    22596598.147    92529328.75047
     -1685.937  
  24023505.437   126244374.39947     -2034.645    24023508.351    98372255.06549
     -1585.440  
  23867354.717   125423824.89147      3094.331    23867357.081    97732836.71849
      2411.163  
  20277628.462   106559698.12849      -800.874    20277629.590    83033547.69549
      -624.062  
  23762565.390   124873130.41948     -3800.886    23762568.314    97303752.57549
     -2961.733  
  20633900.321   108431911.44649      1664.933    20633899.039    84492405.15749
      1297.352  
  19648350.101   104847379.89209      2068.515    19648354.799    81547998.33008
      1608.840  
  20405022.129   109076564.36808     -2866.102    20405028.520    84837360.92306
     -2229.194  
  19425535.195   103804204.42309     -1066.543    19425539.210    80736642.13208
      -829.538  
  20227544.748   108051941.56308      2840.554    20227550.075    84040435.01908
      2209.319  
  23191049.429   123621365.68406     -4157.694           0.000           0.0000 
         0.000  
 20 10 03 11 11 55.0000000  0 12G22G12G 1G 3G32G10G31R 2R 1R11R12R10
  22796717.799   119797587.72648      1773.136    22796714.475    93348744.62846
      1381.660  
  22598658.958   118756790.83748     -2165.944    22598657.906    92537762.99447
     -1687.754  
  24025442.424   126254553.55446     -2037.203    24025445.379    98380186.89949
     -1587.429  
  23864410.893   125408355.05547      3093.137    23864413.268    97720782.32649
      2410.237  
  20278391.299   106563706.83649      -802.730    20278392.429    83036671.36349
      -625.508  
  23766182.095   124892136.14348     -3801.398    23766185.050    97318562.22349
     -2962.132  
  20632317.060   108423591.38749      1662.996    20632315.787    84485922.00349
      1295.840  
  19646413.189   104837044.18909      2065.741    19646417.886    81539959.45408
      1606.687  
  20407703.933   109090900.30308     -2868.491    20407710.360    84848511.09206
     -2231.055  
  19426534.713   103809545.57109     -1069.839    19426538.733    80740796.35708
      -832.102  
  20224887.233   108037745.56008      2837.726    20224892.555    84029393.69108
      2207.121  
  23194949.675   123642155.87605     -4158.171           0.000           0.0000 
         0.000  
 20 10 03 11 12  0.0000000  0 12G22G12G 1G 3G32G10G31R 2R 1R11R12R10
  22795031.993   119788728.78548      1770.684    22795028.683    93341841.55846
      1379.753  
  22600721.362   118767628.87148     -2168.870    22600720.293    92546208.21847
     -1690.031  
  24027381.715   126264744.43947     -2039.413    24027384.627    98388127.79648
     -1589.160  
  23861468.628   125392893.25347      3091.746    23861470.962    97708734.17049
      2409.151  
  20279156.176   106567726.32049      -805.097    20279157.312    83039803.42949
      -627.351  
  23769799.508   124911145.49348     -3802.171    23769802.477    97333374.70049
     -2962.733  
  20630736.024   108415282.98949      1660.453    20630734.738    84479447.93449
      1293.858  
  19644478.907   104826722.55409      2062.789    19644483.624    81531931.51608
      1604.386  
  20410388.254   109105249.59808     -2871.339    20410394.684    84859671.65306
     -2233.270  
  19427537.597   103814904.74309     -1073.628    19427541.621    80744964.60308
      -835.042  
  20222232.442   108023564.11308      2834.843    20222237.773    84018363.67508
      2204.878  
  23198850.330   123662948.84806     -4158.867           0.000           0.0000 
         0.000  
 20 10 03 11 12  5.0000000  0 12G22G12G 1G 3G32G10G31R 2R 1R11R12R10
  22793348.579   119779882.32448      1768.120    22793345.250    93334948.21546
      1377.757  
  22602786.490   118778481.19348     -2171.852    22602785.474    92554664.57047
     -1692.355  
  24029323.234   126274947.25447     -2041.824    24029326.166    98396078.07549
     -1591.034  
  23858527.926   125377439.78947      3089.921    23858530.274    97696692.51049
      2407.729  
  20279923.141   106571756.75149      -807.101    20279924.285    83042944.02449
      -628.913  
  23773417.660   124930158.70147     -3802.879    23773420.599    97348190.18249
     -2963.284  
  20629157.231   108406986.40649      1658.156    20629155.943    84472983.06749
      1292.070  
  19642547.306   104816415.06609      2060.120    19642552.005    81523914.58208
      1602.315  
  20413075.080   109119612.22608     -2873.949    20413081.510    84870842.58006
     -2235.297  
  19428543.864   103820282.02509     -1077.219    19428547.914    80749146.93608
      -837.835  
  20219580.396   108009397.45408      2831.940    20219585.724    84007345.17008
      2202.620  
  23202751.587   123683744.52105     -4159.324           0.000           0.0000 
         0.000  
 20 10 03 11 12 10.0000000  0 12G22G12G 1G 3G32G10G31R 2R 1R11R12R10
  22791668.050   119771051.11448      1764.840    22791664.704    93328066.75347
      1375.194  
  22604854.878   118789350.58648     -2175.503    22604853.858    92563134.22247
     -1695.203  
  24031267.600   126285164.81346     -2044.636    24031270.501    98404039.80049
     -1593.230  
  23855589.328   125361997.32447      3087.487    23855591.673    97684659.43049
      2405.836  
  20280692.719   106575800.93849      -810.034    20280693.874    83046095.33349
      -631.198  
  23777037.049   124949178.53147     -3804.530    23777039.969    97363010.83349
     -2964.569  
  20627581.203   108398704.41749      1655.058    20627579.919    84466529.57249
      1289.656  
  19640618.889   104806124.59909      2056.633    19640623.568    81515910.88308
      1599.597  
  20415764.925   109133991.08008     -2877.230    20415771.385    84882026.12706
     -2237.852  
  19429554.093   103825680.44609     -1081.691    19429558.170    80753345.70608
      -841.313  
  20216931.639   107995248.39508      2828.312    20216936.985    83996340.35508
      2199.796  
  23206653.791   123704545.93205     -4160.508           0.000           0.0000 
         0.000  
 20 10 03 11 12 15.0000000  0 12G22G12G 1G 3G32G10G31R 2R 1R11R12R10
  22789989.859   119762232.16248      1762.733    22789986.498    93321194.84347
      1373.559  
  22606925.949   118800234.01248     -2177.839    22606924.897    92571614.81346
     -1697.022  
  24033214.157   126295393.94247     -2046.719    24033217.055    98412010.55349
     -1594.848  
  23852652.272   125346562.95647      3086.301    23852654.625    97672632.65049
      2404.910  
  20281464.348   106579855.87949      -812.022    20281465.511    83049255.02649
      -632.750  
  23780657.108   124968201.94247     -3804.897    23780659.980    97377834.27049
     -2964.854  
  20626007.390   108390434.00249      1653.012    20626006.097    84460085.09749
      1288.062  
  19638693.104   104795848.20909      2054.063    19638697.785    81507918.13808
      1597.604  
  20418457.264   109148383.17608     -2879.523    20418463.731    84893219.97606
     -2239.632  
  19430567.720   103831096.89409     -1085.023    19430571.792    80757558.50108
      -843.905  
  20214285.652   107981113.94108      2825.484    20214290.964    83985346.89508
      2197.598  
  23210556.552   123725350.03506     -4160.866           0.000           0.0000 
         0.000  
 20 10 03 11 12 20.0000000  0 12G22G12G 1G 3G32G10G31R 2R 1R11R12R10
  22788313.754   119753424.20148      1760.152    22788310.415    93314331.50146
      1371.542  
  22608999.438   118811130.17648     -2180.750    22608998.340    92580105.34047
     -1699.284  
  24035162.698   126305633.56246     -2049.319    24035165.577    98419989.48549
     -1596.870  
  23849716.497   125331135.35747      3084.559    23849718.862    97660611.15749
      2403.551  
  20282237.763   106583920.23549      -814.156    20282238.940    83052422.05749
      -634.410  
  23784277.597   124987227.61847     -3805.601    23784280.355    97392659.47448
     -2965.401  
  20624435.543   108382173.89149      1650.741    20624434.251    84453648.65249
      1286.293  
  19636769.720   104785584.54309      2051.147    19636774.380    81499935.29308
      1595.335  
  20421151.830   109162787.08008     -2882.128    20421158.285    84904423.00506
     -2241.659  
  19431584.430   103836529.95109     -1088.671    19431588.514    80761784.20908
      -846.750  
  20211642.151   107966992.70908      2822.651    20211647.434    83974363.71908
      2195.394  
  23214459.578   123746155.45205     -4161.637           0.000           0.0000 
         0.000  
 20 10 03 11 12 25.0000000  0 12G22G12G 1G 3G32G10G31R 2R 1R11R12R10
  22786640.496   119744631.10948      1756.941    22786637.123    93307479.74347
      1369.043  
  22611076.079   118822042.93448     -2184.315    22611074.917    92588608.79547
     -1702.065  
  24037113.919   126315887.33247     -2052.108    24037116.775    98427979.40849
     -1599.051  
  23846782.743   125315718.40747      3082.077    23846785.076    97648597.95149
      2401.621  
  20283013.720   106587997.91549      -817.156    20283014.905    83055599.47349
      -636.750  
  23787899.201   125006259.39947     -3806.965    23787901.869    97407489.43848
     -2966.465  
  20622866.377   108373927.93249      1647.691    20622865.098    84447223.23249
      1283.913  
  19634849.382   104775337.21909      2047.593    19634854.037    81491965.15508
      1592.569  
  20423849.334   109177206.72508     -2885.613    20423855.792    84915638.28006
     -2244.370  
  19432604.992   103841983.61909     -1093.019    19432609.102    80766025.95408
      -850.125  
  20209001.847   107952888.77208      2818.902    20209007.148    83963393.99308
      2192.479  
  23218363.668   123766966.10606     -4163.066           0.000           0.0000 
         0.000  
 20 10 03 11 12 30.0000000  0 12G22G12G 1G 3G32G10G31R 2R 1R11R12R10
  22784970.025   119735852.60148      1754.815    22784966.628    93300639.34447
      1367.387  
  22613155.798   118832971.99148     -2186.969    22613154.631    92597124.93947
     -1704.137  
  24039067.798   126326155.06746     -2054.656    24039070.649    98435980.26249
     -1601.031  
  23843850.946   125300311.83347      3080.727    23843853.288    97636592.83349
      2400.566  
  20283792.157   106592088.62949      -819.015    20283793.341    83058787.03749
      -638.198  
  23791521.911   125025297.08847     -3808.020    23791524.461    97422324.00248
     -2967.288  
  20621299.863   108365695.87749      1645.496    20621298.590    84440808.64349
      1282.203  
  19632932.173   104765106.62109      2045.062    19632936.827    81484008.02208
      1590.601  
  20426549.733   109191641.87508     -2888.085    20426556.183    84926865.61006
     -2246.293  
  19433629.369   103847457.64109     -1096.269    19433633.498    80770283.52608
      -852.655  
  20206364.732   107938801.71708      2816.218    20206370.015    83952437.40008
      2190.390  
  23222268.627   123787781.67206     -4163.327           0.000           0.0000 
         0.000  
 20 10 03 11 12 35.0000000  0 12G22G12G 1G 3G32G10G31R 2R 1R11R12R10
  22783301.784   119727086.06248      1751.938    22783298.419    93293808.27846
      1365.144  
  22615238.136   118843914.72548     -2190.145    22615236.978    92605651.74047
     -1706.609  
  24041023.840   126336434.07147     -2057.097    24041026.699    98443989.83148
     -1602.937  
  23840920.648   125284913.04647      3079.031    23840922.996    97624593.77649
      2399.246  
  20284572.568   106596189.71749      -821.378    20284573.759    83061982.68849
      -640.039  
  23795145.181   125044337.96747     -3808.948    23795147.674    97437161.04748
     -2968.012  
  20619735.497   108357475.07549      1642.941    20619734.222    84434402.81949
      1280.211  
  19631017.518   104754889.68809      2041.987    19631022.178    81476061.51908
      1588.211  
  20429252.468   109206089.66808     -2891.000    20429258.942    84938102.78406
     -2248.559  
  19434657.052   103852949.26709     -1100.238    19434661.188    80774554.79008
      -855.746  
  20203730.291   107924728.94308      2812.964    20203735.579    83941491.91608
      2187.862  
  23226174.019   123808599.54806     -4163.879           0.000           0.0000 
         0.000  
 20 10 03 11 12 40.0000000  0 12G22G12G 1G 3G32G10G31R 2R 1R11R12R10
  22781636.022   119718332.51848      1749.379    22781632.667    93286987.33246
      1363.148  
  22617323.261   118854872.09948     -2192.879    22617322.076    92614189.96046
     -1708.742  
  24042982.217   126346725.38345     -2059.727    24042985.111    98452009.11049
     -1604.976  
  23837992.005   125269523.08047      3077.136    23837994.378    97612601.60449
      2397.770  
  20285355.157   106600302.25049      -823.566    20285356.356    83065187.26149
      -641.742  
  23798769.230   125063383.00847     -3809.296    23798771.712    97452001.34448
     -2968.285  
  20618173.464   108349266.56849      1640.550    20618172.189    84428006.58449
      1278.351  
  19629105.645   104744687.50509      2039.038    19629110.286    81468126.49008
      1585.918  
  20431957.828   109220551.33308     -2893.734    20431964.287    84949350.74306
     -2250.687  
  19435688.203   103858459.51609     -1103.863    19435692.356    80778840.54008
      -858.563  
  20201098.656   107910671.43808      2810.027    20201103.978    83930558.30508
      2185.577  
  23230079.988   123829420.52506     -4164.472           0.000           0.0000 
         0.000  
 20 10 03 11 12 45.0000000  0 12G22G12G 1G 3G32G10G31R 2R 1R11R12R10
  22779972.724   119709591.82548      1746.897    22779969.392    93280176.40547
      1361.215  
  22619411.127   118865844.02948     -2196.035    22619409.971    92622739.51047
     -1711.199  
  24044942.947   126357028.86947     -2062.354    24044945.776    98460037.70648
     -1607.039  
  23835065.024   125254141.81347      3075.395    23835067.410    97600616.19449
      2396.405  
  20286139.903   106604426.08549      -825.871    20286141.104    83068400.64049
      -643.539  
  23802394.015   125082432.16347     -3809.753    23802396.567    97466844.83448
     -2968.645  
  20616613.737   108341070.24149      1637.992    20616612.480    84421619.83649
      1276.358  
  19627196.509   104734499.98809      2036.089    19627201.144    81460202.87008
      1583.625  
  20434665.771   109235026.65208     -2896.452    20434672.194    84960609.32006
     -2252.801  
  19436722.834   103863988.26909     -1107.488    19436726.980    80783140.68108
      -861.382  
  20198469.887   107896629.15308      2807.078    20198475.220    83919636.53708
      2183.281  
  23233986.528   123850244.67905     -4165.249           0.000           0.0000 
         0.000  
 20 10 03 11 12 50.0000000  0 12G22G12G 1G 3G32G10G31R 2R 1R11R12R10
  22778312.191   119700865.63648      1743.906    22778308.845    93273376.77746
      1358.886  
  22621502.051   118876832.07048     -2199.191    22621500.947    92631301.61346
     -1713.660  
  24046906.220   126367346.06346     -2064.883    24046909.117    98468077.13149
     -1609.000  
  23832140.025   125238770.87546      3073.078    23832142.399    97588638.85649
      2394.601  
  20286927.095   106608562.81049      -828.468    20286928.304    83071624.06049
      -645.562  
  23806019.973   125101486.97847     -3811.413    23806022.539    97481692.73748
     -2969.937  
  20615056.645   108332887.66949      1635.313    20615055.374    84415243.80949
      1274.270  
  19625290.407   104724328.75709      2032.675    19625295.067    81452291.91408
      1580.969  
  20437376.538   109249517.25508     -2899.448    20437382.983    84971879.78606
     -2255.133  
  19437761.212   103869537.07809     -1111.546    19437765.364    80787456.42308
      -864.538  
  20195844.296   107882603.74608      2803.519    20195849.620    83908727.88808
      2180.515  
  23237893.920   123871073.65005     -4166.183           0.000           0.0000 
         0.000  
 20 10 03 11 12 55.0000000  0 13G22G12G 1G 3G32G10G31R 2R 1R19R11R12
                                R10
  22776654.017   119692151.80748      1741.582    22776650.674    93266586.78147
      1357.073  
  22623595.608   118887834.09648     -2201.796    22623594.617    92639874.62646
     -1715.687  
  24048871.746   126377674.97247     -2067.128    24048874.635    98476125.59849
     -1610.753  
  23829216.628   125223408.16247      3071.679    23829218.950    97576667.91349
      2393.515  
  20287716.339   106612710.34449      -830.550    20287717.553    83074855.90349
      -647.188  
  23809646.649   125120545.32247     -3811.953    23809649.242    97496543.38949
     -2970.354  
  20613501.768   108324716.76649      1633.046    20613500.504    84408876.87949
      1272.504  
  19623386.997   104714171.70609      2030.020    19623391.640    81444391.98608
      1578.897  
  20440089.739   109264020.99708     -2901.965    20440096.191    84983160.47006
     -2257.085  
  23305838.787   124670521.26814       112.874    23305842.438    96965976.96615
        87.792  
  19438802.969   103875103.91109     -1115.214    19438807.129    80791786.18308
      -867.395  
  20193221.417   107868592.98508      2800.621    20193226.769    83897830.63508
      2178.261  
  23241801.771   123891905.19405     -4166.483           0.000           0.0000 
         0.000  
 20 10 03 11 13  0.0000000  0 13G22G12G 1G 3G32G10G31R 2R 1R19R11R12
                                R10
  22774998.141   119683450.24948      1738.633    22774994.801    93259806.35147
      1354.773  
  22625691.872   118898850.00648     -2204.835    22625690.935    92648458.44646
     -1718.058  
  24050839.470   126388015.31047     -2069.671    24050842.343    98484183.03748
     -1612.727  
  23826294.735   125208053.54447      3069.726    23826297.041    97564703.28149
      2391.992  
  20288507.629   106616868.57249      -833.210    20288508.844    83078096.07749
      -649.258  
  23813274.002   125139607.09947     -3812.726    23813276.662    97511396.72149
     -2970.960  
  20611949.092   108316557.43249      1630.339    20611947.835    84402518.95849
      1270.391  
  19621486.204   104704028.61609      2026.909    19621490.838    81436502.91908
      1576.484  
  20442805.399   109278537.72408     -2904.983    20442811.868    84994451.25806
     -2259.438  
  23305735.592   124669968.49504       108.906    23305739.048    96965547.05305
        84.703  
  19439848.069   103880688.61109     -1119.102    19439852.230    80796129.84008
      -870.414  
  20190601.277   107854596.85908      2797.328    20190606.674    83886944.76508
      2175.698  
  23245710.184   123912739.33105     -4167.570           0.000           0.0000 
         0.000  
 20 10 03 11 13  5.0000000  0 13G22G12G 1G 3G32G10G31R 2R 1R19R11R12
                                R10
  22773345.191   119674763.93648      1735.945    22773341.866    93253037.79447
      1352.683  
  22627791.338   118909882.68248     -2207.906    22627790.369    92657055.34146
     -1720.449  
  24052809.940   126398370.19846     -2072.054    24052812.805    98492251.74749
     -1614.598  
  23823374.960   125192710.05147      3067.827    23823377.242    97552747.31549
      2390.515  
  20289301.515   106621040.43649      -835.453    20289302.723    83081346.87949
      -651.008  
  23816902.578   125158675.26647     -3813.882    23816905.326    97526255.02749
     -2971.859  
  20610399.185   108308412.61549      1627.683    20610397.928    84396172.34849
      1268.324  
  19619588.644   104693902.80809      2023.710    19619593.266    81428627.29008
      1573.991  
  20445524.044   109293070.47108     -2907.972    20445530.540    85005754.49906
     -2261.762  
  23305636.802   124669440.16004       103.703    23305640.262    96965136.10805
        80.652  
  19440897.080   103886294.17809     -1123.062    19440901.242    80800489.72408
      -873.496  
  20187984.408   107840618.29408      2794.147    20187989.867    83876072.55508
      2173.226  
  23249619.724   123933578.87706     -4167.983           0.000           0.0000 
         0.000  
 20 10 03 11 13 10.0000000  0 13G22G12G 1G 3G32G10G31R 2R 1R19R11R12
                                R10
  22771694.364   119666088.78248      1733.605    22771691.047    93246277.93646
      1350.863  
  22629893.228   118920928.09548     -2210.675    22629892.242    92665662.16046
     -1722.608  
  24054782.364   126408735.32547     -2074.151    24054785.222    98500328.46749
     -1616.223  
  23820456.487   125177373.52847      3066.452    23820458.793    97540796.78649
      2389.445  
  20290097.216   106625221.84149      -837.409    20290098.417    83084605.11249
      -652.531  
  23820531.600   125177745.65647     -3814.527    23820534.421    97541115.06449
     -2972.362  
  20608851.265   108300278.20849      1625.640    20608850.002    84389833.85249
      1266.734  
  19617693.456   104683789.75309      2021.102    19617698.085    81420761.58508
      1571.969  
  20448244.917   109307615.12908     -2910.332    20448251.419    85017067.01206
     -2263.593  
  23305541.738   124668931.88304        99.211    23305545.261    96964740.75405
        77.155  
  19441949.217   103891916.38209     -1126.519    19441953.362    80804862.55208
      -876.183  
  20185370.099   107826653.18908      2791.410    20185375.572    83865210.81508
      2171.097  
  23253529.324   123954419.55806     -4168.249           0.000           0.0000 
         0.000  
 20 10 03 11 13 15.0000000  0 13G22G12G 1G 3G32G10G31R 2R 1R19R11R12
                                R10
  22770046.058   119657426.78248      1730.999    22770042.708    93239528.32647
      1348.832  
  22631997.902   118931988.19748     -2213.671    22631996.902    92674280.41947
     -1724.941  
  24056757.175   126419112.87146     -2076.648    24056760.000    98508414.88249
     -1618.172  
  23817539.747   125162045.98647      3064.272    23817542.052    97528853.25149
      2387.746  
  20290895.113   106629414.76049      -839.983    20290896.311    83087872.32349
      -654.538  
  23824161.442   125196820.29147     -3815.589    23824164.302    97555978.41249
     -2973.190  
  20607305.700   108292156.17649      1622.921    20607304.425    84383505.00149
      1264.613  
  19615801.128   104673691.86609      2017.785    19615805.738    81412907.67308
      1569.387  
  20450968.429   109322173.64208     -2913.199    20450974.895    85028390.29106
     -2265.824  
  23305450.945   124668445.57904        95.608    23305454.372    96964362.51105
        74.359  
  19443004.824   103897557.25809     -1130.397    19443008.975    80809249.90008
      -879.202  
  20182758.690   107812703.63209      2788.129    20182764.164    83854361.16308
      2168.543  
  23257439.547   123975263.56006     -4169.656           0.000           0.0000 
         0.000  
 20 10 03 11 13 20.0000000  0 13G22G12G 1G 3G32G10G31R 2R 1R19R11R12
                                R10
  22768400.512   119648779.34948      1728.617    22768397.133    93232790.06547
      1346.973  
  22634105.668   118943064.39548     -2216.453    22634104.625    92682911.22647
     -1727.104  
  24058734.580   126429504.01647     -2078.977    24058737.341    98516511.85748
     -1619.980  
  23814625.001   125146728.86546      3063.038    23814627.286    97516917.83249
      2386.780  
  20291695.463   106633620.62449      -841.941    20291696.659    83091149.61649
      -656.062  
  23827792.329   125215900.51747     -3816.250    23827795.276    97570846.11449
     -2973.707  
  20605762.767   108284047.98049      1620.820    20605761.488    84377186.93249
      1262.976  
  19613911.829   104663610.17509      2015.313    19613916.441    81405066.36008
      1567.464  
  20453694.717   109336747.40308     -2915.895    20453701.234    85039725.43806
     -2267.921  
  23305364.474   124667982.98704        90.719    23305367.892    96964002.73105
        70.559  
  19444064.189   103903218.15309     -1133.633    19444068.327    80813652.81908
      -881.719  
  20180150.491   107798770.97709      2785.331    20180155.935    83843524.65808
      2166.370  
  23261350.786   123996112.16706     -4169.773           0.000           0.0000 
         0.000  
 20 10 03 11 13 25.0000000  0 12G22G12G 1G 3G32G10G31R 2R 1R11R12R10
  22766757.308   119640144.18848      1725.366    22766753.926    93226061.37547
      1344.438  
  22636216.031   118954154.39648     -2219.753    22636214.959    92691552.78347
     -1729.680  
  24060714.113   126439906.65646     -2081.839    24060716.917    98524617.79849
     -1622.218  
  23811711.812   125131419.89147      3060.753    23811714.079    97504988.76949
      2385.004  
  20292497.838   106637837.10249      -844.675    20292499.027    83094435.18049
      -658.190  
  23831423.824   125234984.05647     -3817.577    23831426.865    97585716.39549
     -2974.738  
  20604222.027   108275951.33849      1617.909    20604220.749    84370877.86549
      1260.710  
  19612025.195   104653542.76309      2011.714    19612029.820    81397236.15208
      1564.664  
  20456423.475   109351334.08108     -2918.972    20456429.965    85051070.62706
     -2270.315  
  19445126.874   103908896.82009     -1137.824    19445131.012    80818069.56308
      -884.973  
  20177545.021   107784852.89809      2781.905    20177550.427    83832699.48908
      2163.702  
  23265262.428   124016963.17005     -4170.535           0.000           0.0000 
         0.000  
 20 10 03 11 13 30.0000000  0 12G22G12G 1G 3G32G10G31R 2R 1R11R12R10
  22765116.578   119631522.12748      1723.214    22765113.201    93219342.88246
      1342.762  
  22638329.170   118965259.01848     -2222.155    22638328.100    92700205.74147
     -1731.551  
  24062695.973   126450321.40247     -2084.124    24062698.827    98532733.20048
     -1623.987  
  23808800.314   125116119.89647      3059.745    23808802.587    97493066.69549
      2384.215  
  20293302.396   106642065.05449      -846.581    20293303.580    83097729.68849
      -659.680  
  23835056.098   125254071.72247     -3817.483    23835059.224    97600589.89049
     -2974.667  
  20602683.628   108267867.05449      1615.765    20602682.348    84364578.43349
      1259.038  
  19610141.357   104643490.30709      2009.238    19610145.994    81389417.57608
      1562.738  
  20459154.799   109365934.51008     -2921.233    20459161.260    85062426.50906
     -2272.073  
  19446193.048   103914594.13209     -1141.180    19446197.195    80822500.80808
      -887.585  
  20174942.418   107770950.23109      2779.163    20174947.821    83821886.31008
      2161.569  
  23269174.616   124037817.39205     -4171.254           0.000           0.0000 
         0.000  
 20 10 03 11 13 35.0000000  0 12G22G12G 1G 3G32G10G31R 2R 1R11R12R10
  22763478.381   119622913.43448      1720.374    22763475.053    93212634.81446
      1340.547  
  22640445.140   118976378.45248     -2225.437    22640444.027    92708870.23447
     -1734.108  
  24064680.202   126460748.65847     -2086.445    24064683.061    98540858.30749
     -1625.812  
  23805890.555   125100829.04247      3057.066    23805892.820    97481151.75149
      2382.129  
  20294109.165   106646304.65249      -849.074    20294110.348    83101033.27049
      -661.621  
  23838689.185   125273163.68947     -3818.647    23838692.347    97615466.73649
     -2975.573  
  20601147.629   108259795.32549      1613.132    20601146.343    84358288.77849
      1256.983  
  19608260.358   104633452.93509      2005.968    19608264.988    81381610.73208
      1560.199  
  20461888.722   109380548.80508     -2924.206    20461895.196    85073793.18206
     -2274.387  
  19447262.735   103920310.15009     -1145.133    19447266.877    80826946.59908
      -890.664  
  20172342.754   107757063.19808      2775.832    20172348.125    83811085.28808
      2158.980  
  23273087.472   124058674.86605     -4171.886           0.000           0.0000 
         0.000  
 20 10 03 11 13 40.0000000  0 12G22G12G 1G 3G32G10G31R 2R 1R11R12R10
  22761842.954   119614319.21248      1717.589    22761839.619    93205938.01747
      1338.382  
  22642564.131   118987513.82548     -2228.512    22642563.048    92717547.14546
     -1736.507  
  24066666.990   126471189.26746     -2089.387    24066669.867    98548993.88149
     -1628.086  
  23802982.771   125085548.59347      3055.297    23802985.041    97469244.91149
      2380.746  
  20294918.380   106650557.07549      -851.637    20294919.557    83104346.84649
      -663.616  
  23842323.280   125292261.14447     -3819.902    23842326.499    97630347.85549
     -2976.551  
  20599614.225   108251737.29849      1610.367    20599612.952    84352009.79949
      1254.832  
  19606382.402   104623431.92609      2002.742    19606387.048    81373816.61708
      1557.688  
  20464625.464   109395178.35108     -2927.343    20464631.962    85085171.71306
     -2276.828  
  19448336.135   103926046.04509     -1149.102    19448340.272    80831407.85208
      -893.745  
  20169746.214   107743192.97809      2772.422    20169751.600    83800297.34608
      2156.328  
  23277001.147   124079537.02204     -4172.656           0.000           0.0000 
         0.000  
 20 10 03 11 13 45.0000000  0 12G22G12G 1G 3G32G10G31R 2R 1R11R12R10
  22760210.023   119605738.07048      1714.852    22760206.652    93199251.41247
      1336.241  
  22644685.883   118998663.67748     -2231.223    22644684.802    92726235.34247
     -1738.613  
  24068656.118   126481642.17747     -2092.003    24068658.958    98557138.96949
     -1630.140  
  23800076.701   125070277.06447      3053.223    23800078.954    97457345.03449
      2379.133  
  20295729.766   106654820.90349      -853.930    20295730.936    83107669.30749
      -665.401  
  23845958.115   125311362.64647     -3820.679    23845961.389    97645232.12449
     -2977.160  
  20598083.174   108243691.57349      1607.895    20598081.895    84345740.40949
      1252.906  
  19604507.283   104613425.93309      1999.852    19604511.922    81366034.17808
      1555.438  
  20467364.746   109409821.50608     -2930.137    20467371.243    85096560.82806
     -2278.999  
  19449413.008   103931800.55909     -1152.612    19449417.144    80835883.58708
      -896.480  
  20167152.580   107729338.28208      2769.433    20167157.980    83789521.47708
      2154.003  
  23280915.306   124100402.09404     -4173.351           0.000           0.0000 
         0.000  
 20 10 03 11 13 50.0000000  0 12G22G12G 1G 3G32G10G31R 2R 1R11R12R10
  22758579.566   119597169.95948      1712.340    22758576.179    93192574.96247
      1334.285  
  22646810.370   119009827.93048     -2234.227    22646809.335    92734934.76447
     -1740.960  
  24070647.491   126492107.03447     -2094.120    24070650.345    98565293.39749
     -1631.784  
  23797172.290   125055014.40547      3051.844    23797174.558    97445452.04849
      2378.054  
  20296543.305   106659096.05149      -856.055    20296544.470    83111000.59349
      -667.059  
  23849593.653   125330468.06047     -3821.477    23849597.002    97660119.44549
     -2977.776  
  20596554.452   108235658.05249      1605.449    20596553.161    84339480.53149
      1251.000  
  19602634.921   104603434.64809      1996.765    19602639.553    81358263.18108
      1553.038  
  20470106.569   109424478.18608     -2932.749    20470113.085    85107960.46606
     -2281.031  
  19450493.323   103937573.43209     -1156.421    19450497.450    80840373.59908
      -899.437  
  20164561.846   107715498.95408      2766.367    20164567.238    83778757.56108
      2151.617  
  23284830.039   124121270.10905     -4174.269           0.000           0.0000 
         0.000  
 20 10 03 11 13 55.0000000  0 12G22G12G 1G 3G32G10G31R 2R 1R11R12R10
  22756951.716   119588615.52048      1709.660    22756948.278    93185909.16846
      1332.203  
  22648937.671   119021007.15948     -2237.176    22648936.685    92743645.84347
     -1743.258  
  24072641.285   126502584.43246     -2096.558    24072644.142    98573457.63349
     -1633.684  
  23794269.668   125039761.21247      3049.926    23794271.970    97433566.46549
      2376.565  
  20297359.107   106663383.08749      -858.464    20297360.259    83114341.14449
      -668.933  
  23853230.080   125349577.95747     -3822.258    23853233.417    97675010.26849
     -2978.387  
  20595028.152   108227637.32349      1603.000    20595026.875    84333230.61049
      1249.089  
  19600765.442   104593458.78309      1993.714    19600770.072    81350504.17508
      1550.667  
  20472851.062   109439149.10508     -2935.512    20472857.606    85119371.17806
     -2283.176  
  19451577.183   103943365.28709     -1160.195    19451581.332    80844878.37708
      -902.379  
  20161974.078   107701675.53009      2763.214    20161979.450    83768006.01408
      2149.168  
  23288745.388   124142141.77905     -4174.515           0.000           0.0000 
         0.000  
 20 10 03 11 14  0.0000000  0 12G22G12G 1G 3G32G10G31R 2R 1R11R12R10
  22755326.195   119580073.28748      1707.469    22755322.745    93179252.88346
      1330.496  
  22651067.612   119032199.98148     -2239.980    22651066.608    92752367.52147
     -1745.440  
  24074637.235   126513073.09247     -2098.608    24074640.032    98581630.56348
     -1635.288  
  23791368.614   125024516.10147      3048.644    23791370.905    97421687.15449
      2375.565  
  20298176.908   106667680.63149      -860.441    20298178.055    83117689.87949
      -670.477  
  23856867.149   125368690.97647     -3822.848    23856870.397    97689903.52949
     -2978.848  
  20593504.040   108219628.02949      1600.816    20593502.758    84326989.60749
      1247.390  
  19598898.627   104583497.19609      1990.976    19598903.268    81342756.27508
      1548.538  
  20475597.961   109453832.82608     -2938.011    20475604.506    85130791.84406
     -2285.125  
  19452664.313   103949174.60809     -1163.429    19452668.468    80849396.73908
      -904.894  
  20159389.025   107687866.64108      2760.522    20159394.391    83757265.77008
      2147.073  
  23292661.279   124163015.58504     -4174.914           0.000           0.0000 
         0.000  
 20 10 03 11 14  5.0000000  0 14G22G12G 1G 3G32G10G31R 2R 3R 1R19R11
                                R12R10
  22753703.167   119571544.21348      1704.254    22753699.657    93172606.85847
      1327.983  
  22653200.293   119043407.32848     -2243.265    22653199.296    92761100.52447
     -1748.003  
  24076635.475   126523573.82246     -2101.961    24076638.285    98589813.01249
     -1637.887  
  23788469.290   125009280.08347      3045.784    23788471.566    97409814.94049
      2373.339  
  20298996.888   106671989.65249      -863.156    20298998.033    83121047.55449
      -672.593  
  23860505.023   125387808.03647     -3823.999    23860508.131    97704799.94449
     -2979.746  
  20591982.284   108211631.14549      1597.805    20591981.002    84320758.27249
      1245.043  
  19597034.621   104573550.43809      1987.441    19597039.243    81335019.91008
      1545.788  
  23649040.526   126595165.45117      4151.526           0.000           0.0000 
         0.000  
  20478347.359   109468530.15308     -2941.155    20478353.952    85142223.09906
     -2287.569  
  23304771.798   124664814.16214        50.348    23304775.576    96961537.31915
        39.156  
  19453754.901   103955002.50509     -1167.742    19453759.071    80853929.54508
      -908.246  
  20156806.851   107674073.28708      2756.867    20156812.233    83746537.61508
      2144.229  
  23296577.711   124183892.34205     -4175.382           0.000           0.0000 
         0.000  
 20 10 03 11 14 10.0000000  0 13G22G12G 1G 3G32G10G31R 2R 3R 1R11R12
                                R10
  22752082.643   119563028.36648      1701.769    22752079.136    93165971.12746
      1326.050  
  22655335.765   119054629.21748     -2245.945    22655334.727    92769844.85147
     -1750.085  
  24078636.003   126534086.76247     -2103.917    24078638.795    98598004.82848
     -1639.426  
  23785571.694   124994053.17247      3044.667    23785573.973    97397949.81049
      2372.469  
  20299819.065   106676310.19549      -865.379    20299820.205    83124414.20949
      -674.324  
  23864143.712   125406929.16447     -3824.370    23864146.658    97719699.53849
     -2980.031  
  20590462.881   108203646.69049      1595.609    20590461.604    84314536.62349
      1243.331  
  19595173.460   104563619.02209      1984.723    19595178.093    81327295.47708
      1543.671  
  23645161.720   126574405.70906      4151.616           0.000           0.0000 
         0.000  
  20481099.394   109483241.17008     -2943.730    20481105.944    85153664.99706
     -2289.569  
  19454848.969   103960848.93609     -1171.155    19454853.144    80858476.77008
      -910.902  
  20154227.618   107660295.48809      2753.750    20154232.993    83735821.55208
      2141.804  
  23300494.820   124204772.23905     -4176.194           0.000           0.0000 
         0.000  
 20 10 03 11 14 15.0000000  0 13G22G12G 1G 3G32G10G31R 2R 3R 1R11R12
                                R10
  22750464.665   119554525.90048      1699.211    22750461.148    93159345.83046
      1324.059  
  22657474.049   119065865.84848     -2249.085    22657472.994    92778600.66546
     -1752.539  
  24080638.871   126544611.96545     -2106.000    24080641.692    98606206.38749
     -1641.030  
  23782675.926   124978835.62447      3042.734    23782678.180    97386091.99149
      2370.961  
  20300643.455   106680642.42249      -867.559    20300644.607    83127789.96649
      -676.022  
  23867783.234   125426054.57348     -3825.316    23867786.034    97734602.45749
     -2980.766  
  20588945.879   108195674.82249      1593.097    20588944.609    84308324.78049
      1241.375  
  19593315.165   104553702.83609      1981.758    19593319.811    81319582.88508
      1541.367  
  23641283.708   126553647.37507      4151.598    23641291.610    98430606.50616
      3229.016  
  20483854.033   109497966.13608     -2946.145    20483860.582    85165117.74406
     -2291.449  
  19455946.535   103966714.05909     -1174.878    19455950.715    80863038.53408
      -913.792  
  20151651.343   107646533.48809      2751.004    20151656.711    83725117.77808
      2139.668  
  23304412.405   124225655.44805     -4177.043           0.000           0.0000 
         0.000  
 20 10 03 11 14 20.0000000  0 13G22G12G 1G 3G32G10G31R 2R 3R 1R11R12
                                R10
  22748849.068   119546035.97148      1696.776    22748845.585    93152730.30746
      1322.163  
  22659614.936   119077116.28648     -2251.508    22659613.905    92787367.24446
     -1754.426  
  24082643.966   126555148.68647     -2108.526    24082646.735    98614416.70648
     -1643.016  
  23779781.750   124963626.50247      3040.879    23779783.981    97374240.73149
      2369.515  
  20301469.913   106684985.48649      -869.703    20301471.057    83131174.17549
      -677.695  
  23871423.376   125445183.30748     -3825.944    23871426.090    97749507.97249
     -2981.257  
  20587431.117   108187714.69849      1590.953    20587429.840    84302122.08649
      1239.703  
  19591459.558   104543801.05209      1978.992    19591464.229    81311881.49908
      1539.211  
  23637406.258   126532889.39406      4151.792    23637412.010    98414461.45705
      3229.179  
  20486611.107   109512704.21108     -2948.879    20486617.666    85176580.69006
     -2293.578  
  19457047.453   103972596.96909     -1178.313    19457051.606    80867614.13008
      -916.465  
  20149077.865   107632786.36608      2748.023    20149083.215    83714425.57808
      2137.352  
  23308330.587   124246540.94005     -4176.785           0.000           0.0000 
         0.000  
 20 10 03 11 14 25.0000000  0 13G22G12G 1G 3G32G10G31R 2R 3R 1R11R12
                                R10
  22747236.375   119537561.21348      1693.625    22747232.862    93146126.59946
      1319.702  
  22661758.950   119088383.18648     -2254.980    22661757.887    92796146.64847
     -1757.132  
  24084651.717   126565699.42846     -2111.269    24084654.494    98622638.13949
     -1645.145  
  23776889.609   124948428.44847      3038.516    23776891.903    97362398.09249
      2367.676  
  20302298.926   106689341.97949      -872.421    20302300.077    83134568.84049
      -679.812  
  23875064.677   125464318.06548     -3827.452    23875067.339    97764418.18249
     -2982.429  
  20585919.081   108179768.92349      1587.961    20585917.811    84295930.57949
      1237.370  
  19589607.187   104533916.44509      1975.430    19589611.850    81304193.47108
      1536.445  
  23633529.273   126512134.65506      4150.558    23633530.667    98398318.81006
      3228.195  
  20489371.128   109527457.91808     -2952.093    20489377.665    85188055.78806
     -2296.078  
  19458152.192   103978500.35909     -1182.366    19458156.338    80872205.65708
      -919.617  
  20146507.637   107619056.76408      2744.444    20146512.998    83703747.00208
      2134.569  
  23312249.693   124267431.48105     -4178.914           0.000           0.0000 
         0.000  
 20 10 03 11 14 30.0000000  0 14G22G12G 1G 3G32G10G31R 2R 3R 1R19R11
                                R12R10
  22745626.120   119529099.23748      1691.140    22745622.616    93139532.85046
      1317.769  
  22663905.655   119099664.10548     -2257.628    22663904.552    92804936.97647
     -1759.191  
  24086661.658   126576261.80247     -2113.511    24086664.468    98630868.49348
     -1646.898  
  23773999.166   124933239.06747      3037.039    23774001.460    97350562.21049
      2366.519  
  20303130.044   106693709.50549      -874.534    20303131.190    83137972.11049
      -681.461  
  23878706.652   125483456.33748     -3828.313    23878709.300    97779331.12249
     -2983.101  
  20584409.309   108171835.08249      1585.472    20584408.051    84289748.36549
      1235.434  
  19587757.527   104524046.30909      1972.598    19587762.199    81296516.70208
      1534.241  
  23629652.057   126491380.45906      4150.871    23629657.412    98382176.74006
      3228.464  
  20492133.583   109542224.91908     -2954.894    20492140.131    85199541.23206
     -2298.254  
  23304587.096   124663826.25514        28.656    23304590.519    96960767.50115
        22.284  
  19459260.353   103984421.78209     -1185.941    19459264.460    80876811.21208
      -922.398  
  20143940.296   107605342.30308      2741.477    20143945.623    83693080.20308
      2132.258  
  23316169.213   124288324.53805     -4178.621           0.000           0.0000 
         0.000  
 20 10 03 11 14 35.0000000  0 14G22G12G 1G 3G32G10G31R 2R 3R 1R19R11
                                R12R10
  22744017.978   119520648.35948      1688.949    22744014.483    93132947.75247
      1316.063  
  22666054.692   119110957.37048     -2260.180    22666053.530    92813736.93347
     -1761.179  
  24088673.507   126586834.10546     -2115.734    24088676.316    98639106.70649
     -1648.620  
  23771110.066   124918056.74347      3035.519    23771112.363    97338731.84149
      2365.339  
  20303962.938   106698086.39249      -876.598    20303964.083    83141382.66749
      -683.066  
  23882348.982   125502596.47248     -3828.398    23882351.613    97794245.50649
     -2983.172  
  20582901.515   108163911.54049      1583.461    20582900.245    84283574.18249
      1233.866  
  19585910.329   104514189.30209      1969.882    19585915.007    81288850.14008
      1532.129  
  23625774.672   126470625.38906      4150.741    23625776.309    98366033.84406
      3228.344  
  20494898.210   109557003.27708     -2957.163    20494904.733    85211035.50106
     -2300.019  
  23304562.467   124663693.78804        24.159    23304565.526    96960664.45305
        18.788  
  19460371.518   103990359.51409     -1189.586    19460375.609    80881429.44508
      -925.237  
  20141375.416   107591641.20708      2738.508    20141380.736    83682423.80108
      2129.948  
  23320088.744   124309218.50305     -4179.320           0.000           0.0000 
         0.000  
 20 10 03 11 14 40.0000000  0 14G22G12G 1G 3G32G10G31R 2R 3R 1R19R11
                                R12R10
  22742412.464   119512211.39148      1686.000    22742409.005    93126373.49246
      1313.761  
  22668206.605   119122265.71748     -2263.293    22668205.413    92822548.62646
     -1763.609  
  24090687.762   126597419.09047     -2118.339    24090690.574    98647354.69448
     -1650.659  
  23768222.803   124902884.25947      3033.434    23768225.111    97326909.12249
      2363.714  
  20304798.138   106702475.43049      -879.030    20304799.297    83144802.69549
      -684.964  
  23885992.184   125521741.25548     -3829.402    23885994.843    97809163.51649
     -2983.953  
  20581396.207   108156001.09149      1580.672    20581394.929    84277410.19849
      1231.691  
  19584066.066   104504348.05609      1966.526    19584070.762    81281195.83808
      1529.519  
  23621897.389   126449871.95407      4150.609    23621902.154    98349892.37106
      3228.261  
  20497665.522   109571796.05608     -2960.258    20497672.037    85222540.99806
     -2302.426  
  23304541.958   124663584.01804        20.030    23304544.891    96960579.09505
        15.578  
  19461486.274   103996316.36709     -1193.395    19461490.346    80886062.55408
      -928.198  
  20138813.606   107577956.41309      2735.262    20138818.900    83671780.07808
      2127.426  
  23324009.058   124330116.10905     -4180.098           0.000           0.0000 
         0.000  
 20 10 03 11 14 45.0000000  0 14G22G12G 1G 3G32G26G10G31R 2R 3R 1R11
                                R12R10
  22740810.097   119503790.89348      1682.441    22740806.646    93119812.07247
      1310.992  
  22670361.851   119133591.73648     -2267.094    22670360.675    92831374.09746
     -1766.566  
  24092704.939   126608019.39247     -2121.628    24092707.767    98655614.69949
     -1653.219  
  23765337.946   124887724.14447      3030.757    23765340.234    97315096.06449
      2361.628  
  20305636.144   106706879.15049      -882.070    20305637.296    83148234.16249
      -687.331  
  24477383.843   128629521.36617      3947.887           0.000           0.0000 
         0.000  
  23889636.735   125540893.25047     -3831.163    23889639.450    97824087.13749
     -2985.327  
  20579893.879   108148106.30749      1577.570    20579892.602    84271258.42049
      1229.277  
  19582225.273   104494525.32709      1962.750    19582229.987    81273555.93708
      1526.602  
  23618021.428   126429123.16605      4149.589    23618023.930    98333754.36505
      3227.444  
  20500435.951   109586605.74008     -2963.508    20500442.492    85234059.63406
     -2304.952  
  19462605.094   104002295.00109     -1197.723    19462609.173    80890712.60308
      -931.562  
  20136255.319   107564290.50609      2731.405    20136260.598    83661151.03808
      2124.421  
  23327930.605   124351020.12505     -4181.417           0.000           0.0000 
         0.000  
 20 10 03 11 14 50.0000000  0 14G22G12G 1G 3G32G26G10G31R 2R 3R 1R11
                                R12R10
  22739209.878   119495381.74848      1680.594    22739206.424    93113259.48947
      1309.550  
  22672519.502   119144930.33048     -2269.237    22672518.353    92840209.36346
     -1768.242  
  24094724.031   126618629.85547     -2123.281    24094726.865    98663882.56549
     -1654.511  
  23762454.482   124872571.40447      3029.371    23762456.746    97303288.72349
      2360.547  
  20306475.969   106711292.49049      -883.651    20306477.126    83151673.12749
      -688.562  
  24473626.757   128609778.34146      3948.691    24473631.212   100215427.65359
      3076.901  
  23893281.628   125560047.29347     -3831.015    23893284.447    97839012.35349
     -2985.210  
  20578393.548   108140222.04249      1575.637    20578392.270    84265114.84049
      1227.770  
  19580386.962   104484715.65209      1960.444    19580391.681    81265926.19108
      1524.788  
  23614145.344   126408373.62106      4149.968    23614148.812    98317615.82006
      3227.745  
  20503208.599   109601427.13208     -2965.762    20503215.148    85245587.38606
     -2306.707  
  19463726.990   104008290.10809     -1200.773    19463731.069    80895375.46508
      -933.933  
  20133699.575   107550638.30609      2728.925    20133704.887    83650532.66608
      2122.495  
  23331852.362   124371925.08105     -4181.145           0.000           0.0000 
         0.000  
 20 10 03 11 14 55.0000000  0 14G22G12G 1G 3G32G26G10G31R 2R 3R 1R11
                                R12R10
  22737612.416   119486987.05848      1677.487    22737609.004    93106718.16846
      1307.132  
  22674680.105   119156284.40948     -2272.265    22674678.985    92849056.69647
     -1770.598  
  24096745.665   126629253.46147     -2126.023    24096748.464    98672160.70949
     -1656.641  
  23759572.988   124857428.99047      3027.316    23759575.236    97291489.45349
      2358.948  
  20307318.211   106715718.50349      -886.565    20307319.383    83155121.96349
      -690.836  
  24469870.816   128590037.64246      3947.801    24469874.502   100200045.33548
      3076.206  
  23896927.501   125579206.48347     -3832.101    23896930.391    97853941.57349
     -2986.063  
  20576895.802   108132351.36849      1572.792    20576894.522    84258981.84549
      1225.551  
  19578551.749   104474922.51209      1956.890    19578556.466    81258309.30508
      1522.027  
  23610269.700   126387626.46307      4148.983    23610273.097    98301479.26005
      3226.999  
  20505984.027   109616263.32408     -2968.718    20505990.572    85257126.64206
     -2309.007  
  19464852.570   104014304.89709     -1205.008    19464856.655    80900053.63808
      -937.230  
  20131147.015   107537002.89209      2725.327    20131152.332    83639927.34908
      2119.749  
  23335774.948   124392834.26305     -4182.555           0.000           0.0000 
         0.000  
 20 10 03 11 15  0.0000000  0 14G22G12G 1G 3G32G26G10G31R 2R 3R 1R11
                                R12R10
  22736017.490   119478605.70148      1675.188    22736014.094    93100187.24647
      1305.335  
  22676843.507   119167653.03948     -2274.840    22676842.392    92857915.36247
     -1772.605  
  24098769.593   126639889.24146     -2128.401    24098772.384    98680448.32049
     -1658.503  
  23756693.222   124842295.81147      3025.921    23756695.479    97279697.36249
      2357.859  
  20308162.653   106720156.04449      -888.468    20308163.819    83158579.79149
      -692.312  
  24466114.840   128570298.13546      3947.804    24466118.438   100184663.91148
      3076.210  
  23900574.080   125598369.66847     -3832.624    23900577.111    97868873.90549
     -2986.464  
  20575400.438   108124493.17549      1570.535    20575399.158    84252858.58049
      1223.792  
  19576719.383   104465144.74709      1954.206    19576724.132    81250704.37708
      1519.933  
  23606394.374   126366880.57205      4148.890    23606397.261    98285343.41606
      3226.897  
  20508761.994   109631113.24208     -2971.309    20508768.547    85268676.57406
     -2311.022  
  19465981.613   104020338.06409     -1208.309    19465985.679    80904746.09608
      -939.801  
  20128597.391   107523383.26009      2722.438    20128602.710    83629334.30708
      2117.453  
  23339698.067   124413746.25805     -4182.586           0.000           0.0000 
         0.000  
 20 10 03 11 15  5.0000000  0 14G22G12G 1G 3G32G26G10G31R 2R 3R 1R11
                                R12R10
  22734424.930   119470236.80348      1672.445    22734421.562    93093666.03147
      1303.203  
  22679009.497   119179035.26848     -2277.769    22679008.369    92866784.64347
     -1774.887  
  24100795.598   126650536.00347     -2130.440    24100798.378    98688744.49248
     -1660.082  
  23753815.082   124827171.11547      3024.093    23753817.332    97267911.89449
      2356.438  
  20309009.121   106724604.26349      -890.672    20309010.287    83162045.93549
      -694.030  
  24462358.783   128550558.92747      3947.949    24462362.217   100169282.72048
      3076.323  
  23904221.268   125617535.95347     -3833.625    23904224.398    97883808.65549
     -2987.250  
  20573907.290   108116646.56949      1568.211    20573905.992    84246744.34849
      1221.983  
  19574889.708   104455381.31509      1951.249    19574894.476    81243110.59408
      1517.640  
  23602518.845   126346135.15507      4149.125    23602522.103    98269208.23605
      3227.104  
  20511542.395   109645975.92608     -2973.796    20511548.927    85280236.43906
     -2312.957  
  19467113.917   104026388.81609     -1211.905    19467117.995    80909452.23908
      -942.593  
  20126050.526   107509778.30209      2719.438    20126055.804    83618752.67608
      2115.156  
  23343621.435   124434660.39105     -4182.840           0.000           0.0000 
         0.000  
 20 10 03 11 15 10.0000000  0 14G22G12G 1G 3G32G26G10G31R 2R 3R 1R11
                                R12R10
  22732834.720   119461880.19348      1670.055    22732831.360    93087154.38947
      1301.339  
  22681178.060   119190430.89248     -2280.437    22681176.899    92875664.35046
     -1776.969  
  24102823.689   126661193.91247     -2132.714    24102826.504    98697049.36149
     -1661.863  
  23750938.544   124812054.61647      3022.276    23750940.738    97256132.81549
      2355.019  
  20309857.588   106729062.95749      -892.792    20309858.757    83165520.24549
      -695.688  
  24458602.542   128530819.87247      3947.983    24458606.019   100153901.65348
      3076.352  
  23907869.007   125636705.14147     -3834.042    23907872.231    97898745.67249
     -2987.569  
  20572416.282   108108811.35949      1565.940    20572415.003    84240638.99349
      1220.214  
  19573062.683   104445632.02109      1948.386    19573067.470    81235527.81008
      1515.409  
  23598643.331   126325389.81906      4148.859    23598646.383    98253072.90506
      3226.894  
  20514325.115   109660851.09208     -2976.386    20514331.641    85291806.01006
     -2314.973  
  19468249.497   104032456.91909     -1215.391    19468253.558    80914171.87608
      -945.309  
  20123506.395   107496188.10509      2716.577    20123511.668    83608182.52408
      2112.894  
  23347545.294   124455576.46005     -4183.539           0.000           0.0000 
         0.000  
 20 10 03 11 15 15.0000000  0 14G22G12G 1G 3G32G26G10G31R 2R 3R 1R11
                                R12R10
  22731247.221   119453537.83048      1667.035    22731243.869    93080653.84746
      1298.987  
  22683349.504   119201841.87948     -2283.429    22683348.354    92884556.03146
     -1779.296  
  24104854.248   126671864.63346     -2135.304    24104857.061    98705364.21349
     -1663.874  
  23748063.863   124796948.34747      3020.292    23748066.117    97244361.69249
      2353.477  
  20310708.418   106733534.09549      -895.284    20310709.584    83169004.24149
      -697.628  
  24454846.608   128511082.95946      3947.175    24454850.187   100138522.24648
      3075.722  
  23911517.709   125655879.16747     -3835.007    23911520.954    97913686.45649
     -2988.319  
  20570927.828   108100989.51549      1563.188    20570926.548    84234544.05449
      1218.066  
  19571238.751   104435899.20109      1945.136    19571243.560    81227957.84308
      1512.883  
  23594768.538   126304646.81406      4148.886    23594772.021    98236939.47906
      3226.905  
  20517110.575   109675740.94208     -2979.093    20517117.095    85303387.00006
     -2317.078  
  19469388.707   104038544.38609     -1219.183    19469392.759    80918906.57008
      -948.258  
  20120965.392   107482614.55109      2713.285    20120970.656    83597625.31808
      2110.331  
  23351469.740   124476496.33605     -4184.022           0.000           0.0000 
         0.000  
 20 10 03 11 15 20.0000000  0 14G22G12G 1G 3G32G26G10G31R 2R 3R 1R11
                                R12R10
  22729661.828   119445206.56548      1664.999    22729658.498    93074161.95547
      1297.401  
  22685523.229   119213265.00448     -2285.800    22685522.110    92893457.16646
     -1781.145  
  24106886.689   126682545.12046     -2137.266    24106889.531    98713686.65249
     -1665.406  
  23745190.554   124781849.10047      3019.051    23745192.822    97232596.05949
      2352.511  
  20311561.003   106738014.49549      -897.090    20311562.176    83172495.46249
      -699.034  
  24451090.513   128491345.01547      3947.684    24451094.254   100123142.04648
      3076.117  
  23915166.783   125675054.90248     -3835.500    23915169.974    97928628.58449
     -2988.707  
  20569441.311   108093177.87449      1561.207    20569440.050    84228457.06149
      1216.523  
  19569417.214   104426179.16509      1942.602    19569422.023    81220397.81708
      1510.914  
  23590893.136   126283902.76307      4148.444    23590896.094    98220805.22506
      3226.566  
  20519898.157   109690642.16508     -2981.563    20519904.683    85314976.83406
     -2318.996  
  19470530.918   104044647.98509     -1222.394    19470534.965    80923653.81308
      -950.753  
  20118426.904   107469054.37608      2710.594    20118432.141    83587078.51708
      2108.234  
  23355394.455   124497416.83805     -4183.956           0.000           0.0000 
         0.000  
 20 10 03 11 15 25.0000000  0 14G22G12G 1G 3G32G26G10G31R 2R 3R 1R11
                                R12R10
  22728079.576   119436891.77448      1661.305    22728076.254    93067682.89746
      1294.519  
  22687700.281   119224705.61448     -2289.733    22687699.161    92902371.92046
     -1784.211  
  24108921.984   126693240.69647     -2140.707    24108924.825    98722020.83848
     -1668.085  
  23742319.618   124766762.32547      3015.707    23742321.893    97220840.11849
      2349.898  
  20312416.366   106742509.51949      -900.625    20312417.557    83175998.07549
      -701.789  
  24447335.275   128471611.39047      3946.151    24447339.057   100107765.20348
      3074.926  
  23918817.148   125694237.60548     -3837.433    23918820.289    97943576.13849
     -2990.211  
  20567957.778   108085381.82549      1557.570    20567956.513    84222382.22449
      1213.691  
  19567599.148   104416477.64609      1938.296    19567603.976    81212852.18808
      1507.559  
  23587018.833   126263163.22106      4147.319    23587022.700    98204674.48405
      3225.698  
  20522688.829   109705560.00208     -2985.410    20522695.372    85326579.59506
     -2321.988  
  19471677.159   104050773.11609     -1227.242    19471681.215    80928417.80908
      -954.526  
  20115891.964   107455513.08309      2706.183    20115897.184    83576546.40608
      2104.804  
  23359320.166   124518343.40205     -4186.168           0.000           0.0000 
         0.000  
 20 10 03 11 15 30.0000000  0 14G22G12G 1G 3G32G26G10G31R 2R 3R 1R11
                                R12R10
  22726500.089   119428591.54648      1659.245    22726496.782    93061215.19247
      1292.918  
  22689880.316   119236161.83948     -2292.155    22689879.215    92911298.84646
     -1786.101  
  24110959.807   126703949.40447     -2142.410    24110962.611    98730365.32749
     -1669.410  
  23739450.717   124751686.05247      3014.508    23739452.966    97209092.37349
      2348.968  
  20313274.163   106747017.27049      -902.258    20313275.362    83179510.61049
      -703.062  
  24443580.587   128451880.15347      3946.793    24443584.176   100092390.21948
      3075.422  
  23922468.536   125713425.40348     -3837.508    23922471.553    97958527.67449
     -2990.269  
  20566476.836   108077599.45649      1555.766    20566475.578    84216318.04249
      1212.285  
  19565784.201   104406792.74009      1935.858    19565789.037    81205319.48308
      1505.668  
  23583144.835   126242426.18807      4147.867    23583147.736    98188545.67406
      3226.108  
  20525482.304   109720492.82208     -2987.476    20525488.863    85338194.00306
     -2323.597  
  19472827.079   104056917.81509     -1230.210    19472831.119    80933197.01708
      -956.832  
  20113360.175   107441988.72109      2703.891    20113365.418    83566027.46008
      2102.973  
  23363246.652   124539274.18605     -4186.172           0.000           0.0000 
         0.000  
 20 10 03 11 15 35.0000000  0 15G22G12G 1G 3G32G26G10G31R 2R 3R 1R19
                                R11R12R10
  22724922.809   119420302.88448      1656.022    22724919.478    93054756.49047
      1290.401  
  22692062.745   119247630.60948     -2295.477    22692061.650    92920235.55447
     -1788.683  
  24112999.536   126714668.28647     -2145.210    24113002.338    98738717.66948
     -1671.598  
  23736583.209   124736617.29247      3012.629    23736585.471    97197350.49249
      2347.499  
  20314133.804   106751534.74649      -905.004    20314135.016    83183030.71849
      -705.202  
  24439825.815   128432148.40847      3945.909    24439829.299   100077014.84648
      3074.733  
  23926120.297   125732615.28548     -3838.698    23926123.184    97973480.83449
     -2991.195  
  20564997.933   108069827.73649      1552.785    20564996.663    84210262.16349
      1209.961  
  19563971.799   104397121.38409      1932.504    19563976.629    81197797.31908
      1503.102  
  23579270.962   126221688.72906      4147.242    23579274.609    98172416.54506
      3225.636  
  20528278.012   109735437.48008     -2990.741    20528284.570    85349817.62406
     -2326.137  
  23304593.115   124663858.14014       -29.675    23304596.883    96960794.32115
       -23.082  
  19473980.080   104063079.10709     -1234.379    19473984.135    80937989.13108
      -960.078  
  20110831.001   107428478.33109      2700.265    20110836.247    83555519.39008
      2100.207  
  23367173.326   124560205.91505     -4187.191           0.000           0.0000 
         0.000  
 20 10 03 11 15 40.0000000  0 15G22G12G 1G 3G32G26G10G31R 2R 3R 1R19
                                R11R12R10
  22723348.567   119412030.21648      1653.179    22723345.241    93048310.25647
      1288.191  
  22694248.418   119259116.36848     -2298.546    22694247.316    92929185.49147
     -1791.077  
  24115042.069   126725401.77547     -2147.520    24115044.863    98747081.43449
     -1673.394  
  23733718.002   124721560.52847      3010.250    23733720.281    97185617.95349
      2345.644  
  20314996.132   106756066.34449      -907.437    20314997.350    83186561.83049
      -707.094  
  24436071.744   128412420.51047      3945.461    24436075.237   100061642.46248
      3074.386  
  23929773.271   125751811.67048     -3839.719    23929776.032    97988439.07249
     -2991.987  
  20563521.899   108062071.12849      1550.202    20563520.621    84204218.05149
      1207.948  
  19562162.740   104387467.93109      1929.246    19562167.569    81190289.08008
      1500.522  
  23575397.690   126200955.27207      4146.683    23575400.758    98156290.56205
      3225.194  
  20531076.721   109750398.18508     -2993.363    20531083.316    85361453.72506
     -2328.176  
  23304623.078   124664018.32704       -34.042    23304626.831    96960918.92405
       -26.476  
  19475137.006   104069261.42709     -1238.366    19475141.072    80942797.60208
      -963.176  
  20108305.259   107414986.33209      2696.952    20108310.510    83545025.61608
      2097.633  
  23371101.162   124581143.14405     -4187.656           0.000           0.0000 
         0.000  
 20 10 03 11 15 45.0000000  0 15G22G12G 1G 3G32G26G10G31R 2R 3R 1R19
                                R11R12R10
  22721776.666   119403769.84948      1650.871    22721773.346    93041873.60846
      1286.395  
  22696436.603   119270615.38948     -2300.836    22696435.470    92938145.77347
     -1792.858  
  24117086.662   126736146.02747     -2149.851    24117089.450    98755453.58249
     -1675.210  
  23730854.379   124706512.02547      3009.390    23730856.655    97173891.85449
      2344.977  
  20315860.460   106760608.38749      -909.331    20315861.679    83190101.08149
      -708.574  
  24432317.633   128392692.86347      3945.547    24432321.079   100046270.28448
      3074.453  
  23933426.777   125771010.81548     -3839.878    23933429.401    98003399.44849
     -2992.113  
  20562048.017   108054325.88749      1548.222    20562046.753    84198182.80649
      1206.406  
  19560356.390   104377828.93509      1926.612    19560361.233    81182792.08208
      1498.472  
  23571524.430   126180221.96606      4146.488           0.000           0.0000 
         0.000  
  20533877.813   109765371.40908     -2995.637    20533884.352    85373099.56506
     -2329.941  
  23304656.910   124664199.68004       -37.968    23304660.710    96961059.97405
       -29.530  
  19476297.179   104075461.00809     -1241.477    19476301.239    80947619.49808
      -965.593  
  20105782.252   107401509.00609      2694.152    20105787.504    83534543.25308
      2095.448  
  23375029.285   124602082.12806     -4187.617           0.000           0.0000 
         0.000  
 20 10 03 11 15 50.0000000  0 15G22G12G 1G 3G32G26G10G31R 2R 3R 1R19
                                R11R12R10
  22720207.039   119395521.43948      1648.574    22720203.719    93035446.27847
      1284.597  
  22698627.241   119282127.20848     -2303.457    22698626.067    92947116.02546
     -1794.906  
  24119133.244   126746900.79147     -2151.886    24119136.023    98763833.89649
     -1676.797  
  23727992.261   124691471.49447      3007.597    23727994.532    97162171.96849
      2343.581  
  20316726.693   106765160.50249      -911.206    20316727.923    83193648.17749
      -710.035  
  24428563.570   128372965.00547      3945.671    24428566.941   100030897.93448
      3074.551  
  23937080.754   125790212.37748     -3840.159    23937083.242    98018361.71949
     -2992.332  
  20560576.247   108046591.68449      1545.854    20560574.976    84192156.15649
      1204.563  
  19558552.602   104368203.63909      1923.707    19558557.456    81175305.74108
      1496.187  
  23567651.372   126159488.80906      4147.030    23567644.515    98124076.83815
      3225.468  
  20536681.111   109780356.79808     -2998.094    20536687.670    85384754.86006
     -2331.854  
  23304694.602   124664401.61804       -41.769    23304698.439    96961217.04105
       -32.488  
  19477460.530   104081677.48109     -1244.796    19477464.575    80952454.53408
      -968.179  
  20103261.959   107388045.92609      2691.229    20103267.181    83524071.97208
      2093.179  
  23378957.653   124623022.35106     -4188.109           0.000           0.0000 
         0.000  
 20 10 03 11 15 55.0000000  0 15G22G12G 1G 3G32G26G10G31R 2R 3R 1R19
                                R11R12R10
  22718639.906   119387286.06548      1645.565    22718636.580    93029029.10647
      1282.257  
  22700820.537   119293653.05548     -2306.874    22700819.364    92956097.20946
     -1797.569  
  24121181.996   126757667.11847     -2154.871    24121184.787    98772223.24249
     -1679.125  
  23725131.870   124676439.97247      3005.062    23725134.106    97150459.09549
      2341.605  
  20317595.064   106769723.82449      -914.000    20317596.303    83197204.01549
      -712.210  
  24424809.698   128353238.15046      3944.809    24424812.967   100015526.35048
      3073.875  
  23940735.400   125809417.45147     -3841.730    23940737.793    98033326.71749
     -2993.555  
  20559106.781   108038869.61849      1543.026    20559105.517    84186138.96949
      1202.359  
  19556751.689   104358593.62109      1920.179    19556756.543    81167831.28208
      1493.468  
  23563778.346   126138756.45207      4145.918    23563785.212    98107951.70206
      3224.609  
  20539486.900   109795355.41308     -3001.184    20539493.448    85396420.44806
     -2334.257  
  23304736.545   124664625.42704       -47.448    23304740.272    96961391.09105
       -36.913  
  19478627.210   104087911.89309     -1248.995    19478631.253    80957303.52108
      -971.440  
  20100744.531   107374598.34509      2687.629    20100749.783    83513612.75208
      2090.378  
  23382886.365   124643965.09606     -4189.262           0.000           0.0000 
         0.000  
 20 10 03 11 16  0.0000000  0 15G22G12G 1G 3G32G26G10G31R 2R 3R 1R19
                                R11R12R10
  22717075.517   119379065.17848      1642.570    22717072.167    93022623.22247
      1279.922  
  22703016.742   119305194.28548     -2309.780    22703015.577    92965090.36846
     -1799.831  
  24123233.201   126768446.33947     -2157.378    24123236.000    98780622.64549
     -1681.073  
  23722273.431   124661418.93347      3003.069    23722275.682    97138754.39049
      2340.055  
  20318465.826   106774299.70849      -916.551    20318467.064    83200769.63849
      -714.199  
  24421056.295   128333513.57547      3944.550    24421059.547   100000156.56848
      3073.676  
  23944390.959   125828627.41747     -3842.664    23944393.299    98048295.52549
     -2994.285  
  20557639.876   108031161.07249      1540.085    20557638.622    84180132.30949
      1200.066  
  19554953.841   104348999.89809      1916.831    19554958.677    81160369.50108
      1490.905  
  23559905.815   126118026.64206      4145.129    23559911.724    98091828.54105
      3223.992  
  20542295.469   109810368.66708     -3004.511    20542301.988    85408097.42306
     -2336.844  
  23304782.665   124664872.35404       -50.676    23304786.446    96961583.17105
       -39.410  
  19479797.508   104094165.73609     -1252.949    19479801.574    80962167.62108
      -974.516  
  20098230.260   107361167.59109      2684.152    20098235.541    83503166.61308
      2087.676  
  23386815.781   124664911.72306     -4189.726           0.000           0.0000 
         0.000  
 20 10 03 11 16  5.0000000  0 15G22G12G 1G 3G32G26G10G31R 2R 3R 1R19
                                R11R12R10
  22715513.985   119370859.24148      1639.655    22715510.607    93016228.98946
      1277.648  
  22705215.975   119316751.33348     -2312.948    22705214.819    92974095.86446
     -1802.297  
  24125286.963   126779238.96247     -2159.613    24125289.794    98789032.46349
     -1682.816  
  23719417.131   124646408.81547      3001.180    23719419.368    97127058.19849
      2338.581  
  20319339.062   106778888.62649      -918.983    20319340.314    83204345.41749
      -716.094  
  24417303.352   128313791.88047      3944.152    24417306.581    99984789.01548
      3073.367  
  23948047.475   125847842.66347     -3843.430    23948049.846    98063268.44249
     -2994.883  
  20556175.629   108023466.49549      1537.573    20556174.378    84174136.53949
      1198.105  
  19553159.206   104339423.31909      1913.651    19553164.038    81152921.05008
      1488.390  
  23556033.806   126097299.82107      4145.019    23556036.163    98075707.65506
      3223.890  
  20545106.828   109825396.96108     -3007.160    20545113.347    85419786.09106
     -2338.905  
  23304833.352   124665143.05904       -56.785    23304836.914    96961793.71005
       -44.172  
  19480971.536   104100439.42109     -1256.703    19480975.594    80967047.15408
      -977.437  
  20095719.201   107347754.15109      2681.000    20095724.534    83492733.94708
      2085.222  
  23390746.154   124685862.66405     -4190.187           0.000           0.0000 
         0.000  
 20 10 03 11 16 10.0000000  0 15G22G12G 1G 3G32G26G10G31R 2R 3R 1R19
                                R11R12R10
  22713954.867   119362666.14848      1637.319    22713951.528    93009844.75846
      1275.831  
  22707417.813   119328322.10048     -2315.511    22707416.655    92983112.04546
     -1804.292  
  24127342.908   126790042.86947     -2161.769    24127345.693    98797451.05748
     -1684.503  
  23716562.496   124631407.54947      2999.258    23716564.714    97115368.90149
      2337.082  
  20320214.386   106783488.45349      -921.051    20320215.646    83207929.69349
      -717.707  
  24413550.599   128294070.90647      3944.172    24413553.704    99969422.01848
      3073.374  
  23951704.609   125867061.19147     -3844.223    23951707.046    98078243.90949
     -2995.504  
  20554713.661   108015783.83749      1535.273    20554712.416    84168150.04949
      1196.313  
  19551367.313   104329861.37209      1910.843    19551372.126    81145483.98108
      1486.210  
  23552162.156   126076573.76407      4144.940    23552166.716    98059587.43806
      3223.855  
  20547920.571   109840438.15308     -3009.526    20547927.128    85431484.79406
     -2340.745  
  23304888.113   124665435.08904       -59.105    23304891.392    96962020.87105
       -45.968  
  19482148.878   104106730.77609     -1260.113    19482152.928    80971940.43008
      -980.090  
  20093211.036   107334355.95309      2678.073    20093216.349    83482313.13208
      2082.945  
  23394676.874   124706815.83005     -4190.519           0.000           0.0000 
         0.000  
 20 10 03 11 16 15.0000000  0 14G22G12G 1G 3G32G26G10G31R 2R 3R 1R11
                                R12R10
  22712398.357   119354486.47448      1634.292    22712394.972    93003470.98547
      1273.472  
  22709622.328   119339907.12648     -2318.640    22709621.233    92992139.33146
     -1806.737  
  24129401.091   126800858.60047     -2164.672    24129403.869    98805878.94749
     -1686.758  
  23713709.647   124616415.66247      2997.194    23713711.867    97103686.90549
      2335.472  
  20321091.903   106788099.80649      -923.632    20321093.157    83211522.95449
      -719.718  
  24409798.013   128274351.27547      3943.578    24409801.086    99954056.08148
      3072.917  
  23955362.435   125886283.41747     -3844.839    23955364.949    98093222.25449
     -2995.983  
  20553254.074   108008113.65349      1532.645    20553252.822    84162173.28549
      1194.270  
  19549578.374   104320315.09409      1907.551    19549583.157    81138059.09808
      1483.604  
  23548290.715   126055849.29306      4144.460    23548293.137    98043468.33606
      3223.453  
  20550736.851   109855492.84808     -3012.672    20550743.426    85443193.99606
     -2343.191  
  19483329.638   104113040.40109     -1263.898    19483333.680    80976847.91308
      -983.030  
  20090705.807   107320973.49909      2674.722    20090711.126    83471904.55808
      2080.339  
  23398608.148   124727771.73705     -4191.930           0.000           0.0000 
         0.000  
 20 10 03 11 16 20.0000000  0 14G22G12G 1G 3G32G26G10G31R 2R 3R 1R11
                                R12R10
  22710844.613   119346321.52348      1631.749    22710841.241    92997108.68446
      1271.488  
  22711829.835   119351507.74548     -2321.542    22711828.759    93001178.77947
     -1808.999  
  24131461.784   126811687.48947     -2166.953    24131464.533    98814317.01949
     -1688.539  
  23710858.819   124601434.58247      2995.562    23710861.050    97092013.34749
      2334.203  
  20321971.857   106792723.99549      -926.012    20321973.118    83215126.21849
      -721.570  
  24406045.991   128254634.30146      3943.062    24406049.079    99938692.21148
      3072.512  
  23959021.242   125905510.79347     -3845.862    23959023.876    98108204.60649
     -2996.781  
  20551797.114   108000457.27749      1530.141    20551795.856    84156207.28649
      1192.315  
  19547792.476   104310785.19909      1904.461    19547797.267    81130646.95808
      1481.241  
  23544419.643   126035127.36007      4144.262    23544423.709    98027351.35706
      3223.323  
  20553555.928   109870562.36608     -3015.113    20553562.491    85454914.73306
     -2345.093  
  19484514.062   104119369.66509     -1267.550    19484518.123    80981770.67508
      -985.874  
  20088203.804   107307608.25109      2671.609    20088209.110    83461509.37108
      2077.917  
  23402540.275   124748731.74905     -4192.464           0.000           0.0000 
         0.000  
 20 10 03 11 16 25.0000000  0 14G22G12G 1G 3G32G26G10G31R 2R 3R 1R11
                                R12R10
  22709293.031   119338167.84248      1629.469    22709289.688    92990755.17547
      1269.714  
  22714039.618   119363120.45448     -2323.827    22714038.567    93010227.63647
     -1810.777  
  24133524.280   126822525.98047     -2168.941    24133527.047    98822762.60648
     -1690.085  
  23708009.386   124586460.77547      2993.722    23708011.647    97080345.45749
      2332.770  
  20322853.587   106797357.51549      -927.840    20322854.847    83218736.75149
      -722.996  
  24402293.851   128234916.48346      3943.280    24402296.856    99923327.67048
      3072.684  
  23962680.314   125924739.72047     -3846.207    23962683.114    98123188.16949
     -2997.047  
  20550342.106   107992811.22349      1527.940    20550340.854    84150249.32649
      1190.605  
  19546009.135   104301269.04309      1901.594    19546013.935    81123245.50208
      1479.016  
  23540548.547   126014404.83006      4144.449    23540551.634    98011233.79506
      3223.453  
  20556377.114   109885643.25708     -3017.620    20556383.698    85466644.31206
     -2347.042  
  19485701.525   104125715.01809     -1270.808    19485705.561    80986705.94808
      -988.410  
  20085704.355   107294256.64209      2668.749    20085709.647    83451124.79208
      2075.745  
  23406472.260   124769692.28505     -4192.601           0.000           0.0000 
         0.000  
 20 10 03 11 16 30.0000000  0 14G22G12G 1G 3G32G26G10G31R 2R 3R 1R11
                                R12R10
  22707744.157   119330028.42548      1626.828    22707740.802    92984412.78047
      1267.660  
  22716252.302   119374748.18748     -2326.839    22716251.259    93019288.20946
     -1813.120  
  24135589.184   126833377.18846     -2171.391    24135591.974    98831218.07749
     -1691.999  
  23705161.904   124571497.21747      2992.133    23705164.183    97068685.53749
      2331.530  
  20323737.661   106802003.35749      -930.117    20323738.921    83222356.88449
      -724.770  
  24398542.056   128215200.88547      3943.026    24398545.075    99907964.87848
      3072.487  
  23966340.297   125943973.21847     -3846.741    23966343.201    98138175.30149
     -2997.465  
  20548889.629   107985178.43149      1525.425    20548888.375    84144301.69749
      1188.640  
  19544228.834   104291768.92309      1898.703    19544233.617    81115856.52208
      1476.758  
  23536677.691   125993684.55506      4144.112    23536681.640    97995118.05606
      3223.198  
  20559200.994   109900738.32208     -3020.054    20559207.543    85478384.92006
     -2348.929  
  19486892.522   104132079.37109     -1274.512    19486896.571    80991656.00208
      -991.284  
  20083208.020   107280921.66509      2665.612    20083213.297    83440753.14608
      2073.253  
  23410405.014   124790656.23105     -4193.331           0.000           0.0000 
         0.000  
 20 10 03 11 16 35.0000000  0 14G22G12G 1G 3G32G26G10G31R 2R 3R 1R11
                                R12R10
  22706197.865   119321902.60648      1623.891    22706194.523    92978080.96447
      1265.367  
  22718467.732   119386390.31548     -2329.987    22718466.667    93028359.99947
     -1815.574  
  24137656.370   126844240.19747     -2174.004    24137659.105    98839682.75748
     -1694.027  
  23702316.256   124556543.33447      2989.921    23702318.547    97057033.16449
      2329.809  
  20324623.961   106806660.89349      -932.769    20324625.219    83225986.12849
      -726.836  
  24394790.587   128195486.81346      3942.808    24394793.642    99892603.26548
      3072.319  
  23970001.082   125963210.61947     -3847.815    23970004.015    98153165.47149
     -2998.301  
  20547439.559   107977558.29749      1522.809    20547438.297    84138363.93549
      1186.605  
  19542451.514   104282284.86309      1895.340    19542456.301    81108480.02808
      1474.144  
  23532807.315   125972966.00406      4143.761    23532810.268    97979003.61005
      3222.918  
  20562027.446   109915847.14008     -3023.171    20562033.966    85490136.21706
     -2351.359  
  19488086.995   104138462.14809     -1278.335    19488091.022    80996620.38708
      -994.262  
  20080714.668   107267602.69209      2662.300    20080719.959    83430393.94908
      2070.680  
  23414338.309   124811623.06405     -4193.702           0.000           0.0000 
         0.000  
 20 10 03 11 16 40.0000000  0 14G22G12G 1G 3G32G26G10G31R 2R 3R 1R11
                                R12R10
  22704654.051   119313789.87348      1621.030    22704650.731    92971759.36347
      1263.136  
  22720685.798   119398046.23848     -2332.847    22720684.770    93037442.53946
     -1817.805  
  24139725.732   126855114.73447     -2176.007    24139728.478    98848156.40049
     -1695.602  
  23699472.354   124541598.55547      2988.145    23699474.635    97045387.88449
      2328.421  
  20325512.373   106811329.52949      -935.027    20325513.639    83229624.02949
      -728.594  
  24391039.262   128175773.75046      3941.898    24391042.350    99877242.44247
      3071.605  
  23973662.494   125982451.34547     -3848.753    23973665.486    98168158.23749
     -2999.030  
  20545991.799   107969950.23649      1520.128    20545990.533    84132435.58149
      1184.515  
  19540676.943   104272815.38109      1892.172    19540681.724    81101114.87808
      1471.683  
  23528937.053   125952248.43607      4143.265    23528940.847    97962890.00406
      3222.546  
  20564856.299   109930968.98208     -3025.891    20564862.819    85501897.64906
     -2353.473  
  19489284.785   104144862.74309     -1282.199    19489288.805    81001598.62608
      -997.269  
  20078224.212   107254299.12009      2658.891    20078229.511    83420046.73108
      2068.026  
  23418271.921   124832592.20905     -4194.164           0.000           0.0000 
         0.000  
 20 10 03 11 16 45.0000000  0 14G22G12G 1G 3G32G26G10G31R 2R 3R 1R11
                                R12R10
  22703112.951   119305691.27548      1618.050    22703109.605    92965448.76847
      1260.820  
  22722906.689   119409717.00848     -2335.601    22722905.622    93046536.64846
     -1819.953  
  24141797.422   126866001.50847     -2178.593    24141800.164    98856639.63949
     -1697.597  
  23696630.408   124526663.93547      2985.535    23696632.655    97033750.51249
      2326.383  
  20326403.101   106816010.36849      -937.554    20326404.373    83233271.43549
      -730.563  
  24387288.313   128156062.72346      3941.570    24387291.430    99861883.21148
      3071.351  
  23977324.755   126001696.43347     -3849.671    23977327.748    98183154.40149
     -2999.749  
  20544546.535   107962355.32349      1517.492    20544545.270    84126517.47249
      1182.461  
  19538905.481   104263362.45809      1888.694    19538910.243    81093762.60608
      1468.983  
  23525067.261   125931533.01106      4142.437    23525070.576    97946777.98506
      3221.894  
  20567687.810   109946105.03308     -3028.887    20567694.314    85513670.12906
     -2355.804  
  19490486.103   104151282.22509     -1286.023    19490490.124    81006591.55808
     -1000.242  
  20075736.823   107241012.09109      2655.456    20075742.161    83409712.38508
      2065.354  
  23422206.274   124853564.68105     -4194.715           0.000           0.0000 
         0.000  
 20 10 03 11 16 50.0000000  0 14G22G12G 1G 3G32G26G10G31R 2R 3R 1R11
                                R12R10
  22701574.392   119297606.18548      1615.897    22701571.077    92959148.69346
      1259.137  
  22725130.280   119421401.99448     -2338.262    22725129.208    93055641.83347
     -1822.026  
  24143871.361   126876900.29047     -2180.535    24143874.108    98865132.12348
     -1699.133  
  23693790.260   124511738.85947      2984.293    23693792.510    97022120.59249
      2325.417  
  20327296.038   106820702.75549      -939.487    20327297.312    83236927.83849
      -732.073  
  24383537.716   128136353.17346      3941.905    24383540.792    99846525.13148
      3071.617  
  23980987.720   126020945.26048     -3850.047    23980990.693    98198153.48849
     -3000.039  
  20543103.644   107954772.94049      1515.285    20543102.384    84120609.12549
      1180.742  
  19537136.892   104253924.86909      1885.972    19537141.628    81086422.25808
      1466.808  
  23521197.733   125910819.28207      4142.733    23521201.210    97930667.29706
      3222.121  
  20570521.806   109961254.51908     -3031.245    20570528.316    85525453.06006
     -2357.640  
  19491690.815   104157719.93409     -1289.219    19491694.846    81011598.66408
     -1002.730  
  20073252.432   107227740.98609      2652.679    20073257.782    83399390.41508
      2063.194  
  23426141.173   124874539.90905     -4195.229           0.000           0.0000 
         0.000  
 20 10 03 11 16 55.0000000  0 14G22G12G 1G 3G32G26G10G31R 2R 3R 1R11
                                R12R10
  22700038.268   119289533.79948      1613.120    22700034.947    92952858.52847
      1256.972  
  22727356.404   119433100.38448     -2341.059    22727355.314    93064757.45746
     -1824.207  
  24145947.375   126887809.88046     -2183.254    24145950.127    98873633.16949
     -1701.233  
  23690951.773   124496822.56847      2982.613    23690954.020    97010497.51649
      2324.113  
  20328191.002   106825405.85449      -941.780    20328192.283    83240592.59349
      -733.859  
  24379787.181   128116644.25946      3941.323    24379790.272    99831167.53348
      3071.159  
  23984651.220   126040196.98848     -3850.952    23984654.166    98213154.82649
     -3000.746  
  20541662.991   107947202.28649      1512.894    20541661.730    84114709.91949
      1178.878  
  19535371.098   104244502.22209      1882.972    19535375.836    81079093.53308
      1464.534  
  23517328.295   125890106.22305      4142.265    23517332.056    97914557.20805
      3221.773  
  20573358.226   109976416.65608     -3033.750    20573364.691    85537245.83006
     -2359.586  
  19492898.783   104164175.04409     -1292.815    19492902.809    81016619.30408
     -1005.522  
  20070770.892   107214484.91809      2649.535    20070776.204    83389080.14308
      2060.749  
  23430076.445   124895517.02706     -4195.679           0.000           0.0000 
         0.000  
 20 10 03 11 17  0.0000000  0 14G22G12G 1G 3G32G26G10G31R 2R 3R 1R11
                                R12R10
  22698504.883   119281475.74548      1610.016    22698501.589    92946579.52847
      1254.554  
  22729585.383   119444813.78048     -2344.276    22729584.321    93073884.77546
     -1826.714  
  24148025.819   126898732.08347     -2186.348    24148028.537    98882143.94148
     -1703.652  
  23688115.297   124481916.66547      2979.887    23688117.523    96998882.53149
      2321.984  
  20329088.324   106830121.31349      -944.434    20329089.603    83244266.97149
      -735.926  
  24376037.108   128096937.61646      3940.934    24376040.262    99815811.71348
      3070.854  
  23988315.589   126059453.22347     -3851.859    23988318.483    98228159.68549
     -3001.449  
  20540224.875   107939644.97049      1509.913    20540223.614    84108821.10749
      1176.554  
  19533608.353   104235095.81209      1879.461    19533613.079    81071777.43808
      1461.805  
  23513459.364   125869395.62206      4141.434    23513462.474    97898448.87206
      3221.102  
  20576197.254   109991593.07408     -3036.730    20576203.716    85549049.70806
     -2361.906  
  19494110.328   104170649.26709     -1296.715    19494114.372    81021654.81408
     -1008.559  
  20068292.468   107201245.65509      2646.074    20068297.765    83378782.94508
      2058.059  
  23434012.427   124916497.56006     -4196.362           0.000           0.0000 
         0.000  
 20 10 03 11 17  5.0000000  0 14G22G12G 1G 3G32G26G10G31R 2R 3R 1R11
                                R12R10
  22696974.140   119273431.60248      1608.065    22696970.832    92940311.36647
      1253.039  
  22731817.140   119456541.77548     -2346.609    22731816.078    93083023.47946
     -1828.531  
  24150106.562   126909666.48846     -2187.737    24150109.322    98890664.25349
     -1704.738  
  23685280.717   124467020.71947      2978.819    23685282.920    96987275.30649
      2321.159  
  20329987.924   106834848.70849      -946.035    20329989.196    83247950.65449
      -737.175  
  24372287.397   128077232.84846      3940.910    24372290.526    99800457.35748
      3070.840  
  23991980.754   126078713.57547     -3852.191    23991983.539    98243167.75949
     -3001.706  
  20538789.214   107932100.55349      1508.229    20538787.944    84102942.34049
      1175.241  
  19531848.646   104225705.64909      1877.094    19531853.359    81064473.97808
      1459.961  
  23509590.738   125848686.94206      4142.710    23509593.055    97882317.18316
      3222.109  
  20579038.892   110006783.32008     -3038.730    20579045.356    85560864.33706
     -2363.460  
  19495325.357   104177142.07209     -1299.854    19495329.397    81026704.77408
     -1011.000  
  20065817.113   107188022.68909      2643.741    20065822.392    83368498.41908
      2056.187  
  23437948.927   124937480.94506     -4196.129           0.000           0.0000 
         0.000  
 20 10 03 11 17 10.0000000  0 14G22G12G 1G 3G32G26G10G31R 2R 3R 1R11
                                R12R10
  22695445.469   119265398.38648      1604.938    22695442.146    92934051.71547
      1250.598  
  22734051.077   119468281.31848     -2349.792    22734050.062    93092171.17747
     -1831.008  
  24152189.018   126920609.80946     -2189.828    24152191.796    98899191.54249
     -1706.351  
  23682447.424   124452131.69647      2976.788    23682449.617    96975673.46849
      2319.570  
  20330889.217   106839585.03949      -948.891    20330890.490    83251641.30049
      -739.397  
  24368537.454   128057526.98146      3940.805    24368540.619    99785102.14648
      3070.754  
  23995646.099   126097974.96547     -3853.418    23995648.747    98258176.64149
     -3002.664  
  20537355.442   107924566.06149      1505.218    20537354.163    84097071.31249
      1172.897  
  19530091.321   104216328.19309      1873.382    19530096.036    81057180.40308
      1457.074  
  23505721.897   125827977.10607      4141.124    23505722.279    97866209.56006
      3220.891  
  20581882.538   110021984.42608     -3042.183    20581889.024    85572687.42406
     -2366.144  
  19496543.299   104183650.41809     -1304.035    19496547.338    81031766.82008
     -1014.254  
  20063344.216   107174812.97909      2639.925    20063349.515    83358224.20608
      2053.276  
  23441885.431   124958464.35205     -4197.335           0.000           0.0000 
         0.000  
 20 10 03 11 17 15.0000000  0 14G22G12G 1G 3G32G26G10G31R 2R 3R 1R11
                                R12R10
  22693919.823   119257381.09048      1602.020    22693916.515    92927804.47747
      1248.323  
  22736288.176   119480037.38248     -2352.625    22736287.106    93101331.74847
     -1833.215  
  24154274.195   126931567.39447     -2192.620    24154276.937    98907729.87648
     -1708.543  
  23679616.446   124437254.74347      2974.519    23679618.622    96964081.04649
      2317.809  
  20331793.156   106844335.27149      -951.144    20331794.429    83255342.78249
      -741.155  
  24364788.260   128037824.96046      3940.176    24364791.428    99769749.93348
      3070.265  
  23999312.574   126117242.39047     -3853.914    23999315.065    98273190.22848
     -3003.050  
  20535924.526   107917046.48549      1502.694    20535923.229    84091211.90549
      1170.930  
  19528337.427   104206968.98609      1870.245    19528342.125    81049901.02308
      1454.636  
  23501853.871   125807271.41606      4140.898    23501862.335    97850105.13106
      3220.706  
  20584729.151   110037201.32908     -3044.836    20584735.658    85584522.78706
     -2368.210  
  19497765.096   104190179.26709     -1307.608    19497769.146    81036844.81408
     -1017.035  
  20060874.769   107161621.60709      2636.625    20060880.079    83347964.25608
      2050.706  
  23445822.900   124979452.84006     -4197.862           0.000           0.0000 
         0.000  
 20 10 03 11 17 20.0000000  0 15G22G12G 1G 3G32G26G10G31R 2R 3R 1R19
                                R11R12R10
  22692396.791   119249377.43948      1599.425    22692393.485    92921567.86347
      1246.300  
  22738527.969   119491807.73348     -2355.519    22738526.917    93110503.43047
     -1835.473  
  24156361.541   126942536.65946     -2195.027    24156364.338    98916277.40449
     -1710.402  
  23676787.283   124422387.48447      2972.566    23676789.468    96952496.16749
      2316.285  
  20332699.310   106849097.16849      -953.375    20332700.588    83259053.35049
      -742.895  
  24361039.343   128018124.57946      3939.938    24361042.570    99754398.98648
      3070.081  
  24002979.745   126136513.63047     -3854.761    24002982.116    98288206.78348
     -3003.710  
  20534496.017   107909539.58549      1500.288    20534494.699    84085362.37749
      1169.054  
  19526586.421   104197625.31409      1867.202    19526591.103    81042633.72308
      1452.265  
  23497986.139   125786567.39307      4140.750    23497987.659    97834002.05305
      3220.586  
  20587578.295   110052431.82508     -3047.315    20587584.846    85596368.73006
     -2370.136  
  23306086.888   124671848.97614      -122.456    23306091.628    96967013.43015
       -95.262  
  19498990.307   104196726.45809     -1311.105    19498994.363    81041937.07408
     -1019.753  
  20058408.326   107148446.30809      2633.569    20058413.622    83337716.80508
      2048.332  
  23449760.878   125000444.09905     -4198.530           0.000           0.0000 
         0.000  
 20 10 03 11 17 25.0000000  0 15G22G12G 1G 3G32G26G10G31R 2R 3R 1R19
                                R11R12R10
  22690876.439   119241387.87248      1596.245    22690873.122    92915342.23247
      1243.823  
  22740770.570   119503592.71148     -2358.801    22740769.533    93119686.53747
     -1838.030  
  24158451.291   126953518.27348     -2197.664    24158454.051    98924834.39648
     -1712.480  
  23673960.069   124407530.37647      2970.413    23673962.245    96940919.19349
      2314.605  
  20333607.760   106853871.10749      -956.300    20333609.038    83262773.30049
      -745.171  
  24357290.798   127998426.24746      3939.215    24357294.103    99739049.63848
      3069.520  
  24006647.687   126155788.98547     -3855.788    24006650.012    98303226.54548
     -3004.511  
  20533069.979   107902045.73849      1497.253    20533068.661    84079523.01949
      1166.691  
  19524838.481   104188297.97109      1863.609    19524843.147    81035379.12308
      1449.469  
  23494118.928   125765865.60005      4139.546    23494123.398    97817900.55606
      3219.641  
  20590430.073   110067676.17708     -3050.448    20590436.608    85608225.44306
     -2372.574  
  23306203.697   124672474.26204      -127.339    23306208.533    96967499.76105
       -99.047  
  19500219.007   104203292.28709     -1315.297    19500223.076    81047043.83008
     -1023.011  
  20055944.961   107135287.51609      2629.714    20055950.246    83327482.18908
      2045.331  
  23453699.339   125021438.40905     -4199.336           0.000           0.0000 
         0.000  
 20 10 03 11 17 30.0000000  0 15G22G12G 1G 3G32G26G10G31R 2R 3R 1R19
                                R11R12R10
  22689358.809   119233412.67448      1594.035    22689355.486    92909127.79647
      1242.104  
  22743016.021   119515392.57448     -2361.155    22743015.018    93128881.23447
     -1839.867  
  24160543.340   126964512.25446     -2199.758    24160546.115    98933401.23849
     -1714.094  
  23671134.817   124392683.70346      2968.702    23671137.011    96929350.36149
      2313.270  
  20334518.556   106858657.37349      -958.172    20334519.833    83266502.85449
      -746.632  
  24353542.735   127978730.20046      3939.335    24353546.106    99723702.09348
      3069.613  
  24010316.428   126175068.78447     -3855.827    24010318.776    98318249.77048
     -3004.542  
  20531646.472   107894565.18749      1495.046    20531645.153    84073694.02649
      1164.973  
  19523093.631   104178987.11809      1860.862    19523098.290    81028137.35008
      1447.339  
  23490252.082   125745166.16406      4140.444    23490255.862    97801801.11205
      3220.351  
  20593284.530   110082934.82708     -3052.757    20593291.069    85620093.28106
     -2374.366  
  23306324.897   124673122.28504      -130.921    23306329.669    96968003.82205
      -101.823  
  19501451.260   104209877.07609     -1318.487    19501455.322    81052165.33108
     -1025.492  
  20053484.741   107122145.55909      2626.988    20053490.021    83317260.66808
      2043.215  
  23457638.509   125042436.18305     -4199.522           0.000           0.0000 
         0.000  
 20 10 03 11 17 35.0000000  0 15G22G12G 1G 3G32G26G10G31R 2R 3R 1R19
                                R11R12R10
  22687843.477   119225449.46048      1591.878    22687840.114    92902922.69447
      1240.422  
  22745263.847   119527205.00848     -2363.441    22745262.828    93138085.73447
     -1841.648  
  24162637.353   126975516.36547     -2201.542    24162640.123    98941975.81749
     -1715.496  
  23668311.131   124377845.13247      2967.413    23668313.311    96917787.84649
      2312.266  
  20335431.237   106863453.60749      -959.897    20335432.526    83270240.18049
      -747.976  
  24349794.657   127959034.17146      3939.312    24349798.007    99708354.53448
      3069.594  
  24013985.554   126194350.58047     -3856.112    24013987.948    98333274.54448
     -3004.765  
  20530225.047   107887095.58249      1493.167    20530223.721    84067873.55949
      1163.508  
  19521351.456   104169690.34809      1858.226    19521356.058    81020906.53208
      1445.288  
  23486385.264   125724466.81407      4139.750    23486388.295    97785701.53906
      3219.800  
  20596141.160   110098205.14808     -3054.854    20596147.728    85631970.19406
     -2376.004  
  23306449.885   124673791.04504      -135.726    23306454.586    96968523.95505
      -105.570  
  19502686.595   104216478.32909     -1321.530    19502690.672    81057299.64108
     -1027.859  
  20051027.185   107109017.89209      2624.374    20051032.473    83307050.26408
      2041.179  
  23461577.768   125063434.71105     -4199.433           0.000           0.0000 
         0.000  
 20 10 03 11 17 40.0000000  0 15G22G12G 1G 3G32G26G10G31R 2R 3R 1R19
                                R11R12R10
  22686330.684   119217499.67848      1588.617    22686327.292    92896728.06647
      1237.882  
  22747514.329   119539031.27848     -2366.531    22747513.315    93147301.00946
     -1844.054  
  24164733.526   126986531.89247     -2204.308    24164736.314    98950559.37049
     -1717.641  
  23665489.252   124363016.08847      2964.527    23665491.434    96906232.76349
      2310.020  
  20336346.104   106868261.23649      -962.699    20336347.380    83273986.38649
      -750.155  
  24346046.807   127939339.46146      3939.121    24346050.199    99693008.01248
      3069.445  
  24017655.406   126213635.90747     -3857.819    24017657.839    98348302.07148
     -3006.098  
  20528805.994   107879638.40549      1490.175    20528804.654    84062062.78249
      1161.175  
  19519612.154   104160409.10309      1854.675    19519616.756    81013687.78408
      1442.523  
  23482518.699   125703768.91306      4139.526    23482523.203    97769603.24005
      3219.632  
  20599000.263   110113488.78708     -3058.245    20599006.870    85643857.46606
     -2378.640  
  23306579.087   124674481.68904      -139.879    23306583.607    96969061.10205
      -108.796  
  19503925.295   104223097.60009     -1325.601    19503929.393    81062447.96108
     -1031.026  
  20048572.620   107095906.04709      2620.722    20048577.910    83296852.16908
      2038.339  
  23465517.465   125084435.73305     -4200.270           0.000           0.0000 
         0.000  
