     2.11           OBSERVATION DATA    M                   RINEX VERSION / TYPE
LEICA GEO OFFICE 8.4                    2-10-20 23:22       PGM / RUN BY / DATE
                                                            OBSERVER / AGENCY
SUTY                                                        MARKER NAME
SUTY                                                        MARKER NUMBER
468588              LEICA GX1220GG      5.60                REC # / TYPE / VERS
                    LEIAX1202GG                             ANT # / TYPE
 -1228635.6561  3807159.3828  4951916.4653                  APPROX POSITION XYZ
        1.4520        0.0000        0.0000                  ANTENNA: DELTA H/E/N
L1PhaOff:   0.0644  L2PhaOff:   0.0640                      COMMENT
     1     1                                                WAVELENGTH FACT L1/2
     6    C1    L1    D1    P2    L2    D2                  # / TYPES OF OBSERV
  2020    10     2     6    39   40.0000000     GPS         TIME OF FIRST OBS
  2020    10     2     8    11   45.0000000     GPS         TIME OF LAST OBS
    18                                                      LEAP SECONDS
    21                                                      # OF SATELLITES
          C1    L1    D1    P2    L2    D2                  COMMENT
   G 1     0     0     0     0     0     0                  PRN / # OF OBS
   G 2     0     0     0     0     0     0                  PRN / # OF OBS
   G 3     0     0     0     0     0     0                  PRN / # OF OBS
   G 4     0     0     0     0     0     0                  PRN / # OF OBS
   G 5     0     0     0     0     0     0                  PRN / # OF OBS
   G 6     0     0     0     0     0     0                  PRN / # OF OBS
   G 7     0     0     0     0     0     0                  PRN / # OF OBS
   G 8   602   602   602   598   598   598                  PRN / # OF OBS
   G 9     0     0     0     0     0     0                  PRN / # OF OBS
   G10  1106  1106  1106  1106  1106  1106                  PRN / # OF OBS
   G11     0     0     0     0     0     0                  PRN / # OF OBS
   G12     0     0     0     0     0     0                  PRN / # OF OBS
   G13   757   757   757   757   757   757                  PRN / # OF OBS
   G14     0     0     0     0     0     0                  PRN / # OF OBS
   G15  1106  1106  1106  1106  1106  1106                  PRN / # OF OBS
   G16     0     0     0     0     0     0                  PRN / # OF OBS
   G17     0     0     0     0     0     0                  PRN / # OF OBS
   G18  1105  1105  1105  1105  1105  1105                  PRN / # OF OBS
   G19     0     0     0     0     0     0                  PRN / # OF OBS
   G20  1106  1106  1106  1106  1106  1106                  PRN / # OF OBS
   G21   720   720   720   719   719   719                  PRN / # OF OBS
   G22     0     0     0     0     0     0                  PRN / # OF OBS
   G23  1106  1106  1106  1106  1106  1106                  PRN / # OF OBS
   G24  1106  1106  1106  1106  1106  1106                  PRN / # OF OBS
   G25     0     0     0     0     0     0                  PRN / # OF OBS
   G26     0     0     0     0     0     0                  PRN / # OF OBS
   G27   844   844   844   844   844   844                  PRN / # OF OBS
   G28     0     0     0     0     0     0                  PRN / # OF OBS
   G29     0     0     0     0     0     0                  PRN / # OF OBS
   G30     0     0     0     0     0     0                  PRN / # OF OBS
   G31     0     0     0     0     0     0                  PRN / # OF OBS
   G32   493   493   493   493   493   493                  PRN / # OF OBS
   R 1     0     0     0     0     0     0                  PRN / # OF OBS
   R 2     0     0     0     0     0     0                  PRN / # OF OBS
   R 3     0     0     0     0     0     0                  PRN / # OF OBS
   R 4     0     0     0     0     0     0                  PRN / # OF OBS
   R 5   375   375   375   341   341   341                  PRN / # OF OBS
   R 6  1106  1106  1106     0     0     0                  PRN / # OF OBS
   R 7  1106  1106  1106  1106  1106  1106                  PRN / # OF OBS
   R 8   507   507   507   505   505   505                  PRN / # OF OBS
   R 9     0     0     0     0     0     0                  PRN / # OF OBS
   R10     0     0     0     0     0     0                  PRN / # OF OBS
   R11     0     0     0     0     0     0                  PRN / # OF OBS
   R12     0     0     0     0     0     0                  PRN / # OF OBS
   R13     0     0     0     0     0     0                  PRN / # OF OBS
   R14     0     0     0     0     0     0                  PRN / # OF OBS
   R15  1101  1101  1101  1103  1103  1103                  PRN / # OF OBS
   R16  1100  1100  1100  1100  1100  1100                  PRN / # OF OBS
   R17     0     0     0     0     0     0                  PRN / # OF OBS
   R18     0     0     0     0     0     0                  PRN / # OF OBS
   R19     0     0     0     0     0     0                  PRN / # OF OBS
   R20     0     0     0     0     0     0                  PRN / # OF OBS
   R21   683   683   683   683   683   683                  PRN / # OF OBS
   R22  1104  1104  1104  1105  1105  1105                  PRN / # OF OBS
   R23   874   874   874   842   842   842                  PRN / # OF OBS
   R24    24    24    24    22    22    22                  PRN / # OF OBS
                                                            END OF HEADER
 20 10 02 06 39 40.0000000  0 14G27G24G15G18G20G23G10G13R15R 6R 7R21
                                R22R16
  23867529.687   125424714.70747       -18.262    23867532.061    97733553.35749
       -14.230  
  22130083.796   116294374.14748      3076.022    22130086.282    90619003.30249
      2396.901  
  20286578.316   106606738.43249     -1349.714    20286577.809    83070202.03149
     -1051.727  
  20569184.586   108091817.02849     -1197.343    20569184.538    84227386.22048
      -933.000  
  20650104.136   108517064.75649      1828.820    20650103.109    84558767.33548
      1425.051  
  20987773.409   110291530.85749      1916.777    20987773.273    85941466.99048
      1493.590  
  23435558.600   123154695.26248      3046.179    23435561.006    95964705.50249
      2373.652  
  22232794.024   116834120.50557     -2953.089    22232793.321    91039571.24054
     -2301.104  
  21725300.359   116093418.11805  -2097152.000    21725306.708    90294907.14705
  -2097152.000  
  19275742.721   102859097.67508      -301.680           0.000           0.0000 
         0.000  
  21233683.573   113665610.54008      2738.503    21233687.413    88406617.44807
      2129.944  
  20994557.032   112346117.48808     -3423.448    20994560.851    87380354.30907
     -2662.687  
  20345815.587   108607364.58708       497.199    20345819.885    84472400.43304
       386.707  
  22582552.886   120631955.39104      3762.613    22582558.966    93824872.36505
      2926.477  
 20 10 02 06 39 45.0000000  0 15G27G24G15G18G20G23G10G13R15R 6R 7R21
                                R22R16R 5
  23867548.402   125424813.05647       -20.937    23867550.745    97733629.98849
       -16.319  
  22127157.795   116278997.81348      3074.515    22127160.247    90607021.74349
      2395.727  
  20287863.403   106613491.57549     -1351.613    20287862.889    83075464.21749
     -1053.210  
  20570325.088   108097810.31349     -1199.905    20570325.007    84232056.31348
      -934.996  
  20648364.667   108507923.75649      1827.707    20648363.643    84551644.48148
      1424.188  
  20985950.137   110281949.56449      1915.793    20985950.022    85934001.05148
      1492.820  
  23432660.197   123139463.77048      3046.410    23432662.571    95952836.80249
      2373.820  
  22235604.195   116848887.99348     -2953.660    22235603.545    91051078.35546
     -2301.558  
  21724856.977   116091048.82108  -2097152.000    21724863.324    90293064.34907
  -2097152.000  
  19276026.218   102860610.33908      -303.516           0.000           0.0000 
         0.000  
  21231126.071   113651920.12408      2737.702    21231129.914    88395969.34807
      2129.324  
  20997756.809   112363240.04808     -3425.694    20997760.609    87393671.85107
     -2664.434  
  20345351.718   108604888.45807       493.437    20345356.046    84470474.55904
       383.781  
  22579031.571   120613145.25005      3761.519    22579037.669    93810242.28905
      2925.629  
  22385595.182   119663835.06617     -3360.351    22385600.308    93071892.89917
     -2613.604  
 20 10 02 06 39 50.0000000  0 15G27G24G15G18G20G23G10G13R15R 6R 7R21
                                R22R16R 5
  23867569.931   125424926.09847       -23.831    23867572.218    97733718.07349
       -18.574  
  22124233.389   116263629.95648      3072.917    22124235.836    90595046.79749
      2394.480  
  20289150.583   106620255.75149     -1354.027    20289150.068    83080735.00149
     -1055.090  
  20571468.191   108103817.32749     -1202.663    20571468.111    84236737.09948
      -937.144  
  20646626.627   108498790.23449      1826.031    20646625.569    84544527.45248
      1422.879  
  20984128.123   110272374.78049      1914.456    20984128.016    85926540.17748
      1491.781  
  23429761.883   123124233.12348      3046.145    23429764.202    95940968.77849
      2373.617  
  22238415.429   116863661.12448     -2955.129    22238414.792    91062589.88046
     -2302.703  
  21724417.390   116088699.79708  -2097152.000    21724423.737    90291237.33407
  -2097152.000  
  19276311.603   102862133.20808      -305.449           0.000           0.0000 
         0.000  
  21228569.604   113638235.31308      2736.359    21228573.494    88385325.62007
      2128.280  
  21000959.069   112380375.86308     -3428.323    21000962.822    87406999.70307
     -2666.472  
  20344891.872   108602433.73307       489.129    20344896.170    84468565.32704
       380.434  
  22575511.753   120594342.29704      3759.984    22575517.730    93795617.76305
      2924.429  
  22388739.050   119680639.31107     -3360.655    22388744.116    93084962.84307
     -2613.854  
 20 10 02 06 39 55.0000000  0 15G27G24G15G18G20G23G10G13R15R 6R 7R21
                                R22R16R 5
  23867594.215   125425053.67947       -27.988    23867596.487    97733817.48249
       -21.812  
  22121310.538   116248270.23848      3070.476    22121312.965    90583078.19349
      2392.577  
  20290439.829   106627030.78749     -1356.727    20290439.308    83086014.25449
     -1057.191  
  20572613.872   108109837.95249     -1206.202    20572613.805    84241428.49248
      -939.897  
  20644889.979   108489664.05649      1823.871    20644888.916    84537416.14548
      1421.198  
  20982307.319   110262806.39349      1912.280    20982307.221    85919084.29448
      1490.085  
  23426863.724   123109003.12948      3045.323    23426865.992    95929101.25049
      2372.979  
  22241227.693   116878439.63948     -2957.062    22241227.073    91074105.60646
     -2304.206  
  21723981.580   116086370.96208  -2097152.000    21723987.930    90289426.03007
  -2097152.000  
  19276598.804   102863666.02108      -308.288           0.000           0.0000 
         0.000  
  21226014.165   113624555.87808      2734.641    21226018.069    88374686.06207
      2126.941  
  21004163.745   112397524.82408     -3431.854    21004167.500    87420337.78207
     -2669.226  
  20344436.074   108600000.52907       483.734    20344440.350    84466672.83704
       376.238  
  22571993.177   120575546.91505      3757.667    22571999.238    93780999.15605
      2922.633  
  22391882.965   119697444.21407     -3361.613    22391887.636    93098033.33407
     -2614.594  
 20 10 02 06 40  0.0000000  0 15G27G24G15G18G20G23G10G13R15R 6R 7R21
                                R22R16R 5
  23867622.239   125425200.57348       -30.477    23867624.437    97733931.93149
       -23.749  
  22118390.163   116232923.75148      3068.569    22118392.602    90571119.89049
      2391.093  
  20291732.064   106633821.56149     -1359.250    20291731.541    83091305.76349
     -1059.159  
  20573763.075   108115877.08549     -1209.199    20573762.999    84246134.31248
      -942.238  
  20643155.663   108480550.13148      1821.667    20643154.586    84530314.38747
      1419.476  
  20980488.691   110253249.34748      1910.327    20980488.576    85911637.24747
      1488.562  
  23423966.646   123093778.79048      3044.999    23423968.912    95917238.12949
      2372.723  
  22244041.901   116893228.46548     -2958.218    22244041.292    91085629.36346
     -2305.109  
  21723550.461   116084067.19108  -2097152.000    21723556.807    90287634.19407
  -2097152.000  
  19276888.879   102865213.82107      -310.465           0.000           0.0000 
         0.000  
  21223460.658   113610886.88208      2733.116    21223464.580    88364054.62607
      2125.757  
  21007371.857   112414691.86008     -3434.707    21007375.584    87433689.91007
     -2671.440  
  20343985.177   108597593.73707       479.019    20343989.456    84464800.89503
       372.569  
  22568476.801   120556763.84405      3755.448    22568483.019    93766390.11705
      2920.906  
  22395027.626   119714254.88307     -3362.483    22395032.459    93111108.27807
     -2615.272  
 20 10 02 06 40  5.0000000  0 14G27G24G15G18G20G23G10R15R 6R 7R21R22
                                R16R 5
  23867653.569   125425365.18247       -34.855    23867655.756    97734060.21049
       -27.160  
  22115471.981   116217588.63548      3065.738    22115474.415    90559170.46249
      2388.887  
  20293026.920   106640626.13749     -1362.538    20293026.409    83096608.03349
     -1061.718  
  20574915.434   108121932.77649     -1212.996    20574915.357    84250853.02748
      -945.195  
  20641423.291   108471446.51549      1819.434    20641422.226    84523220.66348
      1417.737  
  20978671.813   110243701.58649      1908.405    20978671.707    85904197.44248
      1487.069  
  23421070.317   123078558.19648      3043.441    23421072.549    95905377.94249
      2371.512  
  21723123.682   116081786.61408  -2097152.000    21723130.030    90285860.41907
  -2097152.000  
  19277181.383   102866774.77608      -313.765           0.000           0.0000 
         0.000  
  21220908.761   113597226.37608      2731.199    21220912.675    88353429.79007
      2124.265  
  21010582.918   112431874.96308     -3438.426    21010586.673    87447054.54807
     -2674.335  
  20343538.856   108595211.27707       473.773    20343543.153    84462947.86104
       368.488  
  22564962.396   120537991.24205      3752.729    22564968.728    93751789.21105
      2918.789  
  22398172.883   119731068.21207     -3363.547    22398178.086    93124185.09316
     -2616.094  
 20 10 02 06 40 10.0000000  0 15G27G24G15G18G20G23G10G13R15R 6R 7R21
                                R22R16R 5
  23867688.287   125425547.53247       -38.234    23867690.429    97734202.28449
       -29.796  
  22112556.005   116202265.01147      3063.859    22112558.428    90547230.01348
      2387.425  
  20294324.479   106647444.85449     -1365.097    20294323.968    83101921.31949
     -1063.710  
  20576070.996   108128005.32549     -1216.237    20576070.920    84255584.89548
      -947.718  
  20639692.948   108462353.56449      1817.604    20639691.874    84516135.25448
      1416.313  
  20976856.788   110234163.56449      1906.605    20976856.658    85896765.21348
      1485.663  
  23418174.745   123063341.52148      3042.897    23418176.908    95893520.80849
      2371.090  
  22249675.148   116922831.44358     -2961.898    22249674.559    91108697.61856
     -2307.972  
  21722701.294   116079529.50208  -2097152.000    21722707.645    90284104.89607
  -2097152.000  
  19277476.467   102868349.24308      -316.039           0.000           0.0000 
         0.000  
  21218358.485   113583574.58108      2729.636    21218362.392    88342811.73407
      2123.050  
  21013797.045   112449074.40308     -3441.434    21013800.801    87460431.86507
     -2676.680  
  20343097.139   108592853.51507       469.104    20343101.397    84461114.04504
       364.854  
  22561450.067   120519229.26006      3751.312    22561456.385    93737196.58905
      2917.691  
  22401319.111   119747886.66707     -3364.194    22401324.227    93137266.07806
     -2616.616  
 20 10 02 06 40 15.0000000  0 15G27G24G15G18G20G23G10G13R15R 6R 7R21
                                R22R16R 5
  23867725.880   125425744.92847       -40.980    23867727.992    97734356.09949
       -31.938  
  22109641.746   116186950.41647      3061.737    22109644.115    90535296.51449
      2385.762  
  20295624.209   106654274.98349     -1367.320    20295623.698    83107243.49549
     -1065.448  
  20577229.250   108134092.02149     -1218.855    20577229.173    84260327.74948
      -949.762  
  20637964.131   108453268.53749      1816.144    20637963.042    84509056.00648
      1415.172  
  20975043.098   110224632.49949      1905.316    20975042.966    85889338.41648
      1484.660  
  23415279.343   123048126.14148      3043.043    23415281.538    95881664.65749
      2371.203  
  22252493.660   116937642.94849     -2963.116    22252493.100    91120239.04346
     -2308.926  
  21722282.768   116077293.02508  -2097152.000    21722289.112    90282365.38807
  -2097152.000  
  19277773.464   102869934.10608      -318.272           0.000           0.0000 
         0.000  
  21215809.328   113569928.71108      2728.422    21215813.218    88332198.26607
      2122.102  
  21017013.731   112466287.50808     -3443.992    21017017.500    87473819.85407
     -2678.660  
  20342659.614   108590517.79208       464.585    20342663.839    84459297.38004
       361.339  
  22557939.295   120500475.37803      3750.293    22557945.628    93722610.21004
      2916.886  
  22404465.550   119764706.24608     -3364.164    22404470.504    93150347.97106
     -2616.573  
 20 10 02 06 40 20.0000000  0 14G27G24G15G18G20G23G10G13R15R 6R 7R21
                                R22R 5
  23867766.101   125425956.47847       -43.636    23867768.235    97734520.94749
       -34.003  
  22106728.974   116171643.69546      3060.723    22106731.314    90523369.23748
      2384.984  
  20296925.942   106661115.63248     -1369.054    20296925.421    83112573.86549
     -1066.797  
  20578390.040   108140192.01648     -1220.995    20578389.955    84265080.98847
      -951.429  
  20636236.644   108444190.53349      1815.167    20636235.539    84501982.23547
      1414.414  
  20973230.547   110215107.47948      1904.538    20973230.401    85881916.32747
      1484.055  
  23412383.975   123032911.16048      3043.136    23412386.157    95869808.83949
      2371.272  
  22255313.139   116952459.41148     -2963.437    22255312.591    91131784.32344
     -2309.171  
  21721867.940   116075076.30908  -2097152.000    21721874.283    90280641.27305
  -2097152.000  
  19278072.284   102871528.79007      -319.710           0.000           0.0000 
         0.000  
  21213261.104   113556287.96208      2727.819    21213265.027    88321588.82707
      2121.641  
  21020232.806   112483513.24307     -3446.215    21020236.577    87487217.64406
     -2680.394  
  20342225.963   108588203.02607       460.991    20342230.224    84457497.01904
       358.550  
  22407612.043   119781526.08807     -3363.746    22407617.083    93163430.09004
     -2616.242  
 20 10 02 06 40 25.0000000  0 14G27G24G15G18G20G23G10G13R15R 6R 7R21
                                R22R 5
  23867809.612   125426185.13247       -48.066    23867811.720    97734699.10849
       -37.460  
  22103818.266   116156347.63745      3057.608    22103820.628    90511450.24748
      2382.554  
  20298230.213   106667969.56148     -1372.586    20298229.696    83117914.65449
     -1069.543  
  20579553.871   108146308.02048     -1225.148    20579553.773    84269846.72247
      -954.659  
  20634511.018   108435122.39949      1812.167    20634509.923    84494916.15747
      1412.074  
  20971419.684   110205591.35749      1901.929    20971419.549    85874501.16047
      1482.020  
  23409489.251   123017699.37948      3041.648    23409491.453    95857955.47849
      2370.112  
  22258134.070   116967283.59648     -2966.390    22258133.552    91143335.75243
     -2311.465  
  21721457.358   116072882.28507  -2097152.000    21721463.733    90278934.94204
  -2097152.000  
  19278373.523   102873136.01007      -323.241           0.000           0.0000 
         0.000  
  21210714.415   113542655.30408      2725.440    21210718.308    88310985.64507
      2119.785  
  21023454.749   112500754.48107     -3450.667    21023458.507    87500627.46305
     -2683.859  
  20341796.899   108585912.31007       455.069    20341801.104    84455715.32404
       353.940  
  22410759.328   119798349.25407     -3365.347    22410764.250    93176514.87304
     -2617.484  
 20 10 02 06 40 30.0000000  0 14G27G24G15G18G20G23G10G13R15R 6R 7R21
                                R22R 5
  23867856.653   125426432.55347       -51.566    23867858.776    97734891.85449
       -40.191  
  22100909.941   116141064.22346      3054.992    22100912.298    90499541.09148
      2380.512  
  20299537.353   106674838.62948     -1375.542    20299536.831    83123267.15549
     -1071.855  
  20580721.111   108152441.87748     -1228.788    20580720.987    84274626.36346
      -957.495  
  20632787.626   108426065.94549      1809.882    20632786.524    84487859.18747
      1410.297  
  20969610.874   110196085.96649      1899.894    20969610.720    85867094.37147
      1480.438  
  23406595.521   123002492.63048      3040.746    23406597.716    95846106.08049
      2369.414  
  22260956.819   116982117.42948     -2967.870    22260956.302    91154894.56444
     -2312.625  
  21721051.354   116070712.72407  -2097152.000    21721057.721    90277247.47104
  -2097152.000  
  19278677.459   102874757.52807      -325.914           0.000           0.0000 
         0.000  
  21208169.559   113529032.43008      2723.448    21208173.427    88300390.05007
      2118.234  
  21026679.887   112518013.03107     -3453.816    21026683.714    87514050.77005
     -2686.305  
  20341372.603   108583647.32607       450.116    20341376.745    84453953.67504
       350.085  
  22413907.604   119815177.46507     -3366.418    22413912.201    93189603.44503
     -2618.328  
 20 10 02 06 40 35.0000000  0 14G27G24G15G18G20G23G10G13R15R 6R 7R21
                                R22R 5
  23867907.516   125426699.87047       -55.187    23867909.667    97735100.18349
       -43.000  
  22098004.149   116125794.55447      3052.909    22098006.594    90487642.65549
      2378.891  
  20300847.583   106681723.90649     -1378.352    20300847.054    83128632.26649
     -1074.050  
  20581891.929   108158594.68949     -1232.187    20581891.840    84279420.74648
      -960.148  
  20631066.672   108417022.33449      1807.945    20631065.575    84480812.21948
      1408.789  
  20967804.323   110186592.47949      1898.007    20967804.170    85859696.84948
      1478.968  
  23403702.976   122987292.07848      3039.742    23403705.143    95834261.50849
      2368.628  
  22263781.669   116996962.20948     -2969.448    22263781.037    91166461.85046
     -2313.874  
  21720650.194   116068569.04408  -2097152.000    21720656.550    90275580.12007
  -2097152.000  
  19278984.280   102876394.68808      -328.758           0.000           0.0000 
         0.000  
  21205626.744   113515420.50808      2721.741    21205630.613    88289803.03007
      2116.913  
  21029908.453   112535290.08208     -3456.938    21029912.333    87527488.49207
     -2688.730  
  20340953.332   108581409.29007       445.347    20340957.524    84452212.98404
       346.383  
  22417056.917   119832012.00607     -3367.042    22417061.322    93202696.91407
     -2618.827  
 20 10 02 06 40 40.0000000  0 14G27G24G15G18G20G23G10G13R15R 6R 7R21
                                R22R 5
  23867961.370   125426982.90747       -58.276    23867963.514    97735320.73849
       -45.410  
  22095100.222   116110534.28648      3051.183    22095102.627    90475751.52149
      2377.543  
  20302160.100   106688621.22549     -1380.554    20302159.567    83134006.78949
     -1075.762  
  20583065.589   108164762.28449     -1234.878    20583065.507    84284226.65348
      -962.246  
  20629347.337   108407987.23049      1806.202    20629346.275    84473771.88248
      1407.430  
  20965999.221   110177106.53849      1896.637    20965999.050    85852305.21848
      1477.898  
  23400810.786   122972093.42648      3039.690    23400812.940    95822418.41749
      2368.590  
  22266607.770   117011813.40848     -2970.698    22266607.152    91178034.19545
     -2314.836  
  21720252.990   116066446.50807  -2097152.000    21720259.339    90273929.22807
  -2097152.000  
  19279293.184   102878042.99908      -330.660           0.000           0.0000 
         0.000  
  21203085.086   113501815.15808      2720.534    21203089.022    88279221.10207
      2115.972  
  21033139.747   112552581.23508     -3459.488    21033143.576    87540937.19907
     -2690.710  
  20340538.304   108579193.81108       441.132    20340542.499    84450489.84104
       343.101  
  22420206.365   119848848.05007     -3367.312    22420210.871    93215791.59906
     -2619.023  
 20 10 02 06 40 45.0000000  0 14G27G24G15G18G20G23G10G13R15R 6R 7R21
                                R22R 5
  23868018.212   125427281.73747       -61.809    23868020.369    97735553.58149
       -48.168  
  22092198.161   116095283.88248      3049.008    22092200.566    90463868.09849
      2375.851  
  20303474.918   106695530.60949     -1383.046    20303474.389    83139390.73149
     -1077.702  
  20584242.067   108170944.68949     -1237.957    20584241.987    84289044.11248
      -964.640  
  20627629.662   108398960.78749      1804.504    20627628.608    84466738.28948
      1406.104  
  20964195.579   110167628.33649      1894.777    20964195.400    85844919.60248
      1476.444  
  23397918.987   122956896.79448      3039.355    23397921.093    95810576.88449
      2368.328  
  22269435.134   117026671.27748     -2972.597    22269434.566    91189611.76145
     -2316.313  
  21719859.798   116064345.41107  -2097152.000    21719866.151    90272295.05407
  -2097152.000  
  19279604.230   102879702.61108      -333.015           0.000           0.0000 
         0.000  
  21200544.706   113488216.46208      2718.960    21200548.655    88268644.33507
      2114.746  
  21036373.733   112569886.60408     -3462.569    21036377.509    87554396.91607
     -2693.113  
  20340127.484   108577000.98607       436.222    20340131.714    84448784.30004
       339.280  
  22423356.279   119865686.20607     -3368.430    22423360.752    93228887.94406
     -2619.894  
 20 10 02 06 40 50.0000000  0 15G27G24G15G18G20G23G10G13R15R 6R 7R21
                                R22R16R 5
  23868078.294   125427597.50047       -65.055    23868080.454    97735799.65249
       -50.691  
  22089298.165   116080044.30248      3046.940    22089300.548    90451993.10349
      2374.237  
  20304792.255   106702453.23349     -1385.753    20304791.712    83144784.97949
     -1079.812  
  20585421.600   108177143.11449     -1241.320    20585421.501    84293874.05748
      -967.265  
  20625913.875   108389944.23349      1802.249    20625912.822    84459712.40348
      1404.352  
  20962393.630   110158159.02949      1892.910    20962393.449    85837540.91748
      1474.995  
  23395027.770   122941703.37748      3038.344    23395029.890    95798737.85849
      2367.535  
  22272263.947   117041536.81948     -2974.000    22272263.381    91201195.28846
     -2317.405  
  21719470.846   116062266.96508  -2097152.000    21719477.197    90270678.48407
  -2097152.000  
  19279917.588   102881374.71808      -335.902           0.000           0.0000 
         0.000  
  21198005.888   113474625.91008      2717.160    21198009.826    88258073.90607
      2113.343  
  21039610.518   112587207.32708     -3465.784    21039614.341    87567868.57207
     -2695.612  
  20339721.220   108574832.22407       431.461    20339725.439    84447097.48204
       335.578  
  22533416.108   120369451.41615      3736.296    22533421.095    93620719.11315
      2906.008  
  22426506.793   119882527.38507     -3368.660    22426511.291    93241986.62206
     -2620.073  
 20 10 02 06 40 55.0000000  0 15G27G24G15G18G20G23G10G13R15R 6R 7R21
                                R22R16R 5
  23868141.566   125427929.90647       -67.749    23868143.706    97736058.68849
       -52.792  
  22086400.163   116064815.26148      3044.753    22086402.531    90440126.33149
      2372.535  
  20306112.050   106709388.80249     -1388.352    20306111.507    83150189.32349
     -1081.831  
  20586604.114   108183357.23649     -1244.352    20586604.022    84298716.22048
      -969.629  
  20624199.910   108380937.25749      1800.449    20624198.852    84452693.98148
      1402.949  
  20960593.317   110148698.32249      1891.405    20960593.159    85830168.93648
      1473.823  
  23392137.122   122926512.85548      3037.883    23392139.239    95786901.09349
      2367.180  
  22275094.194   117056409.80348     -2975.062    22275093.601    91212784.62946
     -2318.234  
  21719086.072   116060210.85108  -2097152.000    21719092.426    90269079.29107
  -2097152.000  
  19280233.213   102883059.14308      -338.089           0.000           0.0000 
         0.000  
  21195468.453   113461042.94308      2715.901    21195472.384    88247509.37707
      2112.362  
  21042850.106   112604543.13808     -3468.551    21042853.995    87581351.97307
     -2697.765  
  20339319.364   108572687.05707       426.668    20339323.578    84445429.02504
       331.851  
  22529920.838   120350776.84005      3733.801    22529925.762    93606194.44205
      2904.065  
  22429657.849   119899371.36607     -3368.937    22429662.329    93255087.49906
     -2620.288  
 20 10 02 06 41  0.0000000  0 15G27G24G15G18G20G23G10G13R15R 6R 7R21
                                R22R16R 5
  23868208.007   125428279.05547       -71.433    23868210.164    97736330.76049
       -55.664  
  22083504.156   116049596.76748      3042.871    22083506.518    90428267.76949
      2371.070  
  20307434.306   106716337.30449     -1390.890    20307433.755    83155603.73849
     -1083.816  
  20587789.616   108189587.08949     -1247.461    20587789.524    84303570.65348
      -972.051  
  20622487.766   108371939.87849      1798.628    20622486.716    84445683.04048
      1401.527  
  20958794.662   110139246.26449      1889.671    20958794.494    85822803.70148
      1472.473  
  23389247.029   122911325.28348      3037.374    23389249.142    95775066.62849
      2366.784  
  22277925.866   117071290.24948     -2976.625    22277925.219    91224379.78645
     -2319.448  
  21718705.489   116058177.13408  -2097152.000    21718711.844    90267497.51407
  -2097152.000  
  19280551.116   102884755.75008      -340.555           0.000           0.0000 
         0.000  
  21192932.443   113447467.51508      2714.215    21192936.382    88236950.71907
      2111.054  
  21046092.516   112621894.02308     -3471.664    21046096.472    87594847.09007
     -2700.188  
  20338921.861   108570565.47407       422.136    20338926.102    84443778.89504
       328.323  
  22526426.446   120332112.14705      3731.730    22526431.546    93591677.47605
      2902.457  
  22432809.327   119916218.16507     -3369.367    22432813.907    93268190.55806
     -2620.621  
 20 10 02 06 41  5.0000000  0 15G27G24G15G18G20G23G10G13R15R 6R 7R21
                                R22R16R 5
  23868277.807   125428645.91747       -75.293    23868279.968    97736616.59549
       -58.671  
  22080610.379   116034389.96048      3039.886    22080612.729    90416418.31249
      2368.741  
  20308759.227   106723299.81049     -1394.077    20308758.676    83161029.06949
     -1086.293  
  20588978.294   108195833.69949     -1251.183    20588978.221    84308438.13648
      -974.952  
  20620777.639   108362953.13449      1796.090    20620776.602    84438680.37948
      1399.551  
  20956997.848   110129803.88149      1887.265    20956997.646    85815446.00248
      1470.598  
  23386357.680   122896141.71448      3036.188    23386359.797    95763235.27749
      2365.859  
  22280759.118   117086179.12148     -2978.770    22280758.491    91235981.49746
     -2321.121  
  21718329.308   116056166.93508  -2097152.000    21718335.662    90265934.02607
  -2097152.000  
  19280871.511   102886465.53708      -343.512           0.000           0.0000 
         0.000  
  21190398.086   113433900.90408      2712.386    21190402.019    88226398.91407
      2109.633  
  21049337.955   112639260.99008     -3475.387    21049341.941    87608354.72807
     -2703.081  
  20338529.030   108568468.67007       416.629    20338533.324    84442148.05304
       324.038  
  22522933.842   120313458.28105      3729.148    22522939.391    93577168.91705
      2900.449  
  22435961.593   119933069.02007     -3370.680    22435966.252    93281296.77106
     -2621.645  
 20 10 02 06 41 10.0000000  0 15G27G24G15G18G20G23G10G13R15R 6R 7R21
                                R22R16R 5
  23868350.825   125429029.78647       -78.355    23868353.029    97736915.73849
       -61.054  
  22077718.700   116019194.08548      3038.395    22077721.028    90404577.37349
      2367.578  
  20310086.680   106730275.62349     -1396.336    20310086.130    83166464.77149
     -1088.055  
  20590170.040   108202096.39649     -1253.999    20590169.981    84313318.16348
      -977.147  
  20619069.419   108353976.37349      1794.441    20619068.391    84431685.50748
      1398.261  
  20955202.757   110120370.52249      1885.820    20955202.529    85808095.33048
      1469.469  
  23383468.984   122880961.48548      3035.813    23383471.097    95751406.53349
      2365.562  
  22283593.863   117101075.77148     -2980.042    22283593.199    91247589.27945
     -2322.113  
  21717957.370   116054179.40907  -2097152.000    21717963.724    90264388.17107
  -2097152.000  
  19281194.291   102888187.88708      -345.706           0.000           0.0000 
         0.000  
  21187865.210   113420342.28608      2710.917    21187869.166    88215853.33607
      2108.492  
  21052586.308   112656643.33508     -3477.879    21052590.242    87621874.33607
     -2705.016  
  20338140.749   108566395.84507       412.315    20338144.999    84440535.85804
       320.690  
  22519443.729   120294814.75705      3728.008    22519449.254    93562668.42705
      2899.562  
  22439114.496   119949922.93906     -3370.925    22439119.157    93294405.38106
     -2621.831  
 20 10 02 06 41 15.0000000  0 15G27G24G15G18G20G23G10G13R15R 6R 7R21
                                R22R16R 5
  23868427.048   125429430.24647       -81.394    23868429.226    97737227.78349
       -63.425  
  22074829.011   116004008.60248      3036.581    22074831.283    90392744.53749
      2366.168  
  20311416.578   106737264.22249     -1398.679    20311416.017    83171910.43449
     -1089.878  
  20591364.771   108208374.65849     -1256.987    20591364.695    84318210.31448
      -979.472  
  20617362.992   108345009.07249      1792.839    20617361.970    84424698.00048
      1397.020  
  20953409.265   110110945.65549      1884.531    20953409.052    85800751.27948
      1468.461  
  23380580.825   122865784.04048      3035.511    23380582.927    95739579.95949
      2365.332  
  22286429.981   117115979.67448     -2981.179    22286429.400    91259202.70446
     -2322.996  
  21717589.592   116052214.11607  -2097152.000    21717595.946    90262859.61207
  -2097152.000  
  19281519.303   102889922.33708      -347.960           0.000           0.0000 
         0.000  
  21185333.760   113406791.20408      2709.823    21185337.708    88205313.60107
      2107.636  
  21055837.432   112674040.53608     -3480.617    21055841.275    87635405.50207
     -2707.148  
  20337756.801   108564346.49407       407.992    20337761.062    84438941.91004
       317.324  
  22515955.565   120276180.89005      3726.151    22515961.053    93548175.42105
      2898.117  
  22442267.892   119966779.52107     -3371.050    22442272.523    93307516.03006
     -2621.934  
 20 10 02 06 41 20.0000000  0 15G27G24G15G18G20G23G10G13R15R 6R 7R21
                                R22R16R 5
  23868506.218   125429846.47947       -85.159    23868508.405    97737552.10149
       -66.362  
  22071941.188   115988832.92648      3034.030    22071943.416    90380919.33149
      2364.176  
  20312748.743   106744264.82849     -1401.633    20312748.189    83177365.45549
     -1092.180  
  20592562.300   108214667.71449     -1260.413    20592562.223    84323113.99348
      -982.145  
  20615658.251   108336050.53749      1790.512    20615657.226    84417717.32448
      1395.198  
  20951617.268   110101528.55749      1882.253    20951617.047    85793413.28748
      1466.691  
  23377693.041   122850608.66548      3034.563    23377695.151    95727755.00049
      2364.594  
  22289267.347   117130890.04148     -2983.062    22289266.741    91270821.17346
     -2324.468  
  21717225.833   116050270.29708  -2097152.000    21717232.186    90261347.74907
  -2097152.000  
  19281846.448   102891668.20508      -350.813           0.000           0.0000 
         0.000  
  21182803.631   113393247.06808      2707.792    21182807.544    88194779.28107
      2106.062  
  21059091.138   112691451.86808     -3483.979    21059094.965    87648947.63507
     -2709.765  
  20337377.205   108562319.96407       402.555    20337381.449    84437365.72604
       313.098  
  22512468.773   120257556.10505      3723.906    22512474.482    93533689.47005
      2896.366  
  22445421.602   119983638.06706     -3372.304    22445426.250    93320628.23906
     -2622.906  
 20 10 02 06 41 25.0000000  0 15G27G24G15G18G20G23G10G13R15R 6R 7R21
                                R22R16R 5
  23868588.658   125430279.60747       -88.156    23868590.799    97737889.58549
       -68.694  
  22069055.385   115973668.05748      3031.952    22069057.611    90369102.56749
      2362.563  
  20314083.424   106751278.56049     -1403.944    20314082.858    83182830.70249
     -1093.988  
  20593762.870   108220976.68849     -1263.101    20593762.794    84328030.06848
      -984.237  
  20613955.369   108327101.82949      1788.938    20613954.337    84410744.30948
      1393.976  
  20949826.960   110092120.32749      1880.843    20949826.720    85786082.19748
      1465.590  
  23374805.849   122835436.46348      3034.358    23374807.976    95715932.50049
      2364.438  
  22292106.149   117145808.04348     -2984.535    22292105.535    91282445.59045
     -2325.616  
  21716866.305   116048349.08907  -2097152.000    21716872.660    90259853.48107
  -2097152.000  
  19282175.940   102893426.59108      -352.914           0.000           0.0000 
         0.000  
  21180274.932   113379710.74308      2706.543    21180278.838    88184251.02907
      2105.086  
  21062347.695   112708878.27208     -3486.608    21062351.506    87662501.50807
     -2711.809  
  20337002.003   108560317.26407       398.237    20337006.297    84435808.06704
       309.737  
  22508983.672   120238941.54005      3721.944    22508989.655    93519211.51005
      2894.851  
  22448575.843   120000499.57606     -3372.194    22448580.533    93333742.73405
     -2622.823  
 20 10 02 06 41 30.0000000  0 15G27G24G15G18G20G23G10G13R15R 6R 7R21
                                R22R16R 5
  23868674.605   125430731.32448       -92.152    23868676.732    97738241.56249
       -71.812  
  22066172.011   115958515.88848      3029.069    22066174.250    90357295.68349
      2360.316  
  20315420.917   106758307.13349     -1407.253    20315420.340    83188307.49749
     -1096.566  
  20594966.804   108227303.34049     -1267.120    20594966.709    84332959.92848
      -987.370  
  20612254.698   108318164.74549      1786.155    20612253.673    84403780.34748
      1391.804  
  20948038.665   110082722.74649      1878.426    20948038.407    85778759.41748
      1463.707  
  23371919.606   122820269.24648      3032.902    23371921.745    95704113.89949
      2363.301  
  22294946.708   117160735.31348     -2986.530    22294946.067    91294077.22245
     -2327.172  
  21716511.355   116046452.34507  -2097152.000    21716517.716    90258378.26006
  -2097152.000  
  19282508.047   102895198.96408      -355.902           0.000           0.0000 
         0.000  
  21177748.030   113366184.13608      2704.206    21177751.964    88173730.34507
      2103.273  
  21065607.391   112726321.68508     -3490.598    21065611.234    87676068.58607
     -2714.913  
  20336631.618   108558340.31508       392.706    20336635.973    84434270.45104
       305.437  
  22505501.147   120220338.70505      3719.133    22505507.121    93504742.64105
      2892.659  
  22451731.195   120017365.95505     -3373.840    22451735.699    93346861.05304
     -2624.098  
 20 10 02 06 41 35.0000000  0 15G27G24G15G18G20G23G10G13R15R 6R 7R21
                                R22R16R 5
  23868764.089   125431201.56748       -94.976    23868766.231    97738608.01348
       -74.007  
  22063291.020   115943376.30148      3027.409    22063293.291    90345498.60749
      2359.020  
  20316761.223   106765350.46049     -1409.520    20316760.642    83193795.81249
     -1098.332  
  20596174.080   108233647.55649     -1269.984    20596173.989    84337903.47748
      -989.601  
  20610556.227   108309239.18649      1784.550    20610555.196    84396825.36648
      1390.554  
  20946252.379   110073335.71649      1877.097    20946252.105    85771444.84048
      1462.667  
  23369034.289   122805106.83548      3032.808    23369036.418    95692299.03049
      2363.222  
  22297789.013   117175671.72748     -2987.531    22297788.394    91305715.98046
     -2327.948  
  21716160.931   116044579.78608  -2097152.000    21716167.285    90256921.79907
  -2097152.000  
  19282842.780   102896985.29108      -357.940           0.000           0.0000 
         0.000  
  21175222.973   113352667.17908      2703.167    21175226.882    88163217.15307
      2102.460  
  21068870.236   112743781.95508     -3493.090    21068874.145    87689648.78307
     -2716.851  
  20336265.999   108556388.86407       388.297    20336270.390    84432752.64304
       302.003  
  22502021.028   120201747.84605      3718.108    22502026.916    93490283.10905
      2891.863  
  22454887.323   120034236.95907     -3374.059    22454891.828    93359982.90906
     -2624.277  
 20 10 02 06 41 40.0000000  0 15G27G24G15G18G20G23G10G13R15R 6R 7R21
                                R22R16R 5
  23868856.473   125431686.95547       -99.234    23868858.595    97738986.26048
       -77.323  
  22060411.812   115928246.02248      3024.815    22060414.089    90333708.78849
      2356.999  
  20318103.680   106772405.11949     -1412.184    20318103.099    83199292.94849
     -1100.402  
  20597384.036   108240005.91849     -1273.398    20597383.958    84342858.03448
      -992.262  
  20608859.298   108300321.70449      1782.562    20608858.272    84389876.68448
      1389.008  
  20944467.456   110063955.78949      1875.144    20944467.159    85764135.81648
      1461.152  
  23366149.270   122789945.89648      3031.675    23366151.390    95680485.32249
      2362.343  
  22300632.447   117190613.97948     -2989.250    22300631.856    91317359.29445
     -2329.284  
  21715814.422   116042728.14807  -2097152.000    21715820.775    90255481.62907
  -2097152.000  
  19283179.614   102898782.45208      -360.563           0.000           0.0000 
         0.000  
  21172699.034   113339156.30608      2701.401    21172702.944    88152708.69308
      2101.085  
  21072135.581   112761255.50608     -3496.265    21072139.570    87703239.32007
     -2719.320  
  20335904.534   108554459.43207       383.355    20335908.981    84431251.97804
       298.160  
  22498541.938   120183165.26705      3715.707    22498548.245    93475829.97805
      2889.996  
  22458043.596   120051109.16907     -3374.770    22458048.136    93373105.72906
     -2624.824  
 20 10 02 06 41 45.0000000  0 15G27G24G15G18G20G23G10G13R15R 6R 7R21
                                R22R16R 5
  23868951.837   125432188.03044      -103.371    23868953.905    97739376.82044
       -80.534  
  22057534.426   115913125.35448      3023.230    22057536.729    90321926.41849
      2355.757  
  20319448.387   106779471.66249     -1414.438    20319447.820    83204799.32649
     -1102.168  
  20598596.790   108246378.95449     -1276.070    20598596.726    84347824.02548
      -994.344  
  20607164.016   108291412.93548      1780.937    20607162.975    84382934.81846
      1387.745  
  20942684.006   110054583.63448      1873.644    20942683.698    85756832.87146
      1459.987  
  23363264.651   122774786.93247      3032.022    23363266.736    95668673.17747
      2362.625  
  22303477.078   117205562.55648     -2990.483    22303476.528    91329007.50045
     -2330.253  
  21715471.925   116040897.94607  -2097152.000    21715478.273    90254058.11907
  -2097152.000  
  19283518.521   102900590.70707      -362.352           0.000           0.0000 
         0.000  
  21170176.373   113325652.15108      2700.168    21170180.253    88142205.48706
      2100.132  
  21075403.534   112778742.98108     -3498.835    21075407.558    87716840.67807
     -2721.320  
  20335547.373   108552552.85206       378.851    20335551.817    84429769.09102
       294.663  
  22495065.035   120164591.92805      3713.688    22495071.294    93461384.05405
      2888.417  
  22461200.197   120067983.13507     -3374.961    22461204.776    93386229.89506
     -2624.976  
 20 10 02 06 41 50.0000000  0 15G27G24G15G18G20G23G10G13R15R 6R 7R21
                                R22R16R 5
  23869050.117   125432704.65147      -105.101    23869052.180    97739779.23849
       -81.914  
  22054658.882   115898014.20248      3021.004    22054661.188    90310151.52749
      2354.026  
  20320795.341   106786549.92549     -1417.012    20320794.783    83210314.88249
     -1104.163  
  20599812.302   108252766.54349     -1279.136    20599812.243    84352801.36348
      -996.734  
  20605470.342   108282512.61949      1778.933    20605469.294    84375999.48048
      1386.179  
  20940901.972   110045218.95049      1871.938    20940901.628    85749535.68748
      1458.648  
  23360380.344   122759629.82948      3031.160    23360382.409    95656862.43449
      2361.938  
  22306322.878   117220517.30248     -2991.859    22306322.337    91340660.58146
     -2331.319  
  21715133.393   116039088.93608  -2097152.000    21715139.751    90252651.15007
  -2097152.000  
  19283859.439   102902409.97208      -365.156           0.000           0.0000 
         0.000  
  21167654.927   113312154.55908      2698.655    21167658.772    88131707.34907
      2098.949  
  21078674.087   112796244.15208     -3501.766    21078678.084    87730452.69607
     -2723.597  
  20335194.410   108550668.58807       374.241    20335198.814    84428303.54604
       291.073  
  22491589.813   120146027.32405      3712.007    22491595.948    93446944.92705
      2887.116  
  22464357.100   120084858.74807     -3375.520    22464361.729    93399355.39406
     -2625.402  
 20 10 02 06 41 55.0000000  0 15G27G24G15G18G20G23G10G13R15R 6R 7R21
                                R22R16R 5
  23869151.750   125433238.83246      -107.953    23869153.883    97740195.47848
       -84.128  
  22051785.524   115882914.60748      3019.254    22051787.829    90298385.60149
      2352.660  
  20322144.883   106793641.81249     -1419.354    20322144.322    83215841.01849
     -1105.996  
  20601030.939   108259170.52249     -1282.124    20601030.900    84357791.46548
      -999.062  
  20603778.647   108273622.73348      1777.313    20603777.608    84369072.30547
      1384.918  
  20939121.742   110035863.74748      1870.409    20939121.401    85742245.92547
      1457.461  
  23357496.750   122744476.50547      3030.633    23357498.827    95645054.68148
      2361.539  
  22309170.230   117235480.08548     -2993.128    22309169.663    91352319.87445
     -2332.316  
  21714799.202   116037303.12107  -2097152.000    21714805.557    90251262.17307
  -2097152.000  
  19284202.809   102904242.22807      -367.437           0.000           0.0000 
         0.000  
  21165135.061   113298665.42508      2697.323    21165138.875    88121215.80606
      2097.918  
  21081947.533   112813760.96408     -3504.663    21081951.503    87744076.88007
     -2725.854  
  20334846.069   108548808.93406       369.940    20334850.431    84426857.15103
       287.727  
  22488116.553   120127473.60305      3710.175    22488122.639    93432514.25805
      2885.688  
  22467514.655   120101737.87707     -3375.930    22467519.322    93412483.58506
     -2625.730  
 20 10 02 06 42  0.0000000  0 15G27G24G15G18G20G23G10G13R15R 6R 7R21
                                R22R16R 5
  23869256.441   125433789.20847      -111.695    23869258.599    97740624.33349
       -87.039  
  22048914.122   115867825.57048      3016.601    22048916.475    90286627.95249
      2350.601  
  20323496.862   106800746.47949     -1422.203    20323496.295    83221377.12049
     -1108.211  
  20602252.554   108265590.08949     -1285.413    20602252.510    84362793.75548
     -1001.620  
  20602088.794   108264742.40149      1775.233    20602087.742    84362152.55648
      1383.296  
  20937343.147   110026517.10649      1868.522    20937342.792    85734962.81848
      1455.987  
  23354613.690   122729326.04448      3029.762    23354615.778    95633249.07649
      2360.839  
  22312018.926   117250450.11548     -2994.292    22312018.407    91363984.84845
     -2333.215  
  21714469.215   116035539.76707  -2097152.000    21714475.574    90249890.69206
  -2097152.000  
  19284548.464   102906086.58408      -370.086           0.000           0.0000 
         0.000  
  21162616.604   113285183.92608      2695.508    21162620.420    88110730.20407
      2096.507  
  21085223.713   112831292.46508     -3507.734    21085227.656    87757712.50307
     -2728.242  
  20334502.151   108546972.76107       364.769    20334506.422    84425429.00904
       283.706  
  22484645.177   120108929.76205      3707.961    22484651.152    93418091.28805
      2883.968  
  22470672.765   120118619.63106     -3376.554    22470677.412    93425613.84506
     -2626.210  
 20 10 02 06 42  5.0000000  0 15G27G24G15G18G20G23G10G13R15R 6R 7R21
                                R22R16R 5
  23869364.661   125434357.81347      -115.188    23869366.805    97741067.41849
       -89.758  
  22046045.083   115852748.69648      3014.293    22046047.409    90274879.73149
      2348.800  
  20324851.545   106807865.35749     -1424.887    20324850.986    83226924.32349
     -1110.300  
  20603477.406   108272026.73049     -1288.765    20603477.360    84367809.30948
     -1004.237  
  20600401.062   108255873.21649      1773.136    20600400.008    84355241.50648
      1381.660  
  20935566.483   110017180.61149      1866.511    20935566.110    85727687.63448
      1454.426  
  23351731.459   122714179.97848      3028.987    23351733.575    95621446.96849
      2360.249  
  22314869.254   117265428.71648     -2995.991    22314868.732    91375656.48545
     -2334.543  
  21714143.648   116033800.03707  -2097152.000    21714150.014    90248537.59706
  -2097152.000  
  19284896.576   102907944.52308      -372.526           0.000           0.0000 
         0.000  
  21160099.860   113271711.44208      2693.879    21160103.648    88100251.61408
      2095.238  
  21088502.936   112848840.18608     -3510.718    21088506.805    87771360.72207
     -2730.563  
  20334162.873   108545161.73507       360.003    20334167.184    84424020.42504
       279.999  
  22481175.891   120090397.49205      3705.710    22481181.876    93403677.28605
      2882.215  
  22473831.692   120135505.71605     -3377.120    22473836.333    93438747.49705
     -2626.645  
 20 10 02 06 42 10.0000000  0 15G27G24G15G18G20G23G10G13R15R 6R 7R21
                                R22R16R 5
  23869476.162   125434943.72547      -118.616    23869478.301    97741523.97749
       -92.429  
  22043178.204   115837683.20848      3012.152    22043180.513    90263140.39549
      2347.132  
  20326208.793   106814997.77549     -1427.440    20326208.237    83232482.04149
     -1112.292  
  20604705.371   108278479.69949     -1292.074    20604705.310    84372837.59448
     -1006.815  
  20598715.281   108247014.40649      1770.897    20598714.240    84348338.53548
      1379.922  
  20933791.607   110007853.51349      1864.651    20933791.221    85720419.76148
      1452.972  
  23348849.962   122699037.63648      3028.366    23348852.084    95609647.74249
      2359.766  
  22317721.120   117280415.34548     -2997.953    22317720.626    91387334.38946
     -2336.065  
  21713822.417   116032083.47808  -2097152.000    21713828.781    90247202.48707
  -2097152.000  
  19285247.125   102909815.30708      -375.320           0.000           0.0000 
         0.000  
  21157584.653   113258247.40508      2692.136    21157588.438    88089779.58507
      2093.883  
  21091785.059   112866403.39508     -3513.777    21091788.890    87785020.97307
     -2732.940  
  20333828.128   108543375.06507       355.132    20333832.481    84422630.79604
       276.214  
  22477708.628   120071876.15105      3703.137    22477714.626    93389271.82604
      2880.223  
  22476991.217   120152394.97206     -3377.729    22476995.794    93451883.54906
     -2627.132  
 20 10 02 06 42 15.0000000  0 15G27G24G15G18G20G23G10G13R15R 6R 7R21
                                R22R16R 5
  23869590.240   125435543.27047      -121.512    23869592.404    97741991.17749
       -94.683  
  22040312.846   115822625.65348      3010.660    22040315.134    90251407.24149
      2345.969  
  20327567.907   106822139.99749     -1429.624    20327567.349    83238047.40749
     -1113.996  
  20605935.747   108284945.30649     -1294.586    20605935.682    84377875.72948
     -1008.769  
  20597030.757   108238162.23849      1769.554    20597029.729    84341440.74648
      1378.874  
  20932017.811   109998532.08549      1863.542    20932017.406    85713156.31648
      1452.112  
  23345968.447   122683895.27048      3028.234    23345970.582    95597848.50449
      2359.664  
  22320573.767   117295406.13448     -2998.894    22320573.230    91399015.51045
     -2336.804  
  21713504.801   116030386.23008  -2097152.000    21713511.164    90245882.40407
  -2097152.000  
  19285599.463   102911695.26108      -377.054           0.000           0.0000 
         0.000  
  21155070.320   113244788.04508      2691.211    21155074.124    88079311.19207
      2093.159  
  21095069.385   112883978.30108     -3516.430    21095073.225    87798690.34007
     -2735.003  
  20333497.308   108541609.06107       350.844    20333501.649    84421257.23704
       272.874  
  22474242.753   120053361.72605      3701.925    22474248.717    93374871.71905
      2879.276  
  22480150.680   120169284.01607     -3377.878    22480155.250    93465019.45606
     -2627.241  
 20 10 02 06 42 20.0000000  0 15G27G24G15G18G20G23G10G13R15R 6R 7R21
                                R22R16R 5
  23869707.688   125436160.49147      -125.301    23869709.865    97742472.12849
       -97.636  
  22037449.726   115807579.91848      3008.124    22037452.020    90239683.29949
      2343.991  
  20328929.653   106829296.05249     -1432.656    20328929.102    83243623.55749
     -1116.359  
  20607169.298   108291427.59749     -1298.246    20607169.237    84382926.86948
     -1011.620  
  20595348.305   108229320.83149      1767.207    20595347.258    84334551.34148
      1377.043  
  20930245.859   109989220.41649      1861.421    20930245.454    85705900.46748
      1450.452  
  23343087.717   122668756.99348      3027.085    23343089.854    95586052.43949
      2358.766  
  22323428.015   117310405.22048     -3000.866    22323427.459    91410703.10446
     -2338.343  
  21713191.579   116028712.46808  -2097152.000    21713197.942    90244580.58907
  -2097152.000  
  19285954.220   102913588.40908      -380.011           0.000           0.0000 
         0.000  
  21152557.632   113231337.39908      2689.191    21152561.424    88068849.58307
      2091.593  
  21098356.664   112901569.03908     -3519.832    21098360.534    87812372.02207
     -2737.651  
  20333171.075   108539867.79107       345.906    20333175.457    84419902.91304
       269.035  
  22470778.967   120034858.70705      3699.285    22470784.925    93360480.49805
      2877.222  
  22483310.807   120186176.80007     -3379.230    22483315.418    93478158.28806
     -2628.293  
 20 10 02 06 42 25.0000000  0 15G27G24G15G18G20G23G10G13R15R 6R 7R21
                                R22R16R 5
  23869828.513   125436795.36947      -129.020    23869830.707    97742966.83449
      -100.538  
  22034588.850   115792545.94148      3005.476    22034591.151    90227968.51849
      2341.930  
  20330294.021   106836465.88549     -1435.637    20330293.468    83249210.43849
     -1118.679  
  20608405.993   108297926.50749     -1301.664    20608405.937    84387990.94848
     -1014.289  
  20593667.884   108220490.12549      1764.788    20593666.823    84327670.27048
      1375.156  
  20928475.758   109979918.47349      1859.145    20928475.353    85698652.20248
      1448.680  
  23340207.737   122653622.69148      3026.203    23340209.887    95574259.48649
      2358.082  
  22326283.809   117325412.54647     -3002.535    22326283.259    91422397.12544
     -2339.636  
  21712882.770   116027062.28805  -2097152.000    21712889.133    90243297.11405
  -2097152.000  
  19286311.468   102915494.68807      -382.832           0.000           0.0000 
         0.000  
  21150046.542   113217895.58908      2687.160    21150050.374    88058394.84607
      2090.011  
  21101646.860   112919175.47908     -3523.187    21101650.769    87826065.91207
     -2740.262  
  20332849.500   108538151.26907       340.562    20332853.910    84418567.84104
       264.878  
  22467317.200   120016366.72705      3696.913    22467323.211    93346097.85205
      2875.379  
  22486471.595   120203073.39606     -3379.652    22486476.297    93491300.07905
     -2628.621  
 20 10 02 06 42 30.0000000  0 15G27G24G15G18G20G23G10G13R15R 6R 7R21
                                R22R16R 5
  23869952.871   125437448.72147      -132.515    23869955.046    97743475.91649
      -103.261  
  22031730.378   115777524.57048      3003.133    22031732.679    90216263.55549
      2340.101  
  20331661.166   106843650.34449     -1438.253    20331660.633    83254808.72049
     -1120.719  
  20609646.023   108304442.94149     -1304.965    20609645.968    84393068.66848
     -1016.858  
  20591989.654   108211671.00149      1762.816    20591988.599    84320798.22248
      1373.621  
  20926707.679   109970627.12349      1857.280    20926707.284    85691412.19048
      1447.230  
  23337328.702   122638493.32048      3025.500    23337330.865    95562470.37349
      2357.531  
  22329141.307   117340428.86548     -3004.343    22329140.756    91434098.16345
     -2341.047  
  21712578.479   116025436.25007  -2097152.000    21712584.844    90242032.42606
  -2097152.000  
  19286671.302   102917414.95308      -385.370           0.000           0.0000 
         0.000  
  21147537.291   113204463.46708      2685.511    21147541.142    88047947.64607
      2088.729  
  21104940.111   112936798.54908     -3526.128    21104944.090    87839772.74107
     -2742.547  
  20332532.697   108536460.27807       335.809    20332537.085    84417252.62604
       261.184  
  22463857.806   119997886.73104      3695.097    22463863.707    93331724.54104
      2873.969  
  22489633.435   120219974.46205     -3380.176    22489638.034    93504445.41105
     -2629.022  
 20 10 02 06 42 35.0000000  0 15G27G24G15G18G20G23G10G13R15R 6R 7R21
                                R22R16R 5
  23870080.464   125438119.07047      -134.902    23870082.626    97743998.27649
      -105.120  
  22028874.052   115762514.41248      3001.433    22028876.346    90204567.34549
      2338.781  
  20333030.831   106850847.95249     -1440.270    20333030.290    83260417.23849
     -1122.293  
  20610889.090   108310975.33249     -1307.520    20610889.060    84398158.85848
     -1018.847  
  20590313.339   108202861.93449      1761.339    20590312.298    84313934.02048
      1372.469  
  20924941.333   109961344.84949      1856.011    20924940.934    85684179.25348
      1446.241  
  23334450.330   122623367.30948      3025.315    23334452.482    95550683.87649
      2357.390  
  22332000.257   117355452.77948     -3005.070    22331999.677    91445805.09045
     -2341.617  
  21712278.455   116023833.01307  -2097152.000    21712284.820    90240785.46107
  -2097152.000  
  19287033.504   102919347.73707      -387.276           0.000           0.0000 
         0.000  
  21145029.549   113191039.32308      2684.559    21145033.400    88037506.64607
      2087.987  
  21108236.187   112954436.67308     -3528.550    21108240.149    87853491.27607
     -2744.434  
  20332220.465   108534793.37107       331.555    20332224.795    84415956.14404
       257.875  
  22460400.375   119979417.57005      3692.602    22460406.222    93317359.62104
      2872.019  
  22492795.746   120236878.73406     -3380.621    22492800.359    93517593.12005
     -2629.378  
 20 10 02 06 42 40.0000000  0 15G27G24G15G18G20G23G10G13R15R 6R 7R21
                                R22R16R 5
  23870210.624   125438802.90847      -138.519    23870212.746    97744531.12449
      -107.940  
  22026019.154   115747512.01148      2999.319    22026021.491    90192877.16349
      2337.133  
  20334402.326   106858055.23749     -1442.840    20334401.791    83266033.30749
     -1124.288  
  20612134.541   108317520.22249     -1310.515    20612134.511    84403258.77348
     -1021.179  
  20588638.281   108194059.44549      1759.563    20588637.233    84307074.94248
      1371.086  
  20923176.045   109952068.17049      1854.480    20923175.650    85676950.67748
      1445.050  
  23331571.898   122608241.17548      3024.762    23331574.076    95538897.28149
      2356.956  
  22334859.989   117370480.77148     -3006.417    22334859.424    91457515.21346
     -2342.668  
  21711982.040   116022249.06007  -2097152.000    21711988.405    90239553.49907
  -2097152.000  
  19287397.343   102921289.50007      -389.555           0.000           0.0000 
         0.000  
  21142522.676   113177619.74408      2683.063    21142526.517    88027069.19707
      2086.827  
  21111534.403   112972086.28008     -3531.382    21111538.322    87867218.73707
     -2746.636  
  20331912.037   108533146.90307       326.797    20331916.379    84414675.55604
       254.172  
  22456944.125   119960955.18305      3690.995    22456950.019    93302999.99705
      2870.773  
  22495957.963   120253782.40906     -3380.742    22495962.564    93530740.42405
     -2629.468  
 20 10 02 06 42 45.0000000  0 15G27G24G15G18G20G23G10G13R15R 6R 7R21
                                R22R16R 5
  23870344.175   125439504.63248      -142.027    23870346.282    97745077.93349
      -110.672  
  22023166.594   115732521.67748      2996.883    22023168.917    90181196.38049
      2335.234  
  20335776.499   106865276.56649     -1445.800    20335775.957    83271660.31749
     -1126.597  
  20613383.198   108324082.02249     -1314.090    20613383.172    84408371.86248
     -1023.969  
  20586965.303   108185267.98449      1757.125    20586964.273    84300224.45048
      1369.187  
  20921412.665   109942801.54349      1852.371    20921412.276    85669729.92548
      1443.405  
  23328694.314   122593119.43148      3023.741    23328696.496    95527114.10649
      2356.164  
  22337721.330   117385517.25248     -3008.195    22337720.803    91469231.95846
     -2344.051  
  21711690.078   116020688.90208  -2097152.000    21711696.442    90238340.03907
  -2097152.000  
  19287763.733   102923244.72008      -392.558           0.000           0.0000 
         0.000  
  21140017.489   113164209.24908      2681.020    21140021.331    88016638.80907
      2085.233  
  21114835.630   112989751.84608     -3534.897    21114839.500    87880958.61207
     -2749.370  
  20331608.263   108531525.49007       321.766    20331612.617    84413414.45204
       250.257  
  22453490.151   119942504.51704      3689.151    22453496.009    93288649.48204
      2869.336  
  22499120.878   120270690.19007     -3382.191    22499125.522    93543890.89006
     -2630.601  
 20 10 02 06 42 50.0000000  0 15G27G24G15G18G20G23G10G13R15R 6R 7R21
                                R22R16R 5
  23870481.168   125440224.69048      -145.694    23870483.301    97745639.03349
      -113.527  
  22020316.373   115717543.69348      2994.262    22020318.706    90169525.24349
      2333.191  
  20337153.416   106872512.34449     -1448.629    20337152.878    83277298.57849
     -1128.804  
  20614635.160   108330661.12449     -1317.570    20614635.139    84413498.42748
     -1026.684  
  20585294.522   108176487.97049      1754.961    20585293.486    84293382.88448
      1367.499  
  20919651.270   109933545.35049      1850.406    20919650.906    85662517.31648
      1441.875  
  23325817.627   122578002.36848      3022.952    23325819.828    95515334.59849
      2355.546  
  22340584.371   117400562.60147     -3009.952    22340583.977    91480955.61445
     -2345.418  
  21711402.632   116019152.87606  -2097152.000    21711409.007    90237145.40305
  -2097152.000  
  19288132.763   102925213.81307      -395.133           0.000           0.0000 
         0.000  
  21137514.076   113150808.28608      2679.335    21137517.923    88006215.85607
      2083.930  
  21118139.951   113007433.71508     -3537.945    21118143.783    87894711.18907
     -2751.733  
  20331309.293   108529929.50507       316.874    20331313.658    84412173.13204
       246.456  
  22450038.367   119924065.86605      3686.336    22450044.241    93274308.31405
      2867.148  
  22502284.663   120287602.55805     -3383.437    22502289.386    93557044.99704
     -2631.559  
 20 10 02 06 42 55.0000000  0 15G27G24G15G18G20G23G10G13R15R 6R 7R21
                                R22R16R 5
  23870621.322   125440961.14447      -148.492    23870623.461    97746212.90249
      -115.706  
  22017468.223   115702576.53548      2992.437    22017470.551    90157862.52149
      2331.765  
  20338532.745   106879760.70649     -1450.660    20338532.190    83282946.66149
     -1130.386  
  20615890.053   108337255.63349     -1320.183    20615890.035    84418637.01448
     -1028.714  
  20583625.564   108167717.50649      1753.374    20583624.522    84286548.75648
      1366.265  
  20917891.501   109924297.70349      1849.108    20917891.142    85655311.34648
      1440.859  
  23322941.491   122562888.17548      3022.870    23322943.690    95503557.29349
      2355.479  
  22343448.717   117415614.83948     -3010.664    22343448.310    91492684.64246
     -2345.977  
  21711119.337   116017639.03407  -2097152.000    21711125.709    90235967.95407
  -2097152.000  
  19288503.990   102927194.78008      -396.878           0.000           0.0000 
         0.000  
  21135012.067   113137414.71008      2678.171    21135015.883    87995798.63307
      2083.022  
  21121446.922   113025129.98508     -3540.477    21121450.805    87908474.94907
     -2753.707  
  20331014.710   108528357.00407       312.397    20331019.090    84410950.07304
       242.972  
  22446588.527   119905637.24805      3685.410    22446594.364    93259974.93804
      2866.425  
  22505449.026   120304517.04707     -3382.991    22505453.577    93570200.71706
     -2631.218  
 20 10 02 06 43  0.0000000  0 15G27G24G15G18G20G23G10G13R15R 6R 7R21
                                R22R16R 5
  23870764.361   125441712.75647      -152.016    23870766.499    97746798.58849
      -118.453  
  22014621.865   115687618.82148      2990.358    22014624.193    90146207.16249
      2330.147  
  20339914.214   106887020.30949     -1453.155    20339913.638    83288603.48949
     -1132.331  
  20617147.626   108343864.25649     -1323.272    20617147.620    84423786.58348
     -1031.124  
  20581958.177   108158955.29449      1751.555    20581957.128    84279721.05848
      1364.843  
  20916133.106   109915057.33849      1847.210    20916132.745    85648111.06748
      1439.383  
  23320065.658   122547775.56848      3022.000    23320067.859    95491781.24849
      2354.805  
  22346314.119   117430672.59848     -3012.265    22346313.687    91504417.94146
     -2347.223  
  21710839.974   116016146.20407  -2097152.000    21710846.339    90234806.83407
  -2097152.000  
  19288877.180   102929186.29008      -399.402           0.000           0.0000 
         0.000  
  21132511.211   113124027.46208      2676.507    21132515.019    87985386.33107
      2081.727  
  21124756.338   113042839.30808     -3543.406    21124760.259    87922248.86007
     -2755.987  
  20330724.293   108526806.64507       307.507    20330728.687    84409744.24404
       239.167  
  22443140.230   119887217.44405      3682.934    22443146.112    93245648.47404
      2864.508  
  22508613.449   120321432.73407     -3383.469    22508617.982    93583357.29206
     -2631.593  
 20 10 02 06 43  5.0000000  0 15G27G24G15G18G20G23G10G13R15R 6R 7R21
                                R22R16R 5
  23870910.741   125442482.08047      -155.780    23870912.895    97747398.05549
      -121.391  
  22011777.780   115672673.08448      2987.905    22011780.116    90134561.14349
      2328.238  
  20341298.304   106894293.75449     -1456.250    20341297.729    83294271.11249
     -1134.745  
  20618408.384   108350489.58349     -1326.769    20618408.378    84428949.17648
     -1033.852  
  20580292.844   108150203.97449      1749.015    20580291.807    84272901.84848
      1362.866  
  20914376.601   109905826.84149      1844.984    20914376.234    85640918.47848
      1437.648  
  23317190.599   122532667.09148      3021.063    23317192.789    95480008.41049
      2354.074  
  22349181.071   117445738.59848     -3014.015    22349180.610    91516157.67146
     -2348.585  
  21710565.009   116014676.87707  -2097152.000    21710571.376    90233664.03007
  -2097152.000  
  19289252.911   102931191.29008      -402.547           0.000           0.0000 
         0.000  
  21130011.971   113110649.02208      2674.711    21130015.814    87974980.88107
      2080.331  
  21128068.650   113060564.34308     -3546.776    21128072.640    87936034.98707
     -2758.608  
  20330438.531   108525281.19207       302.605    20330442.917    84408557.77604
       235.354  
  22439694.233   119868809.10905      3681.066    22439700.024    93231330.87205
      2863.046  
  22511778.591   120338352.23307     -3384.168    22511783.110    93596516.90706
     -2632.132  
 20 10 02 06 43 10.0000000  0 15G27G24G15G18G20G23G10G13R15R 6R 7R21
                                R22R16R 5
  23871060.456   125443268.87147      -159.430    23871062.611    97748011.11749
      -124.234  
  22008935.968   115657739.26448      2985.863    22008938.297    90122924.40249
      2326.647  
  20342684.968   106901580.75149     -1458.671    20342684.405    83299949.28849
     -1136.632  
  20619672.277   108357131.35249     -1329.820    20619672.270    84434124.57448
     -1036.227  
  20578629.531   108141463.23749      1747.285    20578628.510    84266090.89148
      1361.520  
  20912621.925   109896605.95549      1843.336    20912621.558    85633733.37248
      1436.363  
  23314316.296   122517562.53048      3020.659    23314318.472    95468238.62749
      2353.761  
  22352049.546   117460812.62948     -3015.602    22352049.065    91527903.67045
     -2349.793  
  21710294.413   116013230.89107  -2097152.000    21710300.779    90232539.37507
  -2097152.000  
  19289631.073   102933209.17308      -404.679           0.000           0.0000 
         0.000  
  21127514.385   113097279.18608      2673.184    21127518.225    87964582.12507
      2079.144  
  21131383.831   113078304.80008     -3549.608    21131387.895    87949833.10607
     -2760.813  
  20330157.379   108523780.26207       297.719    20330161.729    84407390.39304
       231.559  
  22436250.229   119850411.94705      3678.233    22436256.061    93217021.97705
      2860.848  
  22514944.357   120355275.31707     -3384.831    22514948.922    93609679.30406
     -2632.652  
 20 10 02 06 43 15.0000000  0 15G27G24G15G18G20G23G10G13R15R 6R 7R21
                                R22R16R 5
  23871213.295   125444072.07247      -162.202    23871215.453    97748636.98149
      -126.394  
  22006096.208   115642816.12948      2983.375    22006098.521    90111295.99449
      2324.707  
  20344074.035   106908880.28749     -1461.315    20344073.460    83305637.23549
     -1138.691  
  20620939.104   108363788.54349     -1333.104    20620939.076    84439311.99548
     -1038.788  
  20576968.047   108132732.11049      1745.141    20576967.030    84259287.40948
      1359.851  
  20910868.887   109887393.68049      1841.483    20910868.505    85626554.97848
      1434.921  
  23311442.542   122502460.91248      3019.867    23311444.716    95456471.13749
      2353.144  
  22354919.364   117475893.65648     -3016.934    22354918.836    91539655.12045
     -2350.854  
  21710027.987   116011807.19507  -2097152.000    21710034.354    90231432.05707
  -2097152.000  
  19290011.438   102935238.96908      -407.218           0.000           0.0000 
         0.000  
  21125018.191   113083916.99208      2671.770    21125022.056    87954189.31007
      2078.039  
  21134701.719   113096059.58208     -3552.559    21134705.799    87963642.37307
     -2763.104  
  20329880.616   108522302.94207       292.987    20329884.968    84406241.35904
       227.875  
  22432808.209   119832025.04805      3676.124    22432813.966    93202721.05805
      2859.206  
  22518110.628   120372200.82007     -3385.386    22518115.179    93622843.57806
     -2633.082  
 20 10 02 06 43 20.0000000  0 15G27G24G15G18G20G23G10G13R15R 6R 7R21
                                R22R16R 5
  23871369.373   125444892.36547      -165.352    23871371.546    97749276.15749
      -128.848  
  22003258.605   115627904.36048      2981.367    22003260.898    90099676.43349
      2323.140  
  20345465.588   106916193.01149     -1463.726    20345465.018    83311335.46449
     -1140.569  
  20622208.979   108370461.77949     -1336.117    20622208.951    84444511.92048
     -1041.132  
  20575308.519   108124011.19949      1743.233    20575307.497    84252491.90048
      1358.363  
  20909117.609   109878190.65049      1839.676    20909117.218    85619383.78148
      1433.507  
  23308569.472   122487362.79848      3019.347    23308571.635    95444706.38149
      2352.738  
  22357790.639   117490982.27548     -3018.163    22357790.118    91551412.47745
     -2351.820  
  21709765.858   116010406.45407  -2097152.000    21709772.227    90230342.60207
  -2097152.000  
  19290394.139   102937281.41508      -409.535           0.000           0.0000 
         0.000  
  21122523.559   113070563.05808      2669.945    21122527.430    87943802.92007
      2076.625  
  21138022.450   113113829.38908     -3555.320    21138026.459    87977463.33207
     -2765.253  
  20329608.406   108520849.77307       288.113    20329612.710    84405111.11304
       224.086  
  22429368.239   119813649.06405      3674.370    22429373.922    93188428.63105
      2857.840  
  22521277.513   120389129.51107     -3385.738    22521282.031    93636010.32806
     -2633.355  
 20 10 02 06 43 25.0000000  0 15G27G24G15G18G20G23G10G13R15R 6R 7R21
                                R22R16R 5
  23871528.743   125445729.63847      -168.594    23871530.860    97749928.58249
      -131.370  
  22000423.188   115613004.08248      2979.456    22000425.471    90088065.83349
      2321.655  
  20346859.645   106923518.85749     -1466.027    20346859.087    83317043.91249
     -1142.362  
  20623481.897   108377151.00949     -1339.133    20623481.868    84449724.30148
     -1043.484  
  20573650.922   108115300.50249      1741.473    20573649.907    84245704.34448
      1356.988  
  20907368.079   109868996.81049      1838.215    20907367.676    85612219.75948
      1432.374  
  23305697.053   122472268.16448      3018.952    23305699.222    95432944.33349
      2352.430  
  22360663.358   117506078.45148     -3019.499    22360662.826    91563175.73645
     -2352.858  
  21709508.003   116009028.55607  -2097152.000    21709514.372    90229270.90107
  -2097152.000  
  19290779.196   102939336.27608      -411.694           0.000           0.0000 
         0.000  
  21120030.422   113057217.19908      2668.797    21120034.319    87933422.81007
      2075.730  
  21141345.977   113131614.03608     -3557.926    21141349.887    87991295.84107
     -2767.277  
  20329340.714   108519420.72307       283.793    20329344.963    84403999.63004
       220.722  
  22425930.286   119795283.91805      3671.906    22425935.909    93174144.64405
      2855.926  
  22524444.964   120406061.22607     -3386.441    22524449.457    93649179.43606
     -2633.902  
 20 10 02 06 43 30.0000000  0 15G27G24G15G18G20G23G10G13R15R 6R 7R21
                                R22R16R 5
  23871690.849   125446581.42047      -171.776    23871692.964    97750592.33849
      -133.852  
  21997589.429   115598112.60848      2977.229    21997591.712    90076462.09349
      2319.918  
  20348255.724   106930855.30449     -1468.577    20348255.166    83322760.62449
     -1144.352  
  20624757.374   108383853.71949     -1342.015    20624757.359    84454947.19348
     -1045.730  
  20571994.802   108106597.53049      1739.629    20571993.794    84238922.80748
      1355.550  
  20905619.816   109859809.68649      1836.598    20905619.416    85605060.95848
      1431.108  
  23302824.825   122457174.56648      3018.433    23302826.999    95421183.09049
      2352.026  
  22363537.029   117521179.63648     -3020.887    22363536.447    91574942.89145
     -2353.940  
  21709253.958   116007671.01307  -2097152.000    21709260.326    90228215.03607
  -2097152.000  
  19291166.160   102941401.06908      -414.008           0.000           0.0000 
         0.000  
  21117538.345   113043877.07308      2667.313    21117542.257    87923047.15807
      2074.573  
  21144671.756   113149411.01108     -3560.852    21144675.656    88005137.93907
     -2769.550  
  20329077.027   108518013.29907       279.117    20329081.291    84402904.97004
       217.089  
  22422493.728   119776927.03205      3671.104    22422499.455    93159867.07205
      2855.305  
  22527612.480   120422993.53607     -3386.659    22527617.019    93662349.01006
     -2634.074  
 20 10 02 06 43 35.0000000  0 15G27G24G15G18G20G23G10G13R15R 6R 7R21
                                R22R16R 5
  23871856.512   125447451.73247      -175.647    23871858.608    97751270.50049
      -136.871  
  21994758.156   115583234.07448      2974.613    21994760.414    90064868.43449
      2317.878  
  20349654.575   106938206.34649     -1471.519    20349654.031    83328488.70949
     -1146.641  
  20626036.193   108390573.92649     -1345.698    20626036.171    84460183.71548
     -1048.602  
  20570340.912   108097906.25249      1737.042    20570339.890    84232150.38048
      1353.535  
  20903873.604   109850633.28049      1834.313    20903873.204    85597910.51348
      1429.332  
  23299953.559   122442085.96248      3017.229    23299955.719    95409425.74149
      2351.090  
  22366412.393   117536289.80648     -3022.827    22366411.808    91586717.04445
     -2355.452  
  21709004.469   116006337.82107  -2097152.000    21709010.840    90227178.11707
  -2097152.000  
  19291555.788   102943480.04107      -417.020           0.000           0.0000 
         0.000  
  21115048.114   113030546.70108      2665.309    21115052.033    87912679.09608
      2073.016  
  21148000.592   113167224.38008     -3564.120    21148004.524    88018992.77807
     -2772.098  
  20328818.260   108516631.57507       273.933    20328822.453    84401830.29004
       213.055  
  22419059.655   119758582.55305      3667.660    22419065.355    93145599.15005
      2852.624  
  22530780.827   120439930.32207     -3387.590    22530785.399    93675522.05406
     -2634.797  
 20 10 02 06 43 40.0000000  0 15G27G24G15G18G20G23G10G13R15R 6R 7R21
                                R22R16R 5
  23872025.081   125448337.69447      -179.210    23872027.208    97751960.85549
      -139.647  
  21991928.766   115568365.59448      2972.262    21991931.037    90053282.61049
      2316.046  
  20351055.660   106945569.12749     -1474.335    20351055.128    83334225.93849
     -1148.832  
  20627317.793   108397308.74649     -1349.023    20627317.780    84465431.62748
     -1051.190  
  20568688.677   108089223.72849      1735.039    20568687.654    84225384.78248
      1351.976  
  20902128.872   109841464.71749      1832.394    20902128.477    85590766.18048
      1427.840  
  23297082.686   122426999.48648      3016.582    23297084.860    95397670.05149
      2350.581  
  22369288.922   117551406.06648     -3024.297    22369288.375    91598495.95045
     -2356.597  
  21708759.011   116005026.16907  -2097152.000    21708765.382    90226157.94307
  -2097152.000  
  19291947.538   102945570.17908      -419.608           0.000           0.0000 
         0.000  
  21112559.141   113017223.09508      2663.500    21112563.072    87902316.29407
      2071.608  
  21151331.946   113185051.22308     -3567.253    21151335.936    88032858.08007
     -2774.534  
  20328563.698   108515272.55307       268.933    20328567.871    84400773.27804
       209.171  
  22415627.263   119740247.64105      3665.770    22415633.035    93131338.65905
      2851.147  
  22533949.526   120456868.74107     -3388.469    22533954.080    93688696.37506
     -2635.479  
 20 10 02 06 43 45.0000000  0 15G27G24G15G18G20G23G10G13R15R 6R 7R21
                                R22R16R 5
  23872196.984   125449241.11247      -181.855    23872199.131    97752664.82049
      -141.710  
  21989101.629   115553508.95348      2970.484    21989103.906    90041706.01149
      2314.663  
  20352459.311   106952945.42849     -1476.433    20352458.792    83339973.70349
     -1150.468  
  20628602.512   108404059.99449     -1351.570    20628602.522    84470692.33748
     -1053.176  
  20567038.473   108080551.84449      1733.586    20567037.450    84218627.47048
      1350.843  
  20900385.991   109832305.84749      1831.094    20900385.596    85583629.40348
      1426.828  
  23294212.586   122411917.00648      3016.430    23294214.754    95385917.47949
      2350.464  
  22372166.968   117566530.26748     -3025.566    22372166.428    91610281.03546
     -2357.589  
  21708517.924   116003737.87107  -2097152.000    21708524.294    90225155.93107
  -2097152.000  
  19292341.638   102947673.23408      -421.726           0.000           0.0000 
         0.000  
  21110071.796   113003908.14408      2662.180    21110075.728    87891960.22308
      2070.582  
  21154666.178   113202893.37108     -3569.816    21154670.201    88046735.29007
     -2776.527  
  20328313.717   108513938.20007       264.679    20328317.864    84399735.44404
       205.862  
  22412197.086   119721924.15805      3664.238    22412202.859    93117087.07805
      2849.965  
  22537118.809   120473810.75007     -3388.594    22537123.438    93701873.48206
     -2635.577  
 20 10 02 06 43 50.0000000  0 15G27G24G15G18G20G23G10G13R15R 6R 7R21
                                R22R16R 5
  23872372.081   125450161.22247      -185.792    23872374.217    97753381.76849
      -144.776  
  21986276.628   115538663.50148      2967.953    21986278.897    90030138.13349
      2312.690  
  20353865.385   106960334.42849     -1479.151    20353864.872    83345731.37049
     -1152.586  
  20629890.201   108410826.87549     -1355.069    20629890.193    84475965.22948
     -1055.901  
  20565390.157   108071889.88949      1731.281    20565389.150    84211877.89648
      1349.050  
  20898644.788   109823155.85749      1828.973    20898644.403    85576499.53948
      1425.168  
  23291343.069   122396837.68648      3015.301    23291345.254    95374167.35849
      2349.586  
  22375046.355   117581661.55148     -3026.895    22375045.780    91622071.65545
     -2358.617  
  21708281.057   116002472.12908  -2097152.000    21708287.428    90224171.46907
  -2097152.000  
  19292738.057   102949788.44908      -424.320           0.000           0.0000 
         0.000  
  21107585.897   112990601.02408      2660.648    21107589.862    87881610.24807
      2069.395  
  21158003.118   113220749.94808     -3573.011    21158007.166    88060623.73707
     -2779.011  
  20328068.192   108512627.60307       259.711    20328072.375    84398716.09304
       201.995  
  22408768.871   119703611.18705      3661.390    22408774.604    93102843.66105
      2847.749  
  22540288.645   120490755.46707     -3389.473    22540293.319    93715052.70206
     -2636.261  
 20 10 02 06 43 55.0000000  0 15G27G24G15G18G20G23G10G13R15R 6R 7R21
                                R22R16R 5
  23872550.434   125451098.50747      -188.977    23872552.577    97754112.12549
      -147.253  
  21983453.861   115523829.79448      2965.737    21983456.121    90018579.39949
      2310.964  
  20355274.005   106967736.77749     -1481.410    20355273.499    83351499.43049
     -1154.347  
  20631180.984   108417609.95349     -1357.878    20631180.962    84481250.74148
     -1058.089  
  20563743.829   108063238.43849      1729.480    20563742.834    84205136.50648
      1347.644  
  20896905.400   109814015.34149      1827.472    20896905.028    85569377.06148
      1423.999  
  23288474.291   122381762.12648      3014.979    23288476.464    95362420.17449
      2349.335  
  22377927.206   117596800.52248     -3028.237    22377926.627    91633868.24345
     -2359.672  
  21708048.519   116001229.51408  -2097152.000    21708054.890    90223204.99307
  -2097152.000  
  19293136.815   102951916.26408      -426.573           0.000           0.0000 
         0.000  
  21105101.553   112977302.29308      2659.065    21105105.556    87871266.79507
      2068.164  
  21161342.882   113238621.57408     -3575.559    21161346.922    88074523.88907
     -2780.992  
  20327827.247   108511341.45407       255.034    20327831.450    84397715.75004
       198.355  
  22405342.734   119685309.46905      3659.668    22405348.463    93088609.00005
      2846.410  
  22543459.117   120507703.33107     -3389.578    22543463.765    93728234.36506
     -2636.343  
 20 10 02 06 44  0.0000000  0 15G27G24G15G18G20G23G10G13R15R 6R 7R21
                                R22R16R 5
  23872731.854   125452051.81447      -192.660    23872733.984    97754854.98649
      -150.125  
  21980633.070   115509006.40648      2963.261    21980635.310    90007028.71249
      2309.034  
  20356684.913   106975151.17649     -1484.429    20356684.412    83357276.88149
     -1156.703  
  20632474.621   108424407.99849     -1361.445    20632474.594    84486547.91848
     -1060.871  
  20562099.273   108054596.23949      1727.101    20562098.294    84198402.32648
      1345.793  
  20895167.567   109804883.06049      1825.422    20895167.205    85562260.99848
      1422.401  
  23285605.973   122366689.14048      3013.922    23285608.157    95350674.99849
      2348.511  
  22380809.282   117611945.90348     -3029.921    22380808.676    91645669.84645
     -2360.976  
  21707820.076   116000008.78707  -2097152.000    21707826.450    90222255.54607
  -2097152.000  
  19293537.764   102954055.61708      -429.362           0.000           0.0000 
         0.000  
  21102618.616   112964010.81408      2657.081    21102622.597    87860928.97908
      2066.620  
  21164685.237   113256506.97208     -3578.809    21164689.206    88088434.75607
     -2783.523  
  20327590.628   108510078.39607       249.862    20327594.830    84396733.37304
       194.335  
  22401918.535   119667017.76305      3656.934    22401924.195    93074382.11805
      2844.276  
  22546629.938   120524653.31307     -3390.683    22546634.602    93741417.68306
     -2637.203  
 20 10 02 06 44  5.0000000  0 15G27G24G15G18G20G23G10G13R15R 6R 7R21
                                R22R16R 5
  23872916.654   125453022.97247      -195.976    23872918.790    97755611.73549
      -152.711  
  21977814.621   115494195.35548      2961.034    21977816.847    89995487.64149
      2307.301  
  20358098.465   106982579.44349     -1486.862    20358097.973    83363065.14549
     -1158.597  
  20633771.439   108431222.85849     -1364.340    20633771.418    84491858.19548
     -1063.124  
  20560456.829   108045965.13549      1725.359    20560455.841    84191676.78848
      1344.433  
  20893431.675   109795760.89049      1823.667    20893431.300    85555152.81748
      1421.039  
  23282738.517   122351620.49548      3013.405    23282740.689    95338933.19649
      2348.109  
  22383692.950   117627099.55648     -3031.328    22383692.296    91657477.88145
     -2362.078  
  21707596.083   115998811.83508  -2097152.000    21707602.457    90221324.58607
  -2097152.000  
  19293941.226   102956208.38007      -431.499           0.000           0.0000 
         0.000  
  21100137.351   112950728.40508      2655.687    21100141.317    87850598.22008
      2065.534  
  21168030.492   113274407.98508     -3581.520    21168034.370    88102357.76307
     -2785.628  
  20327358.726   108508840.39107       245.257    20327362.939    84395770.47704
       190.753  
  22398496.562   119648737.82305      3655.230    22398502.161    93060164.39405
      2842.957  
  22549801.474   120541607.08407     -3390.863    22549806.154    93754603.94206
     -2637.343  
 20 10 02 06 44 10.0000000  0 15G27G24G15G18G20G23G10G13R15R 6R 7R21
                                R22R16R 5
  23873104.532   125454010.15447      -199.042    23873106.641    97756380.95549
      -155.101  
  21974998.181   115479394.86348      2959.020    21975000.392    89983954.79249
      2305.726  
  20359514.305   106990019.79449     -1489.375    20359513.824    83368862.82249
     -1160.555  
  20635071.128   108438052.70449     -1367.570    20635071.087    84497180.15548
     -1065.641  
  20558816.161   108037343.36849      1723.305    20558815.174    84184958.53148
      1342.836  
  20891697.348   109786646.99849      1821.871    20891696.977    85548051.08548
      1419.640  
  23279871.551   122336554.45548      3012.776    23279873.719    95327193.43249
      2347.616  
  22386577.804   117642259.63248     -3032.831    22386577.155    91669290.92545
     -2363.249  
  21707376.181   115997636.74707  -2097152.000    21707382.555    90220410.62907
  -2097152.000  
  19294346.807   102958372.67107      -433.945           0.000           0.0000 
         0.000  
  21097657.418   112937453.19208      2654.272    21097661.374    87840273.05707
      2064.434  
  21171378.296   113292322.72808     -3584.453    21171382.101    88116291.45307
     -2787.909  
  20327131.126   108507625.57307       240.522    20327135.364    84394825.62304
       187.074  
  22395076.417   119630467.92905      3653.195    22395081.992    93045954.48005
      2841.374  
  22552973.343   120558562.85107     -3391.362    22552978.072    93767791.75606
     -2637.730  
 20 10 02 06 44 15.0000000  0 15G27G24G15G18G20G23G10G13R15R 6R 7R21
                                R22R16R 5
  23873295.568   125455014.08647      -202.504    23873297.676    97757163.21049
      -157.805  
  21972183.884   115464605.63248      2956.694    21972186.089    89972430.71949
      2303.913  
  20360932.596   106997472.93549     -1492.117    20360932.109    83374670.45849
     -1162.691  
  20636373.785   108444898.24649     -1370.891    20636373.750    84502514.34348
     -1068.230  
  20557177.405   108028731.61749      1721.245    20557176.413    84178248.07748
      1341.229  
  20889964.750   109777542.13649      1819.823    20889964.365    85540956.39048
      1418.038  
  23277005.139   122321491.48448      3011.874    23277007.325    95315456.06049
      2346.913  
  22389464.027   117657426.86548     -3034.296    22389463.388    91681109.53745
     -2364.390  
  21707160.538   115996484.41607  -2097152.000    21707166.912    90219514.36807
  -2097152.000  
  19294754.655   102960549.18208      -436.844           0.000           0.0000 
         0.000  
  21095178.977   112924185.93408      2652.593    21095182.932    87829954.08407
      2063.129  
  21174728.787   113310251.97408     -3587.401    21174732.591    88130236.41207
     -2790.207  
  20326908.041   108506434.60307       235.684    20326912.247    84393899.31104
       183.304  
  22391658.249   119612208.91105      3650.175    22391663.862    93031753.03605
      2839.026  
  22556145.762   120575521.44007     -3392.062    22556150.532    93780981.76206
     -2638.273  
 20 10 02 06 44 20.0000000  0 15G27G24G15G18G20G23G10G13R15R 6R 7R21
                                R22R16R 5
  23873489.954   125456035.56147      -205.741    23873492.061    97757959.18549
      -160.320  
  21969371.886   115449828.45448      2954.397    21969374.087    89960916.04249
      2302.128  
  20362353.483   107004939.71549     -1494.355    20362352.990    83380488.73149
     -1164.437  
  20637679.590   108451760.32649     -1373.645    20637679.552    84507861.41348
     -1070.375  
  20555540.705   108020130.73149      1719.418    20555539.733    84171546.08748
      1339.805  
  20888234.014   109768447.11849      1818.410    20888233.632    85533869.36148
      1416.937  
  23274139.575   122306432.87448      3011.655    23274141.759    95303722.07649
      2346.746  
  22392351.773   117672602.07148     -3035.414    22392351.180    91692934.37645
     -2365.262  
  21706949.283   115995355.53307  -2097152.000    21706955.658    90218636.35207
  -2097152.000  
  19295164.918   102962738.83207      -438.960           0.000           0.0000 
         0.000  
  21092702.235   112910927.67608      2651.257    21092706.163    87819642.10608
      2062.090  
  21178082.169   113328196.50508     -3589.858    21178085.983    88144193.25707
     -2792.116  
  20326689.625   108505268.49707       230.945    20326693.781    84392992.34104
       179.621  
  22388242.364   119593961.42405      3648.813    22388247.915    93017560.53905
      2837.965  
  22559318.913   120592483.71607     -3392.605    22559323.683    93794174.63906
     -2638.694  
 20 10 02 06 44 25.0000000  0 15G27G24G15G18G20G23G10G13R15R 6R 7R21
                                R22R16R 5
  23873687.338   125457072.75847      -209.227    23873689.454    97758767.41349
      -163.030  
  21966561.820   115435061.48448      2952.160    21966564.019    89949409.31549
      2300.382  
  20363776.604   107012418.23549     -1496.930    20363776.113    83386316.15049
     -1166.440  
  20638988.195   108458637.06549     -1376.948    20638988.151    84513219.90848
     -1072.953  
  20553905.706   108011538.81749      1717.406    20553904.755    84164851.09448
      1338.238  
  20886504.805   109759360.09849      1816.453    20886504.424    85526788.57348
      1415.417  
  23271274.444   122291376.57248      3010.777    23271276.643    95291989.90649
      2346.058  
  22395240.648   117687783.24748     -3036.937    22395240.093    91704763.86445
     -2366.444  
  21706742.069   115994248.24307  -2097152.000    21706748.444    90217775.13107
  -2097152.000  
  19295577.378   102964939.60908      -441.374           0.000           0.0000 
         0.000  
  21090226.748   112897676.20308      2649.585    21090230.679    87809335.41308
      2060.788  
  21181438.077   113346154.33308     -3592.910    21181441.873    88158160.46907
     -2794.484  
  20326475.435   108504125.29307       226.308    20326479.621    84392103.18404
       176.019  
  22384828.282   119575724.01505      3645.898    22384833.828    93003375.89805
      2835.695  
  22562492.343   120609447.55307     -3392.921    22562497.118    93807368.72706
     -2638.941  
 20 10 02 06 44 30.0000000  0 15G27G24G15G18G20G23G10G13R15R 6R 7R21
                                R22R16R 5
  23873887.836   125458126.47647      -212.648    23873889.975    97759588.48049
      -165.703  
  21963753.877   115420305.67548      2949.867    21963756.090    89937911.28649
      2298.597  
  20365202.100   107019909.29749     -1499.581    20365201.614    83392153.33949
     -1168.507  
  20640299.744   108465529.26949     -1380.171    20640299.694    84518590.45648
     -1075.461  
  20552272.588   108002956.75249      1715.188    20552271.643    84158163.77248
      1336.507  
  20884777.278   109750281.87949      1814.641    20884776.903    85519714.63348
      1414.004  
  23268409.910   122276323.34548      3010.108    23268412.087    95280260.12049
      2345.538  
  22398130.840   117702971.33748     -3038.425    22398130.280    91716598.73045
     -2367.609  
  21706539.049   115993163.36507  -2097152.000    21706545.425    90216931.34107
  -2097152.000  
  19295992.060   102967152.52308      -443.991           0.000           0.0000 
         0.000  
  21087752.698   112884432.51408      2647.793    21087756.654    87799034.76707
      2059.395  
  21184796.604   113364126.36608     -3596.003    21184800.427    88172138.70807
     -2796.895  
  20326265.697   108503005.73007       221.207    20326269.888    84391232.40904
       172.051  
  22381416.013   119557496.94405      3644.051    22381421.692    92989199.29505
      2834.262  
  22565666.304   120626413.97407     -3393.547    22565671.044    93820564.82406
     -2639.429  
 20 10 02 06 44 35.0000000  0 15G27G24G15G18G20G23G10G13R15R 6R 7R21
                                R22R16R 5
  23874091.686   125459197.74748      -216.171    23874093.840    97760423.24349
      -168.445  
  21960948.247   115405561.92948      2947.620    21960950.451    89926422.66049
      2296.847  
  20366630.190   107027413.95949     -1502.305    20366629.704    83398001.12749
     -1170.629  
  20641614.425   108472437.99449     -1383.362    20641614.388    84523973.87848
     -1077.945  
  20550641.552   107994385.59949      1712.992    20550640.637    84151484.95048
      1334.801  
  20883051.630   109741213.53649      1812.722    20883051.249    85512648.40148
      1412.512  
  23265546.141   122261274.29048      3009.242    23265548.341    95268533.59049
      2344.863  
  22401022.575   117718167.41348     -3040.144    22401021.968    91728439.83345
     -2368.949  
  21706340.433   115992102.02007  -2097152.000    21706346.809    90216105.85107
  -2097152.000  
  19296409.188   102969378.43108      -446.319           0.000           0.0000 
         0.000  
  21085280.294   112871197.60108      2645.945    21085284.255    87788740.95207
      2057.956  
  21188157.993   113382113.64808     -3598.988    21188161.809    88186128.81007
     -2799.219  
  20326060.606   108501910.90707       216.460    20326064.790    84390380.87804
       168.355  
  22378006.132   119539281.71905      3641.706    22378011.766    92975031.90605
      2832.438  
  22568840.846   120643383.97107     -3394.097    22568845.654    93833763.70606
     -2639.858  
 20 10 02 06 44 40.0000000  0 15G27G24G15G18G20G23G10G13R15R 6R 7R21
                                R22R16R 5
  23874298.590   125460285.12648      -219.391    23874300.772    97761270.56549
      -170.953  
  21958144.639   115390828.96448      2945.449    21958146.861    89914942.43049
      2295.156  
  20368060.609   107034930.86349     -1504.749    20368060.124    83403858.45749
     -1172.535  
  20642931.985   108479361.79049     -1386.414    20642931.949    84529369.03748
     -1080.327  
  20549012.317   107985823.85149      1711.234    20549011.390    84144813.45648
      1333.426  
  20881327.582   109732153.63849      1810.921    20881327.215    85505588.74048
      1411.109  
  23262682.917   122246227.95048      3008.839    23262685.118    95256809.17449
      2344.550  
  22403915.549   117733369.99948     -3041.308    22403914.916    91740286.00245
     -2369.855  
  21706145.949   115991062.76107  -2097152.000    21706152.327    90215297.54407
  -2097152.000  
  19296828.504   102971615.85708      -448.706           0.000           0.0000 
         0.000  
  21082809.301   112857970.15108      2644.672    21082813.256    87778452.93307
      2056.968  
  21191521.955   113400114.64108     -3601.772    21191525.709    88200129.57707
     -2801.383  
  20325859.887   108500839.36507       211.828    20325864.054    84389547.45504
       164.750  
  22374598.122   119521076.83605      3639.680    22374603.767    92960872.55905
      2830.863  
  22572015.836   120660356.07907     -3394.980    22572020.643    93846964.22606
     -2640.476  
 20 10 02 06 44 45.0000000  0 15G27G24G15G18G20G23G10G13R15R 6R 7R21
                                R22R16R 5
  23874508.991   125461390.69947      -222.870    23874511.157    97762132.05549
      -173.663  
  21955343.502   115376108.85848      2942.914    21955345.712    89903472.22349
      2293.179  
  20369493.725   107042461.93949     -1507.441    20369493.232    83409726.82749
     -1174.629  
  20644252.802   108486302.69549     -1389.746    20644252.752    84534777.53848
     -1082.921  
  20547385.259   107977273.57449      1709.151    20547384.327    84138150.90448
      1331.809  
  20879605.517   109723104.21649      1808.895    20879605.153    85498537.24448
      1409.523  
  23259820.592   122231186.39348      3007.812    23259822.799    95245088.48649
      2343.749  
  22406810.135   117748581.08848     -3042.867    22406809.496    91752138.79345
     -2371.070  
  21705955.968   115990047.55707  -2097152.000    21705962.345    90214507.93907
  -2097152.000  
  19297250.376   102973867.26708      -451.503           0.000           0.0000 
         0.000  
  21080340.057   112844752.15808      2642.777    21080344.033    87768172.27908
      2055.491  
  21194888.824   113418131.50108     -3604.862    21194892.558    88214142.68307
     -2803.785  
  20325663.919   108499793.30207       206.809    20325668.090    84388733.84504
       160.848  
  22371192.449   119502884.37005      3637.660    22371198.086    92946722.86805
      2829.293  
  22575191.596   120677332.46007     -3395.383    22575196.432    93860168.07006
     -2640.855  
 20 10 02 06 44 50.0000000  0 15G27G24G15G18G20G23G10G13R15R 6R 7R21
                                R22R16R 5
  23874722.273   125462511.56647      -225.687    23874724.430    97763005.43549
      -175.862  
  21952544.216   115361398.57348      2941.003    21952546.431    89892009.66649
      2291.690  
  20370928.990   107050004.27549     -1509.527    20370928.490    83415603.97049
     -1176.258  
  20645576.318   108493257.82249     -1392.535    20645576.276    84540197.11448
     -1085.098  
  20545759.839   107968731.93249      1707.440    20545758.907    84131495.08048
      1330.469  
  20877884.910   109714062.39849      1807.542    20877884.545    85491491.67248
      1408.476  
  23256958.630   122216146.71048      3007.698    23256960.844    95233369.25649
      2343.660  
  22409705.786   117763797.81048     -3043.852    22409705.133    91763995.97445
     -2371.836  
  21705769.963   115989053.60307  -2097152.000    21705776.341    90213734.86707
  -2097152.000  
  19297674.276   102976129.24508      -453.554           0.000           0.0000 
         0.000  
  21077872.064   112831540.79908      2641.590    21077876.041    87757896.77908
      2054.570  
  21198258.075   113436161.22808     -3607.331    21198261.821    88228165.80207
     -2805.706  
  20325472.147   108498769.67607       202.332    20325476.361    84387937.69304
       157.367  
  22367788.426   119484701.25605      3634.843    22367794.112    92932580.46205
      2827.102  
  22578367.632   120694309.97807     -3395.848    22578372.427    93873372.80406
     -2641.218  
 20 10 02 06 44 55.0000000  0 15G27G24G15G18G20G23G10G13R15R 6R 7R21
                                R22R16R 5
  23874938.995   125463650.44747      -229.417    23874941.144    97763892.84149
      -178.772  
  21949747.303   115346700.79348      2938.543    21949749.530    89880556.85549
      2289.772  
  20372366.921   107057560.62249     -1512.293    20372366.409    83421492.03749
     -1178.409  
  20646903.063   108500229.91149     -1395.789    20646903.020    84545629.91248
     -1087.628  
  20544136.582   107960201.65849      1705.296    20544135.649    84124848.11348
      1328.805  
  20876166.268   109705030.93849      1805.574    20876165.907    85484454.16848
      1406.940  
  23254097.534   122201111.67548      3006.917    23254099.773    95221653.65049
      2343.054  
  22412603.021   117779022.91248     -3045.479    22412602.407    91775859.70145
     -2373.102  
  21705588.451   115988083.65707  -2097152.000    21705594.829    90212980.46407
  -2097152.000  
  19298100.716   102978404.84108      -456.257           0.000           0.0000 
         0.000  
  21075405.803   112818338.58908      2639.843    21075409.750    87747628.39808
      2053.210  
  21201630.310   113454206.52408     -3610.155    21201633.992    88242201.02707
     -2807.901  
  20325285.116   108497771.35507       197.508    20325289.342    84387161.22104
       153.613  
  22364386.814   119466530.54705      3633.418    22364392.534    92918447.69605
      2825.991  
  22581544.380   120711291.57507     -3396.339    22581549.192    93886580.70706
     -2641.602  
 20 10 02 06 45  0.0000000  0 15G27G24G15G18G20G23G10G13R15R 6R 7R21
                                R22R16R 5
  23875158.521   125464803.96948      -232.386    23875160.649    97764791.70949
      -181.081  
  21946952.225   115332012.52848      2936.750    21946954.440    89869111.46249
      2288.374  
  20373806.881   107065127.63449     -1514.410    20373806.363    83427388.41049
     -1180.059  
  20648232.407   108507215.63249     -1398.491    20648232.357    84551073.32448
     -1089.737  
  20542514.841   107951679.41749      1703.645    20542513.922    84118207.41148
      1327.515  
  20874448.973   109696006.51949      1804.179    20874448.618    85477422.16048
      1405.854  
  23251236.722   122186077.97548      3006.616    23251238.950    95209939.08949
      2342.819  
  22415501.193   117794253.03648     -3046.473    22415500.600    91787727.31845
     -2373.878  
  21705410.793   115987134.30908  -2097152.000    21705417.171    90212242.08107
  -2097152.000  
  19298529.078   102980690.60408      -458.300           0.000           0.0000 
         0.000  
  21072940.650   112805142.39808      2638.793    21072944.591    87737364.69508
      2052.395  
  21205004.822   113472264.06008     -3612.539    21205008.467    88256245.77807
     -2809.757  
  20325102.189   108496794.81507       193.125    20325106.388    84386401.69304
       150.207  
  22360986.875   119448368.68605      3631.612    22360992.567    92904321.80805
      2824.589  
  22584721.292   120728273.80607     -3396.351    22584726.075    93899789.10106
     -2641.608  
 20 10 02 06 45  5.0000000  0 15G27G24G15G18G20G23G10G13R15R 6R 7R21
                                R22R16R 5
  23875381.382   125465975.11448      -236.229    23875383.520    97765704.32949
      -184.070  
  21944159.500   115317336.62448      2933.910    21944161.701    89857675.69249
      2286.164  
  20375249.422   107072708.26749     -1517.538    20375248.918    83433295.40049
     -1182.495  
  20649564.897   108514217.94249     -1402.148    20649564.830    84556529.66948
     -1092.586  
  20540895.216   107943168.19849      1701.093    20540894.276    84111575.29448
      1325.526  
  20872733.593   109686992.10549      1801.866    20872733.248    85470397.94348
      1404.051  
  23248376.713   122171048.55648      3005.551    23248378.939    95198227.85649
      2341.987  
  22418400.909   117809491.17448     -3048.531    22418400.350    91799601.18445
     -2375.484  
  21705237.576   115986208.68607  -2097152.000    21705243.954    90211522.15407
  -2097152.000  
  19298959.915   102982989.53908      -461.136           0.000           0.0000 
         0.000  
  21070477.182   112791955.13608      2636.688    21070481.117    87727107.94508
      2050.757  
  21208382.143   113490336.78608     -3616.035    21208385.832    88270302.34007
     -2812.477  
  20324923.934   108495843.24707       188.093    20324928.157    84385661.58304
       146.292  
  22357589.219   119430218.82605      3628.253    22357594.871    92890205.26405
      2821.977  
  22587898.847   120745259.62607     -3397.612    22587903.638    93913000.28806
     -2642.594  
 20 10 02 06 45 10.0000000  0 15G27G24G15G18G20G23G10G13R15R 6R 7R21
                                R22R16R 5
  23875607.674   125467164.37847      -239.773    23875609.837    97766631.02749
      -186.835  
  21941369.172   115302673.44748      2931.366    21941371.392    89846249.84549
      2284.184  
  20376694.655   107080302.95549     -1520.363    20376694.131    83439213.33749
     -1184.702  
  20650900.616   108521237.25749     -1405.483    20650900.568    84561999.26248
     -1095.187  
  20539277.776   107934668.43249      1698.741    20539276.831    84104952.09748
      1323.691  
  20871020.183   109677988.14049      1799.714    20871019.828    85463381.86848
      1402.371  
  23245517.604   122156023.86748      3004.504    23245519.822    95186520.30949
      2341.172  
  22421302.237   117824737.72648     -3050.055    22421301.591    91811481.62445
     -2376.676  
  21705068.847   115985307.05307  -2097152.000    21705075.226    90210820.88707
  -2097152.000  
  19299393.320   102985302.11508      -463.812           0.000           0.0000 
         0.000  
  21068015.420   112778777.22308      2634.581    21068019.364    87716858.45508
      2049.116  
  21211762.363   113508425.15308     -3619.222    21211766.135    88284371.06707
     -2814.953  
  20324750.360   108494916.94807       182.887    20324754.645    84384941.12804
       142.242  
  22354193.788   119412081.44905      3626.449    22354199.492    92876098.40905
      2820.566  
  22591077.199   120762249.48907     -3398.468    22591081.942    93926214.62006
     -2643.257  
 20 10 02 06 45 15.0000000  0 15G27G24G15G18G20G23G10G13R15R 6R 7R21
                                R22R16R 5
  23875836.955   125468369.26048      -242.602    23875839.110    97767569.89349
      -189.038  
  21938580.823   115288020.63548      2929.656    21938583.041    89834832.07649
      2282.847  
  20378142.082   107087909.23449     -1522.383    20378141.566    83445140.31149
     -1186.273  
  20652239.125   108528271.13749     -1408.276    20652239.078    84567480.20948
     -1097.358  
  20537662.031   107926177.69749      1697.292    20537661.099    84098335.94248
      1322.565  
  20869308.318   109668992.16749      1798.425    20869307.943    85456372.01548
      1401.366  
  23242658.903   122141001.45148      3004.504    23242661.153    95174814.53749
      2341.172  
  22424204.671   117839990.24648     -3051.116    22424204.030    91823366.68845
     -2377.495  
  21704904.155   115984426.98707  -2097152.000    21704910.534    90210136.39307
  -2097152.000  
  19299828.774   102987625.68507      -465.770           0.000           0.0000 
         0.000  
  21065554.973   112765606.32408      2633.706    21065558.930    87706614.42408
      2048.438  
  21215145.066   113526526.61608     -3621.565    21215148.890    88298449.96907
     -2816.777  
  20324581.114   108494013.46907       178.401    20324585.363    84384238.42204
       138.753  
  22350800.249   119393954.02405      3624.526    22350806.020    92861999.32205
      2819.077  
  22594255.797   120779240.98107     -3398.527    22594260.557    93939430.21707
     -2643.304  
 20 10 02 06 45 20.0000000  0 15G27G24G15G18G20G23G10G13R15R 6R 7R21
                                R22R16R 5
  23876069.158   125469589.55547      -245.698    23876071.329    97768520.79249
      -191.453  
  21935794.411   115273377.94248      2927.460    21935796.614    89823422.18649
      2281.137  
  20379591.670   107095526.90449     -1524.757    20379591.161    83451076.16049
     -1188.121  
  20653580.365   108535319.37349     -1411.218    20653580.319    84572972.33448
     -1099.656  
  20536047.971   107917695.78249      1695.395    20536047.044    84091726.65848
      1321.086  
  20867597.929   109660004.01349      1796.577    20867597.555    85449368.26448
      1399.930  
  23239800.614   122125981.13448      3003.824    23239802.882    95163110.39649
      2340.640  
  22427108.225   117855248.49048     -3052.362    22427107.600    91835256.22946
     -2378.469  
  21704743.461   115983568.28707  -2097152.000    21704749.840    90209468.51607
  -2097152.000  
  19300266.282   102989960.18708      -467.991           0.000           0.0000 
         0.000  
  21063095.812   112752442.14908      2632.065    21063099.729    87696375.62208
      2047.160  
  21218530.115   113544640.98108     -3624.261    21218534.018    88312538.90307
     -2818.874  
  20324416.061   108493132.65507       173.679    20324420.364    84383553.34104
       135.082  
  22347408.536   119375836.29205      3622.219    22347414.334    92847907.74905
      2817.277  
  22597434.680   120796233.93207     -3398.933    22597439.446    93952646.94807
     -2643.617  
 20 10 02 06 45 25.0000000  0 15G27G24G15G18G20G23G10G13R15R 6R 7R21
                                R22R16R 5
  23876304.636   125470827.03547      -249.395    23876306.811    97769485.05349
      -194.335  
  21933010.266   115258747.19248      2924.961    21933012.477    89812021.60849
      2279.190  
  20381043.781   107103157.73749     -1527.679    20381043.253    83457022.26449
     -1190.398  
  20654924.671   108542383.71449     -1414.679    20654924.642    84578477.01848
     -1102.351  
  20534435.927   107909224.43749      1693.011    20534435.009    84085125.61148
      1319.230  
  20865889.361   109651025.42449      1794.617    20865888.995    85442371.96348
      1398.401  
  23236943.068   122110964.69248      3002.542    23236945.350    95151409.28149
      2339.645  
  22430013.205   117870514.20448     -3054.094    22430012.554    91847151.59245
     -2379.812  
  21704587.111   115982732.79807  -2097152.000    21704593.491    90208818.69307
  -2097152.000  
  19300706.125   102992307.39708      -471.004           0.000           0.0000 
         0.000  
  21060638.232   112739286.40608      2630.160    21060642.127    87686143.38208
      2045.679  
  21221917.946   113562770.01008     -3627.461    21221921.815    88326639.25707
     -2821.362  
  20324255.592   108492276.18407       168.663    20324259.933    84382887.19604
       131.179  
  22344019.086   119357730.23605      3620.250    22344024.855    92833825.28305
      2815.750  
  22600614.129   120813229.96807     -3399.551    22600618.912    93965866.08207
     -2644.098  
 20 10 02 06 45 30.0000000  0 15G27G24G15G18G20G23G10G13R15R 6R 7R21
                                R22R16R 5
  23876543.367   125472081.54047      -252.563    23876545.535    97770462.58849
      -196.804  
  21930228.347   115244128.17248      2922.859    21930230.570    89800630.16649
      2277.551  
  20382498.353   107110801.50249     -1529.862    20382497.821    83462978.44449
     -1192.104  
  20656272.021   108549463.99149     -1417.511    20656271.965    84583994.11248
     -1104.558  
  20532825.860   107900763.50749      1691.277    20532824.940    84078532.68248
      1317.878  
  20864182.580   109642056.23149      1793.055    20864182.199    85435382.98348
      1397.184  
  23234086.198   122095951.89648      3002.327    23234088.503    95139711.00149
      2339.477  
  22432919.556   117885787.18348     -3055.215    22432918.905    91859052.61345
     -2380.691  
  21704435.057   115981920.27008  -2097152.000    21704441.437    90208186.72807
  -2097152.000  
  19301148.356   102994667.16408      -473.289           0.000           0.0000 
         0.000  
  21058182.191   112726139.02608      2628.684    21058186.080    87675917.64908
      2044.531  
  21225308.534   113580913.51408     -3629.969    21225312.296    88340750.87407
     -2823.313  
  20324099.636   108491444.05707       164.159    20324104.055    84382239.98604
       127.679  
  22340631.699   119339635.42406      3617.999    22340637.447    92819751.54705
      2813.999  
  22603794.172   120830228.90507     -3399.980    22603798.928    93979087.46906
     -2644.434  
 20 10 02 06 45 35.0000000  0 15G27G24G15G18G20G23G10G13R15R 6R 7R21
                                R22R16R 5
  23876785.061   125473351.68347      -255.563    23876787.233    97771452.30149
      -199.145  
  21927448.446   115229519.66048      2920.742    21927450.671    89789246.91149
      2275.901  
  20383955.131   107118456.88849     -1532.101    20383954.592    83468943.67949
     -1193.848  
  20657622.140   108556558.85449     -1420.327    20657622.079    84589522.57248
     -1106.754  
  20531217.536   107892311.67549      1689.460    20531216.625    84071946.83748
      1316.460  
  20862477.347   109633095.10949      1791.625    20862476.954    85428400.29148
      1396.070  
  23231229.790   122080941.46148      3001.859    23231232.113    95128014.56249
      2339.108  
  22435827.039   117901066.04448     -3056.285    22435826.374    91870958.21346
     -2381.522  
  21704287.063   115981129.43508  -2097152.000    21704293.444    90207571.63707
  -2097152.000  
  19301592.599   102997037.95208      -475.117           0.000           0.0000 
         0.000  
  21055727.460   112712998.62408      2627.449    21055731.336    87665697.34008
      2043.570  
  21228701.553   113599070.08908     -3632.644    21228705.248    88354872.65607
     -2825.394  
  20323948.012   108490634.80107       159.625    20323952.431    84381610.56504
       124.147  
  22337246.307   119321550.79905      3615.667    22337251.961    92805685.73105
      2812.188  
  22606974.519   120847229.52607     -3400.300    22606979.259    93992310.16806
     -2644.684  
 20 10 02 06 45 40.0000000  0 15G27G24G15G18G20G23G10G13R15R 6R 7R21
                                R22R16R 5
  23877030.233   125474640.16747      -259.625    23877032.405    97772456.30049
      -202.309  
  21924671.033   115214924.22748      2917.898    21924673.261    89777873.85349
      2273.687  
  20385414.621   107126126.53449     -1535.266    20385414.077    83474920.02549
     -1196.315  
  20658975.515   108563670.95249     -1423.930    20658975.467    84595064.46848
     -1109.559  
  20529611.436   107883871.59849      1686.941    20529610.533    84065370.15948
      1314.499  
  20860774.146   109624144.72749      1788.945    20860773.777    85421425.96948
      1393.979  
  23228374.356   122065936.05648      3000.710    23228376.682    95116322.04949
      2338.214  
  22438736.152   117916353.50548     -3058.308    22438735.481    91882870.52245
     -2383.101  
  21704143.616   115980362.90008  -2097152.000    21704149.997    90206975.44307
  -2097152.000  
  19302039.447   102999422.41708      -478.234           0.000           0.0000 
         0.000  
  21053274.548   112699867.96508      2625.289    21053278.427    87655484.60708
      2041.890  
  21232097.528   113617242.44708     -3635.918    21232101.173    88369006.71407
     -2827.940  
  20323801.216   108489851.19207       154.124    20323805.618    84381001.08504
       119.871  
  22333863.155   119303478.98205      3613.108    22333868.875    92791629.88905
      2810.195  
  22610155.634   120864234.44007     -3401.359    22610160.400    94005536.20406
     -2645.504  
 20 10 02 06 45 45.0000000  0 15G27G24G15G18G20G23G10G13R15R 6R 7R21
                                R22R16R 5
  23877278.563   125475945.14747      -262.738    23877280.735    97773473.16949
      -204.730  
  21921895.782   115200340.15648      2915.687    21921898.012    89766509.64249
      2271.965  
  20386876.485   107133808.64949     -1537.602    20386875.935    83480906.09049
     -1198.137  
  20660331.847   108570798.52649     -1427.063    20660331.807    84600618.42448
     -1112.000  
  20528007.257   107875441.51549      1685.077    20528006.356    84058801.25948
      1313.046  
  20859072.651   109615203.30949      1787.539    20859072.296    85414458.62948
      1392.887  
  23225519.559   122050933.90048      3000.113    23225521.875    95104632.06049
      2337.749  
  22441646.549   117931647.77548     -3059.410    22441645.921    91894788.12845
     -2383.961  
  21704004.395   115979618.94308  -2097152.000    21704010.777    90206396.81207
  -2097152.000  
  19302488.583   103001819.06208      -480.555           0.000           0.0000 
         0.000  
  21050823.097   112686745.12608      2623.870    21050826.963    87645277.95808
      2040.788  
  21235496.027   113635428.75308     -3638.543    21235499.740    88383151.61107
     -2829.979  
  20323658.849   108489091.26307       149.371    20323663.267    84380410.03504
       116.172  
  22330482.234   119285418.27205      3611.207    22330487.873    92777582.67305
      2808.715  
  22613337.253   120881241.83107     -3401.729    22613342.013    94018764.16906
     -2645.793  
 20 10 02 06 45 50.0000000  0 15G27G24G15G18G20G23G10G13R15R 6R 7R21
                                R22R16R 5
  23877529.795   125477265.25647      -265.925    23877531.926    97774501.81849
      -207.218  
  21919122.401   115185765.97048      2913.718    21919124.631    89755153.14049
      2270.429  
  20388340.456   107141501.83649     -1539.840    20388339.900    83486900.78249
     -1199.878  
  20661690.844   108577940.13249     -1429.859    20661690.816    84606183.30748
     -1114.179  
  20526404.700   107867020.02149      1683.327    20526403.800    84052239.06048
      1311.684  
  20857372.600   109606269.44949      1785.917    20857372.232    85407497.18148
      1391.624  
  23222665.103   122035933.57048      2999.835    23222667.400    95092943.49349
      2337.535  
  22444557.986   117946947.42048     -3060.496    22444557.424    91906709.93545
     -2384.800  
  21703869.118   115978896.06608  -2097152.000    21703875.499    90205834.57107
  -2097152.000  
  19302939.699   103004226.39608      -482.574           0.000           0.0000 
         0.000  
  21048372.827   112673628.69808      2622.397    21048376.712    87635076.29308
      2039.645  
  21238896.882   113653627.57008     -3641.285    21238900.666    88397306.23607
     -2832.112  
  20323520.716   108488353.80407       145.034    20323525.124    84379836.45704
       112.804  
  22327103.032   119267367.12005      3609.022    22327108.647    92763542.90005
      2807.019  
  22616519.005   120898250.27107     -3401.870    22616523.801    94031992.95306
     -2645.909  
 20 10 02 06 45 55.0000000  0 15G27G24G15G18G20G23G10G13R15R 6R 7R21
                                R22R16R 5
  23877784.570   125478603.95447      -269.395    23877786.673    97775544.93449
      -209.921  
  21916351.552   115171205.15248      2910.921    21916353.792    89743807.04949
      2268.249  
  20389807.183   107149209.57049     -1542.772    20389806.633    83492906.80949
     -1202.164  
  20663053.169   108585099.22849     -1433.315    20663053.147    84611761.82448
     -1116.871  
  20524804.434   107858610.56649      1680.827    20524803.541    84045686.23848
      1309.734  
  20855674.638   109597346.60049      1783.703    20855674.256    85400544.31648
      1389.898  
  23219811.646   122020938.55648      2998.645    23219813.939    95081259.07849
      2336.605  
  22447471.086   117962255.86248     -3062.300    22447470.499    91918638.58445
     -2386.210  
  21703738.444   115978197.77908  -2097152.000    21703744.826    90205291.46507
  -2097152.000  
  19303393.463   103006647.70608      -485.358           0.000           0.0000 
         0.000  
  21045924.415   112660522.25208      2620.554    21045928.303    87624882.39208
      2038.211  
  21242300.706   113671842.40008     -3644.358    21242304.604    88411473.30107
     -2834.507  
  20323387.349   108487642.12907       139.922    20323391.795    84379282.92904
       108.823  
  22323726.324   119249329.07005      3606.546    22323731.850    92749513.31005
      2805.093  
  22619701.634   120915263.21607     -3402.722    22619706.421    94045225.23306
     -2646.565  
 20 10 02 06 46  0.0000000  0 15G27G24G15G18G20G23G10G13R15R 6R 7R21
                                R22R16R 5
  23878042.318   125479958.49047      -272.511    23878044.437    97776600.43549
      -212.348  
  21913582.752   115156655.01148      2909.047    21913584.978    89732469.28249
      2266.789  
  20391276.178   107156929.09749     -1544.960    20391275.618    83498922.02749
     -1203.871  
  20664418.325   108592273.11149     -1436.081    20664418.291    84617351.85948
     -1119.026  
  20523205.954   107850210.46649      1679.265    20523205.055    84039140.70448
      1308.516  
  20853978.255   109588432.08149      1782.219    20853977.888    85393597.94048
      1388.741  
  23216958.674   122005946.11948      2998.316    23216960.966    95069576.66449
      2336.351  
  22450385.344   117977570.42148     -3063.301    22450384.762    91930572.00545
     -2386.988  
  21703611.870   115977521.41008  -2097152.000    21703618.253    90204765.40007
  -2097152.000  
  19303849.339   103009080.40908      -487.460           0.000           0.0000 
         0.000  
  21043477.345   112647423.05308      2619.160    21043481.235    87614694.13408
      2037.124  
  21245707.049   113690070.43008     -3646.961    21245710.991    88425650.65007
     -2836.526  
  20323258.369   108486953.59707       135.651    20323262.795    84378747.40704
       105.507  
  22320351.561   119231301.47305      3604.789    22320357.042    92735491.85905
      2803.727  
  22622884.559   120932277.99707     -3403.090    22622889.395    94058458.94806
     -2646.851  
 20 10 02 06 46  5.0000000  0 15G27G24G15G18G20G23G10G13R15R 6R 7R21
                                R22R16R 5
  23878303.209   125481329.35347      -276.172    23878305.300    97777668.65549
      -215.199  
  21910816.078   115142116.07448      2906.417    21910818.296    89721140.24449
      2264.742  
  20392747.495   107164660.92149     -1547.957    20392746.927    83504946.82149
     -1206.202  
  20665786.382   108599462.23749     -1439.597    20665786.358    84622953.77248
     -1121.769  
  20521609.341   107841820.18049      1676.831    20521608.423    84032602.82648
      1306.620  
  20852283.538   109579526.34549      1779.934    20852283.174    85386658.40348
      1386.960  
  23214106.289   121990956.76348      2997.184    23214108.580    95057896.65049
      2335.469  
  22453300.843   117992891.53348     -3065.187    22453300.294    91942510.52745
     -2388.461  
  21703489.478   115976867.38308  -2097152.000    21703495.861    90204256.71507
  -2097152.000  
  19304307.400   103011524.96107      -490.323           0.000           0.0000 
         0.000  
  21041031.729   112634331.47808      2617.276    21041035.619    87604511.80108
      2035.659  
  21249115.937   113708312.08108     -3649.933    21249119.878    88439838.59707
     -2838.839  
  20323133.847   108486288.73207       130.554    20323138.243    84378230.28804
       101.539  
  22316978.817   119213284.82106      3602.188    22316984.304    92721478.91605
      2801.706  
  22626067.923   120949295.08707     -3403.957    22626072.783    94071694.45307
     -2647.526  
 20 10 02 06 46 10.0000000  0 15G27G24G15G18G20G23G10G13R15R 6R 7R21
                                R22R16R 5
  23878567.539   125482718.54647      -279.574    23878569.646    97778751.10849
      -217.854  
  21908051.892   115127590.27348      2903.929    21908054.122    89709821.44249
      2262.800  
  20394221.533   107172407.04249     -1550.519    20394220.972    83510982.75949
     -1208.195  
  20667157.725   108606668.60149     -1442.819    20667157.668    84628569.12248
     -1124.281  
  20520014.973   107833441.68749      1674.679    20520014.072    84026074.13048
      1304.941  
  20850590.903   109570631.39349      1778.104    20850590.530    85379727.27748
      1385.530  
  23211254.875   121975972.48348      2996.656    23211257.160    95046220.59249
      2335.059  
  22456217.982   118008221.20548     -3066.628    22456217.449    91954455.72845
     -2389.585  
  21703371.643   115976237.70808  -2097152.000    21703378.026    90203766.96707
  -2097152.000  
  19304768.114   103013983.26207      -493.128           0.000           0.0000 
         0.000  
  21038587.955   112621249.69908      2615.625    21038591.833    87594337.08508
      2034.375  
  21252527.796   113726569.43608     -3652.766    21252531.650    88454038.76507
     -2841.043  
  20323014.120   108485649.52707       125.516    20323018.490    84377733.12504
        97.620  
  22313608.546   119195281.05905      3599.570    22313613.976    92707475.98605
      2799.659  
  22629252.120   120966316.44707     -3404.702    22629256.988    94084933.28807
     -2648.104  
 20 10 02 06 46 15.0000000  0 15G27G24G15G18G20G23G10G13R15R 6R 7R21
                                R22R16R 5
  23878835.165   125484125.01947      -282.726    23878837.300    97779847.10549
      -220.301  
  21905290.060   115113076.77548      2901.707    21905292.288    89698512.22649
      2261.069  
  20395698.091   107180166.40349     -1552.944    20395697.522    83517029.01549
     -1210.086  
  20668532.144   108613891.21949     -1445.809    20668532.093    84634197.12948
     -1126.609  
  20518422.669   107825074.07249      1672.793    20518421.775    84019553.91048
      1303.477  
  20848900.118   109561746.28749      1776.456    20848899.758    85372803.81548
      1384.249  
  23208404.222   121960992.32748      2995.866    23208406.525    95034547.75149
      2334.440  
  22459136.547   118023558.49248     -3067.867    22459136.013    91966406.85245
     -2390.551  
  21703258.187   115975631.43508  -2097152.000    21703264.569    90203295.41807
  -2097152.000  
  19305231.218   103016454.47307      -495.351           0.000           0.0000 
         0.000  
  21036145.806   112608176.68608      2614.026    21036149.686    87584169.19308
      2033.133  
  21255942.356   113744841.50208     -3655.609    21255946.141    88468250.38007
     -2843.250  
  20322898.953   108485034.88407       120.729    20322903.324    84377255.06804
        93.898  
  22310240.429   119177289.40105      3597.780    22310245.918    92693482.48905
      2798.273  
  22632436.957   120983341.16407     -3404.938    22632441.827    94098174.72806
     -2648.289  
 20 10 02 06 46 20.0000000  0 15G27G24G15G18G20G23G10G13R15R 6R 7R21
                                R22R16R 5
  23879105.545   125485546.00147      -285.694    23879107.685    97780954.35149
      -222.624  
  21902530.016   115098572.64848      2899.762    21902532.268    89687210.31349
      2259.555  
  20397176.605   107187936.05249     -1555.151    20397176.045    83523083.28549
     -1211.812  
  20669909.094   108621127.17049     -1448.663    20669909.041    84639835.53148
     -1128.831  
  20516831.884   107816714.37749      1671.097    20516830.963    84013039.86248
      1302.151  
  20847210.657   109552868.07949      1774.839    20847210.284    85365885.73548
      1382.988  
  23205553.827   121946013.33448      2995.706    23205556.119    95022875.81549
      2334.315  
  22462056.000   118038900.38448     -3068.983    22462055.531    91978361.57045
     -2391.421  
  21703148.556   115975045.60108  -2097152.000    21703154.938    90202839.76707
  -2097152.000  
  19305696.124   103018935.55008      -497.374           0.000           0.0000 
         0.000  
  21033704.720   112595109.42508      2612.949    21033708.613    87574005.77208
      2032.293  
  21259359.101   113763125.25608     -3657.983    21259362.880    88482471.06707
     -2845.102  
  20322787.897   108484441.93407       116.312    20322792.268    84376793.88904
        90.461  
  22306874.071   119159306.70404      3595.344    22306879.490    92679495.94805
      2796.375  
  22635621.826   121000366.14207     -3405.288    22635626.707    94111416.36907
     -2648.562  
 20 10 02 06 46 25.0000000  0 15G27G24G15G18G20G23G10G13R15R 6R 7R21
                                R22R16R 5
  23879379.377   125486984.90847      -289.339    23879381.464    97782075.55549
      -225.465  
  21899772.452   115084081.48948      2897.042    21899774.701    89675918.50649
      2257.438  
  20398657.766   107195719.57249     -1557.875    20398657.199    83529148.36649
     -1213.934  
  20671289.254   108628379.95849     -1451.964    20671289.215    84645487.05248
     -1131.406  
  20515243.253   107808366.13049      1668.776    20515242.352    84006534.73648
      1300.343  
  20845523.189   109544000.31249      1772.687    20845522.789    85358975.78848
      1381.313  
  23202704.315   121931039.08048      2994.410    23202706.606    95011207.56649
      2333.304  
  22464977.012   118054250.37248     -3070.577    22464976.543    91990322.59645
     -2392.663  
  21703043.424   115974483.80708  -2097152.000    21703049.806    90202402.81907
  -2097152.000  
  19306163.562   103021430.14008      -500.000           0.000           0.0000 
         0.000  
  21031265.370   112582051.39008      2610.761    21031269.255    87563849.52108
      2030.590  
  21262778.689   113781424.16408     -3661.156    21262782.488    88496703.53907
     -2847.569  
  20322681.539   108483874.28307       111.050    20322685.898    84376352.38204
        86.367  
  22303510.015   119141336.61505      3593.284    22303515.486    92665519.23005
      2794.776  
  22638807.385   121017394.96807     -3405.710    22638812.314    94124661.00506
     -2648.890  
 20 10 02 06 46 30.0000000  0 15G27G24G15G18G20G23G10G13R15R 6R 7R21
                                R22R16R 5
  23879656.144   125488439.32847      -292.551    23879658.240    97783208.87349
      -227.965  
  21897016.871   115069600.75248      2895.140    21897019.118    89664634.82249
      2255.953  
  20400141.084   107203514.49349     -1560.042    20400140.523    83535222.32949
     -1215.616  
  20672672.164   108635647.20249     -1454.898    20672672.126    84651149.84248
     -1133.687  
  20513656.365   107800026.97749      1667.007    20513655.465    84000036.69748
      1298.968  
  20843837.244   109535140.57849      1771.184    20843836.838    85352072.10148
      1380.144  
  23199855.236   121916067.13048      2994.277    23199857.526    94999541.12449
      2333.203  
  22467899.121   118069606.12648     -3071.578    22467898.586    92002288.12245
     -2393.438  
  21702942.328   115973943.58008  -2097152.000    21702948.710    90201982.64107
  -2097152.000  
  19306633.136   103023935.65908      -502.308           0.000           0.0000 
         0.000  
  21028827.350   112569000.44808      2609.641    21028831.229    87553698.79008
      2029.714  
  21266200.657   113799735.90008     -3663.542    21266204.516    88510945.98907
     -2849.425  
  20322579.500   108483329.43407       106.656    20322583.799    84375928.61004
        82.949  
  22300147.965   119123376.77106      3591.151    22300153.348    92651550.48405
      2793.117  
  22641993.244   121034425.39607     -3406.047    22641998.214    94137906.88807
     -2649.167  
 20 10 02 06 46 35.0000000  0 15G27G24G15G18G20G23G10G13R15R 6R 7R21
                                R22R16R 5
  23879935.832   125489909.16147      -295.229    23879937.929    97784354.18549
      -230.059  
  21894263.270   115055130.45048      2892.983    21894265.520    89653359.26549
      2254.273  
  20401626.560   107211320.74949     -1562.546    20401626.004    83541305.12649
     -1217.573  
  20674057.796   108642928.74649     -1457.859    20674057.734    84656823.76948
     -1135.999  
  20512071.184   107791696.76349      1665.105    20512070.278    83993545.62148
      1297.484  
  20842152.803   109526288.78549      1769.409    20842152.391    85345174.60348
      1378.757  
  23197006.572   121901097.39548      2993.483    23197008.865    94987876.39449
      2332.582  
  22470822.301   118084967.48348     -3073.011    22470821.725    92014258.01345
     -2394.558  
  21702845.234   115973424.73608  -2097152.000    21702851.615    90201579.09707
  -2097152.000  
  19307104.740   103026452.19508      -504.430           0.000           0.0000 
         0.000  
  21026390.597   112555956.22608      2607.953    21026394.461    87543553.29308
      2028.405  
  21269625.053   113818060.28208     -3666.171    21269628.916    88525198.27907
     -2851.473  
  20322481.709   108482807.29307       102.147    20322486.000    84375522.50204
        79.445  
  22296787.667   119105427.07205      3588.969    22296793.104    92637589.60705
      2791.422  
  22645179.451   121051456.97207     -3406.597    22645184.344    94151153.66407
     -2649.578  
 20 10 02 06 46 40.0000000  0 15G27G24G15G18G20G23G10G13R15R 6R 7R21
                                R22R16R 5
  23880219.213   125491398.18148      -299.604    23880221.277    97785514.44749
      -233.461  
  21891512.362   115040674.33148      2889.862    21891514.605    89642094.76249
      2251.840  
  20403114.918   107219142.09549     -1565.688    20403114.364    83547399.68149
     -1220.019  
  20675446.877   108650228.38449     -1461.574    20675446.816    84662511.79848
     -1138.894  
  20510488.424   107783379.27049      1662.207    20510487.520    83987064.46048
      1295.227  
  20840470.586   109517448.70349      1766.905    20840470.179    85338286.22648
      1376.805  
  23194159.060   121886133.65148      2992.085    23194161.362    94976216.34749
      2331.496  
  22473747.240   118100338.20048     -3075.124    22473746.657    92026235.18545
     -2396.206  
  21702752.882   115972931.23508  -2097152.000    21702759.262    90201195.25707
  -2097152.000  
  19307579.096   103028983.26308      -507.703           0.000           0.0000 
         0.000  
  21023955.826   112542922.70408      2605.656    21023959.690    87533416.10708
      2026.620  
  21273052.507   113836401.12708     -3669.714    21273056.385    88539463.37607
     -2854.227  
  20322388.821   108482311.73307        96.563    20322393.187    84375137.06404
        75.102  
  22293430.158   119087491.45005      3585.983    22293435.483    92623639.68905
      2789.097  
  22648366.491   121068493.84007     -3407.835    22648371.478    94164404.55107
     -2650.543  
 20 10 02 06 46 45.0000000  0 15G27G24G15G18G20G23G10G13R15R 6R 7R21
                                R22R16R 5
  23880505.659   125492903.43448      -303.020    23880507.729    97786687.39248
      -236.116  
  21888763.535   115026229.24248      2887.909    21888765.789    89630838.85149
      2250.320  
  20404605.596   107226975.56749     -1568.050    20404605.024    83553503.68449
     -1221.862  
  20676838.833   108657543.19649     -1464.569    20676838.786    84668211.64948
     -1141.227  
  20508907.527   107775071.60049      1660.421    20508906.631    83980590.95248
      1293.836  
  20838790.045   109508617.40149      1765.188    20838789.639    85331404.69648
      1375.468  
  23191312.126   121871172.97248      2991.836    23191314.425    94964558.67749
      2331.300  
  22476673.427   118115715.32748     -3076.179    22476672.797    92038217.36245
     -2397.023  
  21702664.692   115972459.97508  -2097152.000    21702671.073    90200828.72407
  -2097152.000  
  19308055.647   103031526.13808      -510.000           0.000           0.0000 
         0.000  
  21021522.532   112529896.93708      2604.238    21021526.354    87523284.96408
      2025.520  
  21276482.462   113854755.44208     -3672.331    21276486.365    88553738.95307
     -2856.262  
  20322300.380   108481839.62807        91.969    20322304.745    84374769.86904
        71.526  
  22290074.541   119069566.53805      3583.343    22290079.888    92609698.09605
      2787.046  
  22651554.022   121085532.83107     -3408.184    22651558.979    94177657.09206
     -2650.813  
 20 10 02 06 46 50.0000000  0 15G27G24G15G18G20G23G10G13R15R 6R 7R21
                                R22R16R 5
  23880795.271   125494425.26048      -305.707    23880797.330    97787873.25849
      -238.210  
  21886016.976   115011796.00548      2885.792    21886019.236    89619592.17749
      2248.668  
  20406098.638   107234821.55749     -1570.211    20406098.058    83559617.44149
     -1223.543  
  20678233.737   108664873.49949     -1467.386    20678233.704    84673923.57248
     -1143.421  
  20507328.587   107766774.18249      1658.663    20507327.685    83974125.43448
      1292.465  
  20837111.243   109499795.26849      1763.804    20837110.843    85324530.30748
      1374.391  
  23188465.846   121856215.73548      2991.409    23188468.151    94952903.69349
      2330.965  
  22479600.904   118131099.28948     -3077.258    22479600.281    92050204.85945
     -2397.867  
  21702580.759   115972011.46408  -2097152.000    21702587.141    90200479.88407
  -2097152.000  
  19308534.446   103034081.10208      -512.051           0.000           0.0000 
         0.000  
  21019090.707   112516879.18908      2603.030    21019094.537    87513160.05008
      2024.574  
  21279914.972   113873123.52708     -3674.690    21279918.857    88568025.23707
     -2858.097  
  20322216.416   108481391.42307        87.539    20322220.811    84374421.26504
        68.081  
  22286721.137   119051653.31805      3582.081    22286726.476    92595765.60205
      2786.063  
  22654741.971   121102574.46407     -3408.597    22654746.982    94190911.68606
     -2651.137  
 20 10 02 06 46 55.0000000  0 15G27G24G15G18G20G23G10G13R15R 6R 7R21
                                R22R16R 5
  23881087.831   125495962.70547      -308.961    23881089.912    97789071.27149
      -240.750  
  21883272.434   114997373.34248      2883.617    21883274.688    89608353.74349
      2246.972  
  20407593.862   107242679.07249     -1572.378    20407593.301    83565740.17849
     -1225.230  
  20679631.410   108672218.28549     -1470.270    20679631.385    84679646.78048
     -1145.664  
  20505751.389   107758485.92149      1656.831    20505750.482    83967667.05048
      1291.038  
  20835433.981   109490981.26349      1762.081    20835433.594    85317662.24948
      1373.047  
  23185620.013   121841260.93448      2990.726    23185622.349    94941250.60949
      2330.437  
  22482529.453   118146488.97848     -3078.410    22482528.811    92062196.82545
     -2398.765  
  21702500.869   115971584.55408  -2097152.000    21702507.249    90200147.83807
  -2097152.000  
  19309015.312   103036647.09508      -514.265           0.000           0.0000 
         0.000  
  21016660.183   112503868.46508      2601.397    21016664.018    87503040.60208
      2023.308  
  21283349.854   113891504.40508     -3677.194    21283353.739    88582321.46907
     -2860.043  
  20322136.759   108480966.20707        83.063    20322141.123    84374090.54004
        64.601  
  22283369.578   119033750.32705      3579.577    22283374.979    92581841.06805
      2784.117  
  22657930.239   121119617.51907     -3408.656    22657935.252    94204167.39506
     -2651.180  
 20 10 02 06 47  0.0000000  0 15G27G24G15G18G20G23G10G13R15R 6R 7R21
                                R22R16R 5
  23881383.443   125497516.18547      -312.815    23881385.504    97790281.76449
      -243.758  
  21880529.979   114982961.70448      2880.917    21880532.246    89597123.89749
      2244.871  
  20409091.351   107250548.42949     -1575.301    20409090.782    83571872.14549
     -1227.512  
  20681031.912   108679577.97549     -1473.531    20681031.871    84685381.60148
     -1148.211  
  20504176.022   107750207.27849      1654.601    20504175.116    83961216.15748
      1289.300  
  20833758.354   109482175.84249      1760.020    20833757.970    85310800.88148
      1371.445  
  23182774.731   121826308.93848      2989.983    23182777.071    94929599.70349
      2329.854  
  22485459.182   118161884.83948     -3080.004    22485458.605    92074193.58945
     -2400.008  
  21702425.112   115971179.73308  -2097152.000    21702431.493    90199832.98007
  -2097152.000  
  19309498.323   103039224.50007      -516.816           0.000           0.0000 
         0.000  
  21014231.052   112490865.13508      2599.769    21014234.881    87492926.90708
      2022.042  
  21286787.168   113909898.38408     -3680.331    21286791.048    88596627.89307
     -2862.484  
  20322061.462   108480564.26707        77.847    20322065.797    84373777.92404
        60.546  
  22280020.149   119015858.21404      3577.413    22280025.509    92567924.98305
      2782.429  
  22661118.829   121136662.45607     -3409.300    22661123.867    94217424.56207
     -2651.684  
 20 10 02 06 47  5.0000000  0 15G27G24G15G18G20G23G10G13R15R 6R 7R21
                                R22R16R 5
  23881682.455   125499087.53847      -315.569    23881684.526    97791506.17849
      -245.902  
  21877790.010   114968563.06848      2878.718    21877792.286    89585904.19049
      2243.156  
  20410591.463   107258431.54449     -1577.546    20410590.896    83578014.82949
     -1229.262  
  20682435.613   108686954.47249     -1476.551    20682435.572    84691129.51948
     -1150.563  
  20502602.840   107741940.15149      1652.715    20502601.927    83954774.24348
      1287.828  
  20832084.728   109473380.88249      1758.457    20832084.331    85303947.67148
      1370.227  
  23179930.384   121811361.73348      2989.320    23179932.708    94917952.54149
      2329.339  
  22488390.460   118177288.74748     -3081.198    22488389.880    92086196.64245
     -2400.937  
  21702353.863   115970799.00208  -2097152.000    21702360.244    90199536.85307
  -2097152.000  
  19309983.836   103041815.50808      -519.108           0.000           0.0000 
         0.000  
  21011803.638   112477871.21708      2598.258    21011807.500    87482820.52508
      2020.867  
  21290227.358   113928307.47208     -3682.976    21290231.164    88610946.06707
     -2864.542  
  20321990.930   108480187.64107        73.453    20321995.272    84373484.98904
        57.125  
  22276673.111   118997978.90905      3574.706    22276678.470    92554018.87705
      2780.327  
  22664308.167   121153711.23207     -3409.878    22664313.198    94230684.71206
     -2652.133  
 20 10 02 06 47 10.0000000  0 15G27G24G15G18G20G23G10G13R15R 6R 7R21
                                R22R16R 5
  23881984.689   125500675.78847      -319.082    23881986.760    97792743.77649
      -248.641  
  21875052.311   114954176.45848      2876.487    21875054.613    89574693.84649
      2241.417  
  20412093.988   107266327.39649     -1579.894    20412093.427    83584167.44049
     -1231.090  
  20683842.296   108694346.73549     -1479.586    20683842.272    84696889.72048
     -1152.929  
  20501031.666   107733683.51549      1650.664    20501030.750    83948340.50548
      1286.230  
  20830412.915   109464595.41049      1756.640    20830412.511    85297101.84748
      1368.808  
  23177086.710   121796418.24948      2988.773    23177089.057    94906308.26949
      2328.914  
  22491323.071   118192699.69248     -3082.378    22491322.507    92098205.16346
     -2401.859  
  21702286.894   115970441.13608  -2097152.000    21702293.275    90199258.51507
  -2097152.000  
  19310471.704   103044418.77608      -521.468           0.000           0.0000 
         0.000  
  21009377.817   112464885.54408      2596.718    21009381.660    87472720.56108
      2019.671  
  21293670.239   113946730.58608     -3685.577    21293673.955    88625275.15307
     -2866.566  
  20321924.927   108479835.21707        68.675    20321929.250    84373210.87904
        53.409  
  22273328.375   118980111.52405      3571.929    22273333.638    92540122.02905
      2778.167  
  22667498.068   121170762.86407     -3409.976    22667503.065    94243947.09006
     -2652.206  
 20 10 02 06 47 15.0000000  0 15G27G24G15G18G20G23G10G13R15R 6R 7R21
                                R22R16R 5
  23882290.117   125502280.79347      -322.327    23882292.175    97793994.43249
      -251.168  
  21872316.876   114939801.65248      2873.979    21872319.187    89563492.70249
      2239.465  
  20413598.914   107274235.86449     -1582.690    20413598.350    83590329.88149
     -1233.269  
  20685251.985   108701754.66749     -1482.949    20685251.970    84702662.13748
     -1155.547  
  20499462.463   107725437.29849      1648.417    20499461.562    83941914.88148
      1284.480  
  20828742.870   109455819.29549      1754.504    20828742.473    85290263.32148
      1367.145  
  23174243.749   121781478.42148      2987.804    23174246.104    94894666.85149
      2328.159  
  22494256.978   118208117.54048     -3083.929    22494256.441    92110219.07046
     -2403.065  
  21702224.220   115970106.22608  -2097152.000    21702230.600    90198998.02507
  -2097152.000  
  19310961.909   103047034.44408      -523.957           0.000           0.0000 
         0.000  
  21006953.535   112451908.17508      2594.898    21006957.380    87462627.05508
      2018.253  
  21297115.660   113965167.60208     -3688.796    21297119.397    88639615.05207
     -2869.066  
  20321863.457   108479506.93108        63.344    20321867.736    84372955.54504
        49.265  
  22269985.673   118962255.66005      3570.128    22269990.946    92526234.14105
      2776.766  
  22670688.385   121187817.12407     -3411.015    22670693.400    94257211.50306
     -2653.016  
 20 10 02 06 47 20.0000000  0 15G27G24G15G18G20G23G10G13R15R 6R 7R21
                                R22R16R 5
  23882598.442   125503900.98648      -325.320    23882600.488    97795256.92049
      -253.499  
  21869583.384   114925437.05548      2872.159    21869585.695    89552299.51149
      2238.046  
  20415105.933   107282155.36849     -1584.886    20415105.389    83596500.92249
     -1234.980  
  20686664.339   108709176.67149     -1485.663    20686664.322    84708445.51248
     -1157.663  
  20497894.943   107717199.92349      1646.683    20497894.042    83935496.14748
      1283.128  
  20827074.313   109447050.96949      1752.999    20827073.916    85283430.86148
      1365.972  
  23171401.167   121766540.64348      2987.422    23171403.550    94883027.03449
      2327.859  
  22497191.928   118223540.71448     -3085.148    22497191.448    92122237.12345
     -2404.015  
  21702165.522   115969792.56408  -2097152.000    21702171.904    90198754.07507
  -2097152.000  
  19311454.074   103049660.76208      -526.137           0.000           0.0000 
         0.000  
  21004530.468   112438937.49608      2593.468    21004534.334    87452538.75308
      2017.140  
  21300563.332   113983616.88808     -3690.761    21300567.160    88653964.48807
     -2870.598  
  20321806.164   108479201.18808        58.983    20321810.499    84372717.74804
        45.875  
  22266644.936   118944410.01005      3568.258    22266650.176    92512354.20305
      2775.308  
  22673878.990   121204872.48707     -3411.108    22673883.949    94270476.78006
     -2653.089  
 20 10 02 06 47 25.0000000  0 15G27G24G15G18G20G23G10G13R15R 6R 7R21
                                R22R16R 5
  23882910.026   125505538.52847      -329.226    23882912.129    97796532.94549
      -256.539  
  21866852.258   114911084.95248      2869.124    21866854.567    89541116.05849
      2235.683  
  20416615.482   107290088.13149     -1587.773    20416614.943    83602682.29549
     -1237.230  
  20688079.800   108716614.93949     -1489.242    20688079.762    84714241.56548
     -1160.452  
  20496329.514   107708973.53849      1644.195    20496328.613    83929085.98048
      1281.191  
  20825407.644   109438292.63049      1750.632    20825407.260    85276606.18148
      1364.129  
  23168559.413   121751607.16048      2986.101    23168561.803    94871390.55849
      2326.831  
  22500128.317   118238971.47748     -3086.957    22500127.861    92134261.08746
     -2405.426  
  21702111.224   115969502.41208  -2097152.000    21702117.605    90198528.39507
  -2097152.000  
  19311948.696   103052299.81808      -529.101           0.000           0.0000 
         0.000  
  21002109.081   112425975.68108      2591.406    21002112.944    87442457.34508
      2015.539  
  21304013.709   114002080.64408     -3694.159    21304017.618    88668325.17207
     -2873.238  
  20321753.566   108478920.16608        53.555    20321757.913    84372499.17204
        41.648  
  22263306.489   118926576.78106      3565.203    22263311.733    92498483.93405
      2772.941  
  22677070.187   121221931.23107     -3412.031    22677075.153    94283744.68507
     -2653.804  
 20 10 02 06 47 30.0000000  0 15G27G24G15G18G20G23G10G13R15R 6R 7R21
                                R22R16R 5
  23883224.818   125507192.71147      -332.683    23883226.898    97797821.90349
      -259.237  
  21864123.386   114896744.69648      2866.906    21864125.707    89529941.83549
      2233.953  
  20418127.398   107298033.30549     -1590.328    20418126.867    83608873.33849
     -1239.219  
  20689498.202   108724068.69149     -1492.309    20689498.163    84720049.68048
     -1162.839  
  20494766.045   107700757.42749      1642.199    20494765.148    83922683.81748
      1279.637  
  20823742.742   109429543.51149      1748.914    20823742.342    85269788.68448
      1362.785  
  23165718.332   121736677.14748      2985.526    23165720.704    94859756.79349
      2326.386  
  22503065.977   118254408.89248     -3088.214    22503065.520    92146290.24646
     -2406.401  
  21702061.164   115969234.90808  -2097152.000    21702067.545    90198320.33607
  -2097152.000  
  19312445.530   103054951.08208      -531.293           0.000           0.0000 
         0.000  
  20999689.203   112413021.95108      2589.937    20999693.086    87432382.22508
      2014.395  
  21307466.646   114020558.03908     -3696.819    21307470.565    88682696.46607
     -2875.308  
  20321705.401   108478663.12307        48.871    20321709.752    84372299.24804
        38.008  
  22259970.270   118908754.98705      3562.848    22259975.418    92484622.53705
      2771.105  
  22680261.829   121238992.41607     -3412.629    22680266.806    94297014.48806
     -2654.214  
 20 10 02 06 47 35.0000000  0 15G27G24G15G18G20G23G10G13R15R 6R 7R21
                                R22R16R 5
  23883542.921   125508864.35048      -336.023    23883545.002    97799124.48649
      -261.835  
  21861396.899   114882417.06548      2864.362    21861399.243    89518777.45049
      2231.972  
  20419641.848   107305991.79449     -1593.027    20419641.317    83615074.75749
     -1241.319  
  20690919.707   108731538.81449     -1495.609    20690919.687    84725870.55248
     -1165.414  
  20493204.684   107692552.48249      1639.945    20493203.798    83916290.35348
      1277.878  
  20822079.754   109420804.51049      1746.827    20822079.366    85262979.07648
      1361.163  
  23162878.061   121721751.51448      2984.651    23162880.451    94848126.43149
      2325.702  
  22506005.076   118269853.86748     -3089.715    22506004.616    92158325.29245
     -2407.574  
  21702015.530   115968991.05308  -2097152.000    21702021.910    90198130.67007
  -2097152.000  
  19312944.750   103057615.17108      -534.059           0.000           0.0000 
         0.000  
  20997271.016   112400077.23608      2588.191    20997274.884    87422314.11908
      2013.039  
  21310922.282   114039049.97208     -3699.905    21310926.166    88697079.08407
     -2877.707  
  20321661.836   108478430.88407        44.171    20321666.231    84372118.61804
        34.351  
  22256636.283   118890945.77205      3560.781    22256641.477    92470770.94305
      2769.496  
  22683454.122   121256056.99207     -3413.078    22683459.071    94310286.92406
     -2654.586  
 20 10 02 06 47 40.0000000  0 15G27G24G15G18G20G23G10G13R15R 6R 7R21
                                R22R16R 5
  23883863.885   125510551.24747      -339.184    23883866.034    97800438.96549
      -264.301  
  21858672.400   114868099.82248      2862.555    21858674.755    89507621.15949
      2230.562  
  20421158.393   107313961.35149     -1595.074    20421157.881    83621284.80149
     -1242.914  
  20692343.918   108739023.06049     -1498.269    20692343.899    84731702.43148
     -1167.487  
  20491645.033   107684356.45749      1638.312    20491644.132    83909903.84248
      1276.602  
  20820418.276   109412073.38649      1745.440    20820417.895    85256175.60048
      1360.082  
  23160038.220   121706828.04748      2984.440    23160040.603    94836497.76049
      2325.539  
  22508945.164   118285304.16548     -3090.729    22508944.687    92170364.48146
     -2408.367  
  21701973.884   115968768.50808  -2097152.000    21701980.265    90197957.58207
  -2097152.000  
  19313446.038   103060290.04608      -536.035           0.000           0.0000 
         0.000  
  20994854.089   112387139.29908      2587.074    20994857.968    87412251.27608
      2012.167  
  21314380.244   114057554.25708     -3702.305    21314384.050    88711471.30107
     -2879.573  
  20321622.508   108478221.25907        39.602    20321626.946    84371955.57304
        30.797  
  22253304.253   118873147.00806      3558.659    22253309.504    92456927.46305
      2767.848  
  22686646.616   121273122.76307     -3413.156    22686651.590    94323560.29606
     -2654.679  
 20 10 02 06 47 45.0000000  0 15G27G24G15G18G20G23G10G13R15R 6R 7R21
                                R22R16R 5
  23884188.334   125512256.11348      -342.702    23884190.464    97801767.41749
      -267.047  
  21855950.438   114853795.81148      2859.652    21855952.802    89496475.18649
      2228.301  
  20422677.570   107321944.68349     -1597.965    20422677.050    83627505.57849
     -1245.171  
  20693771.332   108746524.14249     -1501.808    20693771.299    84737547.42748
     -1170.245  
  20490087.608   107676172.10149      1635.859    20490086.693    83903526.42148
      1274.694  
  20818758.818   109403352.87349      1743.199    20818758.438    85249380.40148
      1358.336  
  23157199.319   121691909.45948      2983.409    23157201.684    94824872.89349
      2324.733  
  22511886.806   118300762.50448     -3092.405    22511886.264    92182409.93445
     -2409.667  
  21701936.755   115968570.10408  -2097152.000    21701943.136    90197803.26607
  -2097152.000  
  19313949.821   103062978.45508      -538.917           0.000           0.0000 
         0.000  
  20992438.929   112374210.72708      2584.769    20992442.796    87402195.72708
      2010.375  
  21317841.031   114076073.50208     -3705.069    21317844.753    88725875.15807
     -2881.727  
  20321588.022   108478037.04507        34.425    20321592.459    84371812.29604
        26.772  
  22249974.711   118855361.13105      3555.770    22249979.953    92443094.01305
      2765.597  
  22689839.893   121290192.40607     -3414.348    22689844.826    94336836.68006
     -2655.609  
 20 10 02 06 47 50.0000000  0 15G27G24G15G18G20G23G10G13R15R 6R 7R21
                                R22R16R 5
  23884515.787   125513976.89248      -345.637    23884517.923    97803108.27549
      -269.332  
  21853230.570   114839502.90648      2857.636    21853232.953    89485337.85949
      2226.730  
  20424198.992   107329939.77549     -1600.074    20424198.473    83633735.51849
     -1246.815  
  20695201.563   108754040.05349     -1504.593    20695201.536    84743403.97948
     -1172.414  
  20488532.009   107667997.37749      1634.070    20488531.110    83897156.50848
      1273.301  
  20817100.989   109394640.95849      1741.706    20817100.617    85242591.89848
      1357.172  
  23154360.948   121676993.75248      2982.749    23154363.305    94813250.26849
      2324.223  
  22514829.588   118316226.86648     -3093.409    22514829.025    92194460.08345
     -2410.453  
  21701903.758   115968393.77808  -2097152.000    21701910.139    90197666.12207
  -2097152.000  
  19314455.766   103065678.30708      -541.262           0.000           0.0000 
         0.000  
  20990025.166   112361289.66308      2583.616    20990029.003    87392146.01408
      2009.480  
  21321304.216   114094605.60908     -3707.586    21321307.912    88740289.01607
     -2883.684  
  20321557.830   108477876.03307        29.847    20321562.282    84371687.06904
        23.214  
  22246647.222   118837586.37305      3554.082    22246652.475    92429269.20805
      2764.284  
  22693033.464   121307263.84607     -3414.401    22693038.398    94350114.46006
     -2655.648  
 20 10 02 06 47 55.0000000  0 15G27G24G15G18G20G23G10G13R15R 6R 7R21
                                R22R16R 5
  23884846.204   125515713.27447      -349.183    23884848.357    97804461.31949
      -272.090  
  21850512.777   114825220.83648      2855.233    21850515.174    89474208.97849
      2224.858  
  20425722.590   107337946.33949     -1602.586    20425722.063    83639974.39949
     -1248.772  
  20696634.559   108761570.46849     -1507.749    20696634.541    84749271.83348
     -1174.874  
  20486978.195   107659831.99449      1631.984    20486977.289    83890793.87248
      1271.672  
  20815444.741   109385937.34449      1739.680    20815444.372    85235809.85548
      1355.590  
  23151523.059   121662080.61048      2982.300    23151525.429    94801629.63949
      2323.871  
  22517773.463   118331696.93948     -3094.765    22517772.874    92206514.68445
     -2411.508  
  21701874.835   115968239.21908  -2097152.000    21701881.214    90197545.90607
  -2097152.000  
  19314963.791   103068389.16308      -543.469           0.000           0.0000 
         0.000  
  20987612.767   112348375.74808      2582.004    20987616.569    87382101.86008
      2008.226  
  21324769.752   114113150.36008     -3710.414    21324773.482    88754712.71807
     -2885.879  
  20321532.013   108477738.09707        25.069    20321536.448    84371579.78104
        19.496  
  22243321.851   118819822.18406      3551.527    22243326.969    92415452.62605
      2762.301  
  22696227.337   121324336.79807     -3414.823    22696232.244    94363393.41506
     -2655.977  
 20 10 02 06 48  0.0000000  0 15G27G24G15G18G20G23G10G13R15R 6R 7R21
                                R22R16R 5
  23885180.031   125517467.48647      -352.276    23885182.178    97805828.22749
      -274.504  
  21847797.467   114810951.78948      2852.660    21847799.859    89463090.24549
      2222.852  
  20427248.763   107345966.46349     -1605.257    20427248.242    83646223.84549
     -1250.854  
  20698070.719   108769117.50849     -1510.891    20698070.710    84755152.64348
     -1177.319  
  20485426.562   107651678.11249      1629.801    20485425.665    83884440.19848
      1269.972  
  20813790.488   109377244.15849      1737.784    20813790.100    85229035.94748
      1354.116  
  23148686.109   121647172.20948      2981.219    23148688.441    94790012.71249
      2323.027  
  22520718.824   118347174.88548     -3096.210    22520718.252    92218575.42145
     -2412.633  
  21701850.381   115968108.54508  -2097152.000    21701856.761    90197444.27307
  -2097152.000  
  19315474.277   103071113.42808      -546.172           0.000           0.0000 
         0.000  
  20985202.042   112335471.07308      2580.031    20985205.867    87372064.89308
      2006.691  
  21328238.057   114131709.80808     -3713.358    21328241.808    88769147.83207
     -2888.171  
  20321510.869   108477625.29307        20.206    20321515.315    84371492.04104
        15.711  
  22239998.712   118802070.94605      3548.906    22240003.894    92401646.11405
      2760.262  
  22699421.864   121341413.40807     -3415.438    22699426.783    94376675.21306
     -2656.456  
 20 10 02 06 48  5.0000000  0 15G27G24G15G18G20G23G10G13R15R 6R 7R21
                                R22R16R 5
  23885516.851   125519237.57947      -355.964    23885519.035    97807207.50849
      -277.379  
  21845084.294   114796693.96748      2850.140    21845086.686    89451980.25549
      2220.891  
  20428777.171   107353998.30149     -1607.828    20428776.650    83652482.42149
     -1252.855  
  20699509.714   108776679.35549     -1514.148    20699509.697    84761044.99048
     -1179.858  
  20483876.756   107643533.88949      1627.562    20483875.872    83878094.05448
      1268.230  
  20812137.875   109368559.58449      1735.746    20812137.489    85222268.75248
      1352.530  
  23145849.668   121632266.64448      2980.535    23145852.007    94778397.98749
      2322.495  
  22523665.317   118362658.80948     -3097.879    22523664.768    92230640.81745
     -2413.930  
  21701830.051   115967999.90608  -2097152.000    21701836.432    90197359.78207
  -2097152.000  
  19315986.908   103073849.05408      -548.594           0.000           0.0000 
         0.000  
  20982792.763   112322573.98008      2578.266    20982796.568    87362033.82508
      2005.315  
  21331708.739   114150282.15708     -3715.929    21331712.553    88783592.98307
     -2890.171  
  20321494.135   108477535.87007        15.401    20321498.564    84371422.49104
        11.976  
  22236677.717   118784330.79005      3546.590    22236682.901    92387848.21805
      2758.457  
  22702616.781   121358491.88307     -3416.112    22702621.678    94389958.46706
     -2656.980  
 20 10 02 06 48 10.0000000  0 15G27G24G15G18G20G23G10G13R15R 6R 7R21
                                R22R16R 5
  23885856.960   125521024.89947      -359.324    23885859.150    97808600.22249
      -279.996  
  21842373.488   114782448.55348      2847.671    21842375.867    89440879.93549
      2218.964  
  20430308.051   107362043.19349     -1610.477    20430307.542    83658751.16849
     -1254.922  
  20700951.747   108784257.29149     -1517.253    20700951.730    84766949.87548
     -1182.281  
  20482329.043   107635400.63349      1625.444    20482328.164    83871756.45148
      1266.581  
  20810487.133   109359884.93749      1733.758    20810486.750    85215509.28448
      1350.976  
  23143014.037   121617365.30348      2979.637    23143016.379    94766786.56449
      2321.792  
  22526613.177   118378149.98048     -3099.159    22526612.614    92242711.84545
     -2414.934  
  21701814.106   115967914.70508  -2097152.000    21701820.487    90197293.51307
  -2097152.000  
  19316501.971   103076597.43408      -551.097           0.000           0.0000 
         0.000  
  20980385.099   112309685.56908      2576.660    20980388.890    87352009.50507
      2004.069  
  21335182.073   114168868.69908     -3718.781    21335185.950    88798049.17007
     -2892.390  
  20321482.027   108477470.98407        10.116    20321486.408    84371372.02404
         7.867  
  22233359.007   118766603.23805      3544.047    22233364.276    92374060.13405
      2756.480  
  22705812.237   121375573.43007     -3416.883    22705817.142    94403244.11106
     -2657.577  
 20 10 02 06 48 15.0000000  0 15G27G24G15G18G20G23G10G13R15R 6R 7R21
                                R22R16R 5
  23886200.299   125522829.12547      -362.340    23886202.489    97810006.13649
      -282.343  
  21839664.991   114768215.33948      2845.758    21839667.376    89429789.11949
      2217.473  
  20431841.368   107370100.82649     -1612.449    20431840.858    83665029.84149
     -1256.456  
  20702396.803   108791851.04749     -1520.125    20702396.773    84772867.08148
     -1184.515  
  20480783.370   107627278.09549      1623.672    20480782.498    83865427.20348
      1265.199  
  20808838.237   109351219.93549      1732.257    20808837.856    85208757.33848
      1349.813  
  23140179.144   121602467.87048      2979.343    23140181.477    94755178.18049
      2321.566  
  22529562.401   118393648.16548     -3100.000    22529561.820    92254788.35345
     -2415.586  
  21701802.489   115967852.62408  -2097152.000    21701808.868    90197245.22107
  -2097152.000  
  19317019.340   103079358.18308      -553.112           0.000           0.0000 
         0.000  
  20977979.059   112296805.72208      2575.401    20977982.834    87341991.85007
      2003.090  
  21338658.005   114187469.05408     -3721.179    21338661.882    88812516.09907
     -2894.253  
  20321474.457   108477430.54607         5.819    20321478.855    84371340.57004
         4.523  
  22230042.672   118748887.66105      3542.511    22230047.892    92360281.35705
      2755.284  
  22709008.204   121392657.79907     -3417.226    22709013.139    94416531.94206
     -2657.847  
 20 10 02 06 48 20.0000000  0 15G27G24G15G18G20G23G10G13R15R 6R 7R21
                                R22R16R 5
  23886546.673   125524649.33147      -365.917    23886548.868    97811424.46849
      -285.137  
  21836958.629   114753993.37048      2842.898    21836961.019    89418707.07149
      2215.245  
  20433376.912   107378170.19949     -1615.331    20433376.415    83671317.65949
     -1258.702  
  20703844.663   108799459.57149     -1523.374    20703844.611    84778795.80148
     -1187.050  
  20479239.532   107619165.23449      1621.382    20479238.664    83859105.49548
      1263.413  
  20807190.966   109342563.55849      1730.121    20807190.603    85202012.11248
      1348.144  
  23137344.823   121587573.35048      2978.253    23137347.130    94743572.06349
      2320.719  
  22532512.753   118409152.30548     -3101.651    22532512.204    92266869.49645
     -2416.875  
  21701795.001   115967812.61108  -2097152.000    21701801.381    90197214.10307
  -2097152.000  
  19317538.800   103082130.27608      -555.905           0.000           0.0000 
         0.000  
  20975574.379   112283933.25208      2573.503    20975578.142    87331979.93408
      2001.613  
  21342136.340   114206082.29308     -3724.328    21342140.172    88826993.05707
     -2896.703  
  20321471.266   108477413.32307         0.792    20321475.613    84371327.17404
         0.612  
  22226728.326   118731183.48905      3539.483    22226733.642    92346511.44805
      2752.934  
  22712204.482   121409743.95507     -3417.594    22712209.458    94429821.17706
     -2658.133  
 20 10 02 06 48 25.0000000  0 15G27G24G15G18G20G23G10G13R15R 6R 7R21
                                R22R16R 5
  23886896.441   125526487.25047      -369.172    23886898.609    97812856.60149
      -287.672  
  21834254.767   114739784.51148      2840.848    21834257.164    89407635.23749
      2213.648  
  20434915.048   107386253.12449     -1617.652    20434914.546    83677616.04649
     -1260.508  
  20705295.677   108807084.73449     -1526.406    20705295.632    84784737.48748
     -1189.409  
  20477697.901   107611063.87649      1619.472    20477697.049    83852792.74648
      1261.922  
  20805545.696   109333917.66949      1728.461    20805545.345    85195275.05448
      1346.847  
  23134511.385   121572683.59348      2977.633    23134513.696    94731969.65749
      2320.234  
  22535464.576   118424664.24048     -3102.788    22535464.065    92278956.71546
     -2417.758  
  21701791.985   115967796.49308  -2097152.000    21701798.365    90197201.56707
  -2097152.000  
  19318060.878   103084915.96408      -558.313           0.000           0.0000 
         0.000  
  20973171.415   112271070.12208      2571.996    20973175.194    87321975.27808
      2000.438  
  21345617.416   114224710.17108     -3726.578    21345621.178    88841481.41507
     -2898.448  
  20321472.783   108477421.32607        -3.999    20321477.143    84371333.40004
        -3.109  
  22223416.463   118713492.20405      3537.183    22223421.776    92332751.56805
      2751.141  
  22715401.534   121426833.87107     -3418.484    22715406.478    94443113.32506
     -2658.823  
 20 10 02 06 48 30.0000000  0 15G27G24G15G18G20G23G10G13R15R 6R 7R21
                                R22R16R 5
  23887249.098   125528340.47747      -372.175    23887251.267    97814300.70749
      -290.007  
  21831552.949   114725586.33048      2838.590    21831555.334    89396571.72549
      2211.887  
  20436455.291   107394347.15649     -1619.934    20436454.789    83683923.08449
     -1262.289  
  20706749.393   108814724.06249     -1529.211    20706749.339    84790690.20748
     -1191.597  
  20476157.990   107602971.62449      1617.488    20476157.153    83846487.09548
      1260.375  
  20803901.963   109325279.82449      1726.770    20803901.625    85188544.26448
      1345.530  
  23131678.408   121557796.13748      2977.378    23131680.710    94720369.05449
      2320.035  
  22538417.396   118440181.51148     -3103.925    22538416.926    92291048.09445
     -2418.647  
  21701793.000   115967801.91908  -2097152.000    21701799.380    90197205.78807
  -2097152.000  
  19318584.955   103087712.19908      -560.347           0.000           0.0000 
         0.000  
  20970769.749   112258213.97408      2570.464    20970773.551    87311976.05308
      1999.250  
  21349100.772   114243350.22208     -3729.253    21349104.478    88855979.22507
     -2900.534  
  20321478.518   108477452.03807        -8.429    20321482.875    84371357.29004
        -6.554  
  22220106.521   118695811.52405      3535.362    22220111.903    92318999.93905
      2749.726  
  22718598.771   121443924.90607     -3418.559    22718603.692    94456406.34306
     -2658.882  
 20 10 02 06 48 35.0000000  0 15G27G24G15G18G20G23G10G13R15R 6R 7R21
                                R22R16R 5
  23887604.696   125530209.31147      -375.883    23887606.881    97815756.91849
      -292.898  
  21828853.217   114711399.08248      2836.078    21828855.582    89385516.72649
      2209.929  
  20437997.691   107402452.55549     -1622.645    20437997.194    83690238.97749
     -1264.402  
  20708205.858   108822377.83749     -1532.645    20708205.812    84796654.18848
     -1194.270  
  20474619.855   107594888.73349      1615.218    20474619.038    83840188.74348
      1258.612  
  20802259.819   109316650.30249      1724.589    20802259.490    85181819.96648
      1343.836  
  23128845.905   121542911.29548      2976.312    23128848.220    94708770.47949
      2319.203  
  22541371.309   118455704.36648     -3105.604    22541370.850    92303143.82546
     -2419.956  
  21701798.064   115967828.97908  -2097152.000    21701804.443    90197226.83007
  -2097152.000  
  19319111.000   103090519.46308      -562.917           0.000           0.0000 
         0.000  
  20968369.405   112245364.93208      2568.616    20968373.243    87301982.36108
      1997.812  
  21352586.474   114262002.72908     -3732.210    21352590.137    88870486.72907
     -2902.836  
  20321488.556   108477505.58907       -13.210    20321492.897    84371398.93204
       -10.276  
  22216798.707   118678141.65005      3532.132    22216804.045    92305256.71205
      2747.215  
  22721796.284   121461017.32007     -3419.027    22721801.182    94469700.44206
     -2659.246  
 20 10 02 06 48 40.0000000  0 15G27G24G15G18G20G23G10G13R15R 6R 7R21
                                R22R16R 5
  23887963.832   125532096.48947      -379.136    23887966.022    97817227.44949
      -295.434  
  21826156.097   114697225.58948      2833.382    21826158.450    89374472.44949
      2207.828  
  20439542.805   107410572.15249     -1625.234    20439542.303    83696565.93649
     -1266.422  
  20709665.608   108830048.84449     -1535.823    20709665.569    84802631.58948
     -1196.750  
  20473084.050   107586818.02349      1612.956    20473083.241    83833899.87848
      1256.851  
  20800619.793   109308031.90549      1722.679    20800619.449    85175104.33548
      1342.347  
  23126014.449   121528031.83148      2975.645    23126016.746    94697176.09749
      2318.684  
  22544326.802   118471235.61548     -3107.112    22544326.353    92315246.08445
     -2421.128  
  21701807.739   115967880.68208  -2097152.000    21701814.119    90197267.04507
  -2097152.000  
  19319639.684   103093340.71808      -565.645           0.000           0.0000 
         0.000  
  20965970.977   112232526.02108      2567.055    20965974.820    87291996.54408
      1996.597  
  21356074.988   114280670.40908     -3734.883    21356078.660    88885006.02907
     -2904.913  
  20321503.470   108477585.13807       -18.445    20321507.792    84371460.80504
       -14.351  
  22213493.346   118660485.57105      3529.296    22213498.785    92291524.21705
      2745.008  
  22724994.603   121478114.13807     -3419.617    22724999.501    94482997.96006
     -2659.828  
 20 10 02 06 48 45.0000000  0 15G27G24G15G18G20G23G10G13R15R 6R 7R21
                                R22R16R 5
  23888326.142   125534000.37947      -381.992    23888328.329    97818711.00449
      -297.656  
  21823461.310   114683064.38748      2831.316    21823463.655    89363437.74749
      2206.218  
  20441090.269   107418704.22549     -1627.535    20441089.792    83702902.61549
     -1268.215  
  20711128.305   108837735.42849     -1538.750    20711128.277    84808621.13448
     -1199.030  
  20471550.239   107578757.85049      1611.124    20471549.441    83827619.22548
      1255.417  
  20798981.564   109299422.98649      1721.073    20798981.218    85168396.08548
      1341.097  
  23123183.702   121513156.12748      2974.773    23123185.987    94685584.64349
      2318.003  
  22547283.569   118486773.56548     -3108.039    22547283.102    92327353.57145
     -2421.851  
  21701821.689   115967955.22408  -2097152.000    21701828.069    90197325.02207
  -2097152.000  
  19320170.696   103096174.13908      -567.636           0.000           0.0000 
         0.000  
  20963574.095   112219695.32208      2565.629    20963577.938    87282017.11408
      1995.487  
  21359566.031   114299351.59108     -3737.383    21359569.714    88899535.83007
     -2906.855  
  20321522.893   108477688.79007       -22.745    20321527.210    84371541.42404
       -17.695  
  22210190.506   118642841.58006      3527.624    22210195.788    92277801.12505
      2743.706  
  22728193.385   121495213.43007     -3419.800    22728198.291    94496297.40306
     -2659.848  
 20 10 02 06 48 50.0000000  0 15G27G24G15G18G20G23G10G13R15R 6R 7R21
                                R22R16R 5
  23888691.395   125535919.85947      -385.938    23888693.586    97820206.67049
      -300.737  
  21820768.611   114668914.12648      2828.891    21820770.951    89352411.57449
      2204.331  
  20442639.897   107426847.60349     -1629.930    20442639.425    83709248.10549
     -1270.074  
  20712593.750   108845436.39549     -1541.776    20712593.738    84814621.88848
     -1201.390  
  20470018.223   107570707.05249      1609.152    20470017.433    83821345.87648
      1253.887  
  20797344.909   109290822.36849      1719.176    20797344.591    85161694.30548
      1339.616  
  23120353.447   121498283.00248      2974.229    23120355.711    94673995.20049
      2317.581  
  22550241.390   118502317.05148     -3109.429    22550240.937    92339465.38146
     -2422.937  
  21701839.706   115968051.50008  -2097152.000    21701846.086    90197399.90807
  -2097152.000  
  19320703.760   103099018.60808      -570.203           0.000           0.0000 
         0.000  
  20961178.515   112206871.72208      2563.918    20961182.374    87272043.20208
      1994.156  
  21363059.335   114318045.15708     -3740.121    21363063.102    88914075.25507
     -2908.987  
  20321546.632   108477815.41507       -27.785    20321550.937    84371639.90604
       -21.613  
  22206889.557   118625208.40605      3525.219    22206894.791    92264086.43405
      2741.835  
  22731392.455   121512314.25807     -3420.487    22731397.368    94509598.04306
     -2660.382  
 20 10 02 06 48 55.0000000  0 15G27G24G15G18G20G23G10G13R15R 6R 7R21
                                R22R16R 5
  23889059.706   125537855.28247      -389.073    23889061.888    97821714.77449
      -303.179  
  21818078.064   114654775.14248      2826.147    21818080.384    89341394.18449
      2202.194  
  20444191.760   107435002.73149     -1632.531    20444191.295    83715602.75049
     -1272.104  
  20714062.028   108853152.21649     -1545.054    20714062.009    84820634.21148
     -1203.941  
  20468488.080   107562666.06649      1606.770    20468487.285    83815080.17548
      1252.022  
  20795709.919   109282230.53249      1717.104    20795709.611    85154999.37048
      1337.999  
  23117523.746   121483412.91848      2973.453    23117526.022    94662408.12649
      2316.977  
  22553200.353   118517866.53348     -3110.840    22553199.884    92351581.86745
     -2424.031  
  21701861.877   115968169.97708  -2097152.000    21701868.257    90197492.05507
  -2097152.000  
  19321238.967   103101874.54408      -572.875           0.000           0.0000 
         0.000  
  20958784.376   112194055.67408      2561.866    20958788.237    87262075.16808
      1992.562  
  21366555.066   114336751.45308     -3742.875    21366558.880    88928624.59307
     -2911.128  
  20321574.712   108477965.37207       -32.714    20321579.015    84371756.54404
       -25.444  
  22203590.704   118607586.62305      3523.077    22203595.981    92250380.61205
      2740.171  
  22734591.846   121529416.86907     -3421.273    22734596.771    94522900.06506
     -2660.995  
 20 10 02 06 49  0.0000000  0 15G27G24G15G18G20G23G10G13R15R 6R 7R21
                                R22R16R 5
  23889431.317   125539807.95747      -391.895    23889433.474    97823236.35349
      -305.370  
  21815389.956   114640649.04048      2823.968    21815392.270    89330386.83649
      2200.495  
  20445746.107   107443170.87949     -1634.965    20445745.641    83721967.53949
     -1274.003  
  20715533.366   108860884.18549     -1547.909    20715533.353    84826659.12148
     -1206.167  
  20466960.039   107554636.19149      1604.788    20466959.243    83808823.13148
      1250.483  
  20794076.859   109273648.77549      1715.344    20794076.551    85148312.29348
      1336.632  
  23114694.900   121468547.20348      2972.698    23114697.171    94650824.45649
      2316.391  
  22556160.669   118533423.28848     -3112.055    22556160.289    92363704.01046
     -2424.980  
  21701888.441   115968311.92408  -2097152.000    21701894.820    90197602.45507
  -2097152.000  
  19321776.583   103104743.14908      -575.089           0.000           0.0000 
         0.000  
  20956391.937   112181248.66708      2560.563    20956395.767    87252114.16907
      1991.546  
  21370053.468   114355471.83008     -3745.309    21370057.250    88943184.87507
     -2913.023  
  20321607.477   108478140.11507       -37.473    20321611.742    84371892.45004
       -29.147  
  22200294.212   118589977.66506      3520.566    22200299.514    92236684.77405
      2738.219  
  22737791.865   121546522.68007     -3421.624    22737796.782    94536204.58506
     -2661.270  
 20 10 02 06 49  5.0000000  0 15G27G24G15G18G20G23G10G13R15R 6R 7R21
                                R22R16R 5
  23889806.118   125541777.48647      -395.347    23889808.263    97824771.05549
      -308.063  
  21812704.150   114626535.16248      2821.843    21812706.481    89319389.01349
      2198.839  
  20447302.844   107451351.55549     -1637.082    20447302.380    83728342.09249
     -1275.647  
  20717007.687   108868631.79349     -1550.832    20717007.690    84832696.22148
     -1208.441  
  20465434.029   107546616.95449      1603.055    20465433.248    83802574.37348
      1249.133  
  20792445.613   109265076.61449      1713.789    20792445.330    85141632.68448
      1335.418  
  23111866.777   121453685.34448      2972.354    23111869.054    94639243.78849
      2316.120  
  22559122.306   118548986.82648     -3113.011    22559121.944    92375831.43345
     -2425.727  
  21701919.305   115968476.85508  -2097152.000    21701925.685    90197730.73507
  -2097152.000  
  19322316.490   103107624.13508      -577.215           0.000           0.0000 
         0.000  
  20954001.043   112168450.08908      2559.336    20954004.886    87242159.72008
      1990.594  
  21373554.336   114374205.77408     -3747.784    21373558.104    88957755.71707
     -2914.949  
  20321644.743   108478339.07507       -41.858    20321648.985    84372047.20104
       -32.559  
  22197000.117   118572380.98506      3517.964    22197005.380    92222998.47505
      2736.195  
  22740992.355   121563631.10407     -3421.663    22740997.272    94549511.13106
     -2661.296  
 20 10 02 06 49 10.0000000  0 15G27G24G15G18G20G23G10G13R15R 6R 7R21
                                R22R16R 5
  23890183.910   125543762.73647      -398.784    23890186.035    97826317.99649
      -310.745  
  21810020.497   114612432.43748      2819.410    21810022.823    89308399.88249
      2196.940  
  20448861.766   107459543.75049     -1639.609    20448861.303    83734725.62249
     -1277.617  
  20718484.788   108876394.01249     -1554.109    20718484.790    84838744.69848
     -1210.999  
  20463909.855   107538607.33249      1600.926    20463909.061    83796333.11348
      1247.473  
  20790816.016   109256513.02449      1711.750    20790815.734    85134959.76148
      1333.832  
  23109039.197   121438826.31248      2971.483    23109041.461    94627665.33249
      2315.441  
  22562085.000   118564556.07848     -3114.472    22562084.675    92387963.31745
     -2426.867  
  21701954.279   115968663.74208  -2097152.000    21701960.657    90197876.08607
  -2097152.000  
  19322858.483   103110516.43908      -579.562           0.000           0.0000 
         0.000  
  20951611.520   112155658.88108      2557.563    20951615.374    87232211.00908
      1989.214  
  21377057.548   114392952.23408     -3750.815    21377061.283    88972336.29607
     -2917.304  
  20321686.351   108478561.27707       -46.828    20321690.617    84372220.01904
       -36.426  
  22193708.119   118554795.44006      3516.051    22193713.317    92209320.83905
      2734.706  
  22744193.198   121580741.22207     -3422.104    22744198.088    94562818.99706
     -2661.640  
 20 10 02 06 49 15.0000000  0 15G27G24G15G18G20G23G10G13R15R 6R 7R21
                                R22R16R 5
  23890564.882   125545764.66448      -402.562    23890566.984    97827877.95249
      -313.683  
  21807339.155   114598341.85748      2816.531    21807341.476    89297420.21349
      2194.698  
  20450423.044   107467748.38149     -1642.597    20450422.593    83741118.84249
     -1279.944  
  20719964.861   108884171.75049     -1557.530    20719964.852    84844805.27448
     -1213.664  
  20462387.704   107530608.31249      1598.312    20462386.913    83790100.10848
      1245.434  
  20789188.225   109247958.92449      1709.402    20789187.920    85128294.23048
      1331.999  
  23106212.356   121423971.06748      2970.313    23106214.587    94616089.81749
      2314.526  
  22565048.987   118580131.96348     -3116.245    22565048.620    92400100.36545
     -2428.246  
  21701993.535   115968873.51508  -2097152.000    21701999.913    90198039.24207
  -2097152.000  
  19323402.783   103113420.83108      -582.473           0.000           0.0000 
         0.000  
  20949223.576   112142876.05808      2555.296    20949227.422    87222268.81708
      1987.452  
  21380563.252   114411712.08608     -3753.745    21380566.979    88986927.28807
     -2919.585  
  20321732.499   108478807.52207       -51.878    20321736.718    84372411.54704
       -40.351  
  22190418.354   118537222.20006      3513.046    22190423.548    92195652.77105
      2732.370  
  22747394.480   121597853.85007     -3422.887    22747399.366    94576128.81806
     -2662.300  
 20 10 02 06 49 20.0000000  0 15G27G24G15G18G20G23G10G13R15R 6R 7R21
                                R22R16R 5
  23890949.247   125547784.42147      -405.132    23890951.349    97829451.79949
      -315.687  
  21804660.342   114584264.57448      2814.563    21804662.659    89286450.90449
      2193.164  
  20451986.906   107475966.56349     -1644.512    20451986.453    83747522.61949
     -1281.440  
  20721448.090   108891966.17649     -1560.054    20721448.080    84850878.84548
     -1215.632  
  20460867.770   107522621.00749      1596.766    20460866.972    83783876.23548
      1244.230  
  20787562.453   109239415.49449      1708.023    20787562.146    85121637.01648
      1330.925  
  23103386.434   121409120.74948      2970.065    23103388.659    94604518.14649
      2314.335  
  22568014.449   118595715.60348     -3116.940    22568014.079    92412243.45745
     -2428.788  
  21702037.292   115969107.33908  -2097152.000    21702043.670    90198221.10807
  -2097152.000  
  19323949.569   103116338.62008      -584.409           0.000           0.0000 
         0.000  
  20946837.417   112130102.69808      2554.172    20946841.230    87212333.98708
      1986.578  
  21384071.661   114430486.48008     -3755.866    21384075.399    89001529.59007
     -2921.233  
  20321783.386   108479079.13207       -56.219    20321787.570    84372622.80104
       -43.730  
  22187131.059   118519662.30905      3511.543    22187136.257    92181995.08805
      2731.198  
  22750596.499   121614970.16007     -3423.027    22750601.317    94589441.49706
     -2662.358  
 20 10 02 06 49 25.0000000  0 15G27G24G15G18G20G23G10G13R15R 6R 7R21
                                R22R16R 5
  23891336.644   125549820.11247      -408.671    23891338.744    97831038.02549
      -318.449  
  21801983.715   114570198.80248      2812.090    21801986.032    89275490.56649
      2191.234  
  20453552.997   107484196.42649     -1647.004    20453552.543    83753935.49749
     -1283.383  
  20722934.124   108899775.36749     -1563.262    20722934.135    84856963.92748
     -1218.129  
  20459349.712   107514643.52449      1594.647    20459348.923    83777660.01748
      1242.577  
  20785938.346   109230880.82049      1706.183    20785938.059    85114986.62048
      1329.491  
  23100561.097   121394273.46948      2969.339    23100563.308    94592948.83849
      2313.766  
  22570981.037   118611305.15948     -3118.409    22570980.686    92424391.15445
     -2429.934  
  21702085.204   115969363.36608  -2097152.000    21702091.581    90198420.23607
  -2097152.000  
  19324498.530   103119267.94907      -586.930           0.000           0.0000 
         0.000  
  20944452.694   112117336.99808      2552.395    20944456.482    87202405.11107
      1985.194  
  21387582.435   114449273.43808     -3758.582    21387586.188    89016141.65407
     -2923.343  
  20321838.617   108479374.11307       -61.378    20321842.798    84372852.22604
       -47.742  
  22183845.940   118502113.94905      3508.875    22183851.169    92168346.37105
      2729.125  
  22753798.799   121632088.28907     -3423.723    22753803.615    94602755.59106
     -2662.898  
 20 10 02 06 49 30.0000000  0 15G27G24G15G18G20G23G10G13R15R 6R 7R21
                                R22R16R 5
  23891727.005   125551871.56948      -412.155    23891729.127    97832636.57849
      -321.159  
  21799309.235   114556144.34748      2809.565    21799311.559    89264539.04649
      2189.269  
  20455121.281   107492437.81749     -1649.687    20455120.820    83760357.36049
     -1285.477  
  20724422.950   108907599.19949     -1566.418    20724422.975    84863060.41848
     -1220.589  
  20457833.501   107506675.74949      1592.347    20457832.698    83771451.35948
      1240.785  
  20784315.898   109222354.79549      1704.140    20784315.596    85108342.96848
      1327.902  
  23097736.322   121379429.08448      2968.457    23097738.518    94581381.79449
      2313.081  
  22573948.741   118626900.48748     -3119.789    22573948.371    92436543.35745
     -2431.008  
  21702137.230   115969641.37908  -2097152.000    21702143.606    90198636.46007
  -2097152.000  
  19325049.578   103122208.53808      -589.383           0.000           0.0000 
         0.000  
  20942069.312   112104578.56708      2550.737    20942073.101    87192481.89108
      1983.905  
  21391095.581   114468072.89608     -3761.371    21391099.367    89030763.44507
     -2925.516  
  20321898.221   108479692.31607       -66.117    20321902.370    84373099.71404
       -51.430  
  22180562.944   118484576.89905      3506.207    22180568.214    92154706.45305
      2727.050  
  22757001.461   121649208.10307     -3424.476    22757006.223    94616071.00006
     -2663.484  
 20 10 02 06 49 35.0000000  0 15G27G24G15G18G20G23G10G13R15R 6R 7R21
                                R22R16R 5
  23892120.792   125553940.93447      -415.343    23892122.920    97834249.09449
      -323.645  
  21796637.316   114542103.25648      2806.918    21796639.629    89253597.93949
      2187.207  
  20456692.159   107500692.83349     -1652.308    20456691.697    83766789.83849
     -1287.516  
  20725914.961   108915439.77149     -1569.750    20725914.995    84869169.95748
     -1223.184  
  20456319.538   107498719.82249      1590.019    20456318.736    83765251.93748
      1238.977  
  20782695.498   109213839.53949      1702.054    20782695.203    85101707.70148
      1326.273  
  23094912.481   121364589.76548      2967.336    23094914.683    94569818.69449
      2312.211  
  22576917.921   118642503.66648     -3121.288    22576917.574    92448701.68446
     -2432.172  
  21702193.779   115969943.56108  -2097152.000    21702200.156    90198871.49607
  -2097152.000  
  19325603.137   103125162.40408      -592.125           0.000           0.0000 
         0.000  
  20939687.732   112091829.84708      2548.836    20939691.526    87182566.22207
      1982.425  
  21394611.444   114486886.99008     -3764.234    21394615.296    89045396.62307
     -2927.742  
  20321962.621   108480035.99107       -71.339    20321966.767    84373367.01804
       -55.492  
  22177282.383   118467053.44805      3503.284    22177287.798    92141077.11305
      2724.776  
  22760204.782   121666331.69407     -3425.145    22760209.519    94629389.33706
     -2664.004  
 20 10 02 06 49 40.0000000  0 15G27G24G15G18G20G23G10G13R15R 6R 7R21
                                R22R16R 5
  23892517.530   125556025.74347      -418.726    23892519.644    97835873.61049
      -326.284  
  21793967.513   114528073.28248      2804.797    21793969.815    89242665.49649
      2185.555  
  20458265.167   107508958.98249     -1654.351    20458264.685    83773230.99449
     -1289.109  
  20727409.693   108923294.60949     -1572.483    20727409.712    84875290.60748
     -1225.315  
  20454807.351   107490773.22449      1588.289    20454806.541    83759059.78548
      1237.628  
  20781076.669   109205332.56649      1700.468    20781076.381    85095078.89648
      1325.039  
  23092089.124   121349752.98548      2966.874    23092091.338    94558257.56749
      2311.851  
  22579888.119   118658112.16248     -3122.300    22579887.684    92460864.13245
     -2432.964  
  21702254.380   115970267.39408  -2097152.000    21702260.758    90199123.37207
  -2097152.000  
  19326158.723   103128127.11708      -594.272           0.000           0.0000 
         0.000  
  20937307.502   112079088.34808      2547.515    20937311.308    87172656.16907
      1981.402  
  21398129.537   114505713.07808     -3766.690    21398133.445    89060039.13307
     -2929.651  
  20322031.309   108480402.43707       -75.641    20322035.400    84373652.03004
       -58.836  
  22174003.967   118449540.92505      3501.387    22174009.406    92127456.27805
      2723.301  
  22763408.359   121683456.58507     -3425.277    22763413.076    94642708.69506
     -2664.109  
 20 10 02 06 49 45.0000000  0 15G27G24G15G18G20G23G10G13R15R 6R 7R21
                                R22R16R 5
  23892917.533   125558127.64847      -422.440    23892919.620    97837511.44649
      -329.179  
  21791300.099   114514055.89348      2802.030    21791302.387    89231742.85649
      2183.402  
  20459840.617   107517237.96549     -1657.379    20459840.124    83779682.15349
     -1291.469  
  20728907.458   108931165.38749     -1576.020    20728907.494    84881423.67848
     -1228.070  
  20453297.279   107482837.74649      1585.694    20453296.470    83752876.29748
      1235.601  
  20779459.752   109196835.57449      1698.234    20779459.465    85088457.86348
      1323.296  
  23089266.591   121334920.47548      2965.793    23089268.807    94546699.77249
      2311.007  
  22582859.667   118673727.72248     -3124.012    22582859.241    92473032.10045
     -2434.297  
  21702319.342   115970614.53108  -2097152.000    21702325.719    90199393.36107
  -2097152.000  
  19326716.689   103131104.62608      -596.898           0.000           0.0000 
         0.000  
  20934928.881   112066355.50108      2545.563    20934932.683    87162752.84807
      1979.883  
  21401650.212   114524552.89108     -3769.729    21401654.157    89074692.31107
     -2932.015  
  20322104.579   108480793.52307       -80.902    20322108.680    84373956.21404
       -62.925  
  22170727.997   118432041.37805      3498.309    22170733.470    92113845.52505
      2720.901  
  22766612.424   121700584.36507     -3425.973    22766617.188    94656030.29606
     -2664.648  
 20 10 02 06 49 50.0000000  0 15G27G24G15G18G20G23G10G13R15R 6R 7R21
                                R22R16R 5
  23893320.862   125560246.90247      -425.237    23893322.896    97839162.82549
      -331.354  
  21788635.164   114500051.59948      2799.918    21788637.453    89220830.42849
      2181.753  
  20461418.546   107525530.04249     -1659.374    20461418.045    83786143.50849
     -1293.023  
  20730408.308   108939052.37349     -1578.647    20730408.336    84887569.37648
     -1230.121  
  20451789.356   107474913.55449      1583.992    20451788.546    83746701.60048
      1234.280  
  20777844.779   109188348.86749      1696.636    20777844.514    85081844.84648
      1322.054  
  23086444.920   121320092.49048      2965.491    23086447.128    94535145.50249
      2310.772  
  22585832.581   118689350.54948     -3124.844    22585832.167    92485205.73645
     -2434.944  
  21702388.732   115970985.32708  -2097152.000    21702395.108    90199681.75807
  -2097152.000  
  19327277.084   103134094.90607      -598.848           0.000           0.0000 
         0.000  
  20932551.986   112053631.70208      2544.132    20932555.764    87152856.56207
      1978.770  
  21405173.499   114543406.77108     -3771.882    21405177.460    89089356.42907
     -2933.691  
  20322182.505   108481209.46507       -85.339    20322186.589    84374279.71204
       -66.379  
  22167454.403   118414554.79806      3496.565    22167459.934    92100244.86805
      2719.551  
  22769817.157   121717715.43707     -3426.266    22769821.907    94669354.45306
     -2664.878  
 20 10 02 06 49 55.0000000  0 15G27G24G15G18G20G23G10G13R15R 6R 7R21
                                R22R16R 5
  23893727.035   125562381.26747      -428.238    23893729.048    97840825.95149
      -333.695  
  21785972.235   114486057.93548      2797.609    21785974.547    89209926.27349
      2179.957  
  20462998.565   107533833.03149     -1661.742    20462998.059    83792613.37049
     -1294.863  
  20731911.795   108946953.28549     -1581.633    20731911.815    84893725.93448
     -1232.445  
  20450283.142   107466998.37849      1582.120    20450282.339    83740533.93348
      1232.815  
  20776231.328   109179870.12549      1694.890    20776231.056    85075238.03448
      1320.694  
  23083623.680   121305266.77548      2964.758    23083625.889    94523593.00049
      2310.199  
  22588806.479   118704978.45748     -3126.191    22588806.081    92497383.32245
     -2435.996  
  21702462.099   115971377.38008  -2097152.000    21702468.476    90199986.69007
  -2097152.000  
  19327839.426   103137095.79507      -601.190           0.000           0.0000 
         0.000  
  20930176.353   112040914.75208      2542.585    20930180.117    87142965.60608
      1977.566  
  21408698.971   114562272.28508     -3774.336    21408702.901    89104029.60207
     -2935.598  
  20322264.627   108481647.96307       -90.085    20322268.714    84374620.77304
       -70.065  
  22164182.863   118397079.04006      3493.851    22164188.436    92086652.61105
      2717.440  
  22773022.025   121734847.38607     -3426.757    22773026.791    94682679.29906
     -2665.262  
 20 10 02 06 50  0.0000000  0 15G27G24G15G18G20G23G10G13R15R 6R 7R21
                                R22R16R 5
  23894136.408   125564532.59647      -431.878    23894138.436    97842502.29349
      -336.531  
  21783311.717   114472076.94848      2794.890    21783314.055    89199032.00549
      2177.836  
  20464580.980   107542148.67949     -1664.573    20464580.467    83799093.09749
     -1297.069  
  20733418.307   108954869.99649     -1585.062    20733418.322    84899894.79648
     -1235.117  
  20448779.033   107459094.17149      1579.602    20448778.226    83734374.80948
      1230.854  
  20774619.758   109171401.26849      1692.714    20774619.492    85068638.92148
      1318.995  
  23080803.218   121290445.18148      2963.741    23080805.427    94512043.71049
      2309.410  
  22591781.675   118720613.25148     -3127.624    22591781.274    92509566.27245
     -2437.113  
  21702539.818   115971792.68908  -2097152.000    21702546.195    90200309.70407
  -2097152.000  
  19328404.098   103140109.02808      -604.030           0.000           0.0000 
         0.000  
  20927802.373   112028206.49408      2540.593    20927806.108    87133081.40708
      1976.016  
  21412226.925   114581151.26908     -3777.015    21412230.823    89118713.25907
     -2937.680  
  20322351.334   108482110.90507       -95.027    20322355.454    84374980.84104
       -73.910  
  22160913.650   118379615.80105      3491.390    22160919.245    92073070.10105
      2715.526  
  22776227.445   121751982.22807     -3427.438    22776232.246    94696006.38906
     -2665.789  
 20 10 02 06 50  5.0000000  0 15G27G24G15G18G20G23G10G13R15R 6R 7R21
                                R22R16R 5
  23894549.061   125566701.13348      -435.292    23894551.110    97844192.09449
      -339.184  
  21780653.669   114458108.90048      2792.397    21780656.033    89188147.81549
      2175.895  
  20466165.858   107550477.27049     -1666.847    20466165.345    83805582.90949
     -1298.848  
  20734927.867   108962802.78749     -1588.125    20734927.866    84906076.19048
     -1237.503  
  20447277.060   107451201.21649      1577.542    20447276.239    83728224.45748
      1229.249  
  20773010.114   109162942.59749      1690.812    20773009.869    85062047.75248
      1317.511  
  23077983.612   121275628.05048      2963.151    23077985.822    94500497.89949
      2308.948  
  22594758.247   118736255.17948     -3128.902    22594757.849    92521754.78545
     -2438.108  
  21702621.933   115972231.48308  -2097152.000    21702628.310    90200650.99407
  -2097152.000  
  19328971.158   103143135.15608      -606.313           0.000           0.0000 
         0.000  
  20925430.027   112015507.20108      2539.070    20925433.766    87123204.18007
      1974.828  
  21415757.513   114600044.15708     -3779.784    21415761.336    89133407.72707
     -2939.836  
  20322442.693   108482598.55507       -99.992    20322446.798    84375360.11704
       -77.776  
  22157646.953   118362165.79006      3488.632    22157652.555    92059497.88505
      2713.382  
  22779433.437   121769120.18407     -3427.788    22779438.260    94709335.90306
     -2666.062  
 20 10 02 06 50 10.0000000  0 15G27G24G15G18G20G23G10G13R15R 6R 7R21
                                R22R16R 5
  23894964.668   125568885.00847      -438.066    23894966.677    97845893.83449
      -341.351  
  21777997.750   114444151.92548      2790.694    21778000.118    89177272.25449
      2174.566  
  20467752.827   107558816.84849     -1668.733    20467752.314    83812081.27949
     -1300.315  
  20736440.125   108970749.72549     -1590.694    20736440.103    84912268.61148
     -1239.508  
  20445776.849   107443317.55849      1576.081    20445776.035    83722081.34348
      1228.113  
  20771402.054   109154492.15349      1689.473    20771401.789    85055462.99448
      1316.472  
  23075164.468   121260813.41048      2962.867    23075166.675    94488954.02649
      2308.727  
  22597735.795   118751902.26848     -3129.550    22597735.372    92533947.30845
     -2438.612  
  21702708.099   115972691.92808  -2097152.000    21702714.475    90201009.11307
  -2097152.000  
  19329540.233   103146172.06707      -608.262           0.000           0.0000 
         0.000  
  20923059.015   112002814.98808      2537.934    20923062.756    87113332.46608
      1973.948  
  21419290.276   114618948.93308     -3782.059    21419294.121    89148111.43707
     -2941.605  
  20322538.380   108483109.08807      -104.324    20322542.424    84375757.20304
       -81.144  
  22154382.401   118344726.82406      3487.078    22154387.930    92045934.24605
      2712.172  
  22782639.673   121786259.32207     -3427.434    22782644.497    94722666.33806
     -2665.784  
 20 10 02 06 50 15.0000000  0 15G27G24G15G18G20G23G10G13R15R 6R 7R21
                                R22R16R 5
  23895383.548   125571086.14447      -441.805    23895385.519    97847608.98349
      -344.265  
  21775344.291   114430207.80648      2787.612    21775346.640    89166406.70849
      2172.167  
  20469342.248   107567169.37449     -1671.672    20469341.747    83818589.74249
     -1302.604  
  20737955.450   108978712.74649     -1594.073    20737955.430    84918473.55748
     -1242.140  
  20444278.785   107435445.17449      1573.491    20444277.980    83715947.02348
      1226.097  
  20769795.924   109146051.91449      1687.105    20769795.672    85048886.18248
      1314.629  
  23072346.194   121246003.24948      2961.699    23072348.388    94477413.64249
      2307.816  
  22600714.689   118767556.52648     -3131.511    22600714.263    92546145.43245
     -2440.141  
  21702798.656   115973175.83908  -2097152.000    21702805.033    90201385.49207
  -2097152.000  
  19330111.741   103149221.83507      -611.077           0.000           0.0000 
         0.000  
  20920689.711   111990131.79508      2535.882    20920693.430    87103467.76407
      1972.351  
  21422825.665   114637867.51508     -3785.059    21422829.584    89162825.88207
     -2943.938  
  20322638.667   108483644.27007      -109.156    20322642.658    84376173.45304
       -84.897  
  22151120.322   118327300.88505      3483.882    22151125.736    92032380.74205
      2709.688  
  22785846.474   121803401.54507     -3428.776    22785851.325    94735999.17106
     -2666.832  
 20 10 02 06 50 20.0000000  0 15G27G24G15G18G20G23G10G13R15R 6R 7R21
                                R22R16R 5
  23895805.488   125573303.29447      -444.965    23895807.425    97849336.62149
      -346.730  
  21772693.063   114416275.38848      2785.215    21772695.406    89155550.28549
      2170.297  
  20470933.895   107575533.60049     -1674.108    20470933.406    83825107.32149
     -1304.500  
  20739473.594   108986690.61649     -1597.148    20739473.560    84924690.07748
     -1244.534  
  20442782.626   107427582.83649      1571.355    20442781.826    83709820.52648
      1224.434  
  20768191.506   109137620.63649      1685.296    20768191.261    85042316.35648
      1313.214  
  23069528.536   121231196.32548      2961.133    23069530.717    94465875.78449
      2307.375  
  22603694.723   118783216.68048     -3132.632    22603694.276    92558348.15045
     -2441.016  
  21702893.383   115973682.03008  -2097152.000    21702899.761    90201779.20107
  -2097152.000  
  19330685.424   103152283.15207      -613.520           0.000           0.0000 
         0.000  
  20918321.797   111977456.16608      2534.129    20918325.509    87093608.94608
      1970.988  
  21426363.358   114656798.54908     -3787.621    21426367.356    89177550.00407
     -2945.929  
  20322743.353   108484203.06207      -114.082    20322747.354    84376608.07004
       -88.733  
  22147860.279   118309886.69605      3481.343    22147865.780    92018836.38105
      2707.711  
  22789053.667   121820545.66907     -3429.065    22789058.502    94749333.48706
     -2667.054  
 20 10 02 06 50 25.0000000  0 15G27G24G15G18G20G23G10G13R15R 6R 7R21
                                R22R16R 5
  23896230.346   125575535.97047      -448.362    23896232.283    97851076.37249
      -349.379  
  21770043.951   114402354.30348      2782.870    21770046.327    89144702.68849
      2168.473  
  20472527.684   107583909.01549     -1676.391    20472527.195    83831633.61949
     -1306.276  
  20740994.469   108994682.80849     -1600.098    20740994.408    84930917.75948
     -1246.831  
  20441288.277   107419730.01249      1569.339    20441287.492    83703701.44348
      1222.863  
  20766588.685   109129197.81749      1683.523    20766588.461    85035753.12648
      1311.836  
  23066711.392   121216392.13548      2960.324    23066713.559    94454340.05449
      2306.745  
  22606675.747   118798882.19048     -3133.773    22606675.322    92570555.03145
     -2441.905  
  21702992.177   115974209.95808  -2097152.000    21702998.555    90202189.80607
  -2097152.000  
  19331261.155   103155355.39308      -615.800           0.000           0.0000 
         0.000  
  20915955.281   111964787.99108      2532.719    20915958.981    87083755.92408
      1969.890  
  21429903.344   114675741.63508     -3790.206    21429907.383    89192283.50707
     -2947.940  
  20322852.355   108484784.85707      -118.679    20322856.358    84377060.57504
       -92.308  
  22144602.353   118292484.09605      3478.895    22144607.972    92005301.03505
      2705.809  
  22792261.139   121837691.10206     -3429.672    22792265.917    94762668.82006
     -2667.527  
 20 10 02 06 50 30.0000000  0 15G27G24G15G18G20G23G10G13R15R 6R 7R21
                                R22R16R 5
  23896658.598   125577786.69947      -452.058    23896660.569    97852830.16249
      -352.261  
  21767397.467   114388446.96848      2780.116    21767399.843    89133865.81049
      2166.324  
  20474124.091   107592298.15949     -1679.312    20474123.596    83838170.61549
     -1308.559  
  20742518.552   109002691.88649     -1603.608    20742518.492    84937158.59648
     -1249.570  
  20439796.232   107411889.29649      1566.796    20439795.453    83697591.79348
      1220.875  
  20764987.980   109120786.02449      1681.202    20764987.758    85029198.48348
      1310.027  
  23063895.254   121201593.25948      2959.097    23063897.420    94442808.46649
      2305.785  
  22609658.308   118814555.62048     -3135.590    22609657.899    92582768.09345
     -2443.320  
  21703095.537   115974762.28208  -2097152.000    21703101.914    90202619.39107
  -2097152.000  
  19331839.400   103158440.98608      -618.422           0.000           0.0000 
         0.000  
  20913590.575   111952129.53208      2530.637    20913594.276    87073910.46008
      1968.272  
  21433446.080   114694699.19108     -3793.015    21433450.091    89207028.26507
     -2950.129  
  20322966.136   108485392.25907      -124.301    20322970.138    84377532.99804
       -96.679  
  22141347.179   118275095.38305      3476.383    22141352.764    91991776.49405
      2703.852  
  22795469.262   121854840.48407     -3430.608    22795474.061    94776007.21706
     -2668.254  
 20 10 02 06 50 35.0000000  0 15G27G24G15G18G20G23G10G13R15R 6R 7R21
                                R22R16R 5
  23897090.049   125580053.98947      -455.171    23897091.994    97854596.87049
      -354.683  
  21764753.349   114374552.03448      2777.608    21764755.719    89123038.59449
      2164.370  
  20475722.828   107600699.58049     -1681.593    20475722.333    83844717.17449
     -1310.335  
  20744045.567   109010716.37149     -1606.601    20744045.501    84943411.44348
     -1251.897  
  20438306.215   107404059.20249      1564.879    20438305.436    83691490.42448
      1219.386  
  20763389.096   109112383.80449      1679.483    20763388.866    85022651.29148
      1308.687  
  23061079.850   121186798.18148      2958.531    23061082.012    94431279.84149
      2305.347  
  22612642.104   118830235.51248     -3136.780    22612641.713    92594986.18945
     -2444.245  
  21703203.174   115975337.45808  -2097152.000    21703209.551    90203066.75007
  -2097152.000  
  19332419.986   103161538.98007      -620.961           0.000           0.0000 
         0.000  
  20911227.416   111939479.42108      2529.184    20911231.121    87064071.48508
      1967.145  
  21436991.192   114713669.82908     -3795.496    21436995.200    89221783.20107
     -2952.054  
  20323084.399   108486023.71507      -128.672    20323088.408    84378024.13004
      -100.081  
  22138094.336   118257719.06105      3474.078    22138099.899    91978261.59205
      2702.063  
  22798677.868   121871992.28907     -3430.551    22798682.675    94789347.50706
     -2668.215  
 20 10 02 06 50 40.0000000  0 15G27G24G15G18G20G23G10G13R15R 6R 7R21
                                R22R16R 5
  23897524.551   125582337.28547      -458.312    23897526.500    97856376.07149
      -357.124  
  21762111.423   114360668.74048      2775.496    21762113.801    89112220.44449
      2162.719  
  20477323.776   107609112.68049     -1683.895    20477323.286    83851272.84049
     -1312.128  
  20745575.399   109018755.69449     -1609.457    20745575.340    84949675.84548
     -1254.125  
  20436818.109   107396239.18649      1562.831    20436817.337    83685396.90648
      1217.788  
  20761791.913   109103990.58449      1677.719    20761791.692    85016111.12848
      1307.312  
  23058265.066   121172006.38948      2958.042    23058267.212    94419753.76949
      2304.969  
  22615627.020   118845921.26048     -3137.801    22615626.611    92607208.84545
     -2445.043  
  21703314.986   115975934.95308  -2097152.000    21703321.364    90203531.46807
  -2097152.000  
  19333002.671   103164648.39408      -623.147           0.000           0.0000 
         0.000  
  20908865.754   111926837.25708      2527.530    20908869.438    87054238.70008
      1965.858  
  21440538.705   114732652.91608     -3798.031    21440542.620    89236547.82307
     -2954.027  
  20323207.133   108486678.74907      -133.246    20323211.110    84378533.59904
      -103.640  
  22134843.742   118240354.87605      3471.093    22134849.278    91964756.11105
      2699.733  
  22801886.821   121889145.92107     -3431.410    22801891.636    94802689.20806
     -2668.879  
 20 10 02 06 50 45.0000000  0 15G27G24G15G18G20G23G10G13R15R 6R 7R21
                                R22R16R 5
  23897962.231   125584637.27748      -461.644    23897964.181    97858168.26749
      -359.726  
  21759471.875   114346797.85748      2772.965    21759474.260    89101411.96549
      2160.750  
  20478927.081   107617538.10849     -1686.297    20478926.592    83857838.11049
     -1313.995  
  20747108.177   109026810.49849     -1612.516    20747108.126    84955952.31648
     -1256.508  
  20435332.063   107388429.92649      1560.894    20435331.285    83679311.77148
      1216.276  
  20760196.578   109095607.03849      1675.875    20760196.372    85009578.49848
      1305.875  
  23055451.036   121157218.56348      2957.250    23055453.176    94408230.79449
      2304.352  
  22618613.191   118861613.53848     -3139.054    22618612.707    92619436.59645
     -2446.020  
  21703431.090   115976555.37708  -2097152.000    21703437.467    90204014.01907
  -2097152.000  
  19333587.694   103167770.03208      -625.319           0.000           0.0000 
         0.000  
  20906505.662   111914203.59508      2525.977    20906509.365    87044412.52208
      1964.645  
  21444088.582   114751649.14708     -3800.601    21444092.461    89251322.67307
     -2956.022  
  20323334.359   108487357.89207      -138.355    20323338.335    84379061.81804
      -107.612  
  22131595.494   118223003.22405      3468.772    22131600.971    91951260.39705
      2697.933  
  22805096.295   121906302.18307     -3431.648    22805101.097    94816032.95906
     -2669.062  
 20 10 02 06 50 50.0000000  0 15G27G24G15G18G20G23G10G13R15R 6R 7R21
                                R22R16R 5
  23898403.072   125586953.75448      -464.991    23898404.991    97859973.34449
      -362.332  
  21756834.701   114332939.47748      2770.430    21756837.099    89090613.23049
      2158.777  
  20480532.707   107625975.73049     -1688.832    20480532.217    83864412.87949
     -1315.972  
  20748643.882   109034880.68149     -1615.604    20748643.845    84962240.76848
     -1258.917  
  20433848.035   107380631.31149      1558.526    20433847.257    83673234.92848
      1214.434  
  20758603.057   109087233.06249      1673.680    20758602.865    85003053.32148
      1304.163  
  23052637.738   121142434.54948      2956.352    23052639.865    94396710.78649
      2303.647  
  22621600.537   118877312.20948     -3140.472    22621600.040    92631669.32145
     -2447.124  
  21703551.474   115977198.67008  -2097152.000    21703557.851    90204514.35807
  -2097152.000  
  19334174.918   103170903.82208      -627.957           0.000           0.0000 
         0.000  
  20904147.114   111901578.07308      2524.038    20904150.804    87034592.67208
      1963.141  
  21447640.905   114770658.37808     -3803.035    21447644.743    89266107.62107
     -2957.922  
  20323466.088   108488061.16607      -143.272    20323470.083    84379608.81204
      -111.433  
  22128349.587   118205664.14306      3466.176    22128355.016    91937774.45605
      2695.914  
  22808306.241   121923460.71407     -3432.155    22808310.970    94829378.48006
     -2669.457  
 20 10 02 06 50 55.0000000  0 15G27G24G15G18G20G23G10G13R15R 6R 7R21
                                R22R16R 5
  23898846.775   125589285.36847      -467.495    23898848.690    97861790.18549
      -364.285  
  21754199.629   114319092.01748      2768.511    21754202.015    89079823.00349
      2157.281  
  20482140.381   107634424.11049     -1690.699    20482139.898    83870996.03349
     -1317.434  
  20750182.230   109042964.75549     -1618.124    20750182.201    84968540.04848
     -1260.878  
  20432365.745   107372841.85449      1557.000    20432364.973    83667165.22048
      1213.241  
  20757011.087   109078867.17349      1672.508    20757010.890    84996534.44948
      1303.250  
  23049824.902   121127652.90648      2956.077    23049827.005    94385192.62649
      2303.437  
  22624588.869   118893015.81348     -3141.108    22624588.298    92643905.89445
     -2447.621  
  21703675.862   115977863.36408  -2097152.000    21703682.239    90205031.34007
  -2097152.000  
  19334764.088   103174047.90408      -629.625           0.000           0.0000 
         0.000  
  20901789.845   111888959.49008      2523.120    20901793.540    87024778.22307
      1962.426  
  21451195.421   114789679.09108     -3805.198    21451199.217    89280901.50707
     -2959.602  
  20323602.095   108488787.08707      -147.413    20323606.072    84380173.41604
      -114.655  
  22125105.704   118188336.12106      3464.336    22125111.161    91924297.11105
      2694.483  
  22811516.216   121940620.21107     -3431.882    22811521.021    94842724.74206
     -2669.246  
 20 10 02 06 51  0.0000000  0 15G27G24G15G18G20G23G10G13R15R 6R 7R21
                                R22R16R 5
  23899293.651   125591633.62447      -471.300    23899295.547    97863619.98849
      -367.250  
  21751566.906   114305256.96448      2765.902    21751569.293    89069042.44849
      2155.249  
  20483750.390   107642884.79949     -1693.304    20483749.906    83877588.77649
     -1319.460  
  20751723.520   109051064.28749     -1621.394    20751723.490    84974851.36848
     -1263.429  
  20430885.496   107365063.15549      1554.664    20430884.736    83661103.89948
      1211.426  
  20755420.962   109070510.97649      1670.288    20755420.750    84990023.12348
      1301.519  
  23047012.800   121112875.21048      2955.145    23047014.895    94373677.53849
      2302.710  
  22627578.390   118908725.91248     -3142.582    22627577.831    92656147.53145
     -2448.765  
  21703804.550   115978551.03208  -2097152.000    21703810.926    90205566.19107
  -2097152.000  
  19335355.593   103177204.28608      -632.477           0.000           0.0000 
         0.000  
  20899434.156   111876349.27008      2521.308    20899437.838    87014970.27808
      1961.019  
  21454752.318   114808712.76508     -3807.906    21454756.121    89295705.47507
     -2961.706  
  20323742.613   108489537.17707      -152.315    20323746.591    84380756.82504
      -118.468  
  22121864.246   118171020.73706      3461.421    22121869.685    91910829.59305
      2692.218  
  22814726.639   121957782.20007     -3432.410    22814731.548    94856072.95506
     -2669.656  
 20 10 02 06 51  5.0000000  0 15G27G24G15G18G20G23G10G13R15R 6R 7R21
                                R22R16R 5
  23899743.776   125593999.10847      -474.769    23899745.677    97865463.22649
      -369.948  
  21748936.695   114291435.01648      2762.891    21748939.049    89058272.09949
      2152.902  
  20485362.866   107651358.35549     -1696.229    20485362.370    83884191.54849
     -1321.741  
  20753267.842   109059179.87749     -1624.999    20753267.843    84981175.20548
     -1266.238  
  20429407.411   107357295.79449      1551.945    20429406.664    83655051.41048
      1209.304  
  20753832.768   109062165.05349      1667.894    20753832.589    84983519.80848
      1299.656  
  23044201.554   121098102.07148      2953.866    23044203.661    94362166.00549
      2301.715  
  22630569.286   118924443.08248     -3144.296    22630568.708    92668394.67245
     -2450.104  
  21703937.619   115979262.11008  -2097152.000    21703943.995    90206119.25507
  -2097152.000  
  19335949.491   103180373.50108      -635.254           0.000           0.0000 
         0.000  
  20897080.205   111863748.29008      2519.074    20897083.878    87005169.51808
      1959.280  
  21458311.786   114827760.07508     -3811.004    21458315.624    89310520.03707
     -2964.117  
  20323887.765   108490312.04407      -157.866    20323891.801    84381359.49604
      -122.789  
  22118625.301   118153718.65606      3459.151    22118630.664    91897372.43105
      2690.453  
  22817937.689   121974947.29407     -3433.870    22817942.645    94869423.56906
     -2670.792  
 20 10 02 06 51 10.0000000  0 15G27G24G15G18G20G23G10G13R15R 6R 7R21
                                R22R16R 5
  23900197.191   125596381.69447      -478.550    23900199.072    97867319.77149
      -372.901  
  21746308.937   114277626.08548      2760.522    21746311.290    89047511.89749
      2151.059  
  20486977.762   107659844.66049     -1698.522    20486977.261    83890804.25549
     -1323.527  
  20754815.213   109067311.37049     -1627.965    20754815.213    84987511.42648
     -1268.547  
  20427931.467   107349539.65849      1550.101    20427930.721    83649007.67048
      1207.870  
  20752246.501   109053829.25649      1666.155    20752246.347    84977024.38148
      1298.305  
  23041391.143   121083333.32848      2953.370    23041393.264    94350657.89849
      2301.327  
  22633561.478   118940167.16248     -3145.472    22633560.923    92680647.20145
     -2451.022  
  21704075.085   115979996.69108  -2097152.000    21704081.462    90206690.59707
  -2097152.000  
  19336545.733   103183555.25808      -637.613           0.000           0.0000 
         0.000  
  20894727.865   111851156.06508      2517.547    20894731.516    86995375.57108
      1958.093  
  21461873.775   114846820.90108     -3813.422    21461877.653    89325345.11607
     -2965.999  
  20324037.494   108491111.49108      -162.344    20324041.564    84381981.28404
      -126.269  
  22115388.738   118136429.79906      3456.465    22115394.151    91883925.56005
      2688.363  
  22821149.406   121992115.26107     -3433.710    22821154.297    94882776.42606
     -2670.668  
 20 10 02 06 51 15.0000000  0 15G27G24G15G18G20G23G10G13R15R 6R 7R21
                                R22R16R 5
  23900653.642   125598780.23847      -481.101    23900655.493    97869188.77349
      -374.886  
  21743683.439   114263828.97348      2758.344    21743685.772    89036760.90249
      2149.358  
  20488594.870   107668342.58849     -1700.687    20488594.355    83897426.01649
     -1325.210  
  20756365.400   109075457.62749     -1630.515    20756365.380    84993859.16248
     -1270.534  
  20426457.449   107341793.67149      1548.222    20426456.708    83642971.83448
      1206.402  
  20750661.966   109045502.50349      1664.527    20750661.812    84970536.00748
      1297.035  
  23038581.375   121068567.89548      2952.766    23038583.495    94339152.36549
      2300.854  
  22636554.794   118955897.04548     -3146.473    22636554.237    92692904.25745
     -2451.797  
  21704216.712   115980753.50008  -2097152.000    21704223.087    90207279.21907
  -2097152.000  
  19337144.115   103186748.52708      -639.938           0.000           0.0000 
         0.000  
  20892376.992   111838571.81408      2516.250    20892380.664    86985587.81907
      1957.082  
  21465438.061   114865893.99308     -3815.655    21465441.980    89340179.73007
     -2967.737  
  20324191.687   108491934.43108      -166.652    20324195.728    84382621.34704
      -129.620  
  22112154.469   118119152.97906      3454.301    22112159.857    91870488.03505
      2686.680  
  22824361.393   122009285.14107     -3433.965    22824366.301    94896130.77606
     -2670.867  
 20 10 02 06 51 20.0000000  0 15G27G24G15G18G20G23G10G13R15R 6R 7R21
                                R22R16R 5
  23901113.020   125601194.31447      -484.840    23901114.876    97871069.83849
      -377.805  
  21741060.150   114250043.37048      2755.531    21741062.452    89026018.87849
      2147.168  
  20490214.095   107676851.70249     -1703.265    20490213.592    83904056.49149
     -1327.223  
  20757918.311   109083618.22949     -1633.897    20757918.274    85000218.06848
     -1273.171  
  20424985.279   107334057.36849      1545.988    20424984.532    83636943.54748
      1204.663  
  20749079.065   109037184.33349      1662.433    20749078.902    84964054.31648
      1295.397  
  23035772.159   121053805.30348      2952.094    23035774.261    94327649.05249
      2300.332  
  22639549.109   118971632.24748     -3148.097    22639548.551    92705165.44145
     -2453.065  
  21704362.434   115981532.19308  -2097152.000    21704368.811    90207884.87607
  -2097152.000  
  19337744.626   103189952.93808      -642.620           0.000           0.0000 
         0.000  
  20890027.493   111825994.76008      2514.300    20890031.166    86975805.67107
      1955.565  
  21469004.542   114884978.95008     -3818.366    21469008.466    89355023.57607
     -2969.844  
  20324350.169   108492780.45108      -171.738    20324354.201    84383279.36204
      -133.578  
  22108922.389   118101887.78506      3451.409    22108927.760    91857059.54505
      2684.430  
  22827573.568   122026456.33807     -3435.022    22827578.556    94909486.14106
     -2671.687  
 20 10 02 06 51 25.0000000  0 15G27G24G15G18G20G23G10G13R15R 6R 7R21
                                R22R16R 5
  23901575.613   125603625.19548      -488.163    23901577.469    97872964.04849
      -380.387  
  21738439.260   114236270.56348      2753.145    21738441.559    89015286.82049
      2145.308  
  20491835.718   107685373.32549     -1705.848    20491835.211    83910696.71749
     -1329.233  
  20759474.193   109091794.47449     -1637.069    20759474.169    85006589.16848
     -1275.644  
  20423515.205   107326332.10749      1543.679    20423514.463    83630923.86248
      1202.866  
  20747498.056   109028876.10349      1660.444    20747497.899    84957580.37248
      1293.848  
  23032963.735   121039046.93448      2951.066    23032965.830    94316149.02649
      2299.526  
  22642544.703   118987374.07748     -3149.144    22642544.098    92717431.80245
     -2453.882  
  21704512.487   115982334.03108  -2097152.000    21704518.864    90208508.53007
  -2097152.000  
  19338347.470   103193169.70108      -644.823           0.000           0.0000 
         0.000  
  20887679.630   111813426.49908      2512.559    20887683.296    86966030.36407
      1954.210  
  21472573.473   114904077.02508     -3821.227    21472577.330    89369877.63107
     -2972.069  
  20324513.237   108493650.91608      -177.023    20324517.236    84383956.38404
      -137.688  
  22105692.812   118084635.68506      3448.719    22105698.140    91843641.25305
      2682.335  
  22830786.290   122043630.20707     -3435.348    22830791.304    94922843.58706
     -2671.941  
 20 10 02 06 51 30.0000000  0 15G27G24G15G18G20G23G10G13R15R 6R 7R21
                                R22R16R 5
  23902041.467   125606073.21347      -491.039    23902043.316    97874871.61349
      -382.629  
  21735820.874   114222510.88348      2751.051    21735823.187    89004564.99449
      2143.675  
  20493459.751   107693907.71049     -1707.933    20493459.250    83917346.88749
     -1330.859  
  20761033.121   109099986.66549     -1639.636    20761033.091    85012972.68948
     -1277.645  
  20422047.267   107318618.13749      1541.964    20422046.552    83624912.98048
      1201.531  
  20745918.981   109020578.10349      1658.813    20745918.834    84951114.39848
      1292.582  
  23030156.158   121024293.05048      2950.577    23030158.259    94304652.49449
      2299.152  
  22645541.619   119003122.85348     -3150.194    22645541.037    92729703.57645
     -2454.699  
  21704666.937   115983159.36708  -2097152.000    21704673.313    90209150.45307
  -2097152.000  
  19338952.626   103196398.99208      -647.062           0.000           0.0000 
         0.000  
  20885333.434   111800867.16008      2511.273    20885337.090    86956261.98707
      1953.210  
  21476144.980   114923188.59808     -3823.343    21476148.702    89384742.19207
     -2973.711  
  20324680.909   108494546.02108      -181.331    20324684.944    84384652.58204
      -141.038  
  22102465.653   118067396.93606      3446.543    22102471.012    91830233.34405
      2680.645  
  22833999.558   122060807.09407     -3435.367    22834004.595    94936203.38506
     -2671.957  
 20 10 02 06 51 35.0000000  0 15G27G24G15G18G20G23G10G13R15R 6R 7R21
                                R22R16R 5
  23902510.274   125608536.71347      -494.644    23902512.103    97876791.21749
      -385.438  
  21733204.657   114208762.59748      2748.261    21733206.962    88993852.05349
      2141.503  
  20495085.905   107702453.17549     -1710.542    20495085.406    83924005.69149
     -1332.895  
  20762594.758   109108193.12549     -1642.996    20762594.729    85019367.33648
     -1280.261  
  20420581.174   107310913.79749      1539.625    20420580.457    83618909.59948
      1199.703  
  20744341.553   109012288.66449      1656.758    20744341.415    84944655.09848
      1290.980  
  23027349.124   121009542.01848      2949.608    23027351.225    94293158.18849
      2298.397  
  22648539.520   119018876.98748     -3151.655    22648538.947    92741979.51645
     -2455.839  
  21704825.471   115984006.52408  -2097152.000    21704831.847    90209809.35007
  -2097152.000  
  19339559.837   103199639.27908      -649.461           0.000           0.0000 
         0.000  
  20882988.657   111788315.25808      2509.500    20882992.283    86946499.40207
      1951.828  
  21479718.661   114942311.86608     -3826.050    21479722.335    89399615.84607
     -2975.815  
  20324852.925   108495464.16508      -186.069    20324856.920    84385366.69404
      -144.726  
  22099240.625   118050169.76006      3443.953    22099246.049    91816834.43305
      2678.628  
  22837213.039   122077985.20707     -3436.440    22837218.136    94949564.13006
     -2672.793  
 20 10 02 06 51 40.0000000  0 15G27G24G15G18G20G23G10G13R15R 6R 7R21
                                R22R16R 5
  23902982.376   125611017.66147      -497.929    23902984.202    97878724.44749
      -387.992  
  21730590.980   114195027.73048      2745.726    21730593.304    88983149.56049
      2139.527  
  20496714.547   107711011.71549     -1712.953    20496714.042    83930674.68349
     -1334.772  
  20764159.490   109116415.87449     -1646.063    20764159.457    85025774.67048
     -1282.647  
  20419117.311   107303221.14349      1537.426    20419116.571    83612915.32548
      1197.988  
  20742766.136   109004009.82549      1654.816    20742766.004    84938204.05648
      1289.468  
  23024543.014   120994795.84148      2948.766    23024545.121    94281667.66349
      2297.738  
  22651538.857   119034638.61348     -3153.004    22651538.246    92754261.30145
     -2456.891  
  21704988.458   115984877.47708  -2097152.000    21704994.834    90210486.76007
  -2097152.000  
  19340169.453   103202892.46508      -651.937           0.000           0.0000 
         0.000  
  20880645.584   111775772.66808      2507.609    20880649.208    86936744.05807
      1950.362  
  21483294.887   114961448.91208     -3828.676    21483298.557    89414500.21607
     -2977.858  
  20325029.673   108496407.40708      -190.940    20325033.606    84386100.32404
      -148.516  
  22096018.285   118032956.37706      3441.668    22096023.656    91803446.25905
      2676.852  
  22840427.230   122095166.74407     -3436.440    22840432.311    94962927.53906
     -2672.793  
 20 10 02 06 51 45.0000000  0 15G27G24G15G18G20G23G10G13R15R 6R 7R21
                                R22R16R 5
  23903457.529   125613514.82347      -500.526    23903459.395    97880670.28249
      -390.022  
  21727979.624   114181305.05448      2743.655    21727981.951    88972456.56849
      2137.914  
  20498345.418   107719581.99849     -1714.820    20498344.920    83937352.82549
     -1336.226  
  20765727.060   109124653.54349     -1648.621    20765727.035    85032193.63748
     -1284.640  
  20417655.411   107295538.83749      1535.820    20417654.677    83606929.11348
      1196.741  
  20741192.489   108995740.25449      1653.288    20741192.365    84931760.23348
      1288.272  
  23021737.592   120980053.18748      2948.645    23021739.680    94270179.88249
      2297.645  
  22654539.338   119050406.18248     -3153.929    22654538.766    92766547.71245
     -2457.612  
  21705155.652   115985770.91208  -2097152.000    21705162.028    90211181.65407
  -2097152.000  
  19340781.305   103206157.48608      -653.906           0.000           0.0000 
         0.000  
  20878304.021   111763238.15808      2506.516    20878307.650    86926995.00008
      1949.511  
  21486873.443   114980598.29908     -3830.801    21486877.083    89429394.17707
     -2979.515  
  20325210.830   108497374.31108      -195.343    20325214.776    84386852.35704
      -151.937  
  22092798.271   118015755.42406      3439.085    22092803.639    91790067.74105
      2674.844  
  22843641.711   122112350.24107     -3436.664    22843646.838    94976292.47506
     -2672.964  
 20 10 02 06 51 50.0000000  0 15G27G24G15G18G20G23G10G13R15R 6R 7R21
                                R22R16R 5
  23903935.907   125616028.84247      -504.702    23903937.788    97882629.22349
      -393.280  
  21725370.735   114167595.24948      2740.301    21725373.055    88961773.60549
      2135.301  
  20499978.672   107728164.80849     -1718.179    20499978.166    83944040.72749
     -1338.844  
  20767297.627   109132906.93149     -1652.664    20767297.593    85038624.84348
     -1287.792  
  20416195.627   107287867.65249      1532.742    20416194.892    83600951.56948
      1194.343  
  20739620.739   108987480.71349      1650.460    20739620.634    84925324.22748
      1286.069  
  23018932.987   120965314.86048      2946.852    23018935.086    94258695.47449
      2296.245  
  22657541.059   119066180.27048     -3155.840    22657540.498    92778839.20845
     -2459.097  
  21705327.191   115986687.56608  -2097152.000    21705333.568    90211894.60907
  -2097152.000  
  19341395.532   103209434.90208      -657.222           0.000           0.0000 
         0.000  
  20875964.105   111750712.34308      2503.727    20875967.715    86917252.70207
      1947.344  
  21490454.412   114999760.85408     -3834.272    21490458.122    89444298.37607
     -2982.215  
  20325396.522   108498365.73207      -201.168    20325400.488    84387623.46404
      -156.465  
  22089580.695   117998567.58406      3435.694    22089586.043    91776699.43505
      2672.206  
  22846856.779   122129536.52707     -3438.304    22846861.898    94989659.56506
     -2674.242  
 20 10 02 06 51 55.0000000  0 15G27G24G15G18G20G23G10G13R15R 6R 7R21
                                R22R16R 5
  23904417.401   125618559.04947      -507.668    23904419.293    97884600.81149
      -395.589  
  21722764.186   114153897.74248      2738.433    21722766.492    88951100.22749
      2133.844  
  20501614.161   107736759.39049     -1719.999    20501613.668    83950737.80349
     -1340.262  
  20768871.031   109141175.25349     -1654.980    20768871.009    85045067.68748
     -1289.598  
  20414737.816   107280206.86849      1531.133    20414737.093    83594982.12648
      1193.085  
  20738050.762   108979230.45749      1649.269    20738050.663    84918895.45948
      1285.145  
  23016129.046   120950580.07848      2946.648    23016131.151    94247213.82949
      2296.089  
  22660543.913   119081960.22148     -3156.563    22660543.324    92791135.27745
     -2459.664  
  21705502.946   115987626.74608  -2097152.000    21705509.322    90212625.08007
  -2097152.000  
  19342011.923   103212723.98908      -658.726           0.000           0.0000 
         0.000  
  20873625.710   111738194.69808      2502.913    20873629.308    86907516.75907
      1946.706  
  21494037.698   115018935.77208     -3836.164    21494041.495    89459212.19607
     -2983.688  
  20325586.677   108499380.85808      -205.359    20325590.661    84388412.99704
      -159.726  
  22086365.382   117981392.30506      3433.726    22086370.812    91763340.89405
      2670.676  
  22850072.224   122146724.67307     -3437.429    22850077.318    95003028.11906
     -2673.559  
 20 10 02 06 52  0.0000000  0 15G27G24G15G18G20G23G10G13R15R 6R 7R21
                                R22R16R 5
  23904901.784   125621104.71847      -510.590    23904903.712    97886584.42649
      -397.867  
  21720159.845   114140211.83848      2735.738    21720162.137    88940435.89249
      2131.741  
  20503251.772   107745365.12549     -1722.355    20503251.278    83957443.57349
     -1342.098  
  20770447.173   109149457.90649     -1658.194    20770447.170    85051521.70848
     -1292.102  
  20413281.877   107272555.85549      1528.968    20413281.139    83589020.29848
      1191.397  
  20736482.440   108970988.90449      1647.254    20736482.371    84912473.47348
      1283.574  
  23013325.675   120935848.23348      2945.901    23013327.774    94235734.46849
      2295.507  
  22663547.765   119097745.44148     -3157.891    22663547.195    92803435.44045
     -2460.698  
  21705682.804   115988587.85308  -2097152.000    21705689.180    90213372.60907
  -2097152.000  
  19342630.344   103216024.12708      -661.352           0.000           0.0000 
         0.000  
  20871288.682   111725684.43508      2501.136    20871292.278    86897786.55607
      1945.327  
  21497623.202   115038122.37008     -3838.715    21497627.012    89474135.09307
     -2985.671  
  20325781.222   108500419.09908      -210.124    20325785.182    84389220.52404
      -163.433  
  22083152.424   117964228.88406      3431.276    22083157.785    91749991.57305
      2668.769  
  22853287.919   122163914.21907     -3438.397    22853292.992    95016397.76206
     -2674.313  
 20 10 02 06 52  5.0000000  0 15G27G24G15G18G20G23G10G13R15R 6R 7R21
                                R22R16R 5
  23905389.316   125623666.77847      -513.867    23905391.250    97888580.84149
      -400.417  
  21717557.816   114126538.20948      2733.617    21717560.125    88929781.11849
      2130.090  
  20504891.664   107753982.78449     -1724.589    20504891.165    83964158.63349
     -1343.839  
  20772026.199   109157755.67849     -1660.918    20772026.197    85057987.49748
     -1294.227  
  20411827.948   107264915.40649      1527.144    20411827.195    83583066.70448
      1189.979  
  20734915.923   108962756.83449      1645.554    20734915.860    84906058.87348
      1282.250  
  23010523.017   120921120.17048      2945.359    23010525.118    94224258.06149
      2295.082  
  22666552.753   119113536.69948     -3158.800    22666552.178    92815740.31045
     -2461.405  
  21705866.890   115989571.55008  -2097152.000    21705873.266    90214137.70807
  -2097152.000  
  19343251.022   103219336.12108      -663.531           0.000           0.0000 
         0.000  
  20868953.181   111713182.38108      2499.729    20868956.783    86888062.74007
      1944.234  
  21501211.033   115057321.51708     -3840.941    21501214.846    89489067.76007
     -2987.401  
  20325980.200   108501481.22608      -214.640    20325984.160    84390046.61604
      -166.944  
  22079941.820   117947078.13206      3429.226    22079947.151    91736652.10205
      2667.175  
  22856504.019   122181105.89507     -3438.409    22856509.066    95029769.06506
     -2674.319  
 20 10 02 06 52 10.0000000  0 15G27G24G15G18G20G23G10G13R15R 6R 7R21
                                R22R16R 5
  23905880.094   125626245.89648      -517.840    23905882.015    97890590.53949
      -403.516  
  21714958.296   114112877.69848      2730.675    21714960.616    88919136.56549
      2127.800  
  20506533.963   107762613.15649     -1727.604    20506533.469    83970883.59749
     -1346.191  
  20773608.251   109166069.35549     -1664.542    20773608.244    85064465.68648
     -1297.051  
  20410376.184   107257286.33549      1524.440    20410375.416    83577121.97248
      1187.870  
  20733351.377   108954535.05549      1643.039    20733351.307    84899652.29048
      1280.285  
  23007721.235   120906396.67148      2944.147    23007723.329    94212785.20449
      2294.137  
  22669559.035   119129334.81948     -3160.655    22669558.438    92828050.53945
     -2462.851  
  21706055.382   115990578.79608  -2097152.000    21706061.759    90214921.12407
  -2097152.000  
  19343874.041   103222660.67208      -666.405           0.000           0.0000 
         0.000  
  20866619.374   111700689.38908      2497.547    20866622.981    86878345.97307
      1942.535  
  21504801.352   115076533.91608     -3844.043    21504805.113    89504010.74207
     -2989.812  
  20326183.832   108502568.04308      -219.988    20326187.751    84390891.92104
      -171.104  
  22076733.743   117929940.88006      3425.601    22076739.024    91723323.13805
      2664.355  
  22859720.693   122198300.58007     -3439.280    22859725.693    95043142.70106
     -2675.000  
 20 10 02 06 52 15.0000000  0 15G27G24G15G18G20G23G10G13R15R 6R 7R21
                                R22R16R 5
  23906374.328   125628843.11347      -520.699    23906376.268    97892614.35949
      -405.738  
  21712361.491   114099231.46248      2728.120    21712363.825    88908503.14249
      2125.808  
  20508178.870   107771257.23549     -1729.863    20508178.383    83977619.24249
     -1347.944  
  20775193.507   109174399.90049     -1667.527    20775193.487    85070957.01848
     -1299.375  
  20408926.774   107249669.63649      1522.449    20408925.998    83571186.88248
      1186.324  
  20731788.973   108946324.53549      1641.405    20731788.890    84893254.48348
      1279.016  
  23004920.491   120891678.69448      2943.379    23004922.584    94201316.65349
      2293.543  
  22672566.796   119145140.73848     -3161.702    22672566.240    92840366.82645
     -2463.668  
  21706248.457   115991610.52908  -2097152.000    21706254.832    90215723.57507
  -2097152.000  
  19344499.634   103225998.85708      -668.659           0.000           0.0000 
         0.000  
  20864287.435   111688206.43208      2495.976    20864291.052    86868637.00807
      1941.316  
  21508394.321   115095760.64608     -3846.347    21508398.034    89518964.86207
     -2991.608  
  20326392.248   108503680.58108      -224.789    20326396.196    84391757.22604
      -174.839  
  22073528.385   117912818.18205      3423.487    22073533.613    91710005.48705
      2662.710  
  22862938.089   122215499.18607     -3439.809    22862943.060    95056519.38206
     -2675.305  
 20 10 02 06 52 20.0000000  0 15G27G24G15G18G20G23G10G13R15R 6R 7R21
                                R22R16R 5
  23906871.257   125631454.52148      -524.171    23906873.208    97894649.21548
      -408.444  
  21709766.679   114085595.59948      2725.780    21709768.999    88897877.79349
      2123.983  
  20509825.637   107779911.08349     -1732.043    20509825.148    83984362.50049
     -1349.647  
  20776781.230   109182743.44349     -1670.348    20776781.217    85077458.47848
     -1301.574  
  20407478.997   107242061.42449      1520.468    20407478.211    83565258.40548
      1184.776  
  20730227.971   108938121.41449      1639.629    20730227.888    84886862.44248
      1277.629  
  23002120.089   120876962.39048      2942.848    23002122.151    94189849.41149
      2293.128  
  22675575.308   119160950.54648     -3162.515    22675574.800    92852686.16045
     -2464.301  
  21706445.360   115992662.71808  -2097152.000    21706451.736    90216541.94807
  -2097152.000  
  19345127.046   103229346.75708      -670.973           0.000           0.0000 
         0.000  
  20861956.668   111675729.68608      2494.547    20861960.292    86858932.87408
      1940.203  
  21511989.198   115114997.62408     -3848.761    21511992.883    89533926.94807
     -2993.483  
  20326604.713   108504814.86008      -229.328    20326608.670    84392639.44204
      -178.370  
  22070324.944   117895706.10406      3420.542    22070330.197    91696696.09905
      2660.422  
  22866155.467   122232697.76207     -3440.031    22866160.407    95069896.04506
     -2675.581  
 20 10 02 06 52 25.0000000  0 15G27G24G15G18G20G23G10G13R15R 6R 7R21
                                R22R16R 5
  23907371.180   125634081.54147      -526.828    23907373.121    97896696.27549
      -410.511  
  21707174.053   114071971.35448      2724.047    21707176.385    88887261.50349
      2122.632  
  20511474.540   107788576.15949     -1733.788    20511474.056    83991114.50449
     -1351.007  
  20778371.697   109191101.40549     -1672.773    20778371.684    85083971.17348
     -1303.464  
  20406033.094   107234463.14849      1519.026    20406032.323    83559337.67248
      1183.652  
  20728668.645   108929927.13549      1638.347    20728668.562    84880477.29248
      1276.633  
  22999320.267   120862249.19148      2942.573    22999322.322    94178384.58049
      2292.913  
  22678584.833   119176765.70748     -3163.184    22678584.293    92865009.65345
     -2464.819  
  21706646.376   115993736.89008  -2097152.000    21706652.752    90217377.41507
  -2097152.000  
  19345756.526   103232705.81608      -672.742           0.000           0.0000 
         0.000  
  20859627.298   111663260.41608      2493.398    20859630.928    86849234.55707
      1939.309  
  21515586.223   115134246.34408     -3850.733    21515589.929    89548898.17507
     -2995.020  
  20326821.539   108505972.32107      -233.445    20326825.493    84393539.68704
      -181.573  
  22067123.829   117878606.00906      3418.847    22067129.056    91683396.03305
      2659.104  
  22869373.080   122249897.87007     -3439.737    22869378.058    95083273.90506
     -2675.355  
 20 10 02 06 52 30.0000000  0 15G27G24G15G18G20G23G10G13R15R 6R 7R21
                                R22R16R 5
  23907874.317   125636725.48347      -530.629    23907876.244    97898756.48049
      -413.479  
  21704583.933   114058360.21348      2720.577    21704586.257    88876655.42449
      2119.930  
  20513125.832   107797253.72449     -1737.199    20513125.334    83997876.24549
     -1353.660  
  20779965.161   109199475.05149     -1676.684    20779965.128    85090496.09248
     -1306.512  
  20404589.335   107226876.11349      1515.863    20404588.551    83553425.69648
      1181.187  
  20727111.258   108921742.97649      1635.402    20727111.169    84874100.02948
      1274.340  
  22996521.275   120847540.39048      2940.788    22996523.330    94166923.17649
      2291.522  
  22681595.624   119192587.51948     -3165.500    22681595.098    92877338.33645
     -2466.629  
  21706851.760   115994834.40008  -2097152.000    21706858.137    90218231.03507
  -2097152.000  
  19346388.359   103236077.30308      -676.094           0.000           0.0000 
         0.000  
  20857299.596   111650800.04808      2490.711    20857303.228    86839543.16307
      1937.219  
  21519185.709   115153508.13608     -3854.285    21519189.468    89563879.55807
     -2997.780  
  20327043.000   108507154.40307      -239.202    20327046.922    84394459.08504
      -186.051  
  22063925.049   117861519.29306      3415.507    22063930.374    91670106.37505
      2656.507  
  22872591.135   122267100.65507     -3441.188    22872596.176    95096653.83606
     -2676.483  
 20 10 02 06 52 35.0000000  0 15G27G24G15G18G20G23G10G13R15R 6R 7R21
                                R22R16R 5
  23908380.974   125639387.98547      -534.254    23908382.885    97900831.15149
      -416.304  
  21701996.645   114044763.92348      2718.078    21701998.962    88866060.91549
      2117.983  
  20514779.805   107805945.41249     -1739.559    20514779.315    84004648.98949
     -1355.503  
  20781561.906   109207866.03549     -1679.585    20781561.894    85097034.52048
     -1308.773  
  20403148.021   107219301.92849      1513.866    20403147.239    83547523.73448
      1179.632  
  20725556.099   108913570.59549      1633.585    20725556.009    84867731.94148
      1272.922  
  22993723.429   120832837.60948      2940.355    22993725.485    94155466.46949
      2291.187  
  22684607.999   119208417.59348     -3166.554    22684607.514    92889673.45845
     -2467.448  
  21707061.812   115995956.85308  -2097152.000    21707068.188    90219104.05307
  -2097152.000  
  19347022.842   103239462.83508      -678.202           0.000           0.0000 
         0.000  
  20854973.869   111638350.27708      2489.129    20854977.506    86829860.00907
      1935.988  
  21522787.981   115172784.56008     -3856.414    21522791.778    89578872.32007
     -2999.437  
  20327269.325   108508362.50808      -243.883    20327273.232    84395398.71704
      -189.691  
  22060729.173   117844447.71306      3412.979    22060734.508    91656828.48005
      2654.539  
  22875810.088   122284307.86707     -3441.417    22875815.155    95110037.21906
     -2676.620  
 20 10 02 06 52 40.0000000  0 15G27G24G15G18G20G23G10G13R15R 6R 7R21
                                R22R16R 5
  23908890.427   125642065.17746      -537.198    23908892.338    97902917.30749
      -418.593  
  21699411.425   114031178.50048      2715.945    21699413.727    88855474.87349
      2116.316  
  20516435.731   107814647.36149     -1741.401    20516435.233    84011429.72649
     -1356.940  
  20783161.216   109216270.49449     -1682.292    20783161.216    85103583.44748
     -1310.883  
  20401708.422   107211736.75249      1512.094    20401707.634    83541628.79448
      1178.254  
  20724002.468   108905406.14349      1631.953    20724002.365    84861370.02748
      1271.647  
  22990926.008   120818137.06348      2939.690    22990928.065    94144011.50049
      2290.664  
  22687621.223   119224252.10148     -3167.522    22687620.790    92902012.03546
     -2468.203  
  21707275.817   115997100.43108  -2097152.000    21707282.193    90219993.50007
  -2097152.000  
  19347659.175   103242858.65308      -680.128           0.000           0.0000 
         0.000  
  20852649.363   111625907.07608      2487.809    20852653.014    86820181.97207
      1934.960  
  21526392.295   115192071.75308     -3858.612    21526396.110    89593873.46307
     -3001.147  
  20327499.830   108509593.05508      -248.484    20327503.778    84396355.81204
      -193.270  
  22057535.524   117827387.41106      3410.785    22057540.755    91643559.36005
      2652.831  
  22879029.100   122301515.52007     -3441.891    22879034.215    95123420.93806
     -2676.987  
 20 10 02 06 52 45.0000000  0 15G27G24G15G18G20G23G10G13R15R 6R 7R21
                                R22R16R 5
  23909402.966   125644758.62047      -540.535    23909404.859    97905015.99549
      -421.211  
  21696828.516   114017605.28148      2713.437    21696830.823    88844898.34349
      2114.366  
  20518093.889   107823361.04249     -1744.020    20518093.400    84018219.61049
     -1358.980  
  20784763.379   109224689.88549     -1685.398    20784763.365    85110144.00648
     -1313.301  
  20400270.819   107204182.06849      1509.832    20400270.017    83535742.02448
      1176.488  
  20722450.618   108897251.08649      1630.008    20722450.518    84855015.44148
      1270.133  
  22988129.301   120803440.14648      2938.898    22988131.343    94132559.36049
      2290.050  
  22690635.545   119240092.43948     -3168.761    22690635.127    92914355.14945
     -2469.167  
  21707494.038   115998266.53808  -2097152.000    21707500.414    90220900.47507
  -2097152.000  
  19348297.725   103246266.13608      -682.858           0.000           0.0000 
         0.000  
  20850326.384   111613471.89508      2486.007    20850330.016    86810510.16007
      1933.558  
  21529998.835   115211371.11008     -3861.253    21530002.715    89608884.07007
     -3003.203  
  20327734.786   108510847.32908      -253.276    20327738.761    84397331.35904
      -196.995  
  22054344.144   117810339.82006      3408.124    22054349.375    91630300.13305
      2650.765  
  22882248.544   122318725.16907     -3441.789    22882253.641    95136806.21106
     -2676.948  
 20 10 02 06 52 50.0000000  0 15G27G24G15G18G20G23G10G13R15R 6R 7R21
                                R22R16R 5
  23909918.563   125647468.19248      -543.410    23909920.488    97907127.34849
      -423.440  
  21694247.990   114004044.62048      2710.934    21694250.315    88834331.59549
      2112.414  
  20519754.316   107832086.58349     -1746.156    20519753.807    84025018.73349
     -1360.641  
  20786368.401   109233124.33849     -1688.335    20786368.403    85116716.30748
     -1315.590  
  20398835.221   107196638.01249      1507.934    20398834.431    83529863.54048
      1175.011  
  20720900.583   108889105.56949      1628.265    20720900.492    84848668.28048
      1268.773  
  22985333.287   120788747.05448      2938.453    22985335.333    94121110.19749
      2289.702  
  22693651.037   119255938.79948     -3169.644    22693650.549    92926702.95445
     -2469.855  
  21707716.490   115999455.25308  -2097152.000    21707722.866    90221825.02907
  -2097152.000  
  19348938.486   103249685.48808      -684.792           0.000           0.0000 
         0.000  
  20848004.959   111601045.12708      2484.683    20848008.600    86800844.89908
      1932.531  
  21533607.730   115230682.78508     -3863.229    21533611.600    89623904.26207
     -3004.738  
  20327974.260   108512125.52708      -257.733    20327978.180    84398325.51004
      -200.465  
  22051155.172   117793305.05605      3406.062    22051160.410    91617050.87505
      2649.159  
  22885468.349   122335936.99706     -3442.637    22885473.482    95150193.18006
     -2677.609  
 20 10 02 06 52 55.0000000  0 15G27G24G15G18G20G23G10G13R15R 6R 7R21
                                R22R16R 5
  23910437.207   125650193.71748      -546.972    23910439.134    97909251.17648
      -426.206  
  21691669.766   113990496.11748      2708.343    21691672.114    88823774.32449
      2110.398  
  20521416.925   107840823.65149     -1748.660    20521416.416    84031826.83649
     -1362.597  
  20787976.223   109241573.49649     -1691.433    20787976.209    85123300.06748
     -1318.004  
  20397401.596   107189104.29249      1505.570    20397400.814    83523993.11548
      1173.171  
  20719352.303   108880969.27049      1626.086    20719352.199    84842328.31148
      1267.077  
  22982537.947   120774057.44348      2937.464    22982539.994    94109663.75049
      2288.933  
  22696667.591   119271790.80548     -3171.094    22696667.131    92939055.16545
     -2470.984  
  21707943.131   116000666.35508  -2097152.000    21707949.508    90222767.00007
  -2097152.000  
  19349581.414   103253116.24008      -687.444           0.000           0.0000 
         0.000  
  20845685.019   111588626.24508      2482.788    20845688.643    86791185.77908
      1931.059  
  21537218.788   115250006.38008     -3865.921    21537222.703    89638933.71307
     -3006.832  
  20328218.144   108513427.21007      -262.895    20328222.065    84399337.92304
      -204.477  
  22047968.608   117776282.88005      3402.901    22047973.808    91603811.40505
      2646.699  
  22888688.595   122353150.55807     -3442.956    22888693.647    95163581.49406
     -2677.859  
 20 10 02 06 53  0.0000000  0 15G27G24G15G18G20G23G10G13R15R 6R 7R21
                                R22R16R 5
  23910959.076   125652936.21847      -550.202    23910961.021    97911388.21949
      -428.726  
  21689094.105   113976960.92648      2705.652    21689096.462    88813227.42949
      2108.301  
  20523081.928   107849573.26649     -1751.222    20523081.412    84038644.71849
     -1364.589  
  20789587.034   109250038.42649     -1694.562    20789587.007    85129896.11148
     -1320.440  
  20395970.143   107181581.95649      1503.391    20395969.367    83518131.55148
      1171.468  
  20717805.966   108872843.21649      1624.222    20717805.855    84835996.32248
      1265.625  
  22979743.475   120759372.36248      2936.569    22979745.516    94098220.83049
      2288.237  
  22699685.395   119287649.46948     -3172.445    22699684.837    92951412.57345
     -2472.039  
  21708174.151   116001900.85308  -2097152.000    21708180.528    90223727.16807
  -2097152.000  
  19350226.734   103256559.57708      -689.897           0.000           0.0000 
         0.000  
  20843366.748   111576216.51308      2481.102    20843370.400    86781533.76208
      1929.746  
  21540832.297   115269343.09208     -3868.609    21540836.214    89653973.37307
     -3008.922  
  20328466.581   108514753.51108      -267.862    20328470.542    84400369.49604
      -208.344  
  22044784.524   117759274.29306      3400.683    22044789.752    91590582.51405
      2644.976  
  22891909.294   122370366.91607     -3443.637    22891914.322    95176971.99006
     -2678.249  
 20 10 02 06 53  5.0000000  0 15G27G24G15G18G20G23G10G13R15R 6R 7R21
                                R22R16R 5
  23911484.026   125655694.88447      -553.437    23911485.981    97913537.81049
      -431.254  
  21686520.808   113963438.19348      2703.223    21686523.165    88802690.23949
      2106.406  
  20524749.137   107858334.51149     -1753.566    20524748.622    84045471.66349
     -1366.413  
  20791200.700   109258518.24049     -1697.620    20791200.669    85136503.75748
     -1322.823  
  20394540.692   107174070.10649      1501.191    20394539.896    83512278.16948
      1169.758  
  20716261.417   108864726.58249      1622.296    20716261.318    84829671.67148
      1264.125  
  22976949.704   120744690.96548      2935.651    22976951.740    94086780.78449
      2287.519  
  22702704.313   119303513.92848     -3173.726    22702703.772    92963774.48345
     -2473.039  
  21708409.386   116003157.88108  -2097152.000    21708415.765    90224704.86307
  -2097152.000  
  19350874.228   103260014.54208      -692.504           0.000           0.0000 
         0.000  
  20841049.989   111563814.72408      2479.210    20841053.637    86771887.93507
      1928.273  
  21544448.078   115288691.86308     -3871.112    21544451.947    89669022.40707
     -3010.871  
  20328719.550   108516103.59508      -272.558    20328723.429    84401419.56304
      -211.987  
  22041602.950   117742278.48806      3397.789    22041608.073    91577363.56205
      2642.727  
  22895130.331   122387585.14107     -3444.059    22895135.330    95190363.93506
     -2678.715  
 20 10 02 06 53 10.0000000  0 15G27G24G15G18G20G23G10G13R15R 6R 7R21
                                R22R16R 5
  23912012.279   125658470.87047      -556.491    23912014.219    97915700.91849
      -433.632  
  21683950.125   113949929.16248      2700.835    21683952.490    88792163.72149
      2104.547  
  20526418.803   107867108.69649     -1755.660    20526418.293    84052308.68949
     -1368.047  
  20792817.432   109267014.19049     -1700.430    20792817.402    85143123.97548
     -1325.015  
  20393113.464   107166570.00749      1499.250    20393112.667    83506433.93448
      1168.241  
  20714718.899   108856620.59849      1620.645    20714718.800    84823355.31948
      1262.839  
  22974156.854   120730014.50548      2935.261    22974158.895    94075344.58549
      2287.219  
  22705724.540   119319385.42348     -3174.577    22705723.962    92976141.87545
     -2473.698  
  21708649.065   116004438.65008  -2097152.000    21708655.443    90225701.01507
  -2097152.000  
  19351524.096   103263482.35808      -694.354           0.000           0.0000 
         0.000  
  20838734.989   111551422.40708      2477.961    20838738.655    86762249.46407
      1927.301  
  21548066.364   115308054.01208     -3873.257    21548070.175    89684081.85707
     -3012.539  
  20328977.160   108517478.64308      -277.046    20328981.074    84402489.04204
      -215.483  
  22038423.871   117725296.73306      3395.331    22038429.047    91564155.53505
      2640.813  
  22898352.081   122404806.61507     -3444.136    22898356.990    95203758.40006
     -2678.781  
 20 10 02 06 53 15.0000000  0 15G27G24G15G18G20G23G10G13R15R 6R 7R21
                                R22R16R 5
  23912543.386   125661261.82647      -559.460    23912545.306    97917875.66149
      -435.952  
  21681381.539   113936431.21648      2698.879    21681383.917    88781645.84549
      2103.022  
  20528090.479   107875893.38349     -1757.434    20528089.963    84059153.89749
     -1369.433  
  20794436.761   109275523.79149     -1703.098    20794436.740    85149754.83148
     -1327.093  
  20391688.008   107159079.18149      1497.472    20391687.203    83500596.92748
      1166.859  
  20713177.943   108848522.81949      1619.105    20713177.852    84817045.36348
      1261.637  
  22971364.483   120715340.49348      2934.793    22971366.524    94063910.29349
      2286.852  
  22708745.657   119335261.46748     -3175.242    22708745.110    92988512.81546
     -2474.219  
  21708892.732   116005740.73308  -2097152.000    21708899.107    90226713.73407
  -2097152.000  
  19352175.947   103266960.66908      -696.315           0.000           0.0000 
         0.000  
  20836421.270   111539036.98208      2476.816    20836424.940    86752616.36207
      1926.414  
  21551686.683   115327426.91608     -3875.438    21551690.427    89699149.66807
     -3014.233  
  20329238.944   108518876.18608      -281.531    20329242.866    84403576.02404
      -218.969  
  22035247.023   117708326.55106      3393.137    22035252.164    91550956.51105
      2639.104  
  22901573.846   122422028.82707     -3444.156    22901578.760    95217153.45306
     -2678.793  
 20 10 02 06 53 20.0000000  0 15G27G24G15G18G20G23G10G13R15R 6R 7R21
                                R22R16R 5
  23913077.751   125664069.93347      -563.827    23913079.669    97920063.75849
      -439.354  
  21678815.540   113922946.76448      2695.230    21678817.911    88771138.47949
      2100.176  
  20529764.580   107884690.84349     -1761.027    20529764.064    84066009.06349
     -1372.230  
  20796059.128   109284049.38649     -1707.008    20796059.114    85156398.15048
     -1330.140  
  20390264.761   107151599.97149      1494.479    20390263.941    83494768.97048
      1164.526  
  20711638.995   108840435.59149      1615.969    20711638.920    84810743.62948
      1259.195  
  22968573.022   120700671.29948      2933.069    22968575.062    94052479.75349
      2285.503  
  22711768.084   119351144.43148     -3177.535    22711767.516    93000889.15445
     -2475.895  
  21709140.829   116007066.48808  -2097152.000    21709147.206    90227744.88207
  -2097152.000  
  19352830.177   103270451.61008      -699.855           0.000           0.0000 
         0.000  
  20834109.317   111526660.82408      2473.941    20834112.963    86742990.46607
      1924.176  
  21555309.459   115346813.06108     -3878.831    21555313.220    89714227.77707
     -3016.874  
  20329505.392   108520298.56607      -287.315    20329509.301    84404682.30904
      -223.473  
  22032072.721   117691370.40606      3389.840    22032077.931    91537768.39905
      2636.539  
  22904796.148   122439254.03107     -3445.948    22904801.095    95230550.81906
     -2680.187  
 20 10 02 06 53 25.0000000  0 15G27G24G15G18G20G23G10G13R15R 6R 7R21
                                R22R16R 5
  23913615.331   125666895.05648      -566.679    23913617.289    97922265.19249
      -441.566  
  21676252.090   113909475.74848      2693.039    21676254.447    88760641.58649
      2098.472  
  20531441.064   107893500.85649     -1762.875    20531440.553    84072874.00449
     -1373.671  
  20797684.508   109292590.78749     -1709.710    20797684.518    85163053.78248
     -1332.246  
  20388843.703   107144132.26049      1492.574    20388842.875    83488949.97448
      1163.039  
  20710102.017   108832358.72149      1614.565    20710101.935    84804449.96348
      1258.101  
  22965782.437   120686006.73948      2932.738    22965784.483    94041052.82849
      2285.249  
  22714791.790   119367034.08148     -3178.320    22714791.207    93013270.69545
     -2476.613  
  21709393.322   116008415.73508  -2097152.000    21709399.699    90228794.29607
  -2097152.000  
  19353486.742   103273955.22508      -701.722           0.000           0.0000 
         0.000  
  20831799.040   111514293.76308      2472.742    20831802.692    86733371.64308
      1923.241  
  21558934.686   115366212.19308     -3880.858    21558938.472    89729315.99007
     -3018.448  
  20329776.506   108521745.73108      -291.737    20329780.428    84405807.89004
      -226.905  
  22028900.989   117674427.99006      3387.598    22028906.254    91524590.97105
      2634.797  
  22908019.081   122456482.14707     -3445.554    22908023.969    95243950.46006
     -2679.878  
 20 10 02 06 53 30.0000000  0 15G27G24G15G18G20G23G10G13R15R 6R 7R21
                                R22R16R 5
  23914155.653   125669734.53047      -569.772    23914157.622    97924477.79549
      -443.977  
  21673690.684   113896015.52848      2690.651    21673693.031    88750153.10849
      2096.613  
  20533119.432   107902320.77049     -1765.234    20533118.927    84079746.66449
     -1375.511  
  20799312.382   109301145.32249     -1712.480    20799312.384    85169719.65448
     -1334.402  
  20387424.320   107136673.38249      1490.577    20387423.498    83483137.86448
      1161.488  
  20708566.509   108824289.56849      1612.770    20708566.427    84798162.31548
      1256.703  
  22962992.244   120671344.17748      2932.065    22962994.290    94029627.45449
      2284.723  
  22717816.253   119382927.77248     -3179.401    22717815.722    93025655.39145
     -2477.457  
  21709649.701   116009785.74508  -2097152.000    21709656.078    90229859.86307
  -2097152.000  
  19354145.201   103277468.67008      -703.995           0.000           0.0000 
         0.000  
  20829489.961   111501933.14108      2471.183    20829493.618    86723757.83208
      1922.031  
  21562561.755   115385621.49808     -3883.160    21562565.630    89744412.11007
     -3020.238  
  20330051.688   108523214.73007      -296.147    20330055.627    84406950.43804
      -230.339  
  22025731.451   117657496.79006      3384.762    22025736.685    91511422.26905
      2632.593  
  22911242.014   122473710.41207     -3446.108    22911246.871    95257350.21706
     -2680.313  
 20 10 02 06 53 35.0000000  0 15G27G24G15G18G20G23G10G13R15R 6R 7R21
                                R22R16R 5
  23914699.438   125672592.17447      -573.547    23914701.404    97926704.52549
      -446.921  
  21671132.078   113882569.84148      2687.574    21671134.386    88739675.94949
      2094.214  
  20534800.405   107911154.31049     -1768.308    20534799.893    84086629.94049
     -1377.905  
  20800943.471   109309716.75249     -1716.038    20800943.487    85176398.68448
     -1337.175  
  20386007.341   107129227.07649      1487.961    20386006.521    83477335.54748
      1159.444  
  20707033.172   108816231.89449      1610.387    20707033.103    84791883.61048
      1254.848  
  22960203.159   120656687.37248      2930.793    22960205.193    94018206.57049
      2283.733  
  22720842.196   119398829.24248     -3180.979    22720841.651    93038046.12845
     -2478.691  
  21709910.672   116011180.29508  -2097152.000    21709917.049    90230944.51307
  -2097152.000  
  19354806.205   103280995.82308      -706.952           0.000           0.0000 
         0.000  
  20827182.805   111489582.60008      2468.940    20827186.448    86714151.85407
      1920.288  
  21566191.438   115405044.94408     -3886.132    21566195.428    89759519.21307
     -3022.554  
  20330331.762   108524709.56708      -301.628    20330335.722    84408113.09404
      -234.604  
  22022564.640   117640580.50606      3381.577    22022569.899    91498265.15905
      2630.117  
  22914465.681   122490942.66407     -3447.297    22914470.526    95270753.07206
     -2681.234  
 20 10 02 06 53 40.0000000  0 15G27G24G15G18G20G23G10G13R15R 6R 7R21
                                R22R16R 5
  23915246.181   125675465.42047      -576.026    23915248.164    97928943.41349
      -448.854  
  21668575.719   113869136.08148      2685.819    21668578.020    88729208.08849
      2092.848  
  20536483.493   107919998.96749     -1769.887    20536482.976    84093521.88249
     -1379.132  
  20802577.300   109318302.55049     -1718.445    20802577.311    85183088.91948
     -1339.046  
  20384592.265   107121790.83549      1486.348    20384591.444    83471541.07648
      1158.190  
  20705501.563   108808183.20449      1608.905    20705501.487    84785611.90148
      1253.688  
  22957414.681   120642033.78948      2930.590    22957416.710    94006788.19549
      2283.577  
  22723869.163   119414735.99848     -3181.698    22723868.569    93050441.00645
     -2479.245  
  21710175.764   116012596.86508  -2097152.000    21710182.142    90232046.29307
  -2097152.000  
  19355469.272   103284534.10508      -708.765           0.000           0.0000 
         0.000  
  20824877.098   111477239.90708      2468.035    20824880.716    86704551.98707
      1919.582  
  21569823.309   115424479.85408     -3887.753    21569827.316    89774635.23707
     -3023.813  
  20330616.181   108526227.65708      -305.659    20330620.117    84409293.82204
      -237.737  
  22019400.264   117623676.76006      3379.354    22019405.477    91485117.81005
      2628.387  
  22917689.625   122508176.27807     -3446.558    22917694.435    95284156.98206
     -2680.660  
 20 10 02 06 53 45.0000000  0 15G27G24G15G18G20G23G10G13R15R 6R 7R21
                                R22R16R 5
  23915795.962   125678354.76146      -579.371    23915797.975    97931194.83249
      -451.461  
  21666021.731   113855714.75548      2683.253    21666024.019    88718749.91449
      2090.848  
  20538168.781   107928855.21749     -1772.261    20538168.264    84100422.85549
     -1380.987  
  20804213.962   109326903.17049     -1721.297    20804213.938    85189790.69648
     -1341.273  
  20383179.202   107114365.13749      1484.155    20383178.389    83465754.81848
      1156.483  
  20703971.736   108800143.93849      1607.035    20703971.674    84779347.53948
      1252.233  
  22954626.916   120627383.92448      2929.781    22954628.935    93995372.72349
      2282.944  
  22726897.220   119430648.48448     -3182.968    22726896.659    93062840.34345
     -2480.238  
  21710445.062   116014035.91608  -2097152.000    21710451.441    90233165.55607
  -2097152.000  
  19356134.544   103288084.15808      -711.226           0.000           0.0000 
         0.000  
  20822572.872   111464905.20408      2466.335    20822576.490    86694958.33107
      1918.262  
  21573457.387   115443926.69408     -3890.417    21573461.399    89789760.55107
     -3025.883  
  20330905.011   108527769.42107      -310.558    20330908.965    84410492.97804
      -241.547  
  22016238.200   117606785.80006      3377.128    22016243.462    91471980.39905
      2626.656  
  22920913.926   122525411.82707     -3447.160    22920918.704    95297562.39406
     -2681.129  
 20 10 02 06 53 50.0000000  0 15G27G24G15G18G20G23G10G13R15R 6R 7R21
                                R22R16R 5
  23916348.788   125681259.94147      -582.796    23916350.785    97933458.55549
      -454.136  
  21663470.086   113842305.70548      2680.234    21663472.362    88708301.30549
      2088.495  
  20539856.233   107937722.83649     -1774.827    20539855.715    84107332.68549
     -1382.988  
  20805853.398   109335518.43449     -1724.675    20805853.383    85196503.88948
     -1343.905  
  20381768.114   107106949.78949      1481.813    20381767.303    83459976.62848
      1154.659  
  20702443.672   108792113.94049      1604.816    20702443.624    84773090.39948
      1250.504  
  22951839.815   120612737.57948      2928.722    22951841.827    93983959.98449
      2282.117  
  22729926.338   119446566.47748     -3184.343    22729925.743    93075243.96745
     -2481.308  
  21710718.545   116015497.32608  -2097152.000    21710724.922    90234302.20207
  -2097152.000  
  19356801.930   103291645.42608      -713.691           0.000           0.0000 
         0.000  
  20820270.152   111452578.50308      2464.285    20820273.759    86685370.90008
      1916.667  
  21577093.673   115463385.22508     -3892.977    21577097.638    89804894.96207
     -3027.874  
  20331198.256   108529334.75008      -315.496    20331202.210    84411710.44804
      -245.391  
  22013078.501   117589907.69006      3374.145    22013083.853    91458852.98705
      2624.335  
  22924138.496   122542649.03407     -3447.636    22924143.286    95310969.10106
     -2681.499  
 20 10 02 06 53 55.0000000  0 15G27G24G15G18G20G23G10G13R15R 6R 7R21
                                R22R16R 5
  23916904.869   125684182.16547      -585.844    23916906.869    97935735.66049
      -456.496  
  21660921.012   113828910.20048      2678.007    21660923.299    88697863.25349
      2086.758  
  20541546.083   107946603.09149     -1777.058    20541545.572    84114252.36549
     -1384.726  
  20807495.851   109344149.55249     -1727.609    20807495.830    85203229.43448
     -1346.191  
  20380359.245   107099546.07249      1479.855    20380358.429    83454207.49348
      1153.129  
  20700917.605   108784094.43549      1603.093    20700917.563    84766841.43448
      1249.160  
  22949053.630   120598096.01248      2928.030    22949055.624    93972550.97949
      2281.581  
  22732956.719   119462491.20848     -3185.363    22732956.119    93087652.84845
     -2482.105  
  21710996.429   116016982.25408  -2097152.000    21711002.808    90235457.15107
  -2097152.000  
  19357471.732   103295219.49108      -715.862           0.000           0.0000 
         0.000  
  20817969.147   111440261.07108      2462.820    20817972.745    86675790.67608
      1915.526  
  21580732.427   115482856.81108     -3895.453    21580736.317    89820039.53107
     -3029.797  
  20331496.136   108530924.91707      -320.230    20331500.049    84412947.24404
      -249.070  
  22009921.606   117573043.59206      3371.652    22009926.829    91445736.46805
      2622.395  
  22927363.645   122559889.27007     -3447.831    22927368.421    95324378.17506
     -2681.652  
 20 10 02 06 54  0.0000000  0 15G27G24G15G18G20G23G10G13R15R 6R 7R21
                                R22R16R 5
  23917463.924   125687119.96047      -588.796    23917465.913    97938024.84949
      -458.809  
  21658374.194   113815526.58148      2675.554    21658376.489    88687434.46249
      2084.843  
  20543238.020   107955494.37149     -1779.457    20543237.526    84121180.63449
     -1386.594  
  20809141.022   109352794.95549     -1730.370    20809140.988    85209966.11048
     -1348.344  
  20378952.272   107092152.37549      1477.808    20378951.449    83448446.17548
      1151.538  
  20699393.250   108776083.86249      1601.176    20699393.210    84760599.43048
      1247.668  
  22946268.034   120583457.63848      2927.347    22946270.026    93961144.45249
      2281.046  
  22735988.102   119478421.11048     -3186.402    22735987.462    93100065.75745
     -2482.913  
  21711278.420   116018489.12708  -2097152.000    21711284.799    90236629.16607
  -2097152.000  
  19358143.591   103298804.53708      -718.051           0.000           0.0000 
         0.000  
  20815669.526   111427951.11808      2461.214    20815673.137    86666216.27508
      1914.276  
  21584373.312   115502339.67008     -3897.656    21584377.149    89835192.87107
     -3031.511  
  20331798.304   108532538.25607      -325.069    20331802.245    84414202.07004
      -252.835  
  22006766.973   117556191.92106      3368.726    22006772.148    91432629.62305
      2620.120  
  22930589.035   122577130.79907     -3448.566    22930593.804    95337788.24706
     -2682.222  
 20 10 02 06 54  5.0000000  0 15G27G24G15G18G20G23G10G13R15R 6R 7R21
                                R22R16R 5
  23918026.279   125690075.18348      -592.312    23918028.261    97940327.60549
      -461.547  
  21655830.025   113802156.81948      2672.808    21655832.300    88677016.46549
      2082.706  
  20544932.436   107964398.58849     -1781.770    20544931.949    84128118.98449
     -1388.391  
  20810789.261   109361456.53749     -1733.605    20810789.231    85216715.39248
     -1350.867  
  20377547.564   107084770.62049      1475.526    20377546.740    83442694.15748
      1149.757  
  20697870.959   108768084.14149      1599.125    20697870.914    84754365.88648
      1246.070  
  22943483.419   120568824.38948      2926.519    22943485.405    93949741.92449
      2280.406  
  22739020.809   119494358.09048     -3187.766    22739020.176    93112484.18045
     -2483.976  
  21711564.880   116020019.88008  -2097152.000    21711571.258    90237819.74907
  -2097152.000  
  19358817.861   103302402.59908      -720.573           0.000           0.0000 
         0.000  
  20813371.725   111415650.83708      2459.434    20813375.341    86656649.39108
      1912.891  
  21588016.671   115521835.77208     -3900.261    21588020.484    89850356.50507
     -3033.534  
  20332105.204   108534176.63507      -329.757    20332109.176    84415476.36304
      -256.477  
  22003615.036   117539354.65406      3366.430    22003620.177    91419533.97105
      2618.336  
  22933815.066   122594375.52807     -3448.952    22933819.792    95351200.80106
     -2682.522  
 20 10 02 06 54 10.0000000  0 15G27G24G15G18G20G23G10G13R15R 6R 7R21
                                R22R16R 5
  23918591.613   125693045.97147      -596.132    23918593.588    97942642.52249
      -464.520  
  21653288.151   113788799.18348      2670.022    21653290.420    88666607.92249
      2080.539  
  20546628.969   107973313.92749     -1784.285    20546628.482    84135066.00249
     -1390.352  
  20812440.233   109370132.48549     -1736.887    20812440.208    85223475.86748
     -1353.421  
  20376144.797   107077399.02749      1473.074    20376143.972    83436950.05948
      1147.852  
  20696350.373   108760093.43949      1597.116    20696350.341    84748139.36148
      1244.507  
  22940699.430   120554194.42748      2925.601    22940701.417    93938341.95949
      2279.691  
  22742054.530   119510300.36948     -3189.141    22742053.876    93124906.73645
     -2485.042  
  21711855.472   116021572.71608  -2097152.000    21711861.851    90239027.51307
  -2097152.000  
  19359494.277   103306011.99007      -723.258           0.000           0.0000 
         0.000  
  20811075.380   111403358.26308      2457.621    20811078.993    86647088.50208
      1911.484  
  21591662.098   115541343.21808     -3902.769    21591665.945    89865528.95707
     -3035.491  
  20332416.449   108535838.20407      -335.050    20332420.405    84416768.69004
      -260.598  
  22000465.394   117522529.95606      3363.215    22000470.536    91406448.09705
      2615.832  
  22937041.323   122611621.66307     -3449.347    22937046.041    95364614.44306
     -2682.828  
 20 10 02 06 54 15.0000000  0 15G27G24G15G18G20G23G10G13R15R 6R 7R21
                                R22R16R 5
  23919160.212   125696033.94947      -599.121    23919162.190    97944970.82049
      -466.851  
  21650748.907   113775455.33448      2667.425    21650751.148    88656210.11949
      2078.511  
  20548327.908   107982241.94649     -1786.722    20548327.427    84142022.89849
     -1392.254  
  20814094.237   109378824.33949     -1740.000    20814094.198    85230248.74048
     -1355.848  
  20374744.259   107070039.11849      1470.844    20374743.436    83431215.06648
      1146.113  
  20694831.800   108752113.34349      1594.953    20694831.780    84741921.10748
      1242.819  
  22937916.377   120539569.35448      2924.597    22937918.358    93926945.79849
      2278.905  
  22745089.595   119526249.59048     -3190.672    22745088.940    93137334.69345
     -2486.241  
  21712150.485   116023149.17908  -2097152.000    21712156.864    90240253.65207
  -2097152.000  
  19360172.963   103309633.74407      -725.730           0.000           0.0000 
         0.000  
  20808780.734   111391074.96608      2455.898    20808784.378    86637534.82908
      1910.145  
  21595309.901   115560863.69108     -3905.312    21595313.862    89880711.53607
     -3037.468  
  20332732.371   108537524.68207      -339.621    20332736.325    84418080.39904
      -264.148  
  21997318.385   117505719.51206      3360.293    21997323.579    91393373.30905
      2613.563  
  22940268.159   122628870.88707     -3449.855    22940272.858    95378030.50806
     -2683.226  
 20 10 02 06 54 20.0000000  0 15G27G24G15G18G20G23G10G13R15R 6R 7R21
                                R22R16R 5
  23919731.697   125699037.12347      -602.691    23919733.678    97947310.94049
      -469.633  
  21648211.881   113762123.23448      2664.730    21648214.118    88645821.46949
      2076.413  
  20550028.890   107991180.66649     -1789.397    20550028.417    84148988.13549
     -1394.339  
  20815750.908   109387530.14049     -1742.992    20815750.871    85237032.47948
     -1358.180  
  20373345.574   107062688.97949      1468.508    20373344.759    83425487.68848
      1144.292  
  20693314.892   108744141.90649      1592.858    20693314.866    84735709.60048
      1241.184  
  22935133.886   120524947.20248      2923.563    22935135.856    93915551.91749
      2278.102  
  22748125.521   119542203.51948     -3191.695    22748124.926    93149766.32745
     -2487.039  
  21712449.558   116024747.33408  -2097152.000    21712455.938    90241496.66307
  -2097152.000  
  19360853.724   103313266.41607      -728.198           0.000           0.0000 
         0.000  
  20806487.504   111378799.06308      2453.949    20806491.122    86627986.90908
      1908.629  
  21598959.736   115580395.13208     -3907.910    21598963.871    89895902.63707
     -3039.491  
  20333052.597   108539234.00807      -344.769    20333056.532    84419409.87304
      -268.151  
  21994173.636   117488921.20106      3357.921    21994178.901    91380307.96405
      2611.718  
  22943495.164   122646121.11107     -3450.598    22943499.874    95391447.33906
     -2683.801  
 20 10 02 06 54 25.0000000  0 15G27G24G15G18G20G23G10G13R15R 6R 7R21
                                R22R16R 5
  23920306.523   125702057.82147      -605.160    23920308.502    97949664.74549
      -471.554  
  21645677.525   113748805.16448      2662.887    21645679.751    88635443.75549
      2074.973  
  20551732.360   108000132.46049     -1790.862    20551731.878    84155963.55749
     -1395.480  
  20817410.672   109396252.25749     -1745.426    20817410.641    85243828.92848
     -1360.073  
  20371949.200   107055351.01749      1467.190    20371948.391    83419769.79348
      1143.262  
  20691800.073   108736181.47949      1591.812    20691800.054    84729506.66648
      1240.370  
  22932352.389   120510330.33648      2923.659    22932354.360    93904162.15749
      2278.176  
  22751162.792   119558164.55148     -3192.180    22751162.261    93162203.49045
     -2487.418  
  21712753.124   116026369.49708  -2097152.000    21712759.503    90242758.34407
  -2097152.000  
  19361536.979   103316912.36707      -729.684           0.000           0.0000 
         0.000  
  20804196.085   111366532.91608      2453.097    20804199.711    86618446.57608
      1907.960  
  21602612.151   115599939.85108     -3909.440    21602616.339    89911104.06607
     -3040.680  
  20333377.536   108540968.61607      -348.445    20333381.481    84420759.00904
      -271.012  
  21991031.710   117472137.72405      3356.195    21991036.991    91367254.14705
      2610.374  
  22946722.746   122663374.72506     -3450.277    22946727.519    95404866.81406
     -2683.554  
 20 10 02 06 54 30.0000000  0 15G27G24G15G18G20G23G10G13R15R 6R 7R21
                                R22R16R 5
  23920884.367   125705094.41247      -609.207    23920886.354    97952030.92349
      -474.711  
  21643145.547   113735499.53148      2659.702    21643147.758    88625075.73049
      2072.491  
  20553437.981   108009095.59149     -1793.999    20553437.506    84162947.81649
     -1397.926  
  20819073.212   109404988.96449     -1749.034    20819073.203    85250636.74948
     -1362.887  
  20370554.823   107048023.51449      1464.137    20370554.014    83414060.05248
      1140.886  
  20690287.042   108728230.38849      1589.081    20690286.998    84723311.01648
      1238.245  
  22929571.566   120495717.07948      2922.090    22929573.542    93892775.20249
      2276.953  
  22754201.101   119574131.00148     -3194.085    22754200.622    93174644.88145
     -2488.901  
  21713060.865   116028013.97508  -2097152.000    21713067.245    90244037.38307
  -2097152.000  
  19362222.369   103320569.52208      -732.578           0.000           0.0000 
         0.000  
  20801906.148   111354274.70708      2450.523    20801909.767    86608912.41308
      1905.961  
  21606266.751   115619496.13308     -3912.586    21606270.927    89926314.50107
     -3043.124  
  20333706.906   108542726.78307      -354.059    20333710.876    84422126.47304
      -275.383  
  21987892.184   117455367.09306      3352.640    21987897.474    91354210.33105
      2607.608  
  22949950.677   122680629.99207     -3451.598    22949955.485    95418287.56206
     -2684.457  
 20 10 02 06 54 35.0000000  0 15G27G24G15G18G20G23G10G13R15R 6R 7R21
                                R22R16R 5
  23921465.258   125708146.98347      -612.124    23921467.254    97954409.51849
      -476.984  
  21640615.956   113722206.50248      2657.101    21640618.171    88614717.52449
      2070.468  
  20555145.789   108018070.21249     -1796.382    20555145.320    84169941.02949
     -1399.781  
  20820738.559   109413740.42449     -1752.078    20820738.551    85257456.06948
     -1365.258  
  20369162.467   107040706.60349      1462.065    20369161.652    83408358.56248
      1139.272  
  20688775.805   108720288.77949      1586.988    20688775.745    84717122.75048
      1236.609  
  22926791.475   120481107.56848      2921.116    22926793.430    93881391.17349
      2276.194  
  22757240.460   119590102.97148     -3195.121    22757240.008    93187090.56745
     -2489.707  
  21713372.818   116029680.95508  -2097152.000    21713379.197    90245333.92207
  -2097152.000  
  19362909.919   103324238.35308      -735.223           0.000           0.0000 
         0.000  
  20799617.709   111342024.73408      2448.914    20799621.371    86599384.66308
      1904.711  
  21609923.517   115639064.16508     -3915.093    21609927.638    89941534.08807
     -3045.073  
  20334040.689   108544508.63307      -359.020    20334044.660    84423512.35204
      -279.241  
  21984755.130   117438609.63806      3349.977    21984760.445    91341176.76205
      2605.539  
  22953178.984   122697887.14807     -3452.073    22953183.800    95431709.79206
     -2684.948  
 20 10 02 06 54 40.0000000  0 15G27G24G15G18G20G23G10G13R15R 6R 7R21
                                R22R16R 5
  23922049.377   125711216.42647      -615.734    23922051.353    97956801.30649
      -479.792  
  21638088.899   113708926.82448      2654.534    21638091.118    88604369.72849
      2068.469  
  20556855.948   108027057.15949     -1798.597    20556855.479    84176943.84349
     -1401.507  
  20822406.882   109422507.48749     -1754.925    20822406.859    85264287.54448
     -1367.480  
  20367772.272   107033401.14449      1459.945    20367771.470    83402666.00148
      1137.617  
  20687266.531   108712357.52349      1585.202    20687266.477    84710942.55048
      1235.219  
  22924012.246   120466502.68248      2920.440    22924014.214    93870010.74849
      2275.667  
  22760281.046   119606081.36048     -3196.480    22760280.585    93199541.25145
     -2490.770  
  21713689.139   116031371.27708  -2097152.000    21713695.517    90246648.61507
  -2097152.000  
  19363599.751   103327919.52708      -737.305           0.000           0.0000 
         0.000  
  20797331.002   111329783.78208      2447.405    20797334.651    86589863.92208
      1903.539  
  21613582.651   115658644.77308     -3917.530    21613586.654    89956763.45707
     -3046.968  
  20334379.092   108546314.96007      -363.789    20334383.047    84424917.27704
      -282.945  
  21981620.755   117421866.24706      3347.019    21981626.033    91328154.13205
      2603.238  
  22956407.817   122715146.88706     -3452.351    22956412.590    95445134.02906
     -2685.222  
 20 10 02 06 54 45.0000000  0 15G27G24G15G18G20G23G10G13R15R 6R 7R21
                                R22R16R 5
  23922636.517   125714301.86947      -618.766    23922638.497    97959205.52949
      -482.160  
  21635564.262   113695659.83148      2652.132    21635566.509    88594031.81549
      2066.598  
  20558568.290   108036055.57949     -1800.749    20558567.821    84183955.59949
     -1403.188  
  20824078.000   109431289.30249     -1757.917    20824077.998    85271130.51748
     -1369.808  
  20366384.089   107026106.28649      1457.965    20366383.312    83396981.69248
      1136.073  
  20685759.066   108704435.77249      1583.331    20685759.033    84704769.75948
      1233.761  
  22921233.742   120451901.57648      2919.848    22921235.701    93858633.26249
      2275.206  
  22763322.681   119622065.32048     -3197.348    22763322.263    93211996.28845
     -2491.445  
  21714009.659   116033084.03808  -2097152.000    21714016.038    90247980.76607
  -2097152.000  
  19364291.786   103331612.32408      -739.905           0.000           0.0000 
         0.000  
  20795045.800   111317551.00608      2445.714    20795049.474    86580349.54408
      1902.222  
  21617243.932   115678236.99808     -3919.733    21617247.862    89972001.85507
     -3048.684  
  20334721.908   108548145.06007      -368.452    20334725.839    84426340.67804
      -286.577  
  21978488.790   117405135.94606      3344.640    21978494.056    91315141.67705
      2601.387  
  22959636.931   122732408.38707     -3452.570    22959641.699    95458559.62506
     -2685.335  
 20 10 02 06 54 50.0000000  0 15G27G24G15G18G20G23G10G13R15R 6R 7R21
                                R22R16R 5
  23923226.666   125717403.15447      -621.297    23923228.650    97961622.13749
      -484.129  
  21633042.047   113682405.52948      2650.304    21633044.285    88583703.78949
      2065.171  
  20560282.802   108045065.40149     -1802.495    20560282.333    84190976.23849
     -1404.547  
  20825751.913   109440085.74449     -1760.136    20825751.904    85277984.88048
     -1371.539  
  20364997.930   107018821.93849      1456.378    20364997.139    83391305.57948
      1134.839  
  20684253.404   108696523.43549      1582.105    20684253.366    84698604.30148
      1232.809  
  22918455.954   120437304.14448      2919.655    22918457.903    93847258.64649
      2275.058  
  22766365.365   119638054.76748     -3197.813    22766364.915    93224455.59645
     -2491.805  
  21714334.365   116034819.17208  -2097152.000    21714340.745    90249330.31507
  -2097152.000  
  19364985.921   103335316.45508      -741.379           0.000           0.0000 
         0.000  
  20792762.120   111305326.32308      2444.813    20792765.801    86570841.46308
      1901.520  
  21620907.353   115697840.82708     -3921.281    21620911.299    89987249.27707
     -3049.890  
  20335069.145   108549998.66508      -372.319    20335073.113    84427782.37604
      -289.581  
  21975359.181   117388418.69606      3343.108    21975364.537    91302139.37005
      2600.195  
  22962866.385   122749671.70007     -3451.855    22962871.164    95471986.63606
     -2684.781  
 20 10 02 06 54 55.0000000  0 15G27G24G15G18G20G23G10G13R15R 6R 7R21
                                R22R16R 5
  23923819.588   125720519.01047      -625.030    23923821.591    97964050.07149
      -487.042  
  21630521.962   113669162.39348      2647.055    21630524.186    88573384.46649
      2062.640  
  20561999.221   108054085.30649     -1805.488    20561998.756    84198004.73449
     -1406.878  
  20827428.352   109448895.46149     -1763.711    20827428.322    85284849.59448
     -1374.324  
  20363613.517   107011546.76849      1453.698    20363612.728    83385636.61548
      1132.750  
  20682749.293   108688619.15649      1579.651    20682749.239    84692445.12248
      1230.894  
  22915678.587   120422709.07548      2918.437    22915680.547    93835885.86949
      2274.105  
  22769408.836   119654048.24848     -3199.445    22769408.411    93236918.04645
     -2493.078  
  21714662.999   116036575.29108  -2097152.000    21714669.380    90250696.19007
  -2097152.000  
  19365681.963   103339030.79308      -744.487           0.000           0.0000 
         0.000  
  20790479.700   111293108.34708      2442.488    20790483.373    86561338.59307
      1899.714  
  21624572.650   115717454.79108     -3924.270    21624576.641    90002504.56807
     -3052.214  
  20335420.562   108551874.48907      -377.671    20335424.518    84429241.34904
      -293.745  
  21972231.863   117371713.31106      3339.664    21972237.263    91289146.30005
      2597.515  
  22966095.917   122766935.36606     -3453.034    22966100.681    95485413.92506
     -2685.699  
 20 10 02 06 55  0.0000000  0 15G27G24G15G18G20G23G10G13R15R 6R 7R21
                                R22R16R 5
  23924415.995   125723653.11647      -628.671    23924417.971    97966492.20849
      -489.882  
  21628004.702   113655934.07248      2644.210    21628006.905    88563076.68649
      2060.426  
  20563718.262   108063118.92549     -1808.034    20563717.789    84205043.91949
     -1408.863  
  20829108.007   109457722.16649     -1767.012    20829107.996    85291727.54548
     -1376.895  
  20362231.540   107004284.46349      1451.296    20362230.758    83379977.67748
      1130.875  
  20681247.407   108680726.65649      1577.461    20681247.346    84686295.12148
      1229.188  
  22912902.366   120408120.02648      2917.305    22912904.336    93824517.78149
      2273.222  
  22772453.787   119670049.54648     -3200.805    22772453.242    93249386.59045
     -2494.137  
  21714996.280   116038356.24208  -2097152.000    21715002.660    90252081.37207
  -2097152.000  
  19366380.638   103342758.90208      -746.914           0.000           0.0000 
         0.000  
  20788199.226   111280900.88508      2440.483    20788202.910    86551843.90508
      1898.156  
  21628240.587   115737082.69508     -3926.769    21628244.639    90017770.69707
     -3054.156  
  20335776.841   108553776.29707      -382.933    20335780.805    84430720.53104
      -297.839  
  21969107.473   117355023.25806      3336.434    21969112.844    91276165.15305
      2594.999  
  22969326.139   122784203.09807     -3453.848    22969330.981    95498844.38006
     -2686.327  
 20 10 02 06 55  5.0000000  0 15G27G24G15G18G20G23G10G13R15R 6R 7R21
                                R22R16R 5
  23925015.337   125726802.71547      -631.063    23925017.342    97968946.41049
      -491.745  
  21625489.759   113642717.96148      2642.624    21625491.948    88552778.41849
      2059.188  
  20565439.378   108072163.45449     -1809.387    20565438.906    84212091.60549
     -1409.913  
  20830790.373   109466563.06149     -1768.972    20830790.353    85298616.55148
     -1378.425  
  20360851.490   106997032.18849      1450.004    20360850.688    83374326.55248
      1129.870  
  20679747.249   108672843.18049      1576.351    20679747.179    84680152.15748
      1228.324  
  22910126.787   120393534.29448      2917.272    22910128.765    93813152.27949
      2273.199  
  22775499.680   119686055.88348     -3201.070    22775499.138    93261859.05545
     -2494.344  
  21715333.663   116040159.11708  -2097152.000    21715340.045    90253483.61507
  -2097152.000  
  19367081.332   103346497.97208      -748.242           0.000           0.0000 
         0.000  
  20785920.179   111268701.06408      2439.797    20785923.883    86542355.16008
      1897.621  
  21631910.609   115756721.69108     -3928.188    21631914.750    90033045.46107
     -3055.262  
  20336137.491   108555701.25407      -386.569    20336141.452    84432217.72104
      -300.667  
  21965985.432   117338346.09406      3334.593    21965990.829    91263194.02605
      2593.574  
  22972556.653   122801472.04706     -3452.969    22972561.508    95512275.77606
     -2685.640  
