     2.11           OBSERVATION DATA    M                   RINEX VERSION / TYPE
LEICA GEO OFFICE 8.4                    27-9-20 23:32       PGM / RUN BY / DATE
                                                            OBSERVER / AGENCY
TARY                                                        MARKER NAME
TARY                                                        MARKER NUMBER
352348              LEICA GX1220GG      4.10                REC # / TYPE / VERS
                    LEIAX1202GG                             ANT # / TYPE
 -1173808.9385  3860805.5898  4923765.2099                  APPROX POSITION XYZ
        1.7530        0.0000        0.0000                  ANTENNA: DELTA H/E/N
L1PhaOff:   0.0644  L2PhaOff:   0.0640                      COMMENT
     1     1                                                WAVELENGTH FACT L1/2
     6    C1    L1    D1    P2    L2    D2                  # / TYPES OF OBSERV
  2020     9    27     6     0   40.0000000     GPS         TIME OF FIRST OBS
  2020     9    27     8    32   15.0000000     GPS         TIME OF LAST OBS
    18                                                      LEAP SECONDS
    24                                                      # OF SATELLITES
          C1    L1    D1    P2    L2    D2                  COMMENT
   G 1     0     0     0     0     0     0                  PRN / # OF OBS
   G 2     0     0     0     0     0     0                  PRN / # OF OBS
   G 3     0     0     0     0     0     0                  PRN / # OF OBS
   G 4     0     0     0     0     0     0                  PRN / # OF OBS
   G 5   524   524   524   524   524   524                  PRN / # OF OBS
   G 6     0     0     0     0     0     0                  PRN / # OF OBS
   G 7     0     0     0     0     0     0                  PRN / # OF OBS
   G 8   640   640   640   639   639   639                  PRN / # OF OBS
   G 9     0     0     0     0     0     0                  PRN / # OF OBS
   G10  1646  1646  1646  1645  1645  1645                  PRN / # OF OBS
   G11     0     0     0     0     0     0                  PRN / # OF OBS
   G12     0     0     0     0     0     0                  PRN / # OF OBS
   G13  1287  1287  1287  1273  1273  1273                  PRN / # OF OBS
   G14     0     0     0     0     0     0                  PRN / # OF OBS
   G15  1820  1820  1820  1820  1820  1820                  PRN / # OF OBS
   G16     0     0     0     0     0     0                  PRN / # OF OBS
   G17     0     0     0     0     0     0                  PRN / # OF OBS
   G18  1820  1820  1820  1820  1820  1820                  PRN / # OF OBS
   G19     0     0     0     0     0     0                  PRN / # OF OBS
   G20  1820  1820  1820  1820  1820  1820                  PRN / # OF OBS
   G21   809   809   809   808   808   808                  PRN / # OF OBS
   G22     0     0     0     0     0     0                  PRN / # OF OBS
   G23     0     0     0     0     0     0                  PRN / # OF OBS
   G24  1792  1792  1792  1791  1791  1791                  PRN / # OF OBS
   G25     0     0     0     0     0     0                  PRN / # OF OBS
   G26     0     0     0     0     0     0                  PRN / # OF OBS
   G27  1591  1591  1591  1591  1591  1591                  PRN / # OF OBS
   G28     0     0     0     0     0     0                  PRN / # OF OBS
   G29   277   277   277   277   277   277                  PRN / # OF OBS
   G30   299   299   299   299   299   299                  PRN / # OF OBS
   G31     0     0     0     0     0     0                  PRN / # OF OBS
   G32   518   518   518   518   518   518                  PRN / # OF OBS
   R 1  1736  1736  1736  1736  1736  1736                  PRN / # OF OBS
   R 2  1820  1820  1820  1820  1820  1820                  PRN / # OF OBS
   R 3   528   528   528   527   527   527                  PRN / # OF OBS
   R 4     0     0     0     0     0     0                  PRN / # OF OBS
   R 5     0     0     0     0     0     0                  PRN / # OF OBS
   R 6     0     0     0     0     0     0                  PRN / # OF OBS
   R 7     0     0     0     0     0     0                  PRN / # OF OBS
   R 8   979   979   979   979   979   979                  PRN / # OF OBS
   R 9     0     0     0     0     0     0                  PRN / # OF OBS
   R10  1653  1653  1653     0     0     0                  PRN / # OF OBS
   R11  1289  1289  1289  1288  1288  1288                  PRN / # OF OBS
   R12   587   587   587   586   586   586                  PRN / # OF OBS
   R13     0     0     0     0     0     0                  PRN / # OF OBS
   R14     0     0     0     0     0     0                  PRN / # OF OBS
   R15     0     0     0     0     0     0                  PRN / # OF OBS
   R16     0     0     0     0     0     0                  PRN / # OF OBS
   R17  1820  1820  1820  1820  1820  1820                  PRN / # OF OBS
   R18  1248  1248  1248  1247  1247  1247                  PRN / # OF OBS
   R19     0     0     0     0     0     0                  PRN / # OF OBS
   R20     0     0     0     0     0     0                  PRN / # OF OBS
   R21     0     0     0     0     0     0                  PRN / # OF OBS
   R22     0     0     0     0     0     0                  PRN / # OF OBS
   R23   697   697   697   697   697   697                  PRN / # OF OBS
   R24  1376  1376  1376  1376  1376  1376                  PRN / # OF OBS
                                                            END OF HEADER
 20 09 27 06 00 40.0000000  0 14G15G18G30G20G 5G29G27G13R 8R 2R 1R24
                                R23R17
  20068208.113   105459145.95759       737.117    20068207.538    82175955.93258
       574.374  
  20510582.328   107783838.52159      1058.938    20510582.438    83987406.82258
       825.145  
  24260715.572   127490924.88854     -1603.918    24260718.073    99343567.97055
     -1249.800  
  22233466.836   116837657.75158      2823.781    22233466.451    91042328.15656
      2200.347  
  23157804.916   121695085.23858     -3097.960    23157804.881    94827339.47755
     -2413.999  
  23784450.786   124988127.32758     -3588.598    23784451.822    97393343.44656
     -2796.309  
  24653891.044   129557077.25255      2267.065    24653893.622   100953578.77356
      1766.546  
  20771505.388   109154996.64458     -1354.019    20771504.805    85055838.76756
     -1055.081  
  20414620.213   109319365.71617     -2513.324    20414623.573    85026186.21115
     -1954.812  
  23026287.840   122872692.92415      3562.366    23026296.429    95567681.39216
      2770.734  
  19285950.417   103094455.84918       438.859    19285956.728    80184606.29316
       341.336  
  19560085.883   104596571.29218      -594.894    19560089.604    81352903.80317
      -462.699  
  20720883.849   110842749.01518     -3585.550    20720890.960    86211059.50216
     -2788.765  
  21563426.223   115390243.81718      3343.953    21563430.242    89747989.97617
      2600.851  
 20 09 27 06 00 45.0000000  0 14G15G18G30G20G 5G29G27G13R 8R 2R 1R24
                                R23R17
  20067508.394   105455468.25349       733.855    20067507.876    82173090.18448
       571.831  
  20509576.059   107778550.44649      1056.065    20509576.282    83983286.24948
       822.906  
  24262242.667   127498949.63844     -1606.938    24262245.128    99349821.00844
     -1252.164  
  22230780.459   116823540.55748      2822.996    22230779.917    91031327.78246
      2199.737  
  23160752.746   121710576.06548     -3098.711    23160752.746    94839410.27245
     -2414.577  
  23787865.609   125006072.71448     -3589.839    23787866.617    97407326.86846
     -2797.280  
  24651734.840   129545747.03946      2264.562    24651737.775   100944750.06747
      1764.594  
  20772795.211   109161774.30348     -1357.063    20772794.747    85061120.04847
     -1057.457  
  20416967.543   109331935.65807     -2515.055    20416970.828    85035962.82205
     -1956.155  
  23022950.531   122854883.81106      3561.395    23022958.860    95553829.92706
      2769.980  
  19285541.297   103092268.64608       435.977    19285547.602    80182905.12306
       339.089  
  19560644.095   104599556.86308      -599.593    19560647.905    81355225.91107
      -466.355  
  20724236.443   110860683.06908     -3588.444    20724243.616    86225008.20206
     -2791.016  
  21560302.973   115373530.36207      3340.991    21560307.000    89734990.64907
      2598.550  
 20 09 27 06 00 50.0000000  0 14G15G18G30G20G 5G29G27G13R 8R 2R 1R24
                                R23R17
  20066811.916   105451808.45649       730.378    20066811.383    82170238.41148
       569.125  
  20508572.826   107773278.42449      1052.957    20508573.087    83979178.17948
       820.484  
  24263772.664   127506989.88944     -1609.219    24263775.378    99356086.15743
     -1253.937  
  22228095.382   116809430.13248      2821.535    22228094.843    91020332.60446
      2198.589  
  23163701.537   121726072.47348     -3099.496    23163701.571    94851485.37545
     -2415.195  
  23791281.730   125024024.36547     -3590.832    23791282.850    97421315.11445
     -2798.059  
  24649581.329   129534431.66746      2262.113    24649584.581   100935932.87746
      1762.680  
  20774088.052   109168568.76148     -1360.245    20774087.561    85066414.43746
     -1059.938  
  20419317.001   109344516.24207     -2516.894    20419320.194    85045747.72105
     -1957.589  
  23019614.355   122837081.15006      3560.081    23019622.778    95539983.35606
      2768.948  
  19285135.144   103090097.65308       432.827    19285141.372    80181216.59106
       336.645  
  19561207.176   104602567.06908      -604.261    19561211.010    81357567.18408
      -469.983  
  20727592.010   110878633.37108     -3591.327    20727599.159    86238969.54306
     -2793.257  
  21557182.572   115356832.74408      3338.054    21557186.699    89722003.59507
      2596.261  
 20 09 27 06 00 55.0000000  0 15G15G18G30G20G 5G29G27G13R10R 8R 2R 1
                                R24R23R17
  20066118.489   105448164.46849       727.331    20066117.810    82167398.94048
       566.753  
  20507572.257   107768020.39549      1050.249    20507572.571    83975081.01448
       818.371  
  24265305.343   127515043.70045     -1611.800    24265307.933    99362361.83943
     -1255.956  
  22225411.087   116795324.34648      2820.660    22225410.780    91009341.09246
      2197.913  
  23166651.110   121741572.36448     -3100.362    23166651.077    94863563.20446
     -2415.871  
  23794698.630   125041980.20048     -3591.499    23794699.590    97435306.65345
     -2798.574  
  24647430.561   129523129.08945      2259.222    24647433.747   100927125.69746
      1760.433  
  20775383.751   109175377.89248     -1363.308    20775383.341    85071720.25246
     -1062.323  
  22969539.511   122440574.48715      3000.664           0.000           0.0000 
         0.000  
  20421667.847   109357105.22807     -2518.719    20421671.224    85055539.14705
     -1959.008  
  23016278.980   122819283.41706      3559.074    23016287.371    95526140.68006
      2768.163  
  19284731.615   103087940.59308       429.934    19284737.798    80179538.88406
       334.395  
  19561774.163   104605599.87708      -608.848    19561778.213    81359926.03508
      -473.547  
  20730950.193   110896597.75808     -3594.277    20730957.378    86252941.83106
     -2795.554  
  21554064.765   115340148.76408      3335.391    21554069.010    89709027.16107
      2594.187  
 20 09 27 06 01  0.0000000  0 15G15G18G30G20G 5G29G27G13R10R 8R 2R 1
                                R24R23R17
  20065427.727   105444534.86549       724.151    20065427.190    82164570.68548
       564.272  
  20506573.968   107762774.97749      1047.430    20506574.248    83970993.67248
       816.176  
  24266840.312   127523109.61444     -1615.046    24266842.837    99368646.95044
     -1258.484  
  22222727.370   116781221.88248      2819.835    22222727.179    90998352.16746
      2197.273  
  23169601.102   121757074.30348     -3100.772    23169600.914    94875642.63746
     -2416.188  
  23798115.943   125059938.80247     -3592.266    23798117.068    97449300.37445
     -2799.172  
  24645281.675   129511837.83646      2256.710    24645285.074   100918327.33446
      1758.480  
  20776682.118   109182200.32248     -1366.285    20776681.552    85077036.43147
     -1064.641  
  22966726.189   122425576.80505      2998.065           0.000           0.0000 
         0.000  
  20424020.049   109369701.28807     -2520.397    20424023.494    85065336.08105
     -1960.313  
  23012944.066   122801488.55305      3558.187    23012952.765    95512300.26106
      2767.480  
  19284330.542   103085796.18808       427.414    19284336.868    80177871.01506
       332.429  
  19562345.271   104608653.84608      -613.289    19562349.267    81362301.34208
      -477.008  
  20734310.773   110914574.69008     -3596.944    20734318.017    86266923.87306
     -2797.628  
  21550949.424   115323477.06807      3332.808    21550953.478    89696060.30007
      2592.184  
 20 09 27 06 01  5.0000000  0 15G15G18G30G20G 5G29G27G13R10R 8R 2R 1
                                R24R23R17
  20064739.623   105440918.44949       721.926    20064738.987    82161752.70248
       562.538  
  20505577.977   107757540.94949      1045.609    20505578.352    83966915.20648
       814.758  
  24268377.344   127531186.33145     -1616.378    24268379.839    99374940.43745
     -1259.523  
  22220044.198   116767121.49748      2819.812    22220043.811    90987364.84846
      2197.254  
  23172551.276   121772577.13548     -3100.484    23172550.978    94887722.78045
     -2415.960  
  23801533.650   125077898.97348     -3592.246    23801534.888    97463295.30645
     -2799.155  
  24643135.016   129500556.75346      2255.090    24643138.206   100909536.89646
      1757.215  
  20777982.571   109189034.78348     -1368.086    20777981.947    85082361.98746
     -1066.038  
  22963914.816   122410589.63605      2996.043           0.000           0.0000 
         0.000  
  20426373.437   109382303.10207     -2520.843    20426376.713    85075137.49905
     -1960.655  
  23009609.574   122783695.97106      3558.211    23009618.360    95498461.58506
      2767.496  
  19283931.556   103083663.00608       425.522    19283937.610    80176211.87606
       330.960  
  19562920.137   104611727.75608      -616.890    19562924.171    81364692.16008
      -479.804  
  20737673.622   110932563.10208     -3598.742    20737680.759    86280914.84906
     -2799.026  
  21547835.867   115306816.42108      3331.042    21547840.107    89683102.02307
      2590.812  
 20 09 27 06 01 10.0000000  0 15G15G18G30G20G 5G29G27G13R10R 8R 2R 1
                                R24R23R17
  20064054.357   105437317.00749       718.765    20064053.715    82158946.37848
       560.074  
  20504584.635   107752320.08749      1042.785    20504584.902    83962847.01048
       812.558  
  24269916.619   127539275.71344     -1619.422    24269918.968    99381243.94345
     -1261.883  
  22217361.600   116753024.94348      2818.804    22217361.436    90976380.53046
      2196.473  
  23175501.814   121788082.59848     -3101.250    23175501.576    94899804.95446
     -2416.562  
  23804952.115   125095862.44048     -3593.245    23804953.055    97477292.81845
     -2799.934  
  24640990.717   129489287.63746      2252.730    24640993.807   100900755.75346
      1755.375  
  20779285.897   109195883.02848     -1370.969    20779285.247    85087698.27946
     -1068.293  
  22961105.712   122395614.55805      2993.401           0.000           0.0000 
         0.000  
  20428728.034   109394912.45907     -2522.644    20428731.348    85084944.75405
     -1962.063  
  23006276.125   122765907.01306      3557.487    23006284.683    95484625.74406
      2766.933  
  19283534.782   103081542.92608       422.515    19283540.997    80174562.92006
       328.621  
  19563499.115   104614823.34608      -621.566    19563502.912    81367099.84308
      -483.444  
  20741038.724   110950564.56808     -3601.594    20741045.853    86294915.99206
     -2801.242  
  21544724.817   115290168.68908      3328.141    21544728.894    89670153.79207
      2588.554  
 20 09 27 06 01 15.0000000  0 16G15G18G30G20G 5G29G27G24G13R10R 8R 2
                                R 1R24R23R17
  20063372.349   105433733.87549       715.105    20063371.854    82156154.33348
       557.226  
  20503594.147   107747115.75849      1039.429    20503594.405    83958791.68448
       809.940  
  24271459.110   127547381.12144     -1622.312    24271461.431    99387559.79144
     -1264.147  
  22214680.552   116738935.56848      2817.476    22214680.231    90965401.79046
      2195.433  
  23178453.691   121803594.09647     -3102.535    23178453.380    94911891.81745
     -2417.562  
  23808371.710   125113832.56747     -3594.558    23808372.729    97491295.49745
     -2800.957  
  24638849.237   129478033.83046      2249.425    24638852.418   100891986.52946
      1752.797  
  24522230.136   128865196.28915      3834.582           0.000           0.0000 
         0.000  
  20780592.250   109202748.39548     -1374.667    20780591.494    85093047.92446
     -1071.167  
  22958299.710   122380655.02205      2990.711           0.000           0.0000 
         0.000  
  20431084.732   109407532.81507     -2525.090    20431088.086    85094760.60705
     -1963.956  
  23002943.748   122748125.34206      3556.030    23002952.399    95470795.56205
      2765.801  
  19283141.388   103079439.41408       419.261    19283147.510    80172926.87006
       326.093  
  19564082.763   104617944.03208      -626.319    19564086.705    81369527.03908
      -487.140  
  20744406.973   110968582.70908     -3605.132    20744414.363    86308930.09506
     -2803.996  
  21541616.927   115273537.24008      3325.027    21541621.029    89657218.21607
      2586.128  
 20 09 27 06 01 20.0000000  0 16G15G18G30G20G 5G29G27G24G13R10R 8R 2
                                R 1R24R23R17
  20062693.940   105430168.22049       711.637    20062693.181    82153375.90648
       554.523  
  20502606.894   107741927.11249      1036.430    20502607.069    83954748.58248
       807.605  
  24273004.298   127555501.60945     -1625.522    24273006.846    99393887.41244
     -1266.645  
  22212000.660   116724852.60648      2816.077    22212000.517    90954428.05946
      2194.347  
  23181406.316   121819110.71347     -3103.582    23181406.176    94923982.67745
     -2418.379  
  23811792.443   125131808.48348     -3595.378    23811793.366    97505302.68745
     -2801.601  
  24636710.434   129466794.47246      2246.671    24636713.770   100883228.59246
      1750.647  
  24518582.776   128846025.34546      3833.867    24518587.193   100399515.22454
      2987.430  
  20781901.848   109209630.03648     -1377.762    20781901.187    85098410.24246
     -1073.581  
  22955495.784   122365710.39205      2987.852           0.000           0.0000 
         0.000  
  20433443.450   109420163.39007     -2526.668    20433446.719    85104584.38905
     -1965.191  
  22999612.760   122730350.30406      3554.707    22999621.279    95456970.55005
      2764.773  
  19282750.800   103077351.56408       416.296    19282756.907    80171302.99606
       323.784  
  19564670.876   104621089.02809      -631.065    19564674.828    81371973.14708
      -490.827  
  20747778.205   110986616.59208     -3608.093    20747785.573    86322956.43006
     -2806.305  
  21538511.853   115256921.33308      3321.715    21538515.832    89644294.74407
      2583.555  
 20 09 27 06 01 25.0000000  0 16G15G18G30G20G 5G29G27G24G13R10R 8R 2
                                R 1R24R23R17
  20062018.391   105426618.12249       708.316    20062017.688    82150609.59348
       551.934  
  20501622.111   107736752.23149      1033.578    20501622.414    83950716.20948
       805.387  
  24274552.050   127563635.25545     -1628.003    24274554.990    99400225.36344
     -1268.573  
  22209321.686   116710774.06748      2815.179    22209321.297    90943457.78646
      2193.648  
  23184359.648   121834630.51947     -3104.543    23184359.658    94936076.03845
     -2419.129  
  23815213.917   125149788.23348     -3596.429    23815214.819    97519312.86945
     -2802.417  
  24634573.910   129455567.67946      2244.156    24634577.502   100874480.46346
      1748.691  
  24514934.847   128826854.34745      3833.913    24514937.864   100384576.82944
      2987.461  
  20783214.108   109216526.07148     -1380.882    20783213.320    85103783.77046
     -1076.016  
  22952694.664   122350778.63005      2984.933           0.000           0.0000 
         0.000  
  20435803.485   109432801.92807     -2528.719    20435806.827    85114414.34305
     -1966.784  
  22996282.544   122712579.41606      3553.116    22996290.933    95443148.72405
      2763.531  
  19282362.825   103075277.48608       413.272    19282368.925    80169689.80406
       321.429  
  19565263.118   104624256.19908      -635.887    19565267.046    81374436.50508
      -494.581  
  20751152.086   111004664.10908     -3610.949    20751159.404    86336993.39106
     -2808.519  
  21535409.188   115240318.87708      3319.012    21535413.268    89631381.72707
      2581.453  
 20 09 27 06 01 30.0000000  0 16G15G18G30G20G 5G29G27G24G13R10R 8R 2
                                R 1R24R23R17
  20061345.895   105423084.28849       704.979    20061345.124    82147855.96148
       549.335  
  20500639.993   107731591.85349      1030.617    20500640.450    83946695.13748
       803.077  
  24276102.375   127571782.86345     -1631.195    24276105.483    99406574.15643
     -1271.066  
  22206643.490   116696700.73948      2814.121    22206643.275    90932491.54846
      2192.816  
  23187313.715   121850154.27247     -3105.266    23187313.668    94948172.46645
     -2419.690  
  23818636.151   125167772.53747     -3597.313    23818637.190    97533326.62645
     -2803.101  
  24632440.233   129444354.16646      2241.198    24632443.649   100865742.65746
      1746.387  
  24511286.993   128807683.99844      3834.363    24511290.416   100369638.85844
      2987.804  
  20784529.224   109223437.14648     -1383.679    20784528.651    85109169.02046
     -1078.194  
  22949895.593   122335860.47305      2982.269           0.000           0.0000 
         0.000  
  20438165.415   109445449.45707     -2530.382    20438168.650    85124251.31305
     -1968.078  
  22992953.258   122694813.83406      3552.813    22992961.736    95429331.07005
      2763.297  
  19281977.491   103073217.78408       410.547    19281983.626    80168087.82806
       319.312  
  19565859.681   104627446.47708      -640.362    19565863.590    81376917.82908
      -498.063  
  20754528.592   111022726.07708     -3613.925    20754535.874    86351041.58106
     -2810.835  
  21532309.318   115223730.75108      3316.191    21532313.360    89618479.86108
      2579.261  
 20 09 27 06 01 35.0000000  0 16G15G18G30G20G 5G29G27G24G13R10R 8R 2
                                R 1R24R23R17
  20060676.627   105419567.19749       701.401    20060675.989    82145115.37348
       546.547  
  20499660.929   107726446.46349      1027.461    20499661.170    83942685.74348
       800.616  
  24277655.458   127579944.83845     -1633.702    24277658.835    99412934.12145
     -1273.019  
  22203966.625   116682633.06648      2812.714    22203966.266    90921529.73946
      2191.726  
  23190268.557   121865682.41547     -3106.465    23190268.618    94960272.30346
     -2420.625  
  23822059.291   125185761.88547     -3598.655    23822060.456    97547344.26645
     -2804.155  
  24630309.070   129433154.51346      2238.199    24630312.562   100857015.65246
      1744.043  
  24507639.020   128788515.02244      3833.394    24507642.931   100354702.01742
      2987.063  
  20785847.196   109230363.79248     -1387.168    20785846.677    85114566.39847
     -1080.913  
  22947099.356   122320956.54905      2979.159           0.000           0.0000 
         0.000  
  20440529.077   109458106.22407     -2532.765    20440532.165    85134095.45805
     -1969.934  
  22989625.126   122677053.68606      3551.249    22989633.282    95415517.62505
      2762.082  
  19281594.957   103071172.95008       407.137    19281601.224    80166497.39506
       316.656  
  19566460.727   104630660.28909      -645.348    19566464.686    81379417.45608
      -501.941  
  20757907.695   111040802.78208     -3617.132    20757915.188    86365101.22606
     -2813.327  
  21529212.246   115207157.44708      3312.995    21529216.310    89605589.51707
      2576.772  
 20 09 27 06 01 40.0000000  0 16G15G18G30G20G 5G29G27G24G13R10R 8R 2
                                R 1R24R23R17
  20060010.587   105416067.69549       698.719    20060010.035    82142388.49448
       544.457  
  20498684.709   107721316.89449      1024.972    20498685.045    83938688.67548
       798.679  
  24279211.530   127588121.98845     -1636.375    24279214.584    99419305.90544
     -1275.101  
  22201290.707   116668571.86648      2812.309    22201290.417    90910572.95846
      2191.406  
  23193224.357   121881215.78347     -3106.855    23193224.526    94972376.22146
     -2420.930  
  23825483.732   125203757.03547     -3598.983    23825484.819    97561366.45845
     -2804.405  
  24628180.794   129421969.40946      2236.351    24628184.125   100848299.96445
      1742.604  
  24503990.703   128769347.98645      3833.801    24503991.780   100339766.72943
      2987.379  
  20787168.426   109237306.77848     -1389.589    20787167.866    85119976.53746
     -1082.796  
  22944306.353   122306067.61805      2977.152           0.000           0.0000 
         0.000  
  20442894.555   109470773.22007     -2533.879    20442897.597    85143947.58505
     -1970.792  
  22986298.272   122659300.20906      3550.534    22986306.441    95401709.40605
      2761.531  
  19281215.417   103069143.90208       404.960    19281221.684    80164919.26906
       314.969  
  19567066.236   104633898.46808      -649.581    19567070.363    81381936.04308
      -505.229  
  20761289.967   111058895.31508     -3619.438    20761297.379    86379173.19006
     -2815.121  
  21526117.970   115190599.72608      3310.629    21526122.166    89592711.29707
      2574.934  
 20 09 27 06 01 45.0000000  0 16G15G18G30G20G 5G29G27G24G13R10R 8R 2
                                R 1R24R23R17
  20059347.217   105412581.53849       695.961    20059346.763    82139672.01048
       542.309  
  20497710.776   107716198.93649      1022.269    20497711.137    83934700.65148
       796.570  
  24280769.896   127596310.13245     -1638.858    24280772.828    99425686.28044
     -1277.038  
  22198615.381   116654512.96148      2811.504    22198615.083    90899617.97646
      2190.781  
  23196180.531   121896750.14247     -3106.969    23196180.448    94984480.91445
     -2421.019  
  23828908.226   125221753.78147     -3599.656    23828909.393    97575389.89444
     -2804.930  
  24626054.211   129410794.67346      2234.218    24626057.773   100839592.40945
      1740.953  
  24500342.717   128750178.81644      3833.188    24500346.290   100324829.71041
      2986.895  
  20788491.926   109244261.94248     -1392.339    20788491.494    85125396.13746
     -1084.944  
  22941515.146   122291189.35105      2974.624           0.000           0.0000 
         0.000  
  20445261.161   109483446.07207     -2535.254    20445264.219    85153804.23205
     -1971.867  
  22982971.629   122641548.94806      3549.788    22982979.711    95387902.89905
      2760.948  
  19280838.089   103067126.39908       402.234    19280844.329    80163350.10006
       312.848  
  19567675.517   104637156.69708      -653.688    19567679.629    81384470.21508
      -508.425  
  20764674.322   111076999.23508     -3622.035    20764681.714    86393254.00806
     -2817.141  
  21523025.967   115174053.41608      3308.184    21523029.973    89579841.94907
      2573.030  
 20 09 27 06 01 50.0000000  0 15G15G18G30G20G 5G29G27G13R10R 8R 2R 1
                                R24R23R17
  20058686.879   105409111.00149       692.270    20058686.166    82136967.69348
       539.426  
  20496739.505   107711094.83849      1019.246    20496739.908    83930723.44448
       794.218  
  24282330.436   127604511.51444     -1642.093    24282333.276    99432076.92845
     -1279.554  
  22195941.000   116640458.61948      2810.288    22195940.701    90888666.54946
      2189.835  
  23199137.104   121912287.76047     -3108.054    23199137.363    94996588.14546
     -2421.859  
  23832333.690   125239754.33947     -3600.710    23832334.908    97589416.30345
     -2805.750  
  24623930.083   129399632.64746      2231.230    24623933.695   100830894.75846
      1738.629  
  20789818.282   109251231.45848     -1395.590    20789817.533    85130826.91946
     -1087.476  
  22938726.530   122276324.08105      2971.573           0.000           0.0000 
         0.000  
  20447629.311   109496127.18707     -2537.395    20447632.322    85163667.29805
     -1973.534  
  22979646.085   122623802.27206      3548.480    22979653.893    95374099.89405
      2759.921  
  19280463.188   103065122.58708       399.222    19280469.342    80161791.56206
       310.504  
  19568289.088   104640437.29608      -658.605    19568292.996    81387021.78608
      -512.253  
  20768061.101   111095116.81208     -3624.918    20768068.476    86407345.45806
     -2819.382  
  21519936.388   115157520.82908      3305.007    21519940.637    89566983.27007
      2570.563  
 20 09 27 06 01 55.0000000  0 15G15G18G30G20G 5G29G27G13R10R 8R 2R 1
                                R24R23R17
  20058029.991   105405659.37549       688.671    20058029.482    82134278.11948
       536.629  
  20495771.461   107706007.91949      1015.914    20495771.868    83926759.60548
       791.616  
  24283894.316   127612729.32045     -1644.976    24283897.161    99438480.46345
     -1281.797  
  22193268.132   116626412.07048      2808.754    22193267.808    90877721.18646
      2188.641  
  23202094.959   121927831.86346     -3109.215    23202095.299    95008700.42745
     -2422.766  
  23835760.491   125257762.02147     -3601.953    23835761.675    97603448.24745
     -2806.723  
  24621808.936   129388486.63446      2227.867    24621812.636   100822209.53145
      1735.991  
  20791147.875   109258218.61148     -1398.991    20791147.209    85136271.46846
     -1090.125  
  22935941.000   122261475.23305      2968.316           0.000           0.0000 
         0.000  
  20449999.411   109508819.62407     -2539.175    20450002.586    85173539.20805
     -1974.914  
  22976321.846   122606063.37005      3547.440    22976329.813    95360303.00805
      2759.124  
  19280091.533   103063135.84908       395.820    19280097.746    80160246.33806
       307.862  
  19568907.320   104643743.63608      -663.602    19568911.390    81389593.39008
      -516.132  
  20771451.234   111113251.45608     -3628.469    20771458.645    86421450.17306
     -2822.144  
  21516850.168   115141005.25008      3301.566    21516854.174    89554137.83307
      2567.886  
 20 09 27 06 02  0.0000000  0 15G15G18G30G20G 5G29G27G13R10R 8R 2R 1
                                R24R23R17
  20057376.132   105402223.17049       685.437    20057375.487    82131600.55848
       534.104  
  20494806.106   107700934.72549      1013.117    20494806.492    83922806.45848
       789.437  
  24285460.597   127620960.24745     -1648.117    24285463.664    99444894.15544
     -1284.245  
  22190595.835   116612369.93348      2807.562    22190595.619    90866779.26846
      2187.710  
  23205053.551   121943379.17946     -3109.925    23205053.955    95020815.22445
     -2423.324  
  23839187.883   125275773.36747     -3602.659    23839189.163    97617483.05145
     -2807.272  
  24619690.374   129377353.13846      2225.211    24619694.053   100813534.06946
      1733.925  
  20792480.339   109265220.03548     -1401.863    20792479.598    85141727.13246
     -1092.359  
  22933157.689   122246639.30605      2965.914           0.000           0.0000 
         0.000  
  20452371.278   109521520.29907     -2541.151    20452374.273    85183417.51505
     -1976.453  
  22972998.199   122588328.97005      3545.808    22973006.188    95346509.63805
      2757.855  
  19279722.427   103061162.70508       393.027    19279728.573    80158711.68906
       305.688  
  19569529.865   104647072.16308      -668.077    19569533.871    81392182.24408
      -519.621  
  20774843.820   111131399.60008     -3631.340    20774851.262    86435565.38706
     -2824.378  
  21513766.374   115124503.24607      3298.816    21513770.352    89541302.94907
      2565.746  
 20 09 27 06 02  5.0000000  0 16G15G18G30G20G 5G29G27G24G13R10R 8R 2
                                R 1R24R23R17
  20056725.141   105398802.65749       682.214    20056724.677    82128935.22448
       531.593  
  20493843.380   107695875.47549      1010.043    20493843.796    83918864.19448
       787.046  
  24287029.344   127629204.44245     -1650.265    24287032.062    99451318.17143
     -1285.930  
  22187924.682   116598332.39848      2806.940    22187924.251    90855840.93246
      2187.222  
  23208012.503   121958929.82946     -3110.926    23208013.048    95032932.59146
     -2424.105  
  23842616.001   125293788.56147     -3603.723    23842617.093    97631520.85044
     -2808.102  
  24617574.101   129366232.42546      2222.844    24617577.782   100804868.57547
      1732.085  
  24485753.596   128673502.09054      3832.862    24485758.341   100265091.34454
      2986.648  
  20793815.258   109272235.86548     -1404.858    20793814.457    85147193.99846
     -1094.699  
  22930376.973   122231816.52905      2962.690           0.000           0.0000 
         0.000  
  20454744.593   109534229.14007     -2542.765    20454747.621    85193302.14205
     -1977.714  
  22969675.524   122570598.91206      3545.465    22969683.533    95332719.57505
      2757.577  
  19279355.978   103059203.41708       390.194    19279362.005    80157187.77906
       303.480  
  19570156.497   104650423.07708      -672.702    19570160.469    81394788.50208
      -523.218  
  20778239.019   111149561.46708     -3633.957    20778246.450    86449691.26906
     -2826.413  
  21510685.214   115108015.05308      3295.851    21510689.184    89528478.79807
      2563.438  
 20 09 27 06 02 10.0000000  0 15G15G18G30G20G 5G29G27G13R10R 8R 2R 1
                                R24R23R17
  20056077.373   105395398.42449       679.015    20056076.767    82126282.57948
       529.102  
  20492883.330   107690830.78649      1007.223    20492883.809    83914933.26748
       784.848  
  24288600.747   127637462.49945     -1653.680    24288603.552    99457753.00144
     -1288.589  
  22185254.489   116584300.12648      2805.698    22185254.056    90844906.71046
      2186.258  
  23210972.453   121974484.31346     -3111.559    23210972.804    95045052.95346
     -2424.593  
  23846045.113   125311808.19748     -3604.472    23846046.280    97645562.11345
     -2808.687  
  24615460.588   129355125.08846      2220.026    24615464.117   100796213.53246
      1729.891  
  20795153.222   109279266.72448     -1407.874    20795152.520    85152672.57946
     -1097.051  
  22927598.729   122217007.54605      2960.461           0.000           0.0000 
         0.000  
  20457119.416   109546946.61507     -2544.609    20457122.451    85203193.50605
     -1979.144  
  22966354.052   122552874.34106      3544.206    22966361.767    95318933.79305
      2756.602  
  19278992.145   103057258.55208       387.211    19278998.356    80155675.09906
       301.160  
  19570787.407   104653797.05608      -677.410    19570791.367    81397412.70308
      -526.879  
  20781636.860   111167737.53208     -3636.883    20781644.304    86463828.20906
     -2828.690  
  21507606.675   115091541.35808      3292.789    21507610.672    89515665.92007
      2561.058  
 20 09 27 06 02 15.0000000  0 15G15G18G30G20G 5G29G27G13R10R 8R 2R 1
                                R24R23R17
  20055432.845   105392011.56149       676.038    20055432.288    82123643.45148
       526.780  
  20491926.349   107685801.75449      1004.574    20491926.757    83911014.55048
       782.784  
  24290174.909   127645735.34344     -1655.714    24290177.124    99464199.45443
     -1290.141  
  22182585.407   116570274.13048      2804.757    22182585.040    90833977.37946
      2185.531  
  23213933.241   121990043.67147     -3111.934    23213933.809    95057177.14945
     -2424.883  
  23849475.120   125329833.32147     -3605.051    23849476.207    97659607.65145
     -2809.132  
  24613349.650   129344032.22446      2217.429    24613353.181   100787569.79046
      1727.871  
  20796494.218   109286313.73848     -1410.585    20796493.478    85158163.76747
     -1099.155  
  22924823.373   122202213.46306      2957.727           0.000           0.0000 
         0.000  
  20459496.314   109559674.07707     -2546.258    20459499.195    85213092.65606
     -1980.422  
  22963033.833   122535156.04606      3543.184    22963041.299    95305152.86606
      2755.805  
  19278631.306   103055329.16408       384.777    19278637.321    80154174.44106
       299.265  
  19571422.829   104657195.09909      -681.597    19571426.862    81400055.62008
      -530.136  
  20785037.496   111185928.98608     -3639.379    20785045.013    86477977.12006
     -2830.633  
  21504531.099   115075083.17408      3290.483    21504535.250    89502865.12307
      2559.265  
 20 09 27 06 02 20.0000000  0 15G15G18G30G20G 5G29G27G13R10R 8R 2R 1
                                R24R23R17
  20054791.743   105388642.08249       671.878    20054790.991    82121017.88248
       523.542  
  20490972.417   107680788.39949      1000.726    20490972.869    83907108.03948
       779.785  
  24291751.940   127654023.35244     -1659.105    24291754.632    99470657.64842
     -1292.809  
  22179917.448   116556254.50448      2802.848    22179917.259    90823053.01346
      2184.038  
  23216895.181   122005608.11347     -3113.601    23216895.615    95069305.28146
     -2426.187  
  23852906.295   125347864.01447     -3607.059    23852907.447    97673657.53845
     -2810.698  
  24611241.383   129332953.86146      2214.180    24611245.139   100778937.30446
      1725.331  
  20797838.261   109293376.88948     -1414.452    20797837.633    85163667.51246
     -1102.176  
  22922050.755   122187434.50706      2954.074           0.000           0.0000 
         0.000  
  20461874.865   109572411.51407     -2548.953    20461877.873    85222999.54706
     -1982.523  
  22959714.677   122517444.11406      3541.038    22959722.124    95291376.93506
      2754.141  
  19278273.222   103053415.34208       381.012    19278279.165    80152685.90806
       296.340  
  19572062.774   104660617.26709      -687.163    19572066.922    81402717.30508
      -534.465  
  20788441.103   111204135.79908     -3643.233    20788448.425    86492137.97006
     -2833.629  
  21501458.309   115058640.61308      3286.711    21501462.468    89490076.47007
      2556.331  
 20 09 27 06 02 25.0000000  0 15G15G18G30G20G 5G29G27G13R10R 8R 2R 1
                                R24R23R17
  20054154.064   105385291.30649       669.097    20054153.355    82118406.90048
       521.375  
  20490021.688   107675792.03349       998.359    20490021.904    83903214.77848
       777.940  
  24293332.029   127662327.46244     -1661.655    24293335.328    99477128.36545
     -1294.801  
  22177251.011   116542242.50448      2802.648    22177250.693    90812134.55746
      2183.879  
  23219858.051   122021178.78847     -3113.819    23219858.613    95081438.26346
     -2426.354  
  23856338.581   125365901.52147     -3607.238    23856339.871    97687712.70845
     -2810.844  
  24609136.378   129321891.32847      2211.593    24609140.034   100770317.15645
      1723.316  
  20799185.736   109300457.35548     -1416.957    20799184.940    85169184.76047
     -1104.120  
  22919281.146   122172671.68305      2951.608           0.000           0.0000 
         0.000  
  20464255.690   109585160.13207     -2549.883    20464258.738    85232915.13906
     -1983.245  
  22956396.825   122499739.73006      3541.308    22956404.360    95277606.88706
      2754.351  
  19277918.329   103051518.45308       378.582    19277924.413    80151210.56106
       294.452  
  19572707.402   104664064.94609      -691.292    19572711.541    81405398.82808
      -537.676  
  20791847.862   111222359.41408     -3645.749    20791855.157    86506311.88006
     -2835.585  
  21498388.712   115042214.95908      3284.273    21498392.801    89477300.96907
      2554.434  
 20 09 27 06 02 30.0000000  0 15G15G18G30G20G 5G29G27G13R10R 8R 2R 1
                                R24R23R17
  20053518.474   105381951.53749       666.746    20053517.923    82115804.47548
       519.539  
  20489072.684   107670805.01749       996.417    20489072.907    83899328.79348
       776.430  
  24294913.843   127670640.13844     -1663.629    24294916.976    99483605.79244
     -1296.336  
  22174584.571   116528230.54448      2802.491    22174584.396    90801216.17146
      2183.858  
  23222820.910   122036748.12347     -3113.332    23222821.367    95093570.21445
     -2425.980  
  23859770.945   125383938.18347     -3607.211    23859772.298    97701767.26745
     -2810.813  
  24607032.776   129310836.94947      2209.968    24607036.278   100761703.34546
      1722.051  
  20800534.913   109307547.57848     -1418.897    20800534.197    85174709.61747
     -1105.637  
  22916513.302   122157917.23506      2950.339           0.000           0.0000 
         0.000  
  20466637.045   109597912.05607     -2551.077    20466640.054    85242833.29906
     -1984.171  
  22953079.051   122482035.39306      3540.644    22953086.525    95263836.89006
      2753.839  
  19277565.127   103049630.60208       376.737    19277571.305    80149742.23706
       293.020  
  19573355.559   104667530.24309      -694.956    19573359.788    81408094.06408
      -540.523  
  20795256.153   111240591.91108     -3647.179    20795263.604    86520492.70306
     -2836.698  
  21495320.955   115025798.51908      3282.348    21495325.050    89464532.62807
      2552.937  
 20 09 27 06 02 35.0000000  0 15G15G18G30G20G 5G29G27G13R10R 8R 2R 1
                                R24R23R17
  20052885.368   105378624.94949       663.504    20052884.938    82113212.32248
       517.012  
  20488125.782   107665829.51249       993.374    20488126.129    83895451.77248
       774.054  
  24296497.608   127678963.50544     -1665.624    24296501.080    99490091.52745
     -1297.895  
  22171918.521   116514220.73248      2801.483    22171918.325    90790299.43446
      2182.973  
  23225783.744   122052318.20447     -3114.472    23225784.116    95105702.73746
     -2426.867  
  23863203.439   125401976.11947     -3607.921    23863204.666    97715822.80146
     -2811.371  
  24604931.233   129299792.89347      2207.628    24604934.606   100753097.60345
      1720.229  
  20801886.357   109314649.68048     -1422.211    20801885.666    85180243.71747
     -1108.215  
  22913747.274   122143173.62405      2946.858           0.000           0.0000 
         0.000  
  20469019.325   109610669.52108     -2552.772    20469022.361    85252755.77406
     -1985.495  
  22949761.786   122464333.08206      3539.761    22949769.195    95250068.42606
      2753.147  
  19277214.164   103047754.00508       373.582    19277220.128    80148282.65906
       290.563  
  19574007.262   104671015.47609      -699.566    19574011.384    81410804.79108
      -544.109  
  20798666.663   111258835.43208     -3650.444    20798674.224    86534682.10406
     -2839.237  
  21492255.285   115009393.44008      3279.448    21492259.466    89451773.11807
      2550.680  
 20 09 27 06 02 40.0000000  0 15G15G18G30G20G 5G29G27G13R10R 8R 2R 1
                                R24R23R17
  20052255.707   105375315.62249       660.296    20052255.118    82110633.62848
       514.512  
  20487181.937   107660869.57649       990.616    20487182.246    83891586.88648
       771.905  
  24298084.296   127687301.88945     -1669.585    24298087.737    99496588.99943
     -1300.976  
  22169253.800   116500217.12548      2800.508    22169253.446    90779387.54245
      2182.214  
  23228747.486   122067893.14947     -3115.102    23228748.112    95117839.05445
     -2427.354  
  23866636.910   125420019.35147     -3609.004    23866638.264    97729882.43745
     -2812.215  
  24602832.520   129288763.30347      2204.566    24602835.819   100744503.10845
      1717.843  
  20803240.869   109321767.65948     -1424.953    20803240.327    85185790.20247
     -1110.351  
  22910984.050   122128444.89605      2944.344           0.000           0.0000 
         0.000  
  20471403.495   109623436.92808     -2554.136    20471406.590    85262685.97206
     -1986.555  
  22946445.666   122446637.09707      3538.898    22946452.890    95236304.84106
      2752.468  
  19276865.827   103045892.79208       370.957    19276872.088    80146835.06106
       288.523  
  19574663.464   104674524.60709      -704.043    19574667.783    81413534.12008
      -547.594  
  20802080.011   111277094.13808     -3653.026    20802087.428    86548883.31606
     -2841.246  
  21489192.409   114993003.90008      3276.504    21489196.541    89439025.68007
      2548.383  
 20 09 27 06 02 45.0000000  0 15G15G18G30G20G 5G29G27G13R10R 8R 2R 1
                                R24R23R17
  20051629.077   105372022.96949       656.750    20051628.481    82108067.93548
       511.754  
  20486240.945   107655924.65749       987.366    20486241.297    83887733.69948
       769.375  
  24299673.777   127695654.32244     -1672.503    24299677.514    99503097.33944
     -1303.250  
  22166590.049   116486219.23948      2799.015    22166589.874    90768480.09946
      2181.051  
  23231712.019   122083472.53047     -3116.473    23231712.557    95129978.80546
     -2428.429  
  23870071.314   125438067.35947     -3610.270    23870072.599    97743945.80746
     -2813.203  
  24600736.300   129277747.59247      2201.441    24600739.500   100735919.43945
      1715.410  
  20804598.398   109328901.08248     -1428.433    20804597.670    85191348.70147
     -1113.070  
  22908223.742   122113730.68406      2941.655           0.000           0.0000 
         0.000  
  20473789.505   109636213.37207     -2556.418    20473792.699    85272623.21906
     -1988.324  
  22943130.487   122428946.79306      3537.754    22943137.829    95222545.73306
      2751.585  
  19276520.492   103044046.46508       367.668    19276526.705    80145399.01106
       285.961  
  19575324.166   104678057.27109      -708.945    19575328.258    81416281.74108
      -551.406  
  20805495.958   111295367.52308     -3656.238    20805503.280    86563095.95006
     -2843.745  
  21486132.494   114976629.30008      3273.315    21486136.511    89426289.91107
      2545.918  
 20 09 27 06 02 50.0000000  0 15G15G18G30G20G 5G29G27G13R10R 8R 2R 1
                                R24R23R17
  20051005.862   105368747.67249       653.679    20051005.261    82105515.76648
       509.359  
  20485302.974   107650995.43149       984.656    20485303.271    83883892.73548
       767.262  
  24301265.967   127704021.65145     -1674.163    24301270.030    99509617.30144
     -1304.551  
  22163927.434   116472227.66548      2798.050    22163927.244    90757577.54246
      2180.293  
  23234677.567   122099056.80747     -3117.039    23234678.316    95142122.34445
     -2428.871  
  23873506.697   125456120.76747     -3610.793    23873508.117    97758013.33745
     -2813.617  
  24598642.878   129266746.33646      2199.691    24598646.103   100727347.01347
      1714.042  
  20805958.813   109336050.48948     -1431.094    20805958.163    85196919.66446
     -1115.141  
  22905466.192   122099031.51306      2938.687           0.000           0.0000 
         0.000  
  20476177.252   109648999.67807     -2557.867    20476180.444    85282568.09405
     -1989.461  
  22939816.517   122411262.71707      3536.573    22939823.875    95208791.43705
      2750.664  
  19276177.946   103042215.48708       365.035    19276183.947    80143974.93606
       283.918  
  19575989.339   104681614.06208      -713.289    19575993.548    81419048.14208
      -554.780  
  20808914.746   111313655.98708     -3658.690    20808922.307    86577320.29806
     -2845.651  
  21483075.411   114960270.45108      3270.648    21483079.576    89413566.37207
      2543.836  
 20 09 27 06 02 55.0000000  0 15G15G18G30G20G 5G29G27G13R10R 8R 2R 1
                                R24R23R17
  20050385.303   105365486.67749       650.488    20050384.722    82102974.73148
       506.874  
  20484367.294   107646078.83849       981.641    20484367.715    83880061.63148
       764.913  
  24302860.399   127712400.75744     -1677.390    24302864.597    99516146.47444
     -1307.062  
  22161265.579   116458239.36348      2797.089    22161265.328    90746677.59846
      2179.550  
  23237643.518   122114642.86247     -3117.789    23237644.265    95154267.34745
     -2429.449  
  23876942.648   125474176.46648     -3611.726    23876943.919    97772082.71446
     -2814.335  
  24596551.580   129255756.67746      2196.680    24596554.730   100718783.65946
      1711.699  
  20807321.717   109343212.78548     -1433.969    20807321.080    85202500.67347
     -1117.382  
  22902710.980   122084344.25006      2936.038           0.000           0.0000 
         0.000  
  20478566.243   109661792.61507     -2559.452    20478569.415    85292518.16705
     -1990.688  
  22936503.153   122393581.97606      3535.332    22936510.413    95195039.74706
      2749.702  
  19275837.869   103040397.01708       362.108    19275843.827    80142560.55106
       281.636  
  19576658.268   104685191.81508      -717.973    19576662.430    81421830.82808
      -558.426  
  20812335.966   111331956.48608     -3661.405    20812343.502    86591554.00806
     -2847.766  
  21480020.798   114943924.16508      3267.723    21480024.814    89400852.59307
      2541.558  
 20 09 27 06 03  0.0000000  0 15G15G18G30G20G 5G29G27G13R10R 8R 2R 1
                                R24R23R17
  20049767.982   105362242.35249       647.241    20049767.370    82100446.68448
       504.343  
  20483434.673   107641177.25649       979.020    20483435.065    83876242.21048
       762.866  
  24304457.834   127720794.05545     -1680.335    24304461.719    99522686.70344
     -1309.351  
  22158604.700   116444256.75948      2796.132    22158604.626    90735782.06146
      2178.805  
  23240610.410   122130233.08047     -3118.152    23240611.000    95166415.56745
     -2429.734  
  23880379.379   125492236.79847     -3612.335    23880380.754    97786155.69745
     -2814.812  
  24594462.935   129244780.80346      2193.969    24594466.267   100710231.03346
      1709.582  
  20808687.640   109350390.41448     -1436.944    20808686.955    85208093.64047
     -1119.699  
  22899958.352   122069671.31606      2933.429           0.000           0.0000 
         0.000  
  20480956.956   109674594.62107     -2561.242    20480960.109    85302475.29005
     -1992.078  
  22933190.969   122375906.68306      3534.894    22933198.207    95181292.33106
      2749.363  
  19275500.374   103038593.31908       359.323    19275506.364    80141157.67706
       279.468  
  19577331.672   104688792.96209      -722.394    19577335.877    81424631.71708
      -561.867  
  20815759.729   111350271.68308     -3664.324    20815767.319    86605799.15706
     -2850.034  
  21476968.776   114927592.89608      3265.144    21476972.941    89388150.49507
      2539.555  
 20 09 27 06 03  5.0000000  0 16G15G18G30G20G 5G29G27G24G13R10R 8R 2
                                R 1R24R23R17
  20049153.706   105359014.90449       643.480    20049153.215    82097931.78948
       501.413  
  20482504.711   107636290.89649       975.535    20482505.113    83872434.65248
       760.156  
  24306057.764   127729201.65244     -1683.288    24306061.867    99529238.07043
     -1311.647  
  22155945.155   116430280.00648      2794.515    22155944.941    90724891.09646
      2177.543  
  23243577.870   122145827.65547     -3119.449    23243578.632    95178567.18246
     -2430.737  
  23883817.248   125510302.04447     -3613.984    23883818.488    97800232.51946
     -2816.089  
  24592377.151   129233819.12446      2190.261    24592380.160   100701689.46446
      1706.694  
  24441999.083   128443571.19655      3830.930    24442004.722   100085923.11853
      2985.141  
  20810056.416   109357583.56848     -1440.276    20810055.744    85213698.69647
     -1122.293  
  22897208.419   122055012.93906      2929.901           0.000           0.0000 
         0.000  
  20483349.282   109687405.95007     -2563.565    20483352.539    85312439.64805
     -1993.891  
  22929879.768   122358237.41606      3532.710    22929887.002    95167549.60306
      2747.668  
  19275165.684   103036804.61208       356.019    19275171.788    80139766.46706
       276.897  
  19578009.551   104692417.70109      -727.586    19578013.653    81427450.95508
      -565.874  
  20819186.299   111368601.58608     -3667.761    20819193.741    86620055.73906
     -2852.707  
  21473919.724   114911276.89808      3261.387    21473923.977    89375460.28407
      2536.633  
 20 09 27 06 03 10.0000000  0 16G15G18G30G20G 5G29G27G24G13R10R 8R 2
                                R 1R24R23R17
  20048543.045   105355805.07549       639.628    20048542.438    82095430.63548
       498.413  
  20481577.980   107631420.51949       971.859    20481578.343    83868639.55648
       757.289  
  24307660.672   127737624.42745     -1686.887    24307664.398    99535801.26345
     -1314.461  
  22153286.560   116416309.90048      2792.835    22153286.468    90714005.28146
      2176.229  
  23246546.430   122161427.48347     -3120.593    23246547.047    95190722.84545
     -2431.645  
  23887255.888   125528372.90948     -3615.347    23887257.262    97814313.66046
     -2817.163  
  24590294.058   129222872.14347      2187.438    24590297.009   100693159.36846
      1704.495  
  24438354.052   128424416.58944      3829.801    24438359.460   100070997.44444
      2984.258  
  20811428.254   109364792.96948     -1444.160    20811427.723    85219316.41046
     -1125.324  
  22894461.678   122040370.04606      2926.816           0.000           0.0000 
         0.000  
  20485743.705   109700227.19407     -2565.922    20485746.807    85322411.71905
     -1995.722  
  22926569.834   122340574.69407      3530.801    22926576.904    95153811.90406
      2746.171  
  19274834.011   103035031.56908       352.265    19274840.114    80138387.44306
       273.983  
  19578691.894   104696066.77708      -732.940    19578696.252    81430289.12908
      -570.066  
  20822615.715   111386946.90008     -3671.315    20822623.277    86634324.30705
     -2855.472  
  21470873.714   114894976.92408      3257.895    21470877.846    89362782.52307
      2533.913  
 20 09 27 06 03 15.0000000  0 16G15G18G30G20G 5G29G27G24G13R10R 8R 2
                                R 1R24R23R17
  20047936.374   105352617.52849       636.452    20047935.791    82092946.83048
       495.933  
  20480655.049   107626570.76549       968.991    20480655.466    83864860.52948
       755.059  
  24309267.172   127746066.95545     -1689.491    24309270.694    99542379.89943
     -1316.487  
  22150630.455   116402351.09748      2791.754    22150630.158    90703128.29046
      2175.391  
  23249516.911   122177037.08946     -3121.887    23249517.589    95202886.18645
     -2432.645  
  23890696.594   125546453.99948     -3616.030    23890697.947    97828402.81746
     -2817.695  
  24588214.579   129211944.72147      2184.848    24588217.597   100684644.46446
      1702.477  
  24434710.253   128405268.73045      3829.629    24434715.681   100056077.05743
      2984.124  
  20812804.269   109372023.25948     -1446.995    20812803.618    85224950.40646
     -1127.534  
  22891718.512   122025747.23906      2924.062           0.000           0.0000 
         0.000  
  20488140.759   109713063.24507     -2567.535    20488143.901    85332395.31405
     -1996.976  
  22923262.109   122322923.47506      3530.147    22923269.261    95140083.20605
      2745.676  
  19274506.260   103033279.01808       349.569    19274512.311    80137024.36306
       271.886  
  19579379.875   104699745.03208      -737.387    19579383.879    81433149.99508
      -573.523  
  20826049.055   111405312.42108     -3673.960    20826056.440    86648608.59306
     -2857.527  
  21467831.600   114878697.64808      3254.987    21467835.599    89350120.86407
      2531.655  
 20 09 27 06 03 20.0000000  0 16G15G18G30G20G 5G29G27G24G13R10R 8R 2
                                R 1R24R23R17
  20047331.794   105349440.43949       634.437    20047331.380    82090471.17848
       494.366  
  20479733.833   107621729.92849       967.406    20479734.308    83861088.44948
       753.823  
  24310875.445   127754517.39345     -1690.585    24310878.683    99548964.59645
     -1317.344  
  22147973.989   116388391.83648      2791.960    22147973.609    90692250.95046
      2175.554  
  23252486.825   122192644.68448     -3121.496    23252487.499    95215047.93946
     -2432.336  
  23894137.097   125564533.52747     -3615.675    23894138.393    97842490.74446
     -2817.410  
  24586136.756   129201025.12447      2183.234    24586139.659   100676135.68446
      1701.223  
  24431065.699   128386116.21844      3830.948    24431071.209   100041153.05346
      2985.155  
  20814181.817   109379262.66448     -1448.597    20814181.208    85230591.50147
     -1128.777  
  22888976.859   122011132.59106      2922.015           0.000           0.0000 
         0.000  
  20490538.404   109725902.08707     -2567.852    20490541.481    85342381.08605
     -1997.219  
  22919954.168   122305271.76306      3530.852    22919961.364    95126354.08106
      2746.218  
  19274179.994   103031535.03608       347.882    19274185.958    80135667.93106
       270.570  
  19580070.858   104703440.30909      -740.750    19580075.125    81436024.09708
      -576.145  
  20829483.858   111423686.05108     -3675.328    20829491.345    86662899.18805
     -2858.593  
  21464791.210   114862427.28208      3253.249    21464795.246    89337466.14807
      2530.305  
 20 09 27 06 03 25.0000000  0 16G15G18G30G20G 5G29G27G24G13R10R 8R 2
                                R 1R24R23R17
  20046729.513   105346275.71349       631.500    20046729.166    82088005.15348
       492.073  
  20478814.721   107616899.77449       964.573    20478815.098    83857324.68848
       751.612  
  24312485.349   127762977.64944     -1693.188    24312488.756    99555557.04745
     -1319.366  
  22145317.878   116374433.91348      2790.710    22145317.573    90681374.67446
      2174.578  
  23255456.945   122208252.14747     -3122.043    23255457.571    95227209.63646
     -2432.758  
  23897577.621   125582613.32448     -3616.159    23897578.836    97856578.93945
     -2817.789  
  24584060.647   129190115.00547      2180.952    24584063.652   100667634.34745
      1699.449  
  24427420.388   128366960.82345      3831.070    24427425.900   100026226.77944
      2985.250  
  20815561.648   109386513.00848     -1451.684    20815561.001    85236241.11747
     -1131.183  
  22886237.167   121996528.08705      2919.628           0.000           0.0000 
         0.000  
  20492936.807   109738745.55207     -2569.516    20492939.852    85352370.46706
     -1998.511  
  22916646.619   122287621.13907      3529.355    22916653.520    95112625.86306
      2745.058  
  19273855.610   103029801.35908       345.453    19273861.729    80134319.48906
       268.683  
  19580765.406   104707154.55908      -745.241    19580769.493    81438912.93908
      -579.637  
  20832920.313   111442069.64208     -3677.987    20832927.888    86677197.53406
     -2860.659  
  21461752.618   114846167.60008      3250.277    21461756.599    89324819.72307
      2527.987  
 20 09 27 06 03 30.0000000  0 16G15G18G30G20G 5G29G27G24G13R10R 8R 2
                                R 1R24R23R17
  20046130.662   105343128.16749       627.956    20046130.128    82085552.50548
       489.312  
  20477898.659   107612085.21349       961.296    20477899.051    83853573.09648
       749.062  
  24314098.194   127771452.52044     -1696.550    24314101.159    99562160.84943
     -1321.995  
  22142663.052   116360482.14348      2789.961    22142662.810    90670503.17546
      2173.995  
  23258427.844   122223864.35647     -3122.637    23258428.354    95239374.99746
     -2433.226  
  23901019.114   125600698.30647     -3617.604    23901020.557    97870671.08545
     -2818.921  
  24581987.190   129179219.38647      2177.965    24581990.273   100659144.23546
      1697.112  
  24423775.763   128347807.25345      3830.340    24423781.056   100011301.97345
      2984.683  
  20816944.312   109393779.11548     -1454.737    20816943.741    85241903.02047
     -1133.563  
  22883500.130   121981938.66805      2917.027           0.000           0.0000 
         0.000  
  20495337.020   109751598.55207     -2571.542    20495340.123    85362367.22806
     -2000.094  
  22913340.007   122269976.83306      3528.406    22913347.160    95098902.52206
      2744.316  
  19273534.014   103028082.96708       342.284    19273540.160    80132982.98006
       266.222  
  19581464.424   104710892.73908      -749.890    19581468.675    81441820.42708
      -583.250  
  20836359.814   111460468.22008     -3681.090    20836367.297    86691507.52705
     -2863.074  
  21458717.036   114829923.55408      3247.323    21458721.103    89312185.44207
      2525.691  
 20 09 27 06 03 35.0000000  0 16G15G18G30G20G 5G29G27G24G13R10R 8R 2
                                R 1R24R23R17
  20045535.033   105339998.11849       624.246    20045534.506    82083113.52948
       486.426  
  20476985.440   107607286.55849       958.167    20476985.711    83849833.87448
       746.621  
  24315713.835   127779942.46144     -1699.280    24315716.593    99568776.40543
     -1324.129  
  22140009.415   116346537.03148      2788.363    22140008.980    90659636.87246
      2172.749  
  23261399.691   122239481.80247     -3124.151    23261400.427    95251544.42145
     -2434.409  
  23904461.586   125618788.68147     -3618.671    23904462.915    97884767.49846
     -2819.745  
  24579916.639   129168338.59847      2174.809    24579919.691   100650665.73646
      1694.660  
  24420131.524   128328656.02444      3830.351    24420136.493    99996378.97043
      2984.688  
  20818330.048   109401061.36348     -1458.104    20818329.390    85247577.48947
     -1136.190  
  22880766.027   121967364.67306      2912.901           0.000           0.0000 
         0.000  
  20497739.067   109764461.56307     -2573.676    20497742.076    85372371.77806
     -2001.750  
  22910034.909   122252339.13106      3526.761    22910041.969    95085184.34506
      2743.039  
  19273215.600   103026380.20308       339.038    19273221.695    80131658.59406
       263.691  
  19582168.131   104714655.18509      -754.890    19582172.192    81444746.75608
      -587.141  
  20839802.182   111478882.06408     -3684.324    20839809.572    86705829.41106
     -2865.586  
  21455684.466   114813695.47408      3243.894    21455688.441    89299563.64407
      2523.031  
 20 09 27 06 03 40.0000000  0 16G15G18G30G20G 5G29G27G24G13R10R 8R 2
                                R 1R24R23R17
  20044942.459   105336884.02349       621.563    20044941.813    82080686.96048
       484.332  
  20476075.074   107602502.26949       955.862    20476075.298    83846105.85348
       744.823  
  24317331.959   127788445.72544     -1702.199    24317334.897    99575402.34043
     -1326.391  
  22137356.519   116332596.87348      2788.016    22137356.351    90648774.39746
      2172.476  
  23264372.281   122255102.52347     -3123.836    23264372.994    95263716.39746
     -2434.160  
  23907904.812   125636882.89347     -3618.733    23907906.063    97898866.86446
     -2819.796  
  24577848.584   129157470.98647      2172.620    24577851.783   100642197.43746
      1692.948  
  24416487.312   128309505.59545      3830.910    24416492.438    99981456.54845
      2985.124  
  20819718.642   109408358.06649     -1460.316    20819717.960    85253263.23347
     -1137.913  
  22878034.556   121952804.30606      2911.386           0.000           0.0000 
         0.000  
  20500142.697   109777332.57707     -2574.616    20500145.724    85382382.57405
     -2002.480  
  22906730.582   122234706.51905      3526.160    22906737.717    95071470.09705
      2742.569  
  19272899.639   103024691.52508       336.612    19272905.907    80130345.18406
       261.809  
  19582875.975   104718440.21908      -758.894    19582880.035    81447690.67108
      -590.253  
  20843246.888   111497309.45308     -3686.585    20843254.271    86720161.81306
     -2867.347  
  21452654.500   114797481.92108      3241.613    21452658.648    89286953.10207
      2521.250  
 20 09 27 06 03 45.0000000  0 16G15G18G30G20G 5G29G27G24G13R10R 8R 2
                                R 1R24R23R17
  20044352.562   105333784.87949       618.184    20044352.303    82078272.04348
       481.703  
  20475167.199   107597731.32549       952.780    20475167.557    83842388.24148
       742.422  
  24318952.465   127796961.35844     -1704.698    24318955.260    99582037.86246
     -1328.340  
  22134704.569   116318660.75148      2786.707    22134704.488    90637915.08546
      2171.461  
  23267345.219   122270725.88647     -3125.261    23267346.067    95275890.44746
     -2435.272  
  23911348.781   125654980.00648     -3619.781    23911349.955    97912968.49646
     -2820.612  
  24575782.983   129146615.65246      2169.754    24575786.006   100633738.77046
      1690.723  
  24412843.055   128290354.98644      3829.323    24412848.220    99966533.99245
      2983.898  
  20821109.713   109415668.32048     -1463.444    20821108.989    85258959.54247
     -1140.352  
  22875305.473   121938256.81806      2908.019           0.000           0.0000 
         0.000  
  20502547.818   109790211.08307     -2576.671    20502550.782    85392399.18306
     -2004.082  
  22903426.956   122217077.45606      3525.574    22903433.916    95057758.59806
      2742.117  
  19272586.097   103023015.71208       333.706    19272592.269    80129041.77706
       259.547  
  19583587.724   104722246.88608      -763.612    19583591.947    81450651.41708
      -593.926  
  20846694.028   111515749.57808     -3689.465    20846701.634    86734504.11706
     -2869.585  
  21449627.147   114781281.78208      3238.480    21449631.091    89274352.98507
      2518.816  
 20 09 27 06 03 50.0000000  0 16G15G18G30G20G 5G29G27G24G13R10R 8R 2
                                R 1R24R23R17
  20043766.072   105330702.78849       614.789    20043765.698    82075870.43148
       479.055  
  20474262.172   107592975.87749       949.699    20474262.519    83838682.69948
       740.019  
  24320575.775   127805491.47144     -1707.015    24320578.627    99588684.71445
     -1330.152  
  22132053.780   116304730.73348      2785.527    22132053.536    90627060.53547
      2170.534  
  23270319.129   122286353.85746     -3126.004    23270320.176    95288068.05445
     -2435.854  
  23914793.489   125673082.04048     -3620.977    23914794.546    97927073.95746
     -2821.546  
  24573719.997   129135774.70847      2166.886    24573723.132   100625291.26847
      1688.480  
  24409199.367   128271206.15145      3829.765    24409204.262    99951612.90744
      2984.238  
  20822503.792   109422994.22248     -1466.765    20822503.189    85264668.02946
     -1142.937  
  22872579.369   121923724.46106      2905.065           0.000           0.0000 
         0.000  
  20504954.431   109803098.85207     -2578.444    20504957.323    85402422.99505
     -2005.461  
  22900124.355   122199454.92207      3523.851    22900131.525    95044052.20105
      2740.770  
  19272275.586   103021355.22708       330.694    19272281.784    80127750.29106
       257.206  
  19584304.119   104726077.36608      -768.441    19584308.205    81453630.67107
      -597.676  
  20850144.008   111534204.48508     -3692.370    20850151.389    86748857.93406
     -2871.848  
  21446602.781   114765097.26108      3235.601    21446606.842    89261765.04707
      2516.578  
 20 09 27 06 03 55.0000000  0 16G15G18G30G20G 5G29G27G24G13R10R 8R 2
                                R 1R24R23R17
  20043182.617   105327636.90049       611.526    20043182.262    82073481.42348
       476.515  
  20473360.179   107588235.02449       946.593    20473360.404    83834988.53248
       737.602  
  24322201.661   127814035.27845     -1710.242    24322204.724    99595342.21641
     -1332.663  
  22129403.934   116290805.94748      2784.320    22129403.886    90616210.03646
      2169.597  
  23273293.762   122301985.44246     -3126.613    23273294.614    95300248.50345
     -2436.324  
  23918238.975   125691188.03348     -3621.620    23918240.175    97941182.48146
     -2822.051  
  24571659.694   129124947.24346      2163.680    24571662.715   100616854.27146
      1685.984  
  24405555.669   128252058.29544      3828.979    24405560.460    99936692.58245
      2983.633  
  20823900.538   109430334.83048     -1469.628    20823899.817    85270387.98646
     -1145.164  
  22869855.820   121909206.07006      2902.280           0.000           0.0000 
         0.000  
  20507362.891   109815995.20207     -2580.128    20507365.766    85412453.48406
     -2006.770  
  22896822.905   122181837.28706      3523.012    22896829.810    95030349.57705
      2740.117  
  19271967.523   103019708.88908       327.629    19271973.683    80126469.80706
       254.824  
  19585024.593   104729930.71708      -773.008    19585028.794    81456627.72708
      -601.230  
  20853596.630   111552673.24708     -3695.324    20853604.011    86763222.52206
     -2874.140  
  21443581.065   114748927.48008      3232.472    21443584.990    89249188.55607
      2514.145  
 20 09 27 06 04  0.0000000  0 16G15G18G30G20G 5G29G27G24G13R10R 8R 2
                                R 1R24R23R17
  20042602.415   105324587.69849       608.871    20042602.018    82071105.42248
       474.440  
  20472460.841   107583509.31949       944.391    20472461.222    83831306.15648
       735.887  
  24323830.331   127822593.12245     -1712.847    24323833.102    99602010.65243
     -1334.687  
  22126755.242   116276886.97548      2783.648    22126755.184    90605364.10747
      2169.081  
  23276269.218   122317621.19147     -3126.901    23276270.029    95312432.20446
     -2436.546  
  23921685.239   125709298.64948     -3622.015    23921686.451    97955294.65646
     -2822.355  
  24569601.850   129114133.79747      2162.108    24569605.080   100608428.22446
      1684.766  
  24401912.261   128232912.05845      3829.741    24401916.963    99921773.38544
      2984.210  
  20825300.336   109437690.69348     -1472.027    20825299.631    85276119.83447
     -1147.035  
  22867134.963   121894702.08706      2899.792           0.000           0.0000 
         0.000  
  20509772.829   109828900.37507     -2581.332    20509775.596    85422490.84106
     -2007.703  
  22893522.371   122164225.75306      3522.530    22893529.309    95016651.76906
      2739.754  
  19271662.440   103018077.32608       325.479    19271668.476    80125200.82606
       253.151  
  19585749.579   104733807.51309      -777.063    19585753.954    81459643.00808
      -604.386  
  20857051.859   111571156.23808     -3697.335    20857059.328    86777598.17206
     -2875.711  
  21440562.260   114732773.02408      3229.707    21440566.053    89236623.97507
      2511.996  
 20 09 27 06 04  5.0000000  0 16G15G18G30G20G 5G29G27G24G13R10R 8R 2
                                R 1R24R23R17
  20042024.861   105321552.57049       605.479    20042024.476    82068740.39048
       471.804  
  20471563.995   107578796.14149       941.059    20471564.226    83827633.54648
       733.288  
  24325461.025   127831162.47645     -1714.828    24325463.826    99608688.07143
     -1336.234  
  22124107.320   116262971.11448      2782.827    22124107.020    90594520.56746
      2168.434  
  23279244.910   122333258.59147     -3128.074    23279245.735    95324617.16146
     -2437.468  
  23925132.070   125727411.11747     -3622.918    23925133.337    97969408.23446
     -2823.063  
  24567546.269   129103331.80047      2159.280    24567549.523   100600011.09347
      1682.554  
  24398268.428   128213764.71245      3829.280    24398273.633    99906853.33844
      2983.851  
  20826702.595   109445059.14148     -1475.288    20826701.867    85281861.47747
     -1149.577  
  22864416.349   121880210.47206      2896.711           0.000           0.0000 
         0.000  
  20512184.081   109841812.17507     -2583.085    20512186.903    85432533.34805
     -2009.066  
  22890222.636   122146617.07706      3521.195    22890229.622    95002956.12406
      2738.702  
  19271359.370   103016457.96308       322.535    19271365.652    80123941.31806
       250.859  
  19586478.522   104737705.06209      -781.769    19586482.696    81462674.44008
      -608.042  
  20860509.128   111589650.91808     -3700.371    20860516.575    86791982.90806
     -2878.070  
  21437545.744   114716631.13008      3226.913    21437549.756    89224069.16607
      2509.815  
 20 09 27 06 04 10.0000000  0 16G15G18G30G20G 5G29G27G24G13R10R 8R 2
                                R 1R24R23R17
  20041450.555   105318534.16449       601.902    20041450.100    82066388.38448
       469.016  
  20470669.996   107574098.08149       938.141    20470670.171    83823972.72848
       731.019  
  24327094.309   127839745.94345     -1717.668    24327096.984    99615376.51644
     -1338.445  
  22121460.330   116249061.08648      2781.484    22121460.017    90583681.59646
      2167.391  
  23282221.484   122348900.18846     -3128.632    23282222.138    95336805.43846
     -2437.895  
  23928579.653   125745528.07247     -3623.605    23928580.910    97983525.37445
     -2823.590  
  24565493.373   129092543.88547      2156.069    24565496.413   100591604.92047
      1680.054  
  24394625.062   128194618.82145      3828.976    24394630.278    99891934.47145
      2983.616  
  20828107.549   109452442.85348     -1478.147    20828107.048    85287615.02046
     -1151.808  
  22861700.581   121865733.49306      2894.379           0.000           0.0000 
         0.000  
  20514596.802   109854732.75107     -2584.890    20514599.678    85442582.69205
     -2010.472  
  22886923.843   122129014.11907      3520.324    22886930.606    94989264.95206
      2738.031  
  19271059.284   103014853.36308       319.523    19271065.484    80122693.28706
       248.516  
  19587211.594   104741625.93908      -786.612    19587216.023    81465724.00108
      -611.812  
  20863969.198   111608159.90008     -3703.207    20863976.653    86806378.77006
     -2880.276  
  21434532.031   114700504.54908      3223.977    21434536.077    89211526.28207
      2507.538  
 20 09 27 06 04 15.0000000  0 16G15G18G30G20G 5G29G27G24G13R10R 8R 2
                                R 1R24R23R17
  20040879.287   105315532.16049       598.753    20040878.899    82064049.16048
       466.559  
  20469778.661   107569414.86649       935.308    20469779.057    83820323.45448
       728.808  
  24328730.468   127848343.14144     -1720.710    24328732.891    99622075.59345
     -1340.816  
  22118814.326   116235156.49148      2780.215    22118813.993    90572846.85146
      2166.401  
  23285198.637   122364545.69647     -3129.171    23285199.279    95348996.74046
     -2438.316  
  23932027.971   125763649.25947     -3624.758    23932029.247    97997645.77046
     -2824.487  
  24563443.124   129081769.65947      2153.796    24563446.215   100583209.45245
      1678.284  
  24390982.025   128175474.21845      3828.733    24390987.299    99877016.55245
      2983.417  
  20829515.516   109459841.45549     -1481.246    20829514.948    85293380.16747
     -1154.219  
  22858987.404   121851270.88806      2890.968           0.000           0.0000 
         0.000  
  20517011.428   109867662.05507     -2586.609    20517014.123    85452638.83006
     -2011.809  
  22883625.919   122111416.61006      3518.773    22883633.045    94975578.00506
      2736.823  
  19270761.815   103013263.25108       316.507    19270767.946    80121456.53406
       246.167  
  19587949.121   104745569.92408      -790.991    19587953.425    81468791.54708
      -615.218  
  20867431.873   111626682.90408     -3706.020    20867439.348    86820785.54905
     -2882.464  
  21431521.266   114684393.08808      3221.077    21431525.297    89198995.15007
      2505.276  
 20 09 27 06 04 20.0000000  0 16G15G18G30G20G 5G29G27G24G13R10R 8R 2
                                R 1R24R23R17
  20040311.072   105312546.45349       595.452    20040310.620    82061722.62348
       463.983  
  20468890.381   107564746.42449       932.227    20468890.640    83816685.72048
       726.406  
  24330369.105   127856954.04744     -1723.633    24330371.382    99628785.41145
     -1343.085  
  22116169.427   116221257.26648      2779.632    22116169.239    90562016.30846
      2165.948  
  23288176.721   122380195.10447     -3130.026    23288177.485    95361191.09146
     -2438.983  
  23935477.029   125781774.52748     -3625.448    23935478.462    98011769.35345
     -2825.026  
  24561395.529   129071009.12947      2150.726    24561398.444   100574824.63945
      1675.895  
  24387338.981   128156330.89445      3828.800    24387344.516    99862099.74544
      2983.488  
  20830926.161   109467254.88248     -1484.215    20830925.514    85299156.85447
     -1156.534  
  22856277.015   121836822.58306      2888.402           0.000           0.0000 
         0.000  
  20519427.303   109880599.92807     -2588.440    20519430.267    85462701.60906
     -2013.233  
  22880329.111   122093824.83607      3517.656    22880336.199    94961895.52706
      2735.949  
  19270466.991   103011687.50308       313.730    19270473.050    80120230.95606
       244.012  
  19588690.999   104749536.85608      -795.566    19588695.177    81471876.92908
      -618.776  
  20870897.110   111645219.84008     -3708.679    20870904.712    86835203.15406
     -2884.531  
  21428513.151   114668296.46508      3217.910    21428517.157    89186475.54007
      2502.815  
 20 09 27 06 04 25.0000000  0 16G15G18G30G20G 5G29G27G24G13R10R 8R 2
                                R 1R24R23R17
  20039746.277   105309578.02949       592.319    20039745.772    82059409.57248
       461.543  
  20468004.927   107560093.73849       929.238    20468005.368    83813060.24448
       724.077  
  24332010.476   127865579.60745     -1726.772    24332012.739    99635506.58644
     -1345.555  
  22113525.665   116207364.39048      2778.332    22113525.405    90551190.68845
      2164.934  
  23291155.534   122395849.24847     -3131.144    23291156.377    95373389.12346
     -2439.851  
  23938927.015   125799904.82547     -3625.871    23938928.436    98025896.82545
     -2825.362  
  24559350.616   129060263.25847      2148.059    24559353.613   100566451.21046
      1673.808  
  24383696.487   128137189.70545      3828.445    24383702.101    99847184.53945
      2983.206  
  20832340.045   109474684.10948     -1487.109    20832339.250    85304945.86747
     -1158.785  
  22853569.463   121822389.58906      2885.339           0.000           0.0000 
         0.000  
  20521845.220   109893547.35207     -2590.113    20521848.055    85472771.82806
     -2014.534  
  22877033.731   122076239.08707      3516.851    22877040.548    94948217.72706
      2735.324  
  19270175.127   103010127.00608       310.824    19270181.293    80119017.24007
       241.753  
  19589437.329   104753527.75808      -800.167    19589441.481    81474980.96608
      -622.355  
  20874365.215   111663771.58108     -3711.483    20874372.751    86849632.29006
     -2886.714  
  21425507.988   114652215.82608      3215.059    21425512.132    89173968.39607
      2500.602  
 20 09 27 06 04 30.0000000  0 16G15G18G30G20G 5G29G27G24G13R10R 8R 2
                                R 1R24R23R17
  20039184.339   105306625.30749       589.116    20039183.848    82057108.74048
       459.046  
  20467122.357   107555455.23849       926.417    20467122.565    83809445.84348
       721.882  
  24333654.530   127874218.26044     -1728.855    24333656.692    99642238.04944
     -1347.159  
  22110882.852   116193476.37848      2777.304    22110882.536    90540368.86046
      2164.195  
  23294134.935   122411506.60547     -3131.706    23294135.772    95385589.65546
     -2440.297  
  23942377.803   125818038.64947     -3626.922    23942379.369    98040027.07045
     -2826.175  
  24557308.183   129049530.48447      2145.308    24557311.123   100558088.02445
      1671.668  
  24380054.304   128118049.21845      3828.309    24380059.648    99832269.89745
      2983.093  
  20833756.386   109482127.59748     -1490.020    20833755.709    85310745.99747
     -1161.054  
  22850864.411   121807970.42106      2882.543           0.000           0.0000 
         0.000  
  20524264.508   109906502.68907     -2591.788    20524267.538    85482848.20206
     -2015.835  
  22873739.050   122058658.41306      3515.921    22873745.924    94934543.87806
      2734.605  
  19269885.678   103008580.45308       308.179    19269891.952    80117814.37906
       239.694  
  19590187.951   104757541.04708      -804.758    19590192.102    81478102.42408
      -625.922  
  20877835.739   111682336.48208     -3714.059    20877843.171    86864071.65106
     -2888.711  
  21422505.645   114636149.71308      3211.831    21422509.783    89161472.51007
      2498.086  
 20 09 27 06 04 35.0000000  0 16G15G18G30G20G 5G29G27G24G13R10R 8R 2
                                R 1R24R23R17
  20038625.446   105303688.39749       585.812    20038625.116    82054820.26448
       456.477  
  20466242.445   107550831.02149       923.246    20466242.678    83805842.53948
       719.409  
  24335301.001   127882870.08545     -1731.672    24335302.825    99648979.68944
     -1349.366  
  22108241.014   116179593.30248      2775.930    22108240.665    90529550.87446
      2163.059  
  23297115.124   122427167.32347     -3132.492    23297115.892    95397792.74645
     -2440.918  
  23945829.388   125836176.00847     -3628.019    23945830.790    98054160.06046
     -2827.035  
  24555268.201   129038810.99147      2142.191    24555271.155   100549735.16546
      1669.233  
  24376412.135   128098909.39846      3827.305    24376417.250    99817355.75945
      2982.316  
  20835175.605   109489585.33048     -1493.109    20835175.042    85316557.21146
     -1163.465  
  22848162.111   121793565.20506      2879.871           0.000           0.0000 
         0.000  
  20526685.463   109919466.10507     -2593.839    20526688.210    85492930.84405
     -2017.434  
  22870445.353   122041082.33106      3514.512    22870452.213    94920873.59706
      2733.508  
  19269598.872   103007047.62708       305.094    19269605.233    80116622.17406
       237.296  
  19590942.507   104761576.87308      -809.519    19590946.841    81481241.38507
      -629.628  
  20881308.720   111700914.77508     -3717.246    20881316.267    86878521.42406
     -2891.195  
  21419506.117   114620098.06808      3208.758    21419510.067    89148987.93107
      2495.698  
 20 09 27 06 04 40.0000000  0 16G15G18G30G20G 5G29G27G24G13R10R 8R 2
                                R 1R24R23R17
  20038069.409   105300766.90349       582.690    20038069.052    82052543.77548
       454.042  
  20465365.002   107546220.71249       920.512    20465365.449    83802250.09148
       717.277  
  24336949.738   127891534.57244     -1733.703    24336951.715    99655731.21041
     -1350.941  
  22105599.939   116165714.70348      2775.059    22105599.774    90518736.39646
      2162.383  
  23300095.723   122442830.75747     -3133.164    23300096.724    95409998.03946
     -2441.426  
  23949281.344   125854316.50147     -3628.496    23949282.712    98068295.51146
     -2827.397  
  24553230.899   129028104.27347      2140.020    24553233.743   100541392.27145
      1667.551  
  24372770.124   128079770.00246      3827.972    24372775.130    99802441.91845
      2982.832  
  20836597.289   109497056.92148     -1495.809    20836596.828    85322379.21947
     -1165.569  
  22845462.194   121779173.25406      2876.801           0.000           0.0000 
         0.000  
  20529107.610   109932437.09007     -2594.914    20529110.592    85503019.38605
     -2018.270  
  22867152.295   122023510.85006      3513.901    22867159.190    94907206.92406
      2733.039  
  19269314.683   103005528.25208       302.523    19269320.941    80115440.43106
       235.292  
  19591701.370   104765634.69608      -813.917    19591705.651    81484397.46708
      -633.050  
  20884784.086   111719505.89108     -3719.792    20884791.732    86892981.17605
     -2893.176  
  21416509.039   114604060.41208      3205.983    21416513.206    89136514.20307
      2493.539  
 20 09 27 06 04 45.0000000  0 16G15G18G30G20G 5G29G27G24G13R10R 8R 2
                                R 1R24R23R17
  20037516.594   105297861.65249       579.229    20037516.151    82050279.92848
       451.344  
  20464490.610   107541625.12949       917.605    20464490.935    83798669.13248
       715.016  
  24338601.064   127900212.84645     -1737.558    24338603.257    99662493.56045
     -1353.941  
  22102959.994   116151841.51248      2773.776    22102959.854    90507926.11546
      2161.383  
  23303077.034   122458497.96347     -3133.979    23303077.980    95422206.28346
     -2442.062  
  23952734.034   125872460.98047     -3629.367    23952735.606    98082434.06746
     -2828.082  
  24551196.101   129017411.24747      2137.180    24551199.013   100533060.08045
      1665.336  
  24369128.123   128060631.87246      3827.495    24369133.626    99787529.10146
      2982.460  
  20838022.006   109504543.23448     -1498.703    20838021.328    85328212.71547
     -1167.819  
  22842764.918   121764795.75406      2874.102           0.000           0.0000 
         0.000  
  20531531.305   109945416.49207     -2596.957    20531534.413    85513114.48005
     -2019.859  
  22863860.400   122005944.73306      3512.655    22863867.413    94893544.38905
      2732.065  
  19269033.135   103004023.15508       299.434    19269039.307    80114269.80406
       232.891  
  19592464.539   104769715.48508      -818.706    19592468.800    81487571.40908
      -636.776  
  20888262.081   111738110.84808     -3722.480    20888269.586    86907451.68506
     -2895.265  
  21413514.766   114588037.76308      3202.835    21413519.024    89124052.12207
      2491.090  
 20 09 27 06 04 50.0000000  0 16G15G18G30G20G 5G29G27G24G13R10R 8R 2
                                R 1R24R23R17
  20036967.041   105294973.35849       576.362    20036966.691    82048029.32248
       449.112  
  20463619.051   107537045.05249       914.879    20463619.348    83795100.22348
       712.890  
  24340255.249   127908905.36645     -1738.878    24340257.124    99669266.86944
     -1354.988  
  22100321.192   116137974.41848      2773.141    22100320.929    90497120.59746
      2160.890  
  23306059.368   122474169.61347     -3134.492    23306060.052    95434417.93246
     -2442.464  
  23956187.853   125890610.11047     -3629.605    23956189.282    98096576.23146
     -2828.270  
  24549163.953   129006732.61047      2134.890    24549166.962   100524739.07945
      1663.555  
  24365486.705   128041495.68646      3827.656    24365492.004    99772617.83044
      2982.597  
  20839449.587   109512045.03749     -1501.555    20839448.965    85334058.27447
     -1170.046  
  22840070.687   121750433.45606      2871.202           0.000           0.0000 
         0.000  
  20533956.851   109958405.08707     -2598.168    20533959.862    85523216.70406
     -2020.800  
  22860569.625   121988384.80606      3511.633    22860576.620    94879886.69206
      2731.269  
  19268754.384   103002533.10508       297.011    19268760.555    80113110.87806
       231.007  
  19593231.973   104773819.95809      -822.879    19593236.275    81490763.78007
      -640.015  
  20891742.941   111756730.16408     -3724.905    20891750.263    86921933.37505
     -2897.151  
  21410523.462   114572030.94408      3200.323    21410527.726    89111602.39007
      2489.140  
 20 09 27 06 04 55.0000000  0 16G15G18G30G20G 5G29G27G24G13R10R 8R 2
                                R 1R24R23R17
  20036420.524   105292101.33149       572.866    20036420.155    82045791.38248
       446.391  
  20462750.171   107532479.68549       911.620    20462750.430    83791542.80648
       710.354  
  24341911.987   127917611.39445     -1742.491    24341914.094    99676050.82145
     -1357.784  
  22097683.362   116124112.68548      2772.004    22097683.252    90486319.25046
      2160.003  
  23309042.438   122489845.03347     -3135.604    23309043.065    95446632.52646
     -2443.332  
  23959642.216   125908763.16147     -3630.909    23959643.671    98110721.43746
     -2829.284  
  24547134.464   128996067.69846      2131.448    24547137.335   100516428.75346
      1660.871  
  24361845.396   128022360.69645      3826.563    24361850.824    99757707.49345
      2981.746  
  20840879.834   109519561.47648     -1504.762    20840879.302    85339915.23447
     -1172.547  
  22837379.028   121736085.46206      2868.051           0.000           0.0000 
         0.000  
  20536383.842   109971402.26407     -2599.972    20536387.024    85533325.62306
     -2022.198  
  22857280.065   121970830.27107      3510.401    22857287.024    94866233.17706
      2730.312  
  19268478.265   103001057.43008       293.854    19268484.679    80111963.12506
       228.551  
  19594003.932   104777947.37408      -827.733    19594008.083    81493973.98308
      -643.796  
  20895226.185   111775363.14308     -3728.023    20895233.484    86936425.68006
     -2899.578  
  21407535.190   114556039.12408      3196.878    21407539.272    89099164.33907
      2486.464  
 20 09 27 06 05  0.0000000  0 16G15G18G30G20G 5G29G27G24G13R10R 8R 2
                                R 1R24R23R17
  20035877.242   105289246.17749       569.163    20035876.801    82043566.59148
       443.503  
  20461884.347   107527929.74949       908.284    20461884.689    83787997.39848
       707.753  
  24343571.446   127926331.69545     -1745.832    24343573.317    99682845.87544
     -1360.387  
  22095046.825   116110257.02548      2770.105    22095046.508    90475522.63146
      2158.523  
  23312026.065   122505524.81647     -3136.555    23312026.842    95458850.53246
     -2444.073  
  23963097.369   125926920.83147     -3632.191    23963099.077    98124870.24946
     -2830.281  
  24545107.858   128985417.06146      2128.702    24545110.752   100508129.54345
      1658.727  
  24358204.570   128003227.65246      3826.206    24358210.125    99742798.59846
      2981.456  
  20842313.123   109527093.27348     -1507.925    20842312.570    85345784.16247
     -1175.011  
  22834690.179   121721752.57006      2864.891           0.000           0.0000 
         0.000  
  20538812.588   109984408.37007     -2602.417    20538815.834    85543441.47006
     -2024.105  
  22853991.415   121953281.78006      3508.687    22853998.413    94852584.34306
      2728.977  
  19268204.958   102999596.63708       290.621    19268211.212    80110826.95306
       226.035  
  19594780.184   104782098.27708      -832.773    19594784.443    81497202.46308
      -647.714  
  20898712.002   111794010.50708     -3730.917    20898719.606    86950929.17806
     -2901.828  
  21404549.657   114540063.02908      3193.409    21404553.718    89086738.48307
      2483.758  
 20 09 27 06 05  5.0000000  0 16G15G18G30G20G 5G29G27G24G13R10R 8R 2
                                R 1R24R23R17
  20035336.628   105286405.76249       566.815    20035336.365    82041353.28448
       441.676  
  20461021.175   107523393.05949       906.223    20461021.393    83784462.31348
       706.145  
  24345233.226   127935064.00044     -1747.480    24345235.308    99689650.26544
     -1361.672  
  22092410.852   116096405.20948      2770.102    22092410.737    90464729.02446
      2158.558  
  23315010.250   122521206.75347     -3136.270    23315011.149    95471070.21146
     -2443.854  
  23966553.140   125945080.87447     -3632.112    23966554.645    98139020.90846
     -2830.226  
  24543083.324   128974778.68947      2126.409    24543086.143   100499839.89246
      1656.937  
  24354563.723   127984094.37345      3827.011    24354569.310    99727889.56644
      2982.086  
  20843748.865   109534638.23948     -1510.137    20843748.278    85351663.36847
     -1176.729  
  22832003.789   121707432.69606      2862.812           0.000           0.0000 
         0.000  
  20541242.727   109997421.50107     -2603.030    20541245.847    85553562.79405
     -2024.581  
  22850703.428   121935736.98106      3508.374    22850710.473    94838938.39306
      2728.730  
  19267934.054   102998148.59308       288.589    19267940.409    80109700.69906
       224.452  
  19595560.390   104786270.64109      -836.401    19595564.658    81500447.63107
      -650.539  
  20902200.076   111812669.94508     -3732.835    20902207.862    86965442.05805
     -2903.319  
  21401566.540   114524100.49008      3191.245    21401570.812    89074323.17607
      2482.081  
 20 09 27 06 05 10.0000000  0 16G15G18G30G20G 5G29G27G24G13R10R 8R 2
                                R 1R24R23R17
  20034799.050   105283580.42449       563.250    20034798.598    82039151.71848
       438.890  
  20460160.285   107518869.92949       902.925    20460160.541    83780937.80148
       703.578  
  24346897.120   127943808.69545     -1750.781    24346899.863    99696464.30544
     -1364.253  
  22089775.677   116082557.58448      2768.813    22089775.468    90453938.66646
      2157.515  
  23317995.011   122536891.18147     -3137.366    23317995.684    95483291.85246
     -2444.703  
  23970009.504   125963243.56148     -3633.136    23970010.978    98153173.66945
     -2831.015  
  24541061.237   128964152.80146      2123.219    24541064.019   100491559.97745
      1654.453  
  24350922.870   127964961.06446      3826.301    24350928.416    99712980.49646
      2981.527  
  20845187.098   109542196.67548     -1513.219    20845186.678    85357553.06147
     -1179.132  
  22829319.740   121693125.95206      2860.074           0.000           0.0000 
         0.000  
  20543674.104   110010441.66107     -2604.867    20543677.307    85563689.58006
     -2026.011  
  22847416.421   121918196.38106      3507.405    22847423.296    94825295.69906
      2727.980  
  19267665.584   102996713.56208       285.438    19267671.982    80108584.57606
       222.008  
  19596344.694   104790464.57308      -841.210    19596348.952    81503709.57908
      -654.276  
  20905690.577   111831341.86308     -3735.987    20905698.234    86979964.64806
     -2905.772  
  21398586.087   114508151.73108      3188.262    21398590.291    89061918.58107
      2479.753  
 20 09 27 06 05 15.0000000  0 16G15G18G30G20G 5G29G27G24G13R10R 8R 2
                                R 1R24R23R17
  20034264.706   105280772.42749       559.851    20034264.248    82036963.67848
       436.245  
  20459302.659   107514362.69549       899.832    20459302.868    83777425.67948
       701.167  
  24348564.032   127952568.06744     -1753.386    24348566.661    99703289.78544
     -1366.276  
  22087141.819   116068716.50248      2767.609    22087141.615    90443153.41346
      2156.577  
  23320980.532   122552580.42047     -3137.894    23320981.506    95495517.20046
     -2445.120  
  23973466.793   125981411.26947     -3633.895    23973468.253    98167330.32046
     -2831.609  
  24539041.989   128953541.76547      2120.870    24539044.870   100483291.64745
      1652.617  
  24347282.383   127945830.07945      3825.996    24347288.215    99698073.26145
      2981.300  
  20846628.381   109549770.88448     -1516.266    20846628.016    85363455.03747
     -1181.508  
  22826638.730   121678834.97306      2856.780           0.000           0.0000 
         0.000  
  20546107.358   110023471.40907     -2606.702    20546110.476    85573823.83105
     -2027.441  
  22844130.527   121900662.22406      3506.078    22844137.608    94811658.06006
      2726.956  
  19267399.938   102995294.00008       282.511    19267406.443    80107480.46006
       219.726  
  19597133.461   104794682.58909      -845.952    19597137.846    81506990.25108
      -657.968  
  20909183.925   111850028.51408     -3738.809    20909191.484    86994498.70805
     -2907.965  
  21395608.809   114492219.15108      3185.137    21395612.910    89049526.58407
      2477.327  
 20 09 27 06 05 20.0000000  0 16G15G18G30G20G 5G29G27G24G13R10R 8R 2
                                R 1R24R23R17
  20033733.405   105277980.89049       556.722    20033733.097    82034788.45248
       433.805  
  20458447.857   107509870.46249       897.047    20458448.130    83773925.23348
       698.995  
  24350233.456   127961341.13645     -1755.719    24350236.076    99710125.91845
     -1368.094  
  22084509.105   116054881.02648      2766.370    22084508.743    90432372.52545
      2155.613  
  23323966.867   122568273.52847     -3139.179    23323967.732    95507745.60846
     -2446.112  
  23976924.848   125999583.06548     -3634.683    23976926.275    98181490.12545
     -2832.226  
  24537025.441   128942944.64147      2117.968    24537028.446   100475034.16445
      1650.370  
  24343642.116   127926700.75146      3825.331    24343647.963    99683167.32044
      2980.777  
  20848072.503   109557359.95348     -1519.215    20848072.032    85369368.60347
     -1183.805  
  22823960.486   121664558.61305      2853.882           0.000           0.0000 
         0.000  
  20548542.141   110036509.90707     -2608.706    20548545.314    85583964.87606
     -2029.000  
  22840845.516   121883133.90206      3505.180    22840852.611    94798024.95006
      2726.254  
  19267137.084   102993888.83508       279.718    19267143.588    80106387.56406
       217.558  
  19597926.537   104798923.68008      -850.539    19597930.797    81510288.89108
      -661.530  
  20912679.729   111868728.95508     -3741.605    20912687.361    87009043.48305
     -2910.141  
  21392634.102   114476301.98808      3182.081    21392638.452    89037146.56307
      2474.949  
 20 09 27 06 05 25.0000000  0 16G15G18G30G20G 5G29G27G24G13R10R 8R 2
                                R 1R24R23R17
  20033205.153   105275204.50149       553.772    20033204.869    82032625.04048
       431.512  
  20457595.546   107505391.94849       894.426    20457595.829    83770435.48548
       696.952  
  24351905.244   127970126.72045     -1758.828    24351908.022    99716971.82043
     -1370.527  
  22081876.968   116041049.92948      2765.542    22081876.909    90421595.04146
      2154.964  
  23326953.741   122583969.28547     -3139.511    23326954.706    95519976.04846
     -2446.379  
  23980383.290   126017757.61647     -3635.229    23980384.771    98195652.11846
     -2832.652  
  24535011.390   128932360.23547      2115.863    24535014.147   100466786.57446
      1648.723  
  24340002.012   127907571.69346      3825.722    24340007.850    99668261.54245
      2981.082  
  20849519.284   109564962.59048     -1521.831    20849518.726    85375292.73247
     -1185.847  
  22821284.809   121650295.68505      2851.046           0.000           0.0000 
         0.000  
  20550978.433   110049555.51007     -2609.636    20550981.585    85594111.45406
     -2029.722  
  22837561.593   121865609.72606      3503.934    22837568.838    94784395.03906
      2725.280  
  19266876.648   102992496.93508       276.866    19266883.113    80105304.96906
       215.335  
  19598723.759   104803186.68909      -854.855    19598728.072    81513604.54807
      -664.890  
  20916177.964   111887441.96708     -3743.972    20916185.680    87023598.04205
     -2911.983  
  21389662.228   114460398.85808      3179.046    21389666.590    89024777.47407
      2472.593  
 20 09 27 06 05 30.0000000  0 16G15G18G30G20G 5G29G27G24G13R10R 8R 2
                                R 1R24R23R17
  20032679.935   105272444.40349       550.292    20032679.573    82030474.32248
       428.800  
  20456746.260   107500928.29349       891.144    20456746.467    83766957.29948
       694.394  
  24353579.593   127978925.82845     -1761.586    24353582.481    99723828.29146
     -1372.664  
  22079246.186   116027224.26648      2764.445    22079245.820    90410821.79647
      2154.108  
  23329941.145   122599668.78846     -3140.429    23329942.139    95532209.39945
     -2447.093  
  23983842.663   126035936.05647     -3636.257    23983844.015    98209817.11446
     -2833.452  
  24532999.859   128921789.62847      2112.726    24533002.611   100458549.73147
      1646.281  
  24336362.211   127888444.06345      3824.784    24336368.056    99653356.94343
      2980.355  
  20850968.745   109572579.90248     -1525.054    20850968.334    85381228.29046
     -1188.359  
  22818611.908   121636047.30505      2848.352           0.000           0.0000 
         0.000  
  20553416.236   110062609.59007     -2611.706    20553419.300    85604264.60705
     -2031.331  
  22834278.550   121848090.99806      3502.969    22834285.698    94770769.35505
      2724.531  
  19266619.065   102991119.22708       273.773    19266625.505    80104233.42306
       212.933  
  19599525.260   104807472.52008      -859.531    19599529.435    81516937.98607
      -668.522  
  20919678.792   111906168.56608     -3746.734    20919686.425    87038163.16605
     -2914.128  
  21386693.169   114444510.97908      3175.851    21386697.590    89012420.23708
      2470.102  
 20 09 27 06 05 35.0000000  0 16G15G18G30G20G 5G29G27G24G13R10R 8R 2
                                R 1R24R23R17
  20032157.768   105269700.70849       547.105    20032157.449    82028336.37648
       426.315  
  20455899.654   107496479.59749       888.261    20455899.779    83763490.78548
       692.151  
  24355256.609   127987738.60845     -1763.640    24355259.586    99730695.41543
     -1374.266  
  22076616.365   116013404.18148      2763.566    22076615.900    90400052.90446
      2153.430  
  23332929.489   122615372.11146     -3141.081    23332930.244    95544445.75046
     -2447.602  
  23987302.589   126054118.49247     -3637.016    23987303.938    98223985.23346
     -2834.042  
  24530990.945   128911232.99447      2109.913    24530993.658   100450323.78246
      1644.085  
  24332722.445   127869317.90146      3825.022    24332728.613    99638453.40944
      2980.535  
  20852421.253   109580212.00748     -1527.808    20852420.656    85387175.39747
     -1190.500  
  22815941.602   121621813.73205      2845.457           0.000           0.0000 
         0.000  
  20555855.672   110075672.21607     -2613.382    20555858.714    85614424.43005
     -2032.637  
  22830996.626   121830577.96006      3502.332    22831003.682    94757148.11405
      2724.034  
  19266364.081   102989756.09508       271.133    19266370.574    80103173.22306
       210.882  
  19600331.058   104811781.48608      -864.035    19600335.344    81520289.39907
      -672.030  
  20923182.058   111924908.89808     -3749.386    20923189.567    87052738.97805
     -2916.195  
  21383727.113   114428638.36108      3172.897    21383731.290    89000074.85808
      2467.805  
 20 09 27 06 05 40.0000000  0 16G15G18G30G20G 5G29G27G24G13R10R 8R 2
                                R 1R24R23R17
  20031638.821   105266973.46549       543.921    20031638.496    82026211.25548
       423.836  
  20455055.894   107492045.92249       885.261    20455056.041    83760035.97948
       689.813  
  24356936.297   127996565.14545     -1767.102    24356939.401    99737573.16044
     -1376.969  
  22073987.477   115999589.78248      2762.308    22073987.230    90389288.43647
      2152.444  
  23335918.393   122631079.28247     -3141.909    23335919.445    95556685.09246
     -2448.246  
  23990763.275   126072304.96147     -3637.612    23990764.655    98238156.47846
     -2834.512  
  24528984.816   128900690.31047      2107.163    24528987.497   100442108.69847
      1641.945  
  24329083.212   127850193.35646      3825.039    24329089.271    99623551.19344
      2980.559  
  20853876.233   109587858.94748     -1530.875    20853875.895    85393134.04747
     -1192.894  
  22813274.159   121607594.81905      2842.016           0.000           0.0000 
         0.000  
  20558296.595   110088743.43907     -2615.132    20558299.516    85624590.94205
     -2033.991  
  22827715.855   121813070.23106      3501.152    22827722.484    94743530.98605
      2723.117  
  19266111.720   102988407.39408       268.222    19266118.302    80102124.23406
       208.617  
  19601141.131   104816113.43508      -868.620    19601145.352    81523658.69707
      -675.593  
  20926687.909   111943662.96008     -3752.277    20926695.565    87067325.45605
     -2918.441  
  21380763.905   114412781.22908      3170.141    21380768.091    88987741.54508
      2465.663  
 20 09 27 06 05 45.0000000  0 16G15G18G30G20G 5G29G27G24G13R10R 8R 2
                                R 1R24R23R17
  20031122.928   105264262.39949       540.090    20031122.482    82024098.73148
       420.844  
  20454214.995   107487626.97049       881.788    20454215.227    83756592.63948
       687.109  
  24358618.427   128005405.05145     -1769.847    24358621.467    99744461.44144
     -1379.098  
  22071359.749   115985780.72648      2760.754    22071359.531    90378528.13847
      2151.238  
  23338907.916   122646789.98947     -3143.195    23338909.023    95568927.19646
     -2449.246  
  23994224.915   126090495.06147     -3638.815    23994226.082    98252330.59746
     -2835.440  
  24526981.158   128890161.36147      2103.831    24526983.973   100433904.35446
      1639.352  
  24325444.195   127831070.00246      3823.961    24325449.865    99608649.87144
      2979.703  
  20855334.279   109595520.37448     -1534.402    20855333.564    85399103.98847
     -1195.640  
  22810609.541   121593390.50305      2838.453           0.000           0.0000 
         0.000  
  20560739.066   110101822.79107     -2617.104    20560742.032    85634763.77905
     -2035.527  
  22824436.039   121795568.28406      3499.172    22824442.838    94729918.39305
      2721.582  
  19265861.985   102987072.91508       264.922    19265868.622    80101086.30406
       206.047  
  19601955.536   104820468.17608      -873.746    19601959.678    81527045.70907
      -679.586  
  20930196.417   111962430.48608     -3755.296    20930203.976    87081922.40905
     -2920.788  
  21377803.430   114396939.19308      3166.394    21377807.503    88975419.97308
      2462.749  
 20 09 27 06 05 50.0000000  0 16G15G18G30G20G 5G29G27G24G13R10R 8R 2
                                R 1R24R23R17
  20030610.471   105261569.35749       537.214    20030610.134    82022000.25348
       418.604  
  20453377.321   107483224.64649       879.241    20453377.585    83753162.26148
       685.125  
  24360303.401   128014260.24144     -1772.479    24360306.458    99751361.60544
     -1381.155  
  22068733.330   115971978.95848      2759.941    22068733.032    90367773.53446
      2150.605  
  23341898.820   122662506.14048     -3142.949    23341899.618    95581173.55846
     -2449.050  
  23997687.333   126108690.78647     -3639.323    23997688.727    98266509.08146
     -2835.836  
  24524980.533   128879648.00546      2101.601    24524983.364   100425712.13145
      1637.612  
  24321805.633   127811949.85646      3824.094    24321811.901    99593751.07745
      2979.812  
  20856795.357   109603198.20748     -1536.773    20856794.683    85405086.71347
     -1197.488  
  22807947.898   121579202.56805      2836.448           0.000           0.0000 
         0.000  
  20563183.560   110114912.32207     -2618.394    20563186.491    85644944.51905
     -2036.527  
  22821157.497   121778073.10907      3498.655    22821164.348    94716311.06705
      2721.180  
  19265615.409   102985754.48408       262.511    19265621.845    80100060.84806
       204.172  
  19602774.424   104824847.69709      -878.085    19602778.584    81530451.98807
      -682.960  
  20933707.733   111981213.25808     -3757.816    20933715.262    87096531.23105
     -2922.749  
  21374846.142   114381114.21008      3163.609    21374850.343    88963111.66907
      2460.585  
 20 09 27 06 05 55.0000000  0 16G15G18G30G20G 5G29G27G24G13R10R 8R 2
                                R 1R24R23R17
  20030100.487   105258889.37349       534.508    20030099.976    82019911.96248
       416.500  
  20452541.748   107478833.96749       876.766    20452541.891    83749740.95248
       683.195  
  24361990.276   128023125.80045     -1774.605    24361993.290    99758269.80541
     -1382.809  
  22066107.484   115958179.42148      2759.343    22066107.036    90357020.64447
      2150.133  
  23344889.550   122678222.84547     -3143.559    23344890.428    95593420.32946
     -2449.531  
  24001150.151   126126887.04947     -3639.262    24001151.158    98280687.97046
     -2835.792  
  24522981.883   128869145.24447      2099.543    24522984.774   100417528.14346
      1636.004  
  24318167.022   127792828.04445      3824.823    24318172.885    99578850.97944
      2980.387  
  20858258.528   109610887.47348     -1539.176    20858257.968    85411078.34147
     -1199.362  
  22805288.541   121565026.17206      2833.793           0.000           0.0000 
         0.000  
  20565628.723   110128006.80507     -2619.597    20565631.904    85655129.10805
     -2037.468  
  22817879.331   121760580.40506      3497.878    22817886.025    94702705.62005
      2720.570  
  19265370.888   102984447.09708       260.401    19265377.234    80099043.99306
       202.530  
  19603597.098   104829246.71709      -881.855    19603601.331    81533873.45807
      -685.886  
  20937220.880   112000006.41008     -3759.816    20937228.456    87111148.11805
     -2924.305  
  21371891.087   114365301.30108      3161.116    21371895.330    88950812.73808
      2458.647  
 20 09 27 06 06  0.0000000  0 16G15G18G30G20G 5G29G27G24G13R10R 8R 2
                                R 1R24R23R17
  20029593.353   105256224.14549       531.191    20029592.999    82017835.16248
       413.909  
  20451708.837   107474456.61049       873.723    20451709.113    83746330.02248
       680.823  
  24363679.747   128032003.24545     -1776.827    24363682.879    99765187.29444
     -1384.543  
  22063482.212   115944383.80448      2758.288    22063481.779    90346270.81146
      2149.315  
  23347880.826   122693941.69947     -3144.690    23347881.490    95605668.79246
     -2450.413  
  24004613.111   126145085.55947     -3640.488    24004614.306    98294868.57546
     -2836.749  
  24520985.519   128858654.78547      2096.491    24520988.301   100409353.76546
      1633.628  
  24314528.049   127773705.98846      3824.051    24314534.194    99563950.70845
      2979.780  
  20859724.164   109618589.78448     -1542.108    20859723.708    85417080.14646
     -1201.644  
  22802631.395   121550862.83606      2831.167           0.000           0.0000 
         0.000  
  20568075.480   110141108.30007     -2621.547    20568078.518    85665319.13805
     -2038.983  
  22814601.894   121743091.40207      3497.117    22814608.687    94689103.04505
      2719.977  
  19265128.630   102983152.40308       257.249    19265135.262    80098037.01806
       200.081  
  19604423.859   104833667.28308      -886.578    19604427.940    81537311.67907
      -689.565  
  20940736.294   112018811.37808     -3762.438    20940743.816    87125774.20405
     -2926.343  
  21368938.675   114349502.03508      3158.202    21368942.934    88938524.41608
      2456.375  
 20 09 27 06 06  5.0000000  0 16G15G18G30G20G 5G29G27G24G13R10R 8R 2
                                R 1R24R23R17
  20029089.830   105253578.27449       527.604    20029089.446    82015773.44748
       411.121  
  20450879.362   107470097.25549       870.487    20450879.553    83742933.11448
       678.296  
  24365372.249   128040897.34545     -1780.171    24365375.249    99772117.76745
     -1387.148  
  22060858.648   115930596.85148      2756.804    22060858.248    90335527.73546
      2148.148  
  23350873.412   122709667.31447     -3145.210    23350874.071    95617922.50445
     -2450.816  
  24008077.635   126163291.00347     -3641.477    24008078.739    98309054.63046
     -2837.523  
  24518992.541   128848181.36247      2093.141    24518995.316   100401192.66946
      1631.019  
  24310890.168   127754588.45145      3823.390    24310896.091    99549053.91244
      2979.257  
  20861193.254   109626309.80948     -1545.534    20861192.621    85423095.75646
     -1204.312  
  22799977.766   121536717.37505      2827.898           0.000           0.0000 
         0.000  
  20570524.211   110154221.07707     -2623.437    20570527.013    85675517.97105
     -2040.453  
  22811326.170   121725611.19906      3495.581    22811332.821    94675507.32905
      2718.780  
  19264889.743   102981875.10308       253.949    19264896.182    80097043.56406
       197.515  
  19605255.286   104838113.79708      -891.438    19605259.602    81540770.07607
      -693.344  
  20944254.932   112037633.03508     -3765.445    20944262.331    87140413.25605
     -2928.683  
  21365989.604   114333721.33308      3154.637    21365993.940    88926250.53808
      2453.602  
 20 09 27 06 06 10.0000000  0 16G15G18G30G20G 5G29G27G24G13R10R 8R 2
                                R 1R24R23R17
  20028588.400   105250943.83249       525.714    20028588.075    82013720.63648
       409.644  
  20450051.587   107465747.92649       868.897    20450051.922    83739544.03948
       677.063  
  24367066.481   128049800.05946     -1781.577    24367069.440    99779054.94943
     -1388.241  
  22058235.258   115916810.49748      2757.261    22058234.932    90324785.13146
      2148.515  
  23353865.640   122725391.76446     -3144.527    23353866.294    95630175.31445
     -2450.284  
  24011541.753   126181495.31947     -3640.840    24011542.861    98323239.78847
     -2837.027  
  24517001.085   128837716.93847      2092.391    24517004.014   100393038.55846
      1630.429  
  24307251.544   127735467.57146      3824.754    24307257.930    99534158.50055
      2980.327  
  20862664.236   109634039.55848     -1546.944    20862663.463    85429118.95046
     -1205.410  
  22797325.806   121522581.84305      2826.386           0.000           0.0000 
         0.000  
  20572973.496   110167337.26507     -2623.742    20572976.415    85685719.45405
     -2040.688  
  22808050.388   121708131.37407      3495.668    22808056.963    94661911.92605
      2718.851  
  19264652.527   102980607.17208       252.612    19264659.018    80096057.42406
       196.480  
  19606090.281   104842578.29708      -894.930    19606094.384    81544242.47707
      -696.054  
  20947775.021   112056463.20008     -3766.800    20947782.270    87155058.92405
     -2929.738  
  21363042.409   114317950.95408      3153.128    21363046.845    88913984.68608
      2452.433  
 20 09 27 06 06 15.0000000  0 16G15G18G30G20G 5G29G27G24G13R10R 8R 2
                                R 1R24R23R17
  20028090.394   105248326.41949       521.473    20028090.130    82011681.10048
       406.339  
  20449227.051   107461414.23749       865.046    20449227.240    83736167.13448
       674.062  
  24368763.348   128058717.06245     -1785.054    24368766.754    99786003.22644
     -1390.969  
  22055613.023   115903030.43448      2755.097    22055612.611    90314047.41646
      2146.827  
  23356858.746   122741120.64446     -3146.664    23356859.361    95642431.57945
     -2451.945  
  24015006.804   126199704.09747     -3642.444    24015007.944    98337428.44546
     -2838.273  
  24515012.684   128827267.13746      2087.957    24515015.384   100384895.88746
      1626.980  
  24303613.314   127716348.91546      3823.257    24303619.564    99519260.84544
      2979.145  
  20864138.084   109641784.68448     -1550.840    20864137.493    85435154.10546
     -1208.448  
  22794676.880   121508461.64005      2822.046           0.000           0.0000 
         0.000  
  20575424.472   110180462.47407     -2625.918    20575427.338    85695927.93405
     -2042.383  
  22804775.726   121690657.65307      3494.077    22804782.640    94648321.27305
      2717.617  
  19264418.151   102979354.33008       248.780    19264424.511    80095082.98106
       193.496  
  19606929.562   104847066.46308      -900.289    19606933.729    81547733.26607
      -700.230  
  20951297.784   112075307.57508     -3770.590    20951305.094    87169715.65805
     -2932.684  
  21360098.419   114302196.72608      3148.988    21360102.876    88901731.40707
      2449.215  
 20 09 27 06 06 20.0000000  0 16G15G18G30G20G 5G29G27G24G13R10R 8R 2
                                R 1R24R23R17
  20027595.993   105245728.10649       518.258    20027595.588    82009656.44148
       403.831  
  20448405.758   107457098.28649       861.929    20448405.949    83732804.05548
       671.628  
  24370463.272   128067650.34746     -1787.605    24370466.716    99792964.22544
     -1392.937  
  22052992.299   115889258.71948      2753.996    22052991.959    90303316.22046
      2145.972  
  23359853.024   122756855.99247     -3147.479    23359853.660    95654692.88845
     -2452.581  
  24018473.017   126217919.48147     -3643.386    24018474.235    98351622.23046
     -2839.007  
  24513027.295   128816834.06747      2085.234    24513030.224   100376766.20746
      1624.858  
  24299976.033   127697234.75346      3822.948    24299982.307    99504366.79145
      2978.926  
  20865615.348   109649547.19948     -1553.891    20865614.514    85441202.82246
     -1210.827  
  22792031.302   121494359.12405      2819.097           0.000           0.0000 
         0.000  
  20577877.523   110193598.85407     -2627.991    20577880.688    85706145.11305
     -2043.995  
  22801502.855   121673192.57606      3492.761    22801509.667    94634737.34405
      2716.593  
  19264186.944   102978118.51908       245.948    19264193.351    80094121.80106
       191.288  
  19607773.675   104851580.40608      -904.866    19607777.918    81551244.10407
      -703.788  
  20954823.641   112094168.31308     -3773.402    20954831.066    87184385.11305
     -2934.870  
  21357157.781   114286460.71708      3145.901    21357162.287    88889492.29108
      2446.808  
 20 09 27 06 06 25.0000000  0 16G15G18G30G20G 5G29G27G24G13R10R 8R 2
                                R 1R24R23R17
  20027105.215   105243149.45549       513.203    20027104.964    82007647.10548
       399.898  
  20447587.891   107452800.61449       857.152    20447588.091    83729455.22248
       667.910  
  24372166.428   128076600.49246     -1792.229    24372169.831    99799938.38445
     -1396.542  
  22050373.273   115875495.89748      2751.214    22050372.811    90292591.96346
      2143.805  
  23362848.870   122772598.33447     -3149.499    23362849.411    95666959.64346
     -2454.160  
  24021940.598   126236141.93047     -3645.996    24021941.802    98365821.52446
     -2841.038  
  24511045.205   128806418.26647      2081.155    24511047.934   100368649.99947
      1621.675  
  24296339.728   127678125.49546      3820.659    24296345.758    99489476.48044
      2977.144  
  20867095.841   109657327.67648     -1558.468    20867095.149    85447265.52746
     -1214.394  
  22789388.976   121480274.79205      2814.687           0.000           0.0000 
         0.000  
  20580333.024   110206747.07907     -2631.074    20580335.911    85716371.49705
     -2046.395  
  22798231.573   121655736.39206      3489.683    22798238.399    94621160.33605
      2714.199  
  19263959.120   102976900.45208       241.277    19263965.585    80093174.42106
       187.660  
  19608622.670   104856120.61608      -911.172    19608626.921    81554775.37107
      -708.691  
  20958352.516   112113045.91408     -3777.668    20958359.919    87199067.68005
     -2938.190  
  21354220.695   114270743.65308      3140.871    21354225.022    88877267.91508
      2442.898  
 20 09 27 06 06 30.0000000  0 16G15G18G30G20G 5G29G27G24G13R10R 8R 2
                                R 1R24R23R17
  20026618.059   105240589.74649       511.559    20026617.754    82005652.53148
       398.617  
  20446773.441   107448520.52449       855.788    20446773.655    83726120.08548
       666.843  
  24373872.615   128085566.75446     -1793.293    24373876.021    99806925.07244
     -1397.374  
  22047755.977   115861741.22648      2751.645    22047755.588    90281874.03246
      2144.136  
  23365845.892   122788347.13446     -3149.246    23365846.340    95679231.41046
     -2453.961  
  24025409.456   126254370.74447     -3644.917    24025410.651    98380025.79046
     -2840.198  
  24509066.371   128796019.07947      2079.823    24509069.156   100360546.73246
      1620.636  
  24292704.144   127659020.37546      3821.944    24292709.950    99474589.39344
      2978.141  
  20868579.769   109665125.36348     -1559.734    20868578.985    85453341.64746
     -1215.379  
  22786749.986   121466207.93005      2812.776           0.000           0.0000 
         0.000  
  20582790.400   110219906.30907     -2631.422    20582793.320    85726606.45805
     -2046.663  
  22794961.744   121638288.49007      3490.691    22794968.549    94607589.74405
      2714.980  
  19263734.426   102975699.39408       240.030    19263740.938    80092240.25806
       186.690  
  19609476.528   104860686.48508      -914.089    19609480.724    81558326.60408
      -710.960  
  20961884.590   112131939.62608     -3778.815    20961891.895    87213762.77605
     -2939.081  
  21351286.958   114255044.63108      3139.565    21351291.359    88865057.56308
      2441.886  
 20 09 27 06 06 35.0000000  0 16G15G18G30G20G 5G29G27G24G13R10R 8R 2
                                R 1R24R23R17
  20026132.803   105238039.64749       508.233    20026132.509    82003665.44248
       396.022  
  20445960.520   107444248.68849       852.769    20445960.690    83722791.37948
       664.491  
  24375580.203   128094539.78446     -1795.800    24375583.562    99813917.04244
     -1399.328  
  22045138.300   115847985.42548      2750.723    22045137.842    90271155.23846
      2143.421  
  23368842.047   122804092.85046     -3149.246    23368842.618    95691500.82546
     -2453.957  
  24028877.730   126272596.58447     -3645.641    24028878.946    98394227.72246
     -2840.765  
  24507088.885   128785627.16846      2077.094    24507091.822   100352449.13147
      1618.511  
  24289067.652   127639910.01246      3822.026    24289073.518    99459698.24843
      2978.207  
  20870065.015   109672930.91748     -1562.582    20870064.296    85459423.90746
     -1217.598  
  22784112.674   121452149.06805      2810.215           0.000           0.0000 
         0.000  
  20585247.946   110233066.97807     -2633.117    20585250.922    85736842.53305
     -2047.979  
  22791691.769   121620839.18007      3489.336    22791698.618    94594018.06705
      2713.930  
  19263511.105   102974505.77208       237.151    19263517.483    80091311.89306
       184.452  
  19610333.393   104865268.46608      -918.741    19610337.644    81561890.36107
      -714.522  
  20965417.769   112150839.84908     -3781.542    20965425.068    87228462.94105
     -2941.202  
  21348354.925   114239354.29308      3136.613    21348359.150    88852853.97808
      2439.590  
 20 09 27 06 06 40.0000000  0 16G15G18G30G20G 5G29G27G24G13R10R 8R 2
                                R 1R24R23R17
  20025650.592   105235505.45449       504.816    20025650.194    82001690.75248
       393.363  
  20445150.432   107439991.39749       849.714    20445150.624    83719474.01248
       662.117  
  24377290.208   128103525.91946     -1798.680    24377293.436    99820919.22144
     -1401.569  
  22042521.579   115834234.83948      2749.328    22042521.120    90260440.48046
      2142.327  
  23371838.961   122819841.92447     -3150.788    23371839.508    95703772.80945
     -2455.163  
  24032346.583   126290825.68647     -3646.640    24032347.877    98408432.22546
     -2841.539  
  24505113.824   128775248.74547      2074.070    24505116.875   100344362.08646
      1616.160  
  24285431.161   127620800.96646      3821.026    24285437.287    99444808.05344
      2977.421  
  20871553.106   109680750.66848     -1565.840    20871552.503    85465517.20746
     -1220.140  
  22781477.743   121438104.84105      2806.805           0.000           0.0000 
         0.000  
  20587707.180   110246235.59607     -2634.636    20587710.036    85747084.81305
     -2049.160  
  22788422.723   121603395.05006      3488.023    22788429.470    94580450.41905
      2712.905  
  19263290.564   102973326.13608       234.038    19263296.930    80090394.37606
       182.027  
  19611194.370   104869872.96708      -923.519    19611198.656    81565471.63807
      -718.297  
  20968953.509   112169753.13908     -3784.347    20968960.848    87243173.26305
     -2943.387  
  21345425.705   114223679.03808      3133.257    21345430.073    88840662.11908
      2436.976  
 20 09 27 06 06 45.0000000  0 16G15G18G30G20G 5G29G27G24G13R10R 8R 2
                                R 1R24R23R17
  20025171.429   105232987.59149       501.878    20025171.059    81999728.77448
       391.073  
  20444343.209   107435749.10249       847.004    20444343.281    83716168.32648
       660.000  
  24379002.931   128112525.55946     -1801.163    24379005.701    99827931.94044
     -1403.499  
  22039905.994   115820489.84848      2748.469    22039905.606    90249730.10546
      2141.645  
  23374836.650   122835594.72946     -3150.979    23374837.266    95716047.71946
     -2455.312  
  24035816.242   126309058.46447     -3647.043    24035817.446    98422639.56446
     -2841.855  
  24503141.632   128764884.46047      2071.452    24503144.646   100336286.01146
      1614.116  
  24281795.250   127601693.43446      3821.116    24281801.186    99429919.10644
      2977.491  
  20873044.080   109688585.03848     -1568.292    20873043.202    85471621.90146
     -1222.051  
  22778845.836   121424075.51405      2804.406           0.000           0.0000 
         0.000  
  20590167.822   110259412.44007     -2636.359    20590170.775    85757333.45105
     -2050.504  
  22785154.591   121585956.51306      3486.929    22785161.535    94566887.12005
      2712.054  
  19263072.431   102972160.71708       231.422    19263078.771    80089487.93806
       179.992  
  19612059.848   104874500.31308      -927.706    19612064.000    81569070.68207
      -721.555  
  20972491.529   112188679.81908     -3786.745    20972499.036    87257894.01405
     -2945.249  
  21342499.268   114208019.27008      3130.355    21342503.596    88828482.30108
      2434.723  
 20 09 27 06 06 50.0000000  0 16G15G18G30G20G 5G29G27G24G13R10R 8R 2
                                R 1R24R23R17
  20024695.124   105230484.62249       499.199    20024694.861    81997778.41648
       388.988  
  20443538.457   107431520.38349       844.398    20443538.613    83712873.22148
       657.969  
  24380717.907   128121537.29045     -1803.496    24380720.690    99834954.06445
     -1405.323  
  22037291.371   115806749.03648      2747.874    22037290.614    90239022.99446
      2141.203  
  23377834.725   122851349.78247     -3151.175    23377835.465    95728324.37546
     -2455.460  
  24039286.303   126327293.47547     -3646.765    24039287.445    98436848.66146
     -2841.640  
  24501171.708   128754532.69147      2069.183    24501174.621   100328219.71447
      1612.351  
  24278159.404   127582586.05846      3821.358    24278164.897    99415030.23745
      2977.680  
  20874537.321   109696432.54248     -1570.680    20874536.571    85477736.84147
     -1223.909  
  22776216.379   121410059.68905      2801.859           0.000           0.0000 
         0.000  
  20592629.788   110272596.12507     -2637.265    20592632.697    85767587.42805
     -2051.206  
  22781887.421   121568522.26806      3486.504    22781894.401    94553327.17505
      2711.730  
  19262856.938   102971008.24708       229.352    19262863.284    80088591.57506
       178.378  
  19612929.255   104879149.20609      -931.819    19612933.439    81572686.47807
      -724.753  
  20976031.982   112207618.38508     -3788.905    20976039.431    87272624.01305
     -2946.930  
  21339575.465   114192373.59908      3127.890    21339579.748    88816313.45408
      2432.805  
 20 09 27 06 06 55.0000000  0 16G15G18G30G20G 5G29G27G24G13R10R 8R 2
                                R 1R24R23R17
  20024221.857   105227997.43449       495.534    20024221.572    81995840.34648
       386.129  
  20442736.557   107427306.09049       841.151    20442736.622    83709589.35948
       655.441  
  24382435.188   128130561.88146     -1806.843    24382438.090    99841986.18744
     -1407.937  
  22034677.507   115793013.24548      2746.206    22034676.798    90228319.79046
      2139.901  
  23380833.431   122867107.90446     -3152.163    23380834.111    95740603.42146
     -2456.234  
  24042756.909   126345531.66147     -3648.104    24042758.181    98451060.21146
     -2842.683  
  24499204.499   128744194.34447      2066.089    24499207.297   100320163.84947
      1609.937  
  24274523.508   127563479.85946      3820.910    24274529.056    99400142.32743
      2977.335  
  20876033.413   109704294.06048     -1574.109    20876032.621    85483862.69947
     -1226.578  
  22773589.858   121396058.31905      2798.042           0.000           0.0000 
         0.000  
  20595093.019   110285787.62007     -2639.332    20595096.084    85777847.47105
     -2052.815  
  22778621.111   121551092.86207      3484.800    22778627.976    94539770.98805
      2710.405  
  19262643.871   102969869.34708       226.059    19262650.187    80087705.77506
       175.823  
  19613802.745   104883820.49509      -936.866    19613806.963    81576319.70307
      -728.679  
  20979574.710   112226569.78108     -3791.979    20979582.019    87287363.97405
     -2949.320  
  21336654.401   114176742.92608      3124.133    21336658.805    88804156.26208
      2429.878  
 20 09 27 06 07  0.0000000  0 16G15G18G30G20G 5G29G27G24G13R10R 8R 2
                                R 1R24R23R17
  20023752.028   105225528.68249       492.156    20023751.693    81993916.64748
       383.496  
  20441937.703   107423108.89349       837.987    20441937.815    83706318.81748
       652.977  
  24384155.586   128139602.07145     -1809.073    24384158.434    99849030.48943
     -1409.667  
  22032065.177   115779285.23248      2745.120    22032064.449    90217622.62846
      2139.051  
  23383833.255   122882871.89747     -3152.796    23383833.959    95752887.04846
     -2456.730  
  24046228.621   126363775.63047     -3649.038    24046229.898    98465276.28346
     -2843.410  
  24497240.292   128733872.21147      2063.016    24497243.050   100312120.62146
      1607.538  
  24270888.582   127544377.54146      3820.230    24270893.933    99385257.41644
      2976.808  
  20877532.536   109712172.25548     -1577.007    20877531.824    85490001.55947
     -1228.836  
  22770966.195   121382074.00005      2795.301           0.000           0.0000 
         0.000  
  20597558.484   110298989.38207     -2641.171    20597561.396    85788115.50105
     -2054.249  
  22775356.464   121533671.17506      3484.109    22775363.173    94526220.78105
      2709.863  
  19262433.807   102968746.99708       223.105    19262440.213    80086832.83806
       173.527  
  19614680.919   104888516.82809      -941.370    19614685.268    81579972.40207
      -732.179  
  20983120.440   112245536.76008     -3794.601    20983127.933    87302116.05505
     -2951.358  
  21333736.753   114161129.97108      3121.109    21333740.962    88792012.84608
      2427.531  
 20 09 27 06 07  5.0000000  0 16G15G18G30G20G 5G29G27G24G13R10R 8R 2
                                R 1R24R23R17
  20023285.060   105223074.90449       488.882    20023284.761    81992004.60848
       380.945  
  20441141.691   107418925.38449       835.004    20441141.676    83703058.94648
       650.652  
  24385878.064   128148654.41045     -1812.065    24385881.117    99856084.27744
     -1412.003  
  22029453.597   115765561.44548      2744.022    22029452.831    90206928.76846
      2138.199  
  23386833.691   122898638.23347     -3154.090    23386834.106    95765172.52546
     -2457.729  
  24049700.694   126382021.87447     -3649.608    24049702.086    98479494.12346
     -2843.854  
  24495278.375   128723562.70547      2060.378    24495281.295   100304087.24946
      1605.484  
  24267253.704   127525275.53547      3820.042    24267258.807    99370372.71645
      2976.651  
  20879034.144   109720063.66448     -1580.094    20879033.454    85496150.70246
     -1231.245  
  22768345.367   121368103.26605      2792.569           0.000           0.0000 
         0.000  
  20600025.176   110312198.09507     -2643.035    20600027.953    85798388.97005
     -2055.694  
  22772092.344   121516253.83306      3482.667    22772099.073    94512673.99005
      2708.746  
  19262226.365   102967637.56708       220.233    19262232.636    80085969.92506
       171.288  
  19615563.235   104893234.72009      -946.156    19615567.407    81583641.86107
      -735.902  
  20986668.396   112264515.59208     -3797.304    20986675.749    87316877.36405
     -2953.465  
  21330821.886   114145531.33608      3118.164    21330826.037    88779880.60608
      2425.237  
 20 09 27 06 07 10.0000000  0 16G15G18G30G20G 5G29G27G24G13R10R 8R 2
                                R 1R24R23R17
  20022821.327   105220637.75349       485.609    20022821.004    81990105.53748
       378.394  
  20440348.529   107414757.19749       831.996    20440348.717    83699811.00548
       648.305  
  24387603.309   128157720.47846     -1814.969    24387606.096    99863148.74643
     -1414.257  
  22026843.157   115751843.61248      2742.766    22026842.463    90196239.56246
      2137.219  
  23389834.647   122914408.55147     -3154.323    23389835.153    95777461.05946
     -2457.917  
  24053173.793   126400272.10347     -3650.539    24053175.091    98493715.06146
     -2844.581  
  24493319.333   128713267.59047      2057.180    24493322.256   100296065.09346
      1602.995  
  24263619.198   127506175.57547      3819.855    24263624.055    99355489.63744
      2976.512  
  20880538.598   109727969.90649     -1582.698    20880538.039    85502311.41447
     -1233.273  
  22765727.246   121354147.86205      2789.237           0.000           0.0000 
         0.000  
  20602493.336   110325415.41507     -2644.351    20602496.409    85808669.09305
     -2056.718  
  22768829.502   121498842.24407      3481.581    22768836.246    94499131.64105
      2707.897  
  19262021.540   102966542.78808       217.390    19262027.942    80085118.43706
       169.077  
  19616449.824   104897975.80408      -950.719    19616454.133    81587329.36807
      -739.452  
  20990218.950   112283508.03608     -3799.879    20990226.253    87331649.26506
     -2955.464  
  21327909.846   114129948.57608      3114.835    21327913.980    88767760.68108
      2422.647  
 20 09 27 06 07 15.0000000  0 16G15G18G30G20G 5G29G27G24G13R10R 8R 2
                                R 1R24R23R17
  20022361.028   105218218.27349       482.745    20022360.660    81988220.22448
       376.160  
  20439558.408   107410605.39749       829.155    20439558.451    83696575.84248
       646.094  
  24389331.366   128166801.38446     -1817.547    24389334.139    99870224.76345
     -1416.273  
  22024234.012   115738132.74648      2741.914    22024233.296    90185555.77146
      2136.555  
  23392836.582   122930183.88747     -3154.941    23392836.862    95789753.52646
     -2458.398  
  24056647.601   126418527.27448     -3650.944    24056648.767    98507939.86946
     -2844.895  
  24491363.111   128702987.88347      2054.683    24491365.861   100288054.94946
      1601.050  
  24259985.130   127487078.60846      3819.336    24259989.941    99340608.92545
      2976.104  
  20882046.295   109735892.03048     -1585.480    20882045.568    85508484.49446
     -1235.440  
  22763112.264   121340208.97505      2786.569           0.000           0.0000 
         0.000  
  20604963.431   110338642.38307     -2645.796    20604966.315    85818956.72805
     -2057.848  
  22765567.762   121481437.72407      3481.141    22765574.641    94485594.80105
      2707.554  
  19261819.687   102965463.60808       214.671    19261826.157    80084279.07606
       166.969  
  19617341.103   104902741.18408      -955.004    19617345.170    81591035.77307
      -742.784  
  20993772.110   112302515.20008     -3802.270    20993779.379    87346432.60106
     -2957.323  
  21325000.929   114114382.84108      3112.023    21325005.302    88755654.00208
      2420.457  
 20 09 27 06 07 20.0000000  0 16G15G18G30G20G 5G29G27G24G13R10R 8R 2
                                R 1R24R23R17
  20021903.201   105215812.74949       479.515    20021902.759    81986345.78948
       373.647  
  20438770.775   107406466.23049       826.397    20438770.860    83693350.50648
       643.940  
  24391061.553   128175893.32946     -1819.659    24391064.455    99877309.36845
     -1417.926  
  22021625.608   115724425.17948      2740.871    22021624.833    90174874.55146
      2135.737  
  23395838.889   122945960.55247     -3155.460    23395839.229    95802047.03045
     -2458.804  
  24060121.595   126436783.76447     -3651.453    24060122.861    98522165.67546
     -2845.293  
  24489409.122   128692719.88547      2052.145    24489411.981   100280053.92045
      1599.073  
  24256350.778   127467980.92946      3819.210    24256355.859    99325727.68344
      2976.016  
  20883556.075   109743826.35149     -1588.476    20883555.548    85514667.07747
     -1237.776  
  22760499.765   121326282.72605      2783.921           0.000           0.0000 
         0.000  
  20607434.621   110351875.05507     -2647.370    20607437.349    85829248.77805
     -2059.069  
  22762306.806   121464036.48107      3479.749    22762313.745    94472060.49605
      2706.473  
  19261620.081   102964396.35108       211.789    19261626.524    80083449.00506
       164.727  
  19618236.105   104907527.00608      -959.449    19618240.302    81594758.08507
      -746.238  
  20997327.296   112321533.20508     -3804.933    20997334.682    87361224.37406
     -2959.397  
  21322094.665   114098830.33508      3109.102    21322098.816    88743557.60508
      2418.190  
 20 09 27 06 07 25.0000000  0 16G15G18G30G20G 5G29G27G24G13R10R 8R 2
                                R 1R24R23R17
  20021448.596   105213423.84949       476.379    20021448.283    81984484.31648
       371.199  
  20437985.997   107402342.41449       823.398    20437986.216    83690137.14748
       641.608  
  24392794.216   128184998.97046     -1822.418    24392797.104    99884404.71145
     -1420.065  
  22019018.196   115710723.54048      2739.902    22019017.394    90164197.96246
      2134.987  
  23398841.933   122961741.12548     -3156.382    23398842.036    95814343.58546
     -2459.519  
  24063596.556   126455044.15348     -3652.266    24063597.698    98536394.58446
     -2845.921  
  24487458.044   128682466.24247      2049.254    24487460.953   100272064.06745
      1596.820  
  24252717.116   127448885.37547      3819.366    24252722.330    99310848.02245
      2976.124  
  20885068.715   109751775.42648     -1591.152    20885068.170    85520861.16847
     -1239.858  
  22757890.118   121312371.74605      2780.851           0.000           0.0000 
         0.000  
  20609907.245   110365116.34207     -2648.909    20609910.103    85839547.58705
     -2060.261  
  22759046.984   121446641.16306      3478.598    22759053.735    94458530.80605
      2705.574  
  19261423.148   102963343.66208       209.238    19261429.548    80082630.23207
       162.737  
  19619135.413   104912336.07208      -963.843    19619139.491    81598498.45807
      -749.660  
  21000884.979   112340564.81508     -3807.663    21000892.362    87376026.72206
     -2961.519  
  21319191.228   114083293.80308      3105.988    21319195.440    88731473.65207
      2415.769  
 20 09 27 06 07 30.0000000  0 16G15G18G30G20G 5G29G27G24G13R10R 8R 2
                                R 1R24R23R17
  20020997.035   105211050.25449       472.992    20020996.517    81982634.75648
       368.566  
  20437203.868   107398232.61249       820.495    20437204.003    83686934.70848
       639.344  
  24394529.517   128194117.06846     -1824.941    24394532.155    99891509.73542
     -1422.035  
  22016411.702   115697026.50948      2738.766    22016410.943    90153524.95046
      2134.172  
  23401845.319   122977524.49547     -3156.891    23401845.554    95826642.30246
     -2459.918  
  24067071.903   126473307.04047     -3653.171    24067073.113    98550625.38846
     -2846.633  
  24485509.228   128672225.71147      2046.914    24485512.157   100264084.44746
      1594.996  
  24249083.513   127429790.47447      3818.742    24249088.496    99295968.85945
      2975.640  
  20886584.017   109759738.04648     -1594.031    20886583.254    85527065.80847
     -1242.104  
  22755283.112   121298474.94005      2777.805           0.000           0.0000 
         0.000  
  20612381.199   110378364.78807     -2650.586    20612384.076    85849851.94205
     -2061.570  
  22755787.837   121429250.29407      3476.905    22755794.731    94445004.60605
      2704.262  
  19261228.806   102962304.23308       206.530    19261234.988    80081821.78806
       160.632  
  19620038.661   104917166.99009      -968.503    19620042.806    81602255.83507
      -753.281  
  21004445.096   112359608.60408     -3810.073    21004452.474    87390838.56106
     -2963.395  
  21316290.558   114067771.88808      3102.808    21316294.959    88719401.06108
      2413.297  
 20 09 27 06 07 35.0000000  0 16G15G18G30G20G 5G29G27G24G13R10R 8R 2
                                R 1R24R23R17
  20020548.525   105208693.31849       469.839    20020548.131    81980798.18948
       366.108  
  20436424.783   107394138.17949       817.522    20436424.972    83683744.23748
       637.027  
  24396267.207   128203248.87846     -1827.362    24396270.019    99898625.40544
     -1423.922  
  22013806.381   115683335.45448      2737.895    22013805.723    90142856.60146
      2133.343  
  23404849.489   122993311.79647     -3157.647    23404849.752    95838944.08246
     -2460.508  
  24070547.808   126491573.79047     -3653.733    24070549.240    98564859.20446
     -2847.069  
  24483563.324   128661999.60047      2044.305    24483566.281   100256116.03845
      1592.964  
  24245450.297   127410697.82247      3818.772    24245455.403    99281091.51544
      2975.671  
  20888101.985   109767715.46148     -1596.792    20888101.287    85533281.96446
     -1244.258  
  22752679.040   121284593.51705      2774.835           0.000           0.0000 
         0.000  
  20614856.870   110391621.86207     -2652.089    20614859.728    85860162.97405
     -2062.742  
  22752529.855   121411865.48606      3476.715    22752536.974    94431483.05106
      2704.108  
  19261037.054   102961279.49108       203.573    19261043.311    80081024.76406
       158.331  
  19620946.572   104922021.15309      -972.984    19620950.667    81606031.30507
      -756.766  
  21008007.595   112378665.97808     -3812.609    21008014.941    87405660.95505
     -2965.367  
  21313393.074   114052266.08408      3099.780    21313397.117    88707340.98408
      2410.940  
 20 09 27 06 07 40.0000000  0 16G15G18G30G20G 5G29G27G24G13R10R 8R 2
                                R 1R24R23R17
  20020103.239   105206353.41849       466.464    20020102.703    81978974.89148
       363.476  
  20435648.547   107390059.53249       814.266    20435648.883    83680566.06648
       634.487  
  24398007.608   128212394.84546     -1830.519    24398010.397    99905752.14844
     -1426.379  
  22011202.203   115669650.78348      2736.363    22011201.740    90132193.22946
      2132.230  
  23407854.616   123009103.47146     -3158.694    23407854.856    95851249.29545
     -2461.319  
  24074024.642   126509844.83247     -3654.694    24074026.182    98579096.35546
     -2847.824  
  24481620.278   128651788.23347      2040.961    24481623.081   100248159.14746
      1590.358  
  24241817.655   127391607.63347      3818.073    24241822.885    99266216.02445
      2975.120  
  20889623.005   109775708.09749     -1600.063    20889622.220    85539509.99147
     -1246.800  
  22750077.759   121270727.85405      2771.875           0.000           0.0000 
         0.000  
  20617334.213   110404887.73107     -2653.858    20617337.074    85870480.87805
     -2064.117  
  22749272.997   121394486.86107      3475.063    22749280.281    94417966.37506
      2702.828  
  19260848.099   102960269.63308       200.593    19260854.518    80080239.32306
       156.015  
  19621858.583   104926898.96208      -977.793    19621862.855    81609825.14907
      -760.508  
  21011572.875   112397737.29008     -3815.570    21011580.270    87420494.18805
     -2967.667  
  21310498.393   114036776.68608      3096.312    21310502.652    88695293.68008
      2408.237  
 20 09 27 06 07 45.0000000  0 16G15G18G30G20G 5G29G27G24G13R10R 8R 2
                                R 1R24R23R17
  20019661.020   105204029.10349       463.030    20019660.460    81977163.73348
       360.801  
  20434875.171   107385995.19449       811.062    20434875.462    83677399.06748
       631.996  
  24399750.507   128221553.43346     -1833.159    24399753.249    99912888.68344
     -1428.440  
  22008599.184   115655971.01248      2734.979    22008598.423    90121533.67146
      2131.151  
  23410860.141   123024897.98447     -3159.398    23410860.416    95863556.68646
     -2461.870  
  24077502.071   126528118.63047     -3655.559    24077503.527    98593335.65846
     -2848.495  
  24479679.657   128641590.35547      2037.465    24479682.309   100240212.72646
      1587.637  
  24238185.170   127372518.44847      3817.188    24238190.206    99251341.37044
      2974.441  
  20891146.508   109783714.47148     -1603.102    20891145.854    85545748.73747
     -1249.171  
  22747479.363   121256876.59605      2768.476           0.000           0.0000 
         0.000  
  20619813.043   110418161.12907     -2655.773    20619815.827    85880804.63905
     -2065.605  
  22746017.277   121377113.21207      3473.983    22746024.420    94404453.59606
      2701.992  
  19260661.801   102959273.36108       197.598    19260668.136    80079464.43906
       153.684  
  19622774.923   104931798.79008      -982.370    19622779.130    81613636.11507
      -764.070  
  21015140.252   112416820.91608     -3818.293    21015147.791    87435337.01105
     -2969.789  
  21307606.716   114021302.33308      3093.101    21307611.024    88683258.09108
      2405.746  
 20 09 27 06 07 50.0000000  0 16G15G18G30G20G 5G29G27G24G13R10R 8R 2
                                R 1R24R23R17
  20019221.833   105201721.91249       459.742    20019221.385    81975365.91848
       358.238  
  20434104.648   107381946.72549       808.094    20434104.971    83674244.41048
       629.680  
  24401496.103   128230726.22646     -1835.741    24401498.855    99920036.30444
     -1430.456  
  22005997.115   115642297.70448      2733.918    22005996.630    90110879.14046
      2130.324  
  23413866.611   123040696.87347     -3160.367    23413866.997    95875867.50745
     -2462.625  
  24080980.239   126546396.74348     -3655.905    24080981.882    98607578.34746
     -2848.762  
  24477741.875   128631407.30846      2035.022    24477744.516   100232277.91145
      1585.734  
  24234553.091   127353431.86946      3817.011    24234558.090    99236468.71544
      2974.288  
  20892673.026   109791736.09949     -1605.852    20892672.433    85551999.35347
     -1251.312  
  22744883.941   121243041.31704      2765.741           0.000           0.0000 
         0.000  
  20622293.363   110431443.35107     -2657.253    20622296.256    85891135.25705
     -2066.753  
  22742762.576   121359745.91407      3473.016    22742769.717    94390945.68105
      2701.229  
  19260478.292   102958292.18108       194.711    19260484.617    80078701.30606
       151.440  
  19623695.733   104936722.43409      -987.151    19623699.739    81617465.61107
      -767.789  
  21018710.433   112435918.69608     -3821.030    21018717.743    87450190.82505
     -2971.917  
  21304718.008   114005844.49208      3089.851    21304722.303    88671235.32207
      2403.219  
 20 09 27 06 07 55.0000000  0 16G15G18G30G20G 5G29G27G24G13R10R 8R 2
                                R 1R24R23R17
  20018786.070   105199431.08449       456.637    20018785.486    81973580.85948
       355.819  
  20433337.187   107377913.31549       805.382    20433337.409    83671101.49948
       627.569  
  24403244.229   128239912.41246     -1838.468    24403246.989    99927194.40043
     -1432.573  
  22003396.363   115628630.06448      2733.219    22003395.789    90100229.03946
      2129.777  
  23416873.858   123056499.47047     -3161.011    23416874.315    95888181.22045
     -2463.129  
  24084459.220   126564678.34648     -3656.358    24084460.711    98621823.72646
     -2849.113  
  24475806.705   128621238.47946      2032.461    24475809.653   100224354.12945
      1583.729  
  24230921.503   127334347.12346      3816.573    24230926.528    99221597.48245
      2973.952  
  20894202.211   109799772.20548     -1608.574    20894201.693    85558261.26047
     -1253.434  
  22742291.198   121229221.28904      2762.895           0.000           0.0000 
         0.000  
  20624775.200   110444733.85107     -2658.891    20624778.147    85901472.30905
     -2068.031  
  22739509.127   121342384.44907      3472.027    22739516.138    94377442.33805
      2700.469  
  19260297.371   102957325.24008       192.090    19260303.761    80077949.24106
       149.398  
  19624620.670   104941668.86208      -991.391    19624624.686    81621312.83007
      -771.085  
  21022283.032   112455029.56808     -3823.229    21022290.302    87465054.83106
     -2973.629  
  21301832.286   113990402.47108      3086.952    21301836.437    88659224.87107
      2400.964  
 20 09 27 06 08  0.0000000  0 16G15G18G30G20G 5G29G27G24G13R10R 8R 2
                                R 1R24R23R17
  20018352.780   105197154.47449       453.526    20018352.264    81971806.88748
       353.397  
  20432571.998   107373892.94049       802.378    20432572.295    83667968.73148
       625.226  
  24404994.385   128249109.91746     -1840.824    24404997.280    99934361.26844
     -1434.418  
  22000796.181   115614966.04848      2732.090    22000795.407    90089581.75346
      2128.898  
  23419881.300   123072303.58847     -3161.136    23419881.835    95900496.10846
     -2463.227  
  24087938.375   126582961.36847     -3656.875    24087940.042    98636070.22246
     -2849.515  
  24473873.906   128611081.68047      2029.483    24473876.743   100216439.74646
      1581.418  
  24227289.681   127315262.08246      3816.402    24227294.840    99206726.07644
      2973.820  
  20895733.687   109807820.69948     -1611.362    20895733.160    85564532.80146
     -1255.612  
  22739700.932   121215414.27305      2759.917           0.000           0.0000 
         0.000  
  20627258.373   110458030.53607     -2660.371    20627261.279    85911814.18505
     -2069.175  
  22736256.222   121325026.19706      3470.883    22736263.071    94363941.46806
      2699.570  
  19260118.710   102956370.44408       189.387    19260125.042    80077206.62206
       147.301  
  19625549.700   104946636.11409      -995.863    19625553.726    81625176.26407
      -774.558  
  21025857.672   112474151.54308     -3825.702    21025865.064    87479927.46606
     -2975.554  
  21298949.209   113974974.19908      3083.827    21298953.460    88647225.10008
      2398.527  
 20 09 27 06 08  5.0000000  0 16G15G18G30G20G 5G29G27G24G13R10R 8R 2
                                R 1R24R23R17
  20017922.720   105194894.27849       450.465    20017922.193    81970045.69448
       351.008  
  20431809.856   107369887.73049       799.715    20431810.120    83664847.78448
       623.151  
  24406747.163   128258320.82646     -1843.038    24406749.822    99941538.60246
     -1436.137  
  21998196.948   115601307.86448      2731.301    21998196.496    90078939.02346
      2128.284  
  23422889.489   123088111.41647     -3161.547    23422889.755    95912813.90946
     -2463.546  
  24091418.084   126601247.98847     -3657.558    24091419.824    98650319.50546
     -2850.054  
  24471943.927   128600939.16347      2027.464    24471946.735   100208536.50245
      1579.848  
  24223658.118   127296178.99447      3816.308    24223663.354    99191856.18445
      2973.753  
  20897268.031   109815883.73048     -1613.886    20897267.527    85570815.68447
     -1257.573  
  22737113.572   121201622.75105      2757.262           0.000           0.0000 
         0.000  
  20629742.987   110471335.30807     -2661.594    20629745.867    85922162.31505
     -2070.133  
  22733004.380   121307674.15206      3470.038    22733011.289    94350445.42505
      2698.913  
  19259942.866   102955430.05208       186.671    19259949.227    80076475.20606
       145.184  
  19626482.854   104951626.26709     -1000.137    19626486.849    81629057.49107
      -777.886  
  21029434.764   112493286.69708     -3828.082    21029442.246    87494810.36405
     -2977.401  
  21296068.940   113959561.83308      3081.179    21296073.139    88635237.69508
      2396.468  
 20 09 27 06 08 10.0000000  0 16G15G18G30G20G 5G29G27G24G13R10R 8R 2
                                R 1R24R23R17
  20017495.324   105192648.79249       447.379    20017494.831    81968295.96748
       348.602  
  20431050.381   107365896.03649       796.651    20431050.624    83661737.36948
       620.765  
  24408502.196   128267543.58846     -1846.315    24408505.053    99948725.16843
     -1438.691  
  21995598.670   115587653.78748      2730.233    21995598.051    90068299.48146
      2127.457  
  23425898.030   123103921.34146     -3162.445    23425898.411    95925133.32446
     -2464.241  
  24094898.383   126619536.45747     -3658.300    24094900.154    98664570.22046
     -2850.637  
  24470016.229   128590809.17147      2024.206    24470019.160   100200643.02746
      1577.304  
  24220026.952   127277096.15447      3815.973    24220032.106    99176986.48845
      2973.492  
  20898804.837   109823959.60448     -1616.734    20898804.307    85577108.57246
     -1259.792  
  22734528.867   121187844.66705      2753.945           0.000           0.0000 
         0.000  
  20632228.737   110484646.63907     -2663.304    20632231.565    85932515.56305
     -2071.464  
  22729753.217   121290325.76207      3468.921    22729760.274    94336952.22306
      2698.046  
  19259769.275   102954502.29908       183.819    19259775.592    80075753.63506
       142.972  
  19627419.943   104956637.67609     -1004.863    19627424.083    81632955.25407
      -781.563  
  21033014.089   112512433.39008     -3830.820    21033021.569    87509702.22805
     -2979.531  
  21293191.454   113944163.66508      3077.918    21293195.698    88623261.34208
      2393.934  
 20 09 27 06 08 15.0000000  0 16G15G18G30G20G 5G29G27G24G13R10R 8R 2
                                R 1R24R23R17
  20017071.727   105190422.24649       443.726    20017071.371    81966561.00048
       345.762  
  20430294.147   107361922.06449       793.336    20430294.288    83658640.77148
       618.184  
  24410260.314   128276782.27946     -1849.113    24410263.116    99955924.11144
     -1440.875  
  21993002.100   115574008.06548      2728.676    21993001.328    90057666.45846
      2126.242  
  23428907.694   123119737.61146     -3163.562    23428908.034    95937457.69445
     -2465.113  
  24098379.626   126637830.98347     -3659.082    24098381.418    98678825.69346
     -2851.242  
  24468091.595   128580695.99247      2021.085    24468094.598   100192762.61045
      1574.871  
  24216396.393   127258017.71747      3815.621    24216401.653    99162120.17344
      2973.211  
  20900344.892   109832052.52449     -1620.031    20900344.270    85583414.74446
     -1262.363  
  22731947.515   121174084.73205      2750.242           0.000           0.0000 
         0.000  
  20634716.544   110497968.79607     -2664.816    20634719.408    85942877.24805
     -2072.641  
  22726503.774   121272985.98607      3467.383    22726510.651    94323465.73906
      2696.852  
  19259598.861   102953591.42908       180.785    19259605.293    80075045.17906
       140.609  
  19628361.905   104961674.64509     -1009.585    19628365.893    81636872.89407
      -785.238  
  21036596.222   112531595.82608     -3833.690    21036603.776    87524606.34105
     -2981.765  
  21290317.533   113928784.04608      3074.324    21290321.619    88611299.41907
      2391.137  
 20 09 27 06 08 20.0000000  0 16G15G18G30G20G 5G29G27G24G13R10R 8R 2
                                R 1R24R23R17
  20016650.989   105188211.34949       440.812    20016650.598    81964838.22348
       343.491  
  20429540.554   107357962.52849       790.679    20429540.884    83655555.42448
       616.112  
  24412020.743   128286033.64646     -1851.332    24412023.626    99963133.01245
     -1442.598  
  21990406.321   115560367.40448      2727.801    21990405.607    90047037.38346
      2125.559  
  23431917.926   123135556.76846     -3163.711    23431918.440    95949784.27545
     -2465.233  
  24101861.643   126656128.29547     -3659.218    24101863.359    98693083.35046
     -2851.344  
  24466169.759   128570596.39747      2018.938    24466172.597   100184892.77945
      1573.195  
  24212766.182   127238940.64246      3815.230    24212771.239    99147254.92045
      2972.906  
  20901887.588   109840159.19748     -1622.566    20901886.978    85589731.62546
     -1264.336  
  22729368.947   121160339.35506      2747.722           0.000           0.0000 
         0.000  
  20637205.813   110511298.37507     -2666.465    20637208.519    85953244.71405
     -2073.918  
  22723255.185   121255650.92407      3466.813    22723262.016    94309982.97906
      2696.418  
  19259431.070   102952694.11608       178.332    19259437.420    80074347.25006
       138.699  
  19629307.979   104966733.78909     -1013.878    19629312.027    81640807.76807
      -788.577  
  21040180.738   112550770.50708     -3835.996    21040188.136    87539519.97405
     -2983.555  
  21287446.179   113913419.66808      3071.542    21287450.394    88599349.37408
      2388.976  
 20 09 27 06 08 25.0000000  0 16G15G18G30G20G 5G29G27G24G13R10R 8R 2
                                R 1R24R23R17
  20016232.921   105186014.69549       437.602    20016232.512    81963126.54648
       340.987  
  20428789.651   107354016.00649       787.672    20428789.947    83652480.21548
       613.770  
  24413783.459   128295296.28146     -1854.257    24413786.049    99970350.65044
     -1444.875  
  21987811.283   115546730.35748      2726.602    21987810.624    90036411.11346
      2124.624  
  23434928.564   123151377.46647     -3164.698    23434929.034    95962112.08946
     -2466.008  
  24105343.660   126674426.94647     -3660.023    24105345.490    98707342.03246
     -2851.964  
  24464250.031   128560508.87747      2015.827    24464253.104   100177032.39945
      1570.772  
  24209135.979   127219863.45147      3815.230    24209140.893    99132389.60544
      2972.906  
  20903432.589   109848278.20048     -1625.340    20903432.103    85596058.12047
     -1266.503  
  22726792.812   121146607.07605      2744.901           0.000           0.0000 
         0.000  
  20639696.267   110524634.04907     -2667.949    20639698.844    85963616.89105
     -2075.073  
  22720007.362   121238319.69906      3465.801    22720014.330    94296503.12506
      2695.621  
  19259265.377   102951808.95208       175.551    19259271.692    80073658.80506
       136.534  
  19630257.942   104971813.70209     -1018.417    19630262.013    81644758.81707
      -792.104  
  21043767.382   112569956.35108     -3838.452    21043774.918    87554442.28205
     -2985.469  
  21284577.674   113898069.02908      3068.672    21284581.608    88587409.98008
      2386.746  
 20 09 27 06 08 30.0000000  0 16G15G18G30G20G 5G29G27G24G13R10R 8R 2
                                R 1R24R23R17
  20015818.465   105183836.58949       434.098    20015818.079    81961429.32448
       338.257  
  20428041.784   107350086.87649       784.472    20428042.183    83649418.55748
       611.273  
  24415549.000   128304574.44946     -1856.895    24415551.716    99977580.38943
     -1446.930  
  21985217.776   115533101.29048      2725.276    21985217.078    90025791.06847
      2123.593  
  23437940.343   123167204.03147     -3165.391    23437940.690    95974444.47246
     -2466.538  
  24108826.979   126692731.28847     -3661.438    24108828.637    98721605.15346
     -2853.069  
  24462333.590   128550437.84747      2012.835    24462336.583   100169184.84846
      1568.445  
  24205506.540   127200790.37146      3814.352    24205511.495    99117527.48345
      2972.222  
  20904980.618   109856413.86648     -1628.429    20904980.176    85602397.59847
     -1268.910  
  22724219.849   121132892.42305      2741.594           0.000           0.0000 
         0.000  
  20642188.398   110537979.95307     -2669.848    20642191.345    85973997.04105
     -2076.550  
  22716760.988   121220996.14206      3464.254    22716767.890    94283029.26006
      2694.413  
  19259103.021   102950940.35008       172.589    19259109.341    80072983.21006
       134.233  
  19631212.595   104976918.81509     -1023.163    19631216.799    81648729.45707
      -795.793  
  21047356.825   112589157.32708     -3841.530    21047364.332    87569376.38106
     -2987.862  
  21281712.321   113882736.63408      3064.921    21281716.418    88575484.80208
      2383.827  
 20 09 27 06 08 35.0000000  0 16G15G18G30G20G 5G29G27G24G13R10R 8R 2
                                R 1R24R23R17
  20015406.864   105181673.92549       430.750    20015406.561    81959744.13148
       335.644  
  20427296.960   107346172.02249       781.336    20427297.337    83646368.00448
       608.828  
  24417317.046   128313865.15647     -1859.675    24417319.448    99984819.86244
     -1449.104  
  21982625.229   115519477.05248      2724.137    21982624.251    90015174.78246
      2122.703  
  23440952.506   123183033.33546     -3166.229    23440952.854    95986779.00045
     -2467.191  
  24112310.684   126711038.15447     -3661.718    24112312.254    98735870.20246
     -2853.297  
  24460419.856   128540380.13647      2010.113    24460422.668   100161347.68446
      1566.319  
  24201877.319   127181718.24646      3814.272    24201882.215    99102666.12544
      2972.159  
  20906531.520   109864563.03648     -1631.449    20906530.904    85608747.59946
     -1271.262  
  22721649.647   121119192.30105      2738.328           0.000           0.0000 
         0.000  
  20644682.147   110551333.23907     -2671.690    20644684.729    85984382.92605
     -2077.983  
  22713515.454   121203677.63607      3462.848    22713522.479    94269559.28606
      2693.320  
  19258943.080   102950085.06108       169.410    19258949.158    80072318.00006
       131.761  
  19632171.401   104982045.79709     -1027.683    19632175.691    81652717.11207
      -799.312  
  21050948.500   112608370.52008     -3844.164    21050955.926    87584319.95406
     -2989.910  
  21278849.999   113867419.20708      3061.754    21278854.136    88563571.22808
      2381.359  
 20 09 27 06 08 40.0000000  0 16G15G18G30G20G 5G29G27G24G13R10R 8R 2
                                R 1R24R23R17
  20014998.485   105179527.06549       427.987    20014997.981    81958071.25448
       333.492  
  20426554.634   107342271.78949       778.843    20426554.941    83643328.86348
       606.886  
  24419087.357   128323168.64047     -1861.723    24419090.062    99992069.32243
     -1450.694  
  21980033.601   115505858.04748      2723.496    21980032.704    90004562.57945
      2122.202  
  23443965.233   123198865.72946     -3167.047    23443965.661    95999115.94045
     -2467.824  
  24115794.773   126729347.94847     -3662.257    24115796.423    98750137.54346
     -2853.714  
  24458508.588   128530336.20047      2007.215    24458511.376   100153521.23145
      1564.058  
  24198248.263   127162647.61647      3814.000    24198253.069    99087805.91144
      2971.953  
  20908084.905   109872726.06948     -1633.886    20908084.293    85615108.40546
     -1273.159  
  22719082.167   121105506.97005      2735.753           0.000           0.0000 
         0.000  
  20647177.019   110564693.91807     -2672.851    20647179.799    85994774.55705
     -2078.886  
  22710271.023   121186364.19607      3462.203    22710277.975    94256093.29606
      2692.823  
  19258785.525   102949243.43408       166.991    19258791.845    80071663.41506
       129.882  
  19633134.461   104987195.14509     -1031.948    19633138.652    81656722.15807
      -802.633  
  21054542.601   112627596.16408     -3846.250    21054550.157    87599273.22305
     -2991.530  
  21275990.435   113852117.22608      3059.023    21275994.471    88551669.69908
      2379.241  
 20 09 27 06 08 45.0000000  0 16G15G18G30G20G 5G29G27G24G13R10R 8R 2
                                R 1R24R23R17
  20014592.969   105177396.09749       424.344    20014592.335    81956410.76448
       330.656  
  20425815.336   107338386.25049       775.417    20425815.724    83640301.17248
       604.219  
  24420860.340   128332485.00847     -1864.937    24420862.982    99999328.85244
     -1453.198  
  21977442.926   115492244.33748      2722.039    21977442.139    89993954.49246
      2121.066  
  23446978.668   123214701.27946     -3168.069    23446979.220    96011455.30746
     -2468.633  
  24119279.625   126747660.59247     -3662.983    24119281.306    98764407.11646
     -2854.277  
  24456599.928   128520306.00047      2004.387    24456602.527   100145705.47146
      1561.854  
  24194619.567   127143578.62846      3813.652    24194624.261    99072946.95243
      2971.675  
  20909640.942   109880903.03648     -1636.777    20909640.402    85621480.06846
     -1275.414  
  22716517.739   121091836.62406      2732.480           0.000           0.0000 
         0.000  
  20649673.561   110578062.40907     -2674.926    20649676.301    86005172.27205
     -2080.495  
  22707027.526   121169056.15207      3460.894    22707034.437    94242631.50406
      2691.808  
  19258630.658   102948415.67208       163.805    19258636.970    80071019.59106
       127.398  
  19634101.485   104992366.88509     -1036.824    19634105.687    81660744.61408
      -806.422  
  21058138.888   112646834.40608     -3849.078    21058146.541    87614236.28805
     -2993.730  
  21273133.649   113836830.79908      3055.691    21273137.918    88539780.25108
      2376.645  
 20 09 27 06 08 50.0000000  0 16G15G18G30G20G 5G29G27G24G13R10R 8R 2
                                R 1R24R23R17
  20014190.492   105175281.69049       420.984    20014190.100    81954763.17648
       328.038  
  20425078.885   107334516.08549       772.301    20425079.180    83637285.46148
       601.788  
  24422635.645   128341814.86547     -1867.500    24422638.407   100006598.86044
     -1455.198  
  21974853.387   115478636.62348      2720.737    21974852.772    89983351.09146
      2120.055  
  23449992.697   123230540.67346     -3168.926    23449993.320    96023797.69846
     -2469.297  
  24122765.047   126765976.89047     -3663.765    24122766.658    98778679.55146
     -2854.887  
  24454693.903   128510290.36647      2001.207    24454696.720   100137901.10445
      1559.382  
  24190991.279   127124511.81447      3813.191    24190995.801    99058089.73644
      2971.315  
  20911199.633   109889094.60748     -1640.066    20911199.205    85627863.10646
     -1277.977  
  22713956.141   121078181.89506      2729.254           0.000           0.0000 
         0.000  
  20652171.552   110591439.16407     -2676.547    20652174.254    86015576.41105
     -2081.761  
  22703785.147   121151754.10407      3459.820    22703792.073    94229174.36306
      2690.972  
  19258478.529   102947602.42708       161.055    19258484.981    80070387.07706
       125.265  
  19635072.991   104997561.71108     -1041.488    19635077.310    81664785.03407
      -810.046  
  21061737.679   112666085.85408     -3851.820    21061745.341    87629209.62405
     -2995.863  
  21270280.056   113821560.61908      3052.128    21270284.247    88527903.45408
      2373.879  
 20 09 27 06 08 55.0000000  0 16G15G18G30G20G 5G29G27G24G13R10R 8R 2
                                R 1R24R23R17
  20013791.071   105173182.34749       418.352    20013790.554    81953127.32348
       325.983  
  20424344.921   107330659.82849       769.835    20424345.336    83634280.58648
       599.870  
  24424413.421   128351156.82746     -1870.097    24424416.200   100013878.31044
     -1457.219  
  21972264.798   115465033.43148      2720.203    21972264.154    89972751.19746
      2119.637  
  23453007.275   123246382.41647     -3168.758    23453007.816    96036141.89746
     -2469.167  
  24126251.055   126784295.23947     -3663.608    24126252.523    98792953.55646
     -2854.765  
  24452790.399   128500287.72647      1999.081    24452793.009   100130106.85346
      1557.730  
  24187363.157   127105445.75246      3813.020    24187367.645    99043233.10544
      2971.190  
  20912760.988   109897299.24048     -1642.265    20912760.458    85634256.33447
     -1279.687  
  22711397.335   121064541.36405      2726.706           0.000           0.0000 
         0.000  
  20654670.821   110604822.66807     -2677.105    20654673.388    86025985.80805
     -2082.190  
  22700543.521   121134456.47607      3459.223    22700550.463    94215720.66706
      2690.507  
  19258328.852   102946802.09808       158.691    19258335.097    80069764.59506
       123.422  
  19636048.432   105002777.98909     -1045.371    19636052.780    81668842.13807
      -813.069  
  21065338.696   112685348.96108     -3853.883    21065346.525    87644192.04005
     -2997.469  
  21267429.295   113806305.18208      3049.660    21267433.488    88516038.12008
      2371.956  
 20 09 27 06 09  0.0000000  0 16G15G18G30G20G 5G29G27G24G13R10R 8R 2
                                R 1R24R23R17
  20013394.700   105171099.55849       414.714    20013394.206    81951504.37648
       323.156  
  20423613.988   107326818.96549       766.433    20423614.440    83631287.71948
       597.222  
  24426193.791   128360512.26546     -1872.625    24426196.364   100021168.28644
     -1459.191  
  21969677.363   115451436.21248      2718.676    21969676.500    89962155.96746
      2118.448  
  23456022.515   123262227.92647     -3169.882    23456023.119    96048488.99745
     -2470.047  
  24129737.594   126802617.15147     -3664.812    24129739.100    98807230.41146
     -2855.699  
  24450889.809   128490299.56047      1996.109    24450892.309   100122323.86346
      1555.406  
  24183735.399   127086381.94047      3812.250    24183739.734    99028378.13545
      2970.586  
  20914325.007   109905518.46448     -1645.406    20914324.372    85640660.92546
     -1282.136  
  22708841.418   121050916.38706      2723.430           0.000           0.0000 
         0.000  
  20657171.671   110618214.38507     -2679.425    20657174.267    86036401.60005
     -2083.995  
  22697302.869   121117164.79706      3457.484    22697309.983    94202271.62806
      2689.156  
  19258181.818   102946016.27308       155.648    19258188.131    80069153.37206
       121.055  
  19637028.367   105008017.45709     -1050.312    19637032.561    81672917.26507
      -816.914  
  21068942.314   112704625.26108     -3856.719    21068949.913    87659184.71405
     -2999.676  
  21264581.288   113791065.98608      3046.121    21264585.583    88504185.44408
      2369.207  
 20 09 27 06 09  5.0000000  0 16G15G18G30G20G 5G29G27G24G13R10R 8R 2
                                R 1R24R23R17
  20013001.556   105169033.97949       411.765    20013001.017    81949894.83448
       320.852  
  20422886.314   107322994.20249       763.770    20422886.715    83628307.37148
       595.140  
  24427976.645   128369881.91247     -1875.027    24427979.263   100028469.27144
     -1461.066  
  21967091.069   115437845.71148      2718.007    21967090.346    89951565.97246
      2117.875  
  23459038.711   123278077.95447     -3169.921    23459039.346    96060839.72245
     -2470.069  
  24133224.875   126820943.31447     -3665.266    24133226.415    98821510.47646
     -2856.062  
  24448992.053   128480326.59646      1993.753    24448994.432   100114552.71946
      1553.573  
  24180108.347   127067321.05947      3812.331    24180112.494    99013525.57144
      2970.656  
  20915891.891   109913752.96148     -1647.948    20915891.503    85647077.40646
     -1284.121  
  22706288.397   121037307.84905      2720.171           0.000           0.0000 
         0.000  
  20659674.207   110631615.23107     -2680.605    20659676.828    86046824.46005
     -2084.917  
  22694063.677   121099879.69207      3456.694    22694070.742    94188827.63706
      2688.535  
  19258037.603   102945245.55008       152.938    19258043.794    80068553.95506
       118.953  
  19638012.581   105013280.67908     -1054.586    19638016.655    81677010.89107
      -820.233  
  21072548.360   112723915.45808     -3858.933    21072556.126    87674188.18006
     -3001.398  
  21261736.644   113775843.78208      3043.012    21261740.830    88492345.92308
      2366.781  
 20 09 27 06 09 10.0000000  0 16G15G18G30G20G 5G29G27G24G13R10R 8R 2
                                R 1R24R23R17
  20012611.449   105166983.07749       408.422    20012610.767    81948296.72948
       318.250  
  20422160.897   107319182.98549       760.695    20422161.426    83625337.58848
       592.746  
  24429761.998   128379263.19647     -1877.651    24429764.574   100035779.35544
     -1463.108  
  21964505.732   115424259.48648      2716.479    21964505.150    89940979.31246
      2116.737  
  23462055.266   123293929.93246     -3170.538    23462055.754    96073191.91046
     -2470.551  
  24136712.575   126839271.14347     -3666.175    24136713.973    98835791.84745
     -2856.769  
  24447096.706   128470366.29647      1990.723    24447099.082   100106791.45446
      1551.206  
  24176481.132   127048260.50846      3811.859    24176485.480    98998673.20845
      2970.281  
  20917461.433   109922000.11648     -1650.800    20917460.776    85653503.75746
     -1286.343  
  22703738.209   121023713.25406      2717.546           0.000           0.0000 
         0.000  
  20662177.838   110645022.37107     -2682.479    20662180.622    86057252.23305
     -2086.378  
  22690825.180   121082598.92107      3455.168    22690832.487    94175387.05006
      2687.351  
  19257895.827   102944487.29908       150.175    19257902.101    80067964.18706
       116.800  
  19639000.920   105018565.05308     -1059.305    19639004.828    81681120.95407
      -823.906  
  21076156.502   112743216.80608     -3861.594    21076164.262    87689200.32905
     -3003.465  
  21258894.653   113760635.96408      3039.854    21258898.946    88480517.62208
      2364.328  
 20 09 27 06 09 15.0000000  0 16G15G18G30G20G 5G29G27G24G13R10R 8R 2
                                R 1R24R23R17
  20012224.390   105164949.38149       405.183    20012223.929    81946712.03548
       315.727  
  20421438.740   107315387.83849       757.550    20421439.296    83622380.33848
       590.301  
  24431549.821   128388658.64547     -1880.422    24431552.313   100043100.53244
     -1465.265  
  21961921.536   115410679.90948      2715.319    21961920.919    89930397.81746
      2115.831  
  23465072.799   123309786.48946     -3171.461    23465073.197    96085547.64646
     -2471.277  
  24140201.033   126857603.11747     -3666.426    24140202.504    98850076.55146
     -2856.956  
  24445204.201   128460421.23947      1987.405    24445206.759   100099042.08045
      1548.629  
  24172854.532   127029202.97547      3811.483    24172858.825    98983823.16444
      2969.984  
  20919033.641   109930262.53248     -1653.844    20919033.245    85659942.00546
     -1288.714  
  22701190.871   121010134.97905      2714.379           0.000           0.0000 
         0.000  
  20664683.232   110658438.55007     -2683.840    20664686.022    86067687.04205
     -2087.433  
  22687587.987   121065324.45407      3454.077    22687595.195    94161951.37006
      2686.504  
  19257756.830   102943744.31308       147.284    19257763.097    80067386.31606
       114.551  
  19639993.546   105023873.13308     -1063.847    19639997.564    81685249.46307
      -827.441  
  21079767.259   112762531.92008     -3863.972    21079775.063    87704223.19305
     -3005.315  
  21256056.057   113745445.15908      3036.718    21256060.146    88468702.55907
      2361.891  
 20 09 27 06 09 20.0000000  0 16G15G18G30G20G 5G29G27G24G13R10R 8R 2
                                R 1R24R23R17
  20011840.382   105162931.56349       401.944    20011839.790    81945139.70748
       313.203  
  20420719.419   107311607.43349       754.676    20420719.870    83619434.56748
       588.058  
  24433340.056   128398066.92446     -1882.859    24433342.683   100050431.60943
     -1467.167  
  21959338.512   115397105.65448      2714.168    21959337.914    89919820.46846
      2114.934  
  23468090.890   123325646.13047     -3172.180    23468091.205    96097905.79145
     -2471.836  
  24143689.889   126875937.95947     -3667.230    24143691.519    98864363.48245
     -2857.574  
  24443314.383   128450490.08347      1984.749    24443316.813   100091303.50745
      1546.558  
  24169228.456   127010147.19146      3811.035    24169232.422    98968974.49544
      2969.628  
  20920608.515   109938538.86348     -1656.597    20920608.171    85666391.09147
     -1290.859  
  22698646.522   120996571.76105      2711.043           0.000           0.0000 
         0.000  
  20667190.100   110671862.24507     -2685.324    20667192.666    86078127.69105
     -2088.585  
  22684351.759   121048055.41506      3453.270    22684358.789    94148519.92806
      2685.883  
  19257620.439   102943015.15908       144.523    19257626.758    80066819.18206
       112.402  
  19640990.254   105029203.57308     -1068.296    19640994.405    81689395.35707
      -830.901  
  21083380.412   112781859.53708     -3866.719    21083388.074    87719255.77906
     -3007.452  
  21253220.224   113730270.00708      3033.534    21253224.282    88456899.68708
      2359.421  
 20 09 27 06 09 25.0000000  0 16G15G18G30G20G 5G29G27G24G13R10R 8R 2
                                R 1R24R23R17
  20011459.611   105160930.06749       398.769    20011459.071    81943580.10248
       310.726  
  20420002.966   107307842.19849       751.569    20420003.339    83616500.61648
       585.636  
  24435133.055   128407488.41446     -1885.585    24435135.672   100057773.04043
     -1469.292  
  21956756.628   115383537.10548      2713.308    21956755.885    89909247.58446
      2114.265  
  23471109.494   123341509.40847     -3172.953    23471109.889    96110266.76946
     -2472.433  
  24147179.542   126894275.99347     -3667.522    24147181.081    98878652.84546
     -2857.812  
  24441427.274   128440573.19747      1981.840    24441429.864   100083576.04546
      1544.285  
  24165602.539   126991093.24346      3810.628    24165606.549    98954127.27445
      2969.320  
  20922186.241   109946829.49548     -1659.624    20922185.765    85672851.32747
     -1293.215  
  22696105.205   120983024.11305      2708.035           0.000           0.0000 
         0.000  
  20669698.266   110685293.82707     -2687.051    20669700.981    86088574.48105
     -2089.929  
  22681116.673   121030792.00207      3452.105    22681123.679    94135092.86006
      2684.976  
  19257486.662   102942300.14108       141.569    19257493.066    80066263.05506
       110.104  
  19641991.288   105034556.77009     -1072.906    19641995.334    81693558.94507
      -834.487  
  21086995.824   112801199.83908     -3869.344    21087003.715    87734298.21706
     -3009.492  
  21250387.380   113715111.04708      3030.340    21250391.529    88445109.39207
      2356.930  
 20 09 27 06 09 30.0000000  0 16G15G18G30G20G 5G29G27G24G13R10R 8R 2
                                R 1R24R23R17
  20011081.324   105158942.87249       395.827    20011080.784    81942031.64248
       308.437  
  20419288.970   107304090.15749       748.957    20419289.282    83613576.95248
       583.602  
  24436928.116   128416921.11647     -1887.690    24436930.503   100065123.19644
     -1470.934  
  21954175.298   115369972.31248      2712.645    21954174.614    89898677.61946
      2113.750  
  23474128.508   123357374.24547     -3173.284    23474128.785    96122628.98646
     -2472.691  
  24150669.471   126912615.31547     -3668.059    24150671.074    98892943.18846
     -2858.233  
  24439542.437   128430668.56347      1979.210    24439545.074   100075858.17846
      1542.241  
  24161976.696   126972039.46447      3810.601    24161980.932    98939280.23045
      2969.309  
  20923766.259   109955132.38848     -1661.917    20923765.791    85679321.11346
     -1295.003  
  22693566.027   120969489.95806      2705.526           0.000           0.0000 
         0.000  
  20672207.741   110698731.45107     -2688.195    20672210.293    86099025.95905
     -2090.824  
  22677882.131   121013532.20707      3451.469    22677889.287    94121668.55806
      2684.472  
  19257355.135   102941597.20908       139.246    19257361.507    80065716.32706
       108.296  
  19642996.242   105039930.68109     -1077.063    19643000.344    81697738.65907
      -837.715  
  21090613.319   112820550.96208     -3871.617    21090621.240    87749349.08706
     -3011.261  
  21247557.146   113699966.14408      3027.738    21247561.408    88433330.01708
      2354.901  
 20 09 27 06 09 35.0000000  0 16G15G18G30G20G 5G29G27G24G13R10R 8R 2
                                R 1R24R23R17
  20010706.445   105156972.80649       392.522    20010705.931    81940496.52448
       305.859  
  20418578.029   107300354.16549       745.691    20418578.377    83610665.79248
       581.058  
  24438725.647   128426367.92547     -1890.905    24438728.021   100072484.35944
     -1473.438  
  21951595.282   115356414.20548      2711.300    21951594.524    89888112.86147
      2112.699  
  23477148.266   123373243.46147     -3174.262    23477148.708    96134994.59846
     -2473.453  
  24154159.960   126930958.61747     -3668.726    24154161.613    98907236.67645
     -2858.746  
  24437660.629   128420779.18746      1976.094    24437663.223   100068152.15646
      1539.812  
  24158351.465   126952988.62546      3810.137    24158355.791    98924435.44445
      2968.938  
  20925349.137   109963450.40748     -1665.113    20925348.543    85685802.68847
     -1297.491  
  22691030.243   120955972.20605      2702.749           0.000           0.0000 
         0.000  
  20674718.652   110712177.89107     -2690.289    20674721.530    86109484.29805
     -2092.449  
  22674648.937   120996279.10807      3450.112    22674656.115    94108249.50906
      2683.426  
  19257226.395   102940909.45608       136.159    19257232.819    80065181.40907
       105.901  
  19644005.693   105045328.35409     -1081.754    19644009.690    81701936.84308
      -841.366  
  21094233.433   112839915.84908     -3874.315    21094241.179    87764410.65706
     -3013.359  
  21244730.111   113684838.19808      3023.952    21244734.191    88421563.85307
      2351.964  
 20 09 27 06 09 40.0000000  0 16G15G18G30G20G 5G29G27G24G13R10R 8R 2
                                R 1R24R23R17
  20010334.616   105155018.80349       389.401    20010333.997    81938973.92548
       303.430  
  20417869.950   107296633.12449       742.797    20417870.409    83607766.27948
       578.800  
  24440525.836   128435827.67147     -1892.820    24440528.135   100079855.58644
     -1474.925  
  21949016.228   115342861.65348      2710.292    21949015.676    89877552.44247
      2111.918  
  23480168.766   123389116.04847     -3174.710    23480169.067    96147362.83646
     -2473.804  
  24157651.091   126949304.97747     -3669.480    24157652.882    98921532.49546
     -2859.343  
  24435781.184   128410903.88946      1973.960    24435784.078   100060457.15446
      1538.155  
  24154726.600   126933939.67447      3809.995    24154730.972    98909592.10544
      2968.827  
  20926934.646   109971782.43848     -1667.586    20926934.184    85692295.18547
     -1299.421  
  22688497.133   120942469.74705      2699.148           0.000           0.0000 
         0.000  
  20677231.078   110725631.94707     -2691.211    20677233.913    86119948.56806
     -2093.168  
  22671416.737   120979031.62707      3449.324    22671423.860    94094834.82506
      2682.808  
  19257100.345   102940235.52308       133.594    19257106.785    80064657.24507
       103.906  
  19645019.294   105050748.59509     -1086.011    19645023.389    81706152.57208
      -844.680  
  21097855.921   112859293.18908     -3876.551    21097863.477    87779481.91806
     -3015.098  
  21241906.060   113669726.19608      3021.015    21241910.320    88409810.08507
      2349.680  
 20 09 27 06 09 45.0000000  0 16G15G18G30G20G 5G29G27G24G13R10R 8R 2
                                R 1R24R23R17
  20009965.825   105153080.54349       385.938    20009965.220    81937463.59548
       300.730  
  20417164.523   107292926.76749       739.750    20417165.126    83604878.20048
       576.425  
  24442328.490   128445300.08746     -1895.945    24442330.809   100087236.67043
     -1477.366  
  21946438.314   115329314.31148      2708.870    21946437.783    89866996.08646
      2110.758  
  23483189.681   123404991.65846     -3175.651    23483190.259    96159733.45745
     -2474.535  
  24161142.752   126967653.93347     -3670.008    24161144.583    98935830.33045
     -2859.758  
  24433904.704   128401042.32547      1971.289    24433907.381   100052772.83145
      1536.069  
  24151102.090   126914892.36746      3809.348    24151106.329    98894750.07944
      2968.323  
  20928522.842   109980128.18448     -1670.543    20928522.278    85698798.35247
     -1301.727  
  22685967.086   120928982.48306      2695.629           0.000           0.0000 
         0.000  
  20679744.956   110739093.58407     -2693.284    20679747.757    86130418.73105
     -2094.776  
  22668185.628   120961789.37307      3447.831    22668192.871    94081424.14606
      2681.640  
  19256976.873   102939575.27708       130.601    19256983.161    80064143.72806
       101.578  
  19646036.985   105056190.96009     -1090.706    19646041.164    81710385.53508
      -848.328  
  21101480.509   112878682.78908     -3879.190    21101488.209    87794562.70906
     -3017.152  
  21239084.819   113654629.82408      3017.496    21239089.114    88398068.43708
      2346.934  
 20 09 27 06 09 50.0000000  0 16G15G18G30G20G 5G29G27G24G13R10R 8R 2
                                R 1R24R23R17
  20009600.456   105151160.14149       382.210    20009599.886    81935967.17448
       297.828  
  20416462.547   107289237.20249       736.413    20416463.017    83602003.21348
       573.823  
  24444133.811   128454787.29946     -1898.526    24444136.244   100094629.31344
     -1479.370  
  21943861.734   115315774.44948      2707.293    21943861.077    89856445.53246
      2109.578  
  23486211.722   123420872.43547     -3176.843    23486212.361    96172108.08545
     -2475.465  
  24164635.407   126986007.61747     -3670.757    24164637.090    98950131.93846
     -2860.331  
  24432031.079   128391196.82947      1967.394    24432034.118   100045101.00746
      1533.031  
  24147478.096   126895848.77746      3808.234    24147482.508    98879910.95145
      2967.465  
  20930113.895   109988489.78848     -1673.906    20930113.293    85705313.88447
     -1304.348  
  22683440.203   120915512.43006      2692.409           0.000           0.0000 
         0.000  
  20682260.571   110752564.71107     -2694.976    20682263.543    86140896.26705
     -2096.098  
  22664955.799   120944554.41507      3446.667    22664963.067    94068019.19906
      2680.746  
  19256856.259   102938930.80808       127.535    19256862.662    80063642.48306
        99.190  
  19647059.341   105061657.83209     -1095.738    19647063.505    81714637.55007
      -852.246  
  21105107.891   112898086.68308     -3882.265    21105115.561    87809654.62106
     -3019.543  
  21236267.088   113639551.38308      3013.586    21236271.274    88386340.77008
      2343.898  
 20 09 27 06 09 55.0000000  0 16G15G18G30G20G 5G29G27G24G13R10R 8R 2
                                R 1R24R23R17
  20009237.768   105149254.26449       379.632    20009237.234    81934482.08248
       295.815  
  20415763.031   107285561.06649       733.926    20415763.329    83599138.70448
       571.890  
  24445941.246   128464285.90447     -1900.995    24445943.675   100102030.81843
     -1481.297  
  21941285.910   115302238.61848      2706.656    21941285.395    89845898.14046
      2109.082  
  23489233.949   123436754.84247     -3176.632    23489234.468    96184483.95346
     -2475.305  
  24168128.308   127004362.78147     -3671.476    24168130.058    98964434.65346
     -2860.895  
  24430159.962   128381363.91547      1965.008    24430162.738   100037438.98545
      1531.171  
  24143854.223   126876805.60446      3808.331    24143858.865    98865072.11144
      2967.527  
  20931707.389   109996863.83848     -1676.184    20931706.992    85711839.12847
     -1306.117  
  22680915.828   120902056.06006      2689.793           0.000           0.0000 
         0.000  
  20684777.345   110766041.89407     -2695.969    20684780.289    86151378.51905
     -2096.866  
  22661726.697   120927323.50006      3445.628    22661733.958    94054617.41506
      2679.938  
  19256738.039   102938298.72508       125.047    19256744.315    80063150.84106
        97.254  
  19648085.623   105067145.57609     -1099.796    19648089.706    81718905.77607
      -855.401  
  21108737.298   112917501.65508     -3884.202    21108745.140    87824755.14206
     -3021.051  
  21233452.022   113624487.33508      3011.183    21233456.308    88374624.31408
      2342.031  
 20 09 27 06 10  0.0000000  0 16G15G18G30G20G 5G29G27G24G13R10R 8R 2
                                R 1R24R23R17
  20008877.929   105147363.73349       376.265    20008877.279    81933008.93948
       293.194  
  20415066.172   107281899.20249       730.843    20415066.596    83596285.29148
       569.483  
  24447751.149   128473796.72747     -1903.882    24447753.565   100109441.85744
     -1483.547  
  21938711.035   115288707.65448      2705.348    21938710.433    89835354.53746
      2108.062  
  23492256.790   123452639.85746     -3177.440    23492257.287    96196861.92246
     -2475.925  
  24171621.789   127022720.05547     -3671.894    24171623.310    98978738.99646
     -2861.223  
  24428291.469   128371544.35847      1962.257    24428294.171   100029787.39346
      1529.031  
  24140230.568   126857763.66846      3808.125    24140235.118    98850234.28645
      2967.374  
  20933303.588   110005251.17448     -1679.046    20933302.910    85718374.70847
     -1308.352  
  22678394.236   120888614.49506      2686.671           0.000           0.0000 
         0.000  
  20687295.574   110779526.11407     -2697.910    20687298.464    86161866.25205
     -2098.379  
  22658498.540   120910097.40307      3444.468    22658505.785    94041219.32906
      2679.027  
  19256622.263   102937679.87008       122.340    19256628.623    80062669.51906
        95.151  
  19649116.016   105072655.20409     -1104.340    19649120.225    81723191.05108
      -858.929  
  21112368.976   112936928.24508     -3886.848    21112376.642    87839864.69806
     -3023.108  
  21230639.789   113609438.50908      3008.175    21230643.997    88362919.66008
      2339.687  
 20 09 27 06 10  5.0000000  0 16G15G18G30G20G 5G29G27G24G13R10R 8R 2
                                R 1R24R23R17
  20008521.496   105145490.35449       373.179    20008520.978    81931549.16748
       290.784  
  20414372.355   107278253.45249       727.761    20414372.802    83593444.44748
       567.082  
  24449563.698   128483321.58247     -1906.065    24449566.015   100116863.82044
     -1485.246  
  21936137.494   115275183.35548      2704.288    21936136.943    89824816.12147
      2107.238  
  23495280.609   123468529.29046     -3177.944    23495281.123    96209243.27446
     -2476.323  
  24175115.817   127041081.38946     -3672.194    24175117.497    98993046.48546
     -2861.457  
  24426425.826   128361740.02547      1959.562    24426428.432   100022147.69146
      1526.938  
  24136607.458   126838724.78545      3807.402    24136612.190    98835398.81444
      2966.809  
  20934902.441   110013653.61048     -1681.750    20934902.017    85724922.06346
     -1310.456  
  22675875.830   120875189.47306      2683.546           0.000           0.0000 
         0.000  
  20689815.294   110793019.09807     -2699.101    20689818.054    86172360.78605
     -2099.304  
  22655271.706   120892878.08407      3443.391    22655278.903    94027826.51106
      2678.188  
  19256509.460   102937076.06108       119.648    19256515.582    80062199.90606
        93.059  
  19650150.724   105078188.44309     -1108.897    19650154.841    81727494.68508
      -862.476  
  21116003.027   112956368.46708     -3889.160    21116010.725    87854984.86605
     -3024.905  
  21227830.723   113594406.81908      3004.964    21227835.027    88351228.34608
      2337.190  
 20 09 27 06 10 10.0000000  0 16G15G18G30G20G 5G29G27G24G13R10R 8R 2
                                R 1R24R23R17
  20008167.744   105143631.59249       369.831    20008167.107    81930100.78048
       288.175  
  20413681.200   107274621.18649       724.866    20413681.682    83590614.11248
       564.831  
  24451378.348   128492857.94347     -1908.871    24451380.594   100124294.74644
     -1487.438  
  21933564.734   115261663.25248      2703.386    21933563.978    89814280.97846
      2106.534  
  23498304.555   123484420.51547     -3178.710    23498305.217    96221626.02646
     -2476.922  
  24178610.231   127059444.09447     -3673.140    24178611.922    99007355.10447
     -2862.187  
  24424562.489   128351948.49646      1956.655    24424565.104   100014517.89345
      1524.660  
  24132984.573   126819686.36346      3807.316    24132989.167    98820563.70346
      2966.738  
  20936503.750   110022068.57348     -1684.613    20936503.307    85731479.17247
     -1312.691  
  22673359.994   120861778.46406      2680.581           0.000           0.0000 
         0.000  
  20692336.142   110806518.18807     -2700.737    20692339.093    86182860.07505
     -2100.577  
  22652045.501   120875662.56407      3442.242    22652052.659    94014436.71006
      2677.305  
  19256398.698   102936484.69508       116.680    19256404.956    80061739.93107
        90.746  
  19651189.363   105083742.73109     -1113.292    19651193.548    81731814.67507
      -865.897  
  21119639.198   112975819.56208     -3891.702    21119646.997    87870113.48506
     -3026.883  
  21225024.442   113579389.74608      3001.433    21225028.723    88339548.41307
      2334.449  
 20 09 27 06 10 15.0000000  0 16G15G18G30G20G 5G29G27G24G13R10R 8R 2
                                R 1R24R23R17
  20007817.413   105141790.15449       366.819    20007816.663    81928665.89348
       285.831  
  20412993.092   107271005.24749       721.698    20412993.510    83587796.50548
       562.362  
  24453195.854   128502408.47146     -1911.652    24453197.952   100131736.71245
     -1489.601  
  21930993.319   115248150.03448      2702.257    21930992.686    89803751.21546
      2105.656  
  23501329.435   123500316.36447     -3179.558    23501330.056    96234012.39246
     -2477.582  
  24182105.218   127077810.96747     -3673.753    24182106.815    99021666.94845
     -2862.668  
  24422702.192   128342172.35246      1954.500    24422704.957   100006900.12145
      1522.987  
  24129362.307   126800651.25546      3806.941    24129366.867    98805731.11745
      2966.441  
  20938107.944   110030498.76548     -1687.484    20938107.552    85738048.16347
     -1314.921  
  22670847.306   120848384.20406      2677.495           0.000           0.0000 
         0.000  
  20694858.627   110820026.26307     -2702.526    20694861.563    86193366.35506
     -2101.964  
  22648820.773   120858454.07707      3441.227    22648827.849    94001052.33506
      2676.508  
  19256290.935   102935908.51308       113.874    19256297.207    80061291.78907
        88.565  
  19652232.475   105089320.78209     -1117.737    19652236.811    81736153.14208
      -869.354  
  21123278.009   112995284.40408     -3894.214    21123285.638    87885252.80306
     -3028.836  
  21222221.361   113564389.95808      2998.668    21222225.516    88327881.93207
      2332.296  
 20 09 27 06 10 20.0000000  0 16G15G18G30G20G 5G29G27G24G13R10R 8R 2
                                R 1R24R23R17
  20007470.139   105139965.43849       362.960    20007469.645    81927244.03748
       282.828  
  20412307.847   107267404.97949       718.104    20412308.484    83584991.09548
       559.558  
  24455015.787   128511972.53147     -1914.113    24455018.041   100139189.23444
     -1491.519  
  21928423.036   115234643.07248      2700.417    21928422.386    89793226.30047
      2104.218  
  23504355.052   123516216.08946     -3180.647    23504355.616    96246401.77445
     -2478.429  
  24185601.152   127096181.35147     -3674.624    24185602.730    99035981.51346
     -2863.347  
  24420844.709   128332411.08847      1950.410    24420847.199    99999293.97546
      1519.801  
  24125740.383   126781618.79446      3805.909    24125744.903    98790900.68544
      2965.652  
  20939714.950   110038943.61048     -1690.913    20939714.452    85744628.55947
     -1317.598  
  22668337.593   120835006.11606      2673.655           0.000           0.0000 
         0.000  
  20697382.670   110833542.58707     -2704.218    20697385.728    86203879.03905
     -2103.285  
  22645596.951   120841251.58107      3439.348    22645604.007    93987672.62806
      2675.043  
  19256185.988   102935347.01308       110.488    19256192.356    80060855.07006
        85.929  
  19653280.076   105094922.02209     -1122.890    19653284.174    81740509.66507
      -873.358  
  21126919.226   113014762.43208     -3897.320    21126926.933    87900402.38006
     -3031.254  
  21219421.436   113549406.96008      2994.367    21219425.675    88316228.48708
      2328.949  
 20 09 27 06 10 25.0000000  0 16G15G18G30G20G 5G29G27G24G13R10R 8R 2
                                R 1R24R23R17
  20007126.286   105138158.50749       359.969    20007125.782    81925836.04048
       280.495  
  20411626.018   107263821.44749       715.413    20411626.414    83582198.72748
       557.460  
  24456838.603   128521551.24447     -1916.570    24456840.829   100146653.15343
     -1493.430  
  21925854.066   115221143.45048      2699.516    21925853.529    89782707.13446
      2103.519  
  23507381.435   123532120.77546     -3181.179    23507382.358    96258795.08945
     -2478.831  
  24189097.782   127114556.32646     -3674.862    24189099.337    99050299.62446
     -2863.543  
  24418990.153   128322665.64346      1947.925    24418992.937    99991700.11246
      1517.862  
  24122119.464   126762590.07846      3805.441    24122124.073    98776073.14945
      2965.284  
  20941325.011   110047404.09648     -1693.344    20941324.549    85751221.13746
     -1319.491  
  22665831.117   120821645.22006      2670.344           0.000           0.0000 
         0.000  
  20699908.439   110847068.40307     -2705.723    20699911.578    86214399.11406
     -2104.453  
  22642374.568   120824056.45507      3438.722    22642381.570    93974298.63406
      2674.558  
  19256083.829   102934801.13208       108.085    19256090.148    80060430.49806
        84.066  
  19654331.989   105100547.51309     -1127.147    19654336.343    81744885.05408
      -876.672  
  21130563.047   113034254.44308     -3899.473    21130570.673    87915562.82105
     -3032.925  
  21216624.828   113534441.75008      2991.848    21216628.960    88304588.86808
      2326.988  
 20 09 27 06 10 30.0000000  0 16G15G18G30G20G 5G29G27G24G13R10R 8R 2
                                R 1R24R23R17
  20006785.276   105136366.55249       356.773    20006784.602    81924439.71548
       278.004  
  20410946.667   107260251.83749       712.382    20410947.272    83579417.22248
       555.102  
  24458663.499   128531141.76647     -1919.229    24458665.767   100154126.28443
     -1495.503  
  21923286.059   115207648.42348      2698.253    21923285.418    89772191.52347
      2102.535  
  23510408.423   123548027.67447     -3181.636    23510409.349    96271190.01745
     -2479.207  
  24192594.531   127132932.99347     -3675.402    24192596.514    99064619.10845
     -2863.953  
  24417138.208   128312933.44946      1945.175    24417140.912    99984116.56844
      1515.715  
  24118498.532   126743562.14346      3805.530    24118503.055    98761246.18444
      2965.348  
  20942937.353   110055877.41748     -1696.065    20942936.811    85757823.73447
     -1321.609  
  22663327.259   120808298.71506      2668.069           0.000           0.0000 
         0.000  
  20702435.483   110860600.76107     -2707.176    20702438.619    86224924.27806
     -2105.585  
  22639152.994   120806865.83207      3437.616    22639160.097    93960928.16806
      2673.706  
  19255984.136   102934268.09108       105.269    19255990.310    80060015.90407
        81.870  
  19655387.987   105106194.37809     -1131.621    19655392.354    81749277.04407
      -880.151  
  21134208.934   113053757.85608     -3901.815    21134216.815    87930732.13105
     -3034.750  
  21213831.014   113519491.64108      2988.362    21213835.392    88292961.03607
      2324.285  
 20 09 27 06 10 35.0000000  0 16G15G18G30G20G 5G29G27G24G13R10R 8R 2
                                R 1R24R23R17
  20006447.126   105134589.71849       353.573    20006446.619    81923055.16848
       275.508  
  20410270.178   107256696.33149       709.546    20410270.559    83576646.69748
       552.890  
  24460490.914   128540744.23647     -1921.679    24460492.829   100161608.73244
     -1497.417  
  21920719.014   115194158.04348      2697.457    21920718.290    89761679.53446
      2101.789  
  23513435.853   123563936.86547     -3182.039    23513436.523    96283586.75946
     -2479.515  
  24196091.957   127151311.52747     -3675.965    24196093.839    99078940.03746
     -2864.390  
  24415288.694   128303214.44046      1942.409    24415291.452    99976543.30746
      1513.562  
  24114877.841   126724535.21845      3805.434    24114881.944    98746419.99744
      2965.270  
  20944552.187   110064363.70848     -1698.636    20944551.766    85764436.42547
     -1323.617  
  22660826.148   120794966.82306      2664.344           0.000           0.0000 
         0.000  
  20704963.748   110874139.63307     -2708.621    20704966.872    86235454.51705
     -2106.710  
  22635932.322   120789679.89307      3436.926    22635939.378    93947561.33006
      2673.164  
  19255886.652   102933747.95108       102.531    19255893.144    80059611.35807
        79.746  
  19656447.911   105111862.79709     -1136.015    19656452.188    81753685.81007
      -883.569  
  21137857.093   113073272.57908     -3903.980    21137864.847    87945910.24006
     -3036.434  
  21211040.018   113504556.67708      2985.335    21211044.242    88281344.95307
      2321.929  
 20 09 27 06 10 40.0000000  0 16G15G18G30G20G 5G29G27G24G13R10R 8R 2
                                R 1R24R23R17
  20006112.392   105132830.73849       350.108    20006111.814    81921684.54048
       272.812  
  20409596.748   107253157.65449       706.059    20409597.268    83573889.27748
       550.171  
  24462320.987   128550361.40047     -1924.699    24462323.075   100169102.59943
     -1499.777  
  21918153.294   115180675.15348      2695.777    21918152.606    89751173.39346
      2100.601  
  23516464.377   123579851.14747     -3182.964    23516464.962    96295987.52346
     -2480.233  
  24199590.160   127169694.74147     -3676.901    24199591.986    99093264.61446
     -2865.120  
  24413442.218   128293511.48246      1938.844    24413444.850    99968982.59145
      1510.789  
  24111257.908   126705512.24945      3804.480    24111261.931    98731596.89844
      2964.523  
  20946170.066   110072865.69148     -1701.883    20946169.661    85771061.33947
     -1326.141  
  22658328.340   120781652.44605      2661.148           0.000           0.0000 
         0.000  
  20707493.964   110887688.16708     -2710.277    20707497.061    86245992.25706
     -2107.995  
  22632713.152   120772501.19207      3435.375    22632720.143    93934200.12206
      2671.953  
  19255792.371   102933243.56008        99.569    19255798.849    80059219.06207
        77.449  
  19657512.517   105117555.56608     -1140.809    19657516.833    81758113.52308
      -887.296  
  21141507.856   113092801.54108     -3907.151    21141515.511    87961099.42506
     -3038.897  
  21208252.439   113489639.68708      2982.000    21208256.627    88269742.83407
      2319.327  
 20 09 27 06 10 45.0000000  0 16G15G18G30G20G 5G29G27G24G13R10R 8R 2
                                R 1R24R23R17
  20005780.697   105131087.41949       347.132    20005780.163    81920326.11248
       270.487  
  20408926.157   107249633.67349       703.410    20408926.686    83571143.32448
       548.112  
  24464153.565   128559991.03647     -1927.199    24464155.705   100176606.22444
     -1501.718  
  21915588.505   115167197.53448      2694.816    21915587.915    89740671.34746
      2099.855  
  23519493.300   123595768.30747     -3183.715    23519493.922    96308390.48345
     -2480.820  
  24203088.951   127188080.32647     -3677.668    24203090.815    99107591.01446
     -2865.723  
  24411598.503   128283822.26146      1936.637    24411601.020    99961432.54245
      1509.059  
  24107638.068   126686490.86246      3803.874    24107642.635    98716775.04844
      2964.059  
  20947790.612   110081381.21948     -1704.320    20947789.994    85777696.83447
     -1328.042  
  22655833.364   120768353.16205      2658.508           0.000           0.0000 
         0.000  
  20710025.304   110901243.88107     -2711.539    20710028.404    86256535.58606
     -2108.976  
  22629494.775   120755327.91107      3434.434    22629501.845    93920843.08506
      2671.218  
  19255700.527   102932752.75508        96.809    19255707.001    80058837.34507
        75.297  
  19658581.255   105123270.46409     -1145.120    19658585.578    81762558.44308
      -890.648  
  21145160.846   113112342.42208     -3909.430    21145168.367    87976297.88706
     -3040.672  
  21205467.849   113474738.50108      2978.668    21205472.199    88258153.01207
      2316.737  
 20 09 27 06 10 50.0000000  0 16G15G18G30G20G 5G29G27G24G13R10R 8R 2
                                R 1R24R23R17
  20005451.853   105129359.92549       344.151    20005451.463    81918980.01348
       268.168  
  20408258.439   107246124.54549       700.539    20408258.754    83568408.94148
       545.874  
  24465988.405   128569633.34147     -1929.358    24465990.488   100184119.69444
     -1503.398  
  21913024.834   115153725.31948      2694.117    21913024.197    89730173.53746
      2099.289  
  23522522.754   123611688.50747     -3183.891    23522523.374    96320795.83146
     -2480.952  
  24206588.126   127206468.55247     -3677.858    24206589.858    99121919.47845
     -2865.871  
  24409757.428   128274147.24947      1933.930    24409759.770    99953893.58645
      1506.961  
  24104018.773   126667471.39945      3803.996    24104023.249    98701954.70544
      2964.156  
  20949413.630   110089910.42048     -1707.094    20949413.038    85784342.96047
     -1330.206  
  22653341.249   120755069.32004      2655.500           0.000           0.0000 
         0.000  
  20712558.109   110914806.84307     -2713.426    20712561.221    86267084.55606
     -2110.445  
  22626277.513   120738159.79607      3433.598    22626284.520    93907490.11906
      2670.574  
  19255611.267   102932275.57708        94.401    19255617.773    80058466.20707
        73.422  
  19659654.077   105129007.57609     -1149.516    19659658.416    81767020.63708
      -894.070  
  21148816.109   113131895.39308     -3911.672    21148823.626    87991505.75106
     -3042.413  
  21202686.237   113459853.37308      2975.913    21202690.391    88246575.68607
      2314.602  
 20 09 27 06 10 55.0000000  0 16G15G18G30G20G 5G29G27G24G13R10R 8R 2
                                R 1R24R23R17
  20005126.069   105127647.23249       340.741    20005125.441    81917645.44648
       265.508  
  20407593.361   107242629.19049       697.452    20407593.754    83565685.28448
       543.465  
  24467825.502   128579287.22547     -1932.102    24467827.465   100191642.18744
     -1505.534  
  21910461.925   115140257.55148      2692.672    21910461.457    89719679.17046
      2098.187  
  23525552.629   123627610.70247     -3184.558    23525553.302    96333202.72545
     -2481.473  
  24210087.705   127224858.18248     -3678.620    24210089.313    99136249.03845
     -2866.461  
  24407918.785   128264485.11746      1930.483    24407921.150    99946364.65245
      1504.277  
  24100399.486   126648452.85546      3804.116    24100404.137    98687135.07844
      2964.250  
  20951039.102   110098452.30348     -1709.886    20951038.505    85790998.97247
     -1332.383  
  22650851.874   120741799.82906      2651.813           0.000           0.0000 
         0.000  
  20715092.220   110928376.26307     -2714.715    20715095.226    86277638.53505
     -2111.449  
  22623061.205   120720996.17907      3431.598    22623067.940    93894140.64706
      2669.019  
  19255524.468   102931811.05508        91.335    19255530.710    80058104.91507
        71.035  
  19660730.839   105134765.88409     -1153.874    19660735.331    81771499.32208
      -897.460  
  21152473.424   113151459.34308     -3914.354    21152481.062    88006722.14206
     -3044.504  
  21199907.203   113444982.95308      2972.284    21199911.456    88235009.81707
      2311.776  
 20 09 27 06 11  0.0000000  0 16G15G18G30G20G 5G29G27G24G13R10R 8R 2
                                R 1R24R23R17
  20004803.132   105125950.25049       338.081    20004802.586    81916323.12648
       263.441  
  20406930.956   107239148.53949       694.988    20406931.438    83562973.08648
       541.547  
  24469664.898   128588953.56747     -1934.156    24469666.889   100199174.44243
     -1507.129  
  21907900.177   115126795.00648      2692.238    21907899.444    89709188.87646
      2097.847  
  23528583.043   123643535.78947     -3184.999    23528583.716    96345611.85646
     -2481.823  
  24213587.650   127243250.20647     -3678.233    24213589.026    99150580.46445
     -2866.163  
  24406082.613   128254836.93746      1928.495    24406085.174    99938846.57545
      1502.723  
  24096780.806   126629436.06545      3803.565    24096785.227    98672316.83945
      2963.819  
  20952667.053   110107007.68148     -1712.141    20952666.636    85797665.49147
     -1334.140  
  22648365.436   120728545.62105      2649.738           0.000           0.0000 
         0.000  
  20717627.464   110941952.69308     -2715.710    20717630.411    86288197.98905
     -2112.218  
  22619845.586   120703837.79906      3431.538    22619852.608    93880795.26206
      2668.973  
  19255440.080   102931360.04808        89.250    19255446.543    80057754.13507
        69.417  
  19661811.924   105140546.30409     -1157.999    19661816.321    81775995.20008
      -900.671  
  21156132.977   113171035.17408     -3915.905    21156140.435    88021947.78106
     -3045.707  
  21197131.345   113430128.49408      2969.441    21197135.656    88223456.34207
      2309.563  
 20 09 27 06 11  5.0000000  0 16G15G18G30G20G 5G29G27G24G13R10R 8R 2
                                R 1R24R23R17
  20004483.240   105124269.39249       334.702    20004482.675    81915013.36548
       260.809  
  20406271.601   107235683.04749       691.812    20406271.824    83560272.70148
       539.069  
  24471506.763   128598632.91547     -1937.379    24471508.619   100206716.77244
     -1509.645  
  21905339.391   115113338.29648      2691.031    21905338.915    89698703.12347
      2096.901  
  23531614.254   123659464.22647     -3185.933    23531614.781    96358023.65645
     -2482.547  
  24217088.136   127261645.03847     -3679.355    24217089.625    99164914.11445
     -2867.034  
  24404249.475   128245203.10546      1925.116    24404251.870    99931339.78345
      1500.098  
  24093162.336   126610421.44146      3802.816    24093167.100    98657500.27944
      2963.238  
  20954297.887   110115577.11548     -1715.168    20954297.266    85804342.96247
     -1336.500  
  22645881.995   120715307.17406      2646.272           0.000           0.0000 
         0.000  
  20720164.231   110955536.96707     -2717.667    20720167.276    86298763.53906
     -2113.742  
  22616631.267   120686685.04607      3430.219    22616638.203    93867454.25706
      2667.953  
  19255358.279   102930923.18008        85.894    19255364.772    80057414.31307
        66.800  
  19662897.079   105146349.36409     -1162.855    19662901.406    81780508.67608
      -904.445  
  21159794.752   113190623.26008     -3918.917    21159802.182    88037182.95306
     -3048.050  
  21194358.528   113415290.43508      2966.069    21194362.710    88211915.68107
      2306.948  
 20 09 27 06 11 10.0000000  0 16G15G18G30G20G 5G29G27G24G13R10R 8R 2
                                R 1R24R23R17
  20004166.600   105122605.37849       331.101    20004165.941    81913716.73448
       257.995  
  20405615.098   107232233.44349       688.238    20405615.385    83557584.69448
       536.284  
  24473351.283   128608325.83947     -1939.957    24473353.044   100214269.69344
     -1511.659  
  21902779.957   115099888.00348      2689.418    21902779.375    89688222.39147
      2095.647  
  23534645.995   123675396.72746     -3187.222    23534646.679    96370438.58445
     -2483.551  
  24220589.158   127280043.31447     -3679.730    24220590.656    99179250.40545
     -2867.331  
  24402419.062   128235584.34947      1922.245    24402421.509    99923844.60246
      1497.848  
  24089544.451   126591409.76446      3801.729    24089549.419    98642686.04245
      2962.397  
  20955931.387   110124161.15348     -1718.359    20955930.781    85811031.80847
     -1338.983  
  22643401.539   120702085.28806      2642.738           0.000           0.0000 
         0.000  
  20722702.693   110969129.56407     -2719.422    20722705.603    86309335.55005
     -2115.108  
  22613417.890   120669538.82207      3428.522    22613424.976    93854118.33206
      2666.632  
  19255279.142   102930500.86908        83.035    19255285.626    80057085.84606
        64.578  
  19663986.564   105152175.54909     -1167.687    19663991.062    81785040.16507
      -908.202  
  21163458.953   113210224.51808     -3921.647    21163466.571    88052428.36905
     -3050.175  
  21191588.854   113400469.44608      2962.391    21191593.113    88200388.24007
      2304.082  
 20 09 27 06 11 15.0000000  0 16G15G18G30G20G 5G29G27G24G13R10R 8R 2
                                R 1R24R23R17
  20003853.179   105120958.05749       327.995    20003852.627    81912433.10848
       255.581  
  20404961.629   107228799.56649       685.503    20404961.888    83554908.95148
       534.160  
  24475198.492   128618032.26847     -1942.230    24475200.302   100221833.15643
     -1513.425  
  21900221.665   115086444.15149      2688.340    21900221.014    89677746.67547
      2094.808  
  23537678.707   123691333.13946     -3187.652    23537679.261    96382856.56145
     -2483.890  
  24224090.895   127298445.09647     -3680.230    24224092.419    99193589.44645
     -2867.719  
  24400591.479   128225980.61347      1919.206    24400594.088    99916361.15145
      1495.480  
  24085927.161   126572400.93046      3801.804    24085931.994    98627873.97844
      2962.448  
  20957567.547   110132759.70148     -1720.952    20957567.009    85817731.97947
     -1341.003  
  22640924.199   120688879.70306      2639.535           0.000           0.0000 
         0.000  
  20725242.586   110982730.35607     -2720.690    20725245.388    86319913.94305
     -2116.098  
  22610205.870   120652398.74507      3427.577    22610212.908    93840787.18106
      2665.898  
  19255203.018   102930093.12908        80.336    19255209.381    80056768.71806
        62.480  
  19665080.345   105158024.92909     -1171.933    19665084.812    81789589.68007
      -911.508  
  21167125.589   113229838.64208     -3923.839    21167133.109    88067683.78806
     -3051.879  
  21188822.380   113385665.35508      2959.429    21188826.417    88188873.93607
      2301.773  
 20 09 27 06 11 20.0000000  0 16G15G18G30G20G 5G29G27G24G13R10R 8R 2
                                R 1R24R23R17
  20003542.623   105119326.54549       324.750    20003541.985    81911161.80348
       253.050  
  20404311.020   107225380.56149       682.367    20404311.319    83552244.79348
       531.714  
  24477047.898   128627751.27547     -1945.441    24477049.810   100229406.36544
     -1515.938  
  21897664.323   115073005.66648      2687.097    21897663.901    89667275.13346
      2093.844  
  23540711.797   123707272.47946     -3188.680    23540712.378    96395276.79545
     -2484.688  
  24227593.022   127316849.24246     -3681.222    24227594.733    99207930.30646
     -2868.491  
  24398766.590   128216390.81846      1916.280    24398769.146    99908888.57046
      1493.203  
  24082310.169   126553393.97945      3801.707    24082315.147    98613063.40644
      2962.378  
  20959206.371   110141371.87048     -1723.590    20959205.907    85824442.77447
     -1343.058  
  22638449.856   120675689.65607      2636.605           0.000           0.0000 
         0.000  
  20727783.803   110996338.42807     -2722.336    20727786.840    86330498.00405
     -2117.370  
  22606994.968   120635264.13207      3426.421    22607001.822    93827460.26306
      2664.992  
  19255129.302   102929699.13708        77.288    19255135.766    80056462.27706
        60.112  
  19666178.452   105163896.43709     -1176.558    19666182.886    81794156.39507
      -915.105  
  21170794.502   113249464.69508     -3926.621    21170802.037    88082948.49005
     -3054.043  
  21186058.868   113370877.37008      2955.718    21186063.085    88177372.19907
      2298.890  
 20 09 27 06 11 25.0000000  0 16G15G18G30G20G 5G29G27G24G13R10R 8R 2
                                R 1R24R23R17
  20003235.295   105117711.40049       321.147    20003234.771    81909903.24948
       250.242  
  20403663.264   107221976.95449       678.726    20403663.681    83549592.63348
       528.875  
  24478899.871   128637483.36647     -1948.367    24478901.670   100236989.83043
     -1518.203  
  21895108.322   115059573.26048      2685.703    21895107.738    89656808.32046
      2092.749  
  23543745.641   123723215.37347     -3189.390    23543746.158    96407699.83245
     -2485.241  
  24231095.779   127335256.47947     -3682.491    24231097.404    99222273.59845
     -2869.477  
  24396944.503   128206815.68647      1913.438    24396947.170    99901427.47745
      1490.991  
  24078693.770   126534389.36246      3800.249    24078698.796    98598254.61644
      2961.234  
  20960848.044   110149998.17148     -1726.813    20960847.498    85831164.56647
     -1345.566  
  22635978.500   120662515.59806      2633.422           0.000           0.0000 
         0.000  
  20730326.467   111009954.27907     -2723.977    20730329.495    86341088.10205
     -2118.652  
  22603785.005   120618135.40207      3424.944    22603791.727    93814137.92705
      2663.844  
  19255058.236   102929319.15508        74.055    19255064.587    80056166.74307
        57.597  
  19667280.665   105169790.77809     -1181.566    19667285.054    81798740.88808
      -918.996  
  21174465.788   113269103.35108     -3929.175    21174473.374    88098223.00105
     -3056.030  
  21183298.330   113356105.98808      2952.168    21183302.621    88165883.33107
      2296.125  
 20 09 27 06 11 30.0000000  0 16G15G18G30G20G 5G29G27G24G13R10R 8R 2
                                R 1R24R23R17
  20002931.020   105116112.35849       318.246    20002930.475    81908657.24248
       247.984  
  20403018.564   107218588.49849       676.188    20403018.960    83546952.26848
       526.894  
  24480754.307   128647228.33947     -1950.379    24480756.183   100244583.31143
     -1519.781  
  21892553.246   115046146.58548      2684.706    21892552.580    89646345.97146
      2091.979  
  23546780.053   123739161.59847     -3189.133    23546780.749    96420125.44746
     -2485.047  
  24234599.092   127353666.42247     -3682.288    24234600.525    99236618.97945
     -2869.323  
  24395125.111   128197254.99947      1910.698    24395127.899    99893977.61545
      1488.855  
  24075077.847   126515387.34145      3800.296    24075082.786    98583447.87845
      2961.266  
  20962492.164   110158638.39648     -1729.520    20962491.777    85837897.20847
     -1347.680  
  22633510.177   120649357.42206      2629.937           0.000           0.0000 
         0.000  
  20732870.493   111023577.79707     -2725.409    20732873.550    86351684.15905
     -2119.765  
  22600576.115   120601012.55507      3423.858    22600583.053    93800820.14406
      2662.999  
  19254989.784   102928953.24108        71.813    19254996.263    80055882.14407
        55.851  
  19668387.184   105175707.58009     -1185.488    19668391.553    81803342.83608
      -922.050  
  21178139.332   113288754.14608     -3931.331    21178146.678    88113506.94506
     -3057.706  
  21180541.179   113341351.01108      2949.390    21180545.295    88154407.24507
      2293.968  
 20 09 27 06 11 35.0000000  0 16G15G18G30G20G 5G29G27G24G13R10R 8R 2
                                R 1R24R23R17
  20002629.583   105114528.82849       315.051    20002629.134    81907423.32848
       245.491  
  20402376.512   107215214.62049       673.262    20402376.919    83544323.27748
       524.617  
  24482611.031   128656985.58347     -1952.733    24482612.704   100252186.36244
     -1521.609  
  21889999.318   115032725.10448      2683.647    21889998.631    89635887.69347
      2091.155  
  23549815.020   123755110.58347     -3189.999    23549815.736    96432553.24245
     -2485.714  
  24238102.765   127372078.44247     -3682.581    24238104.433    99250966.02145
     -2869.546  
  24393308.546   128187708.07246      1907.418    24393311.276    99886538.40946
      1486.296  
  24071462.051   126496386.82746      3799.901    24071467.336    98568642.30944
      2960.964  
  20964138.798   110167291.95048     -1732.102    20964138.493    85844640.23447
     -1349.694  
  22631044.578   120636214.42306      2627.047           0.000           0.0000 
         0.000  
  20735416.000   111037208.21407     -2726.695    20735418.823    86362285.60005
     -2120.761  
  22597368.132   120583894.61207      3423.055    22597375.171    93787506.24506
      2662.383  
  19254923.699   102928600.60508        68.999    19254930.127    80055607.86107
        53.663  
  19669497.819   105181646.39509     -1189.980    19669502.142    81807961.91708
      -925.543  
  21181814.958   113308416.57608     -3933.668    21181822.396    88128799.93206
     -3059.522  
  21177786.622   113326611.87908      2946.089    21177790.861    88142943.47607
      2291.402  
 20 09 27 06 11 40.0000000  0 16G15G18G30G20G 5G29G27G24G13R10R 8R 2
                                R 1R24R23R17
  20002331.203   105112960.49049       311.702    20002330.703    81906201.24148
       242.883  
  20401737.135   107211854.98349       670.191    20401737.569    83541705.37348
       522.222  
  24484470.022   128666754.70947     -1955.312    24484471.421   100259798.65043
     -1523.620  
  21887446.139   115019308.49649      2682.594    21887445.640    89625433.18647
      2090.332  
  23552850.386   123771061.85446     -3190.608    23552850.937    96444982.78745
     -2486.190  
  24241606.867   127390492.24747     -3683.300    24241608.407    99265314.42946
     -2870.104  
  24391494.235   128178174.55546      1904.762    24391496.882    99879109.73945
      1484.233  
  24067846.591   126477387.67846      3798.859    24067851.901    98553837.80145
      2960.156  
  20965788.083   110175958.34648     -1734.870    20965787.615    85851393.27047
     -1351.851  
  22628581.799   120623086.39306      2623.582           0.000           0.0000 
         0.000  
  20737962.541   111050845.26307     -2728.366    20737965.510    86372892.17906
     -2122.066  
  22594161.199   120566781.58707      3421.469    22594168.221    93774196.08506
      2661.141  
  19254860.107   102928260.98208        65.957    19254866.643    80055343.72907
        51.297  
  19670612.362   105187606.70008     -1194.586    19670616.809    81812597.70808
      -929.125  
  21185492.823   113328090.17808     -3936.237    21185500.236    88144101.62006
     -3061.522  
  21175035.270   113311888.21508      2942.602    21175039.296    88131491.74107
      2288.691  
 20 09 27 06 11 45.0000000  0 16G15G18G30G20G 5G29G27G24G13R10R 8R 2
                                R 1R24R23R17
  20002035.865   105111408.38149       308.698    20002035.201    81904991.80648
       240.539  
  20401100.799   107208510.70049       667.101    20401101.158    83539099.44048
       519.815  
  24486331.441   128676536.84447     -1957.906    24486333.082   100267421.09444
     -1525.644  
  21884894.112   115005897.81848      2681.448    21884893.673    89614983.30846
      2089.441  
  23555886.527   123787016.56647     -3191.308    23555887.231    96457415.02845
     -2486.742  
  24245111.393   127408908.90247     -3683.667    24245113.087    99279665.03946
     -2870.395  
  24389682.833   128168655.60647      1902.109    24389685.410    99871692.34443
      1482.160  
  24064231.604   126458390.85446      3799.367    24064237.210    98539035.08945
      2960.547  
  20967439.839   110184638.78948     -1737.594    20967439.457    85858157.25647
     -1353.973  
  22626122.057   120609974.30405      2620.460           0.000           0.0000 
         0.000  
  20740510.673   111064490.20907     -2729.776    20740513.404    86383504.91005
     -2123.164  
  22590955.343   120549674.46107      3421.042    22590962.248    93760890.54405
      2660.812  
  19254799.302   102927935.47308        63.676    19254805.803    80055090.55807
        49.523  
  19671731.213   105193589.57709     -1198.972    19671735.794    81817251.05108
      -932.538  
  21189172.950   113347776.18508     -3938.397    21189180.257    88159412.95006
     -3063.203  
  21172286.900   113297181.16508      2939.590    21172290.876    88120052.91307
      2286.343  
 20 09 27 06 11 50.0000000  0 16G15G18G30G20G 5G29G27G24G13R10R 8R 2
                                R 1R24R23R17
  20001743.559   105109872.33649       305.453    20001742.887    81903794.89048
       238.016  
  20400467.302   107205181.55949       664.168    20400467.669    83536505.31248
       517.534  
  24488195.386   128686331.75047     -1960.620    24488197.029   100275053.52043
     -1527.757  
  21882343.209   114992492.88648      2680.382    21882342.663    89604537.91246
      2088.609  
  23558923.235   123802974.54647     -3191.968    23558923.722    96469849.79546
     -2487.253  
  24248616.620   127427328.15247     -3684.386    24248617.993    99294017.66745
     -2870.953  
  24387874.270   128159151.10647      1899.836    24387876.729    99864286.25544
      1480.386  
  24060617.171   126439396.53345      3798.711    24060622.263    98524234.29745
      2960.031  
  20969094.447   110193333.12648     -1740.284    20969093.991    85864932.07647
     -1356.065  
  22623665.300   120596878.18505      2616.902           0.000           0.0000 
         0.000  
  20743060.125   111078142.50107     -2731.304    20743062.963    86394123.35905
     -2124.352  
  22587750.362   120532572.91407      3419.944    22587757.464    93747589.31406
      2659.953  
  19254740.947   102927623.84508        60.926    19254747.610    80054848.20307
        47.387  
  19672854.183   105199594.97509     -1203.405    19672858.638    81821921.91708
      -935.987  
  21192855.282   113367474.24208     -3941.180    21192862.680    88174733.64706
     -3065.366  
  21169541.546   113282490.56408      2936.413    21169545.575    88108626.87207
      2283.874  
 20 09 27 06 11 55.0000000  0 16G15G18G30G20G 5G29G27G24G13R10R 8R 2
                                R 1R24R23R17
  20001454.501   105108353.01549       302.031    20001453.984    81902611.00648
       235.347  
  20399836.868   107201868.23049       661.058    20399837.108    83533923.48848
       515.104  
  24490061.933   128696140.14747     -1962.847    24490063.614   100282696.37344
     -1529.500  
  21879793.629   114979094.47348      2678.957    21879793.093    89594097.59846
      2087.499  
  23561960.664   123818936.40547     -3193.167    23561961.218    96482287.61645
     -2488.188  
  24252122.219   127445750.69747     -3684.625    24252123.657    99308372.90045
     -2871.145  
  24386068.289   128149661.67347      1895.992    24386070.794    99856891.90845
      1477.397  
  24057003.207   126420405.15446      3797.714    24057008.007    98509435.86844
      2959.257  
  20970751.526   110202041.94548     -1743.262    20970751.187    85871718.14347
     -1358.391  
  22621211.578   120583798.59206      2614.308           0.000           0.0000 
         0.000  
  20745611.215   111091803.09607     -2733.187    20745614.029    86404748.27206
     -2125.812  
  22584546.712   120515477.58907      3418.460    22584553.823    93734293.01405
      2658.809  
  19254685.378   102927326.86108        57.883    19254692.052    80054617.18107
        45.015  
  19673981.636   105205623.50409     -1208.082    19673986.061    81826610.76308
      -939.620  
  21196540.086   113387185.08608     -3943.562    21196547.502    88190064.29306
     -3067.219  
  21166799.583   113267817.14008      2932.933    21166803.633    88097214.25607
      2281.171  
 20 09 27 06 12  0.0000000  0 16G15G18G30G20G 5G29G27G24G13R10R 8R 2
                                R 1R24R23R17
  20001168.285   105106849.87549       299.059    20001167.762    81901439.72648
       233.031  
  20399209.282   107198570.24549       658.121    20399209.507    83531353.63148
       512.815  
  24491930.766   128705961.46247     -1965.241    24491932.610   100290349.38244
     -1531.355  
  21877245.032   114965701.85049      2678.297    21877244.502    89583661.79347
      2086.984  
  23564998.668   123834901.66147     -3193.332    23564999.517    96494728.06945
     -2488.316  
  24255628.391   127464175.97547     -3685.324    24255630.047    99322730.22945
     -2871.683  
  24384265.169   128140186.80746      1893.020    24384267.787    99849508.89645
      1475.073  
  24053389.762   126401416.33846      3797.675    24053394.639    98494639.41644
      2959.230  
  20972411.477   110210764.70748     -1745.913    20972411.088    85878515.09647
     -1360.456  
  22618761.027   120570735.05706      2611.219           0.000           0.0000 
         0.000  
  20748163.547   111105471.34207     -2734.519    20748166.523    86415379.13006
     -2126.851  
  22581344.253   120498388.25007      3417.133    22581351.102    93721001.34406
      2657.772  
  19254632.467   102927043.86108        55.226    19254639.132    80054397.06307
        42.948  
  19675113.227   105211674.53909     -1212.340    19675117.785    81831317.12008
      -942.934  
  21200227.131   113406908.16508     -3945.758    21200234.471    88205404.46505
     -3068.926  
  21164060.544   113253160.33508      2929.621    21164064.573    88085814.53607
      2278.593  
 20 09 27 06 12  5.0000000  0 16G15G18G30G20G 5G29G27G24G13R10R 8R 2
                                R 1R24R23R17
  20000885.509   105105363.87949       295.456    20000884.972    81900281.80948
       230.223  
  20398584.739   107195288.47049       654.711    20398585.074    83528796.40048
       510.159  
  24493802.326   128715796.57947     -1968.233    24493804.386   100298013.11544
     -1533.690  
  21874697.958   114952316.10348      2676.390    21874697.406    89573231.36047
      2085.500  
  23568037.630   123850871.16846     -3194.433    23568038.311    96507171.86045
     -2489.168  
  24259135.315   127482604.92647     -3685.754    24259136.949    99337090.47145
     -2872.016  
  24382465.156   128130727.30246      1890.242    24382467.758    99842137.83146
      1472.910  
  24049776.768   126382430.70746      3796.534    24049781.748    98479845.41945
      2958.339  
  20974074.283   110219502.27648     -1748.848    20974073.667    85885323.57947
     -1362.742  
  22616313.389   120557688.58207      2607.617           0.000           0.0000 
         0.000  
  20750717.645   111119148.23807     -2736.226    20750720.486    86426016.70306
     -2128.179  
  22578142.923   120481305.59007      3415.785    22578149.695    93707714.81907
      2656.722  
  19254582.315   102926775.77208        52.258    19254588.844    80054188.54506
        40.640  
  19676249.286   105217749.08609     -1217.194    19676253.609    81836041.78207
      -946.706  
  21203916.571   113426644.36708     -3948.590    21203923.847    88220754.84105
     -3071.129  
  21161324.884   113238521.11008      2925.848    21161328.917    88074428.45207
      2275.656  
 20 09 27 06 12 10.0000000  0 16G15G18G30G20G 5G29G27G24G13R10R 8R 2
                                R 1R24R23R17
  20000605.574   105103892.59149       292.750    20000605.110    81899135.35148
       228.112  
  20397962.855   107192020.51049       652.195    20397963.079    83526249.93748
       508.202  
  24495676.157   128725643.12447     -1970.526    24495677.981   100305685.70644
     -1535.479  
  21872151.452   114938934.84248      2675.870    21872151.055    89562804.38646
      2085.089  
  23571076.788   123866842.52247     -3194.277    23571077.785    96519617.02745
     -2489.055  
  24262642.633   127501035.19147     -3686.129    24262644.101    99351451.67046
     -2872.315  
  24380667.465   128121280.93446      1888.007    24380670.409    99834777.04944
      1471.176  
  24046164.085   126363445.96245      3796.487    24046169.044    98465052.12545
      2958.301  
  20975739.376   110228252.27548     -1751.316    20975738.685    85892141.76947
     -1364.663  
  22613868.581   120544656.60106      2604.848           0.000           0.0000 
         0.000  
  20753272.669   111132830.89907     -2737.315    20753275.618    86436658.76905
     -2129.026  
  22574942.480   120464227.53907      3415.023    22574949.313    93694431.88806
      2656.128  
  19254534.618   102926520.18108        49.801    19254540.973    80053989.76307
        38.729  
  19677389.120   105223844.76209     -1221.226    19677393.512    81840782.84808
      -949.848  
  21207608.080   113446391.29608     -3950.280    21207615.402    88236113.56306
     -3072.444  
  21158591.866   113223896.95908      2923.398    21158596.166    88063054.11607
      2273.753  
 20 09 27 06 12 15.0000000  0 16G15G18G30G20G 5G29G27G24G13R10R 8R 2
                                R 1R24R23R17
  20000328.506   105102436.99449       289.137    20000328.180    81898001.12148
       225.301  
  20397343.826   107188767.33549       648.754    20397344.014    83523714.99848
       505.520  
  24497552.249   128735502.02347     -1973.508    24497553.934   100313367.98144
     -1537.797  
  21869606.085   114925558.91148      2674.187    21869605.657    89552381.59347
      2083.781  
  23574116.591   123882816.73447     -3195.487    23574117.432    96532064.46745
     -2489.995  
  24266150.090   127519467.50347     -3686.987    24266151.683    99365814.47845
     -2872.983  
  24378872.541   128111848.57346      1884.210    24378875.431    99827427.13244
      1468.210  
  24042551.938   126344463.18946      3796.183    24042556.682    98450260.35944
      2958.065  
  20977406.935   110237015.70048     -1754.476    20977406.424    85898970.41447
     -1367.124  
  22611426.808   120531640.10606      2601.457           0.000           0.0000 
         0.000  
  20755829.222   111146520.81307     -2739.007    20755832.193    86447306.47106
     -2130.343  
  22571743.041   120447154.43607      3413.632    22571749.895    93681152.86606
      2655.054  
  19254489.340   102926278.14408        46.569    19254495.744    80053801.49907
        36.218  
  19678533.225   105229962.36709     -1226.261    19678537.503    81845540.97707
      -953.761  
  21211301.653   113466149.82808     -3953.315    21211309.159    88251481.28905
     -3074.804  
  21155862.175   113209289.01908      2919.479    21155866.243    88051692.39707
      2270.706  
 20 09 27 06 12 20.0000000  0 16G15G18G30G20G 5G29G27G24G13R10R 8R 2
                                R 1R24R23R17
  20000054.861   105100998.73149       286.144    20000054.428    81896880.40048
       222.968  
  20396727.856   107185530.63849       645.944    20396728.120    83521192.89148
       503.332  
  24499430.800   128745374.93947     -1975.813    24499432.793   100321061.18944
     -1539.594  
  21867062.259   114912190.04449      2673.371    21867061.724    89541964.30147
      2083.144  
  23577157.288   123898795.45446     -3196.059    23577157.980    96544515.44044
     -2490.434  
  24269658.324   127537903.74247     -3687.527    24269660.107    99380180.38645
     -2873.401  
  24377080.706   128102432.01246      1882.112    24377083.418    99820089.57546
      1466.577  
  24038940.353   126325484.18346      3795.809    24038944.833    98435471.56544
      2957.777  
  20979077.544   110245794.18548     -1757.074    20979076.798    85905810.78447
     -1369.152  
  22608988.051   120518640.94106      2598.538           0.000           0.0000 
         0.000  
  20758387.448   111160219.43407     -2740.569    20758390.172    86457960.95606
     -2131.554  
  22568544.895   120430088.48707      3412.590    22568551.808    93667879.36506
      2654.242  
  19254446.909   102926051.23108        44.020    19254453.424    80053625.01207
        34.233  
  19679681.623   105236103.74009     -1230.479    19679686.053    81850317.60007
      -957.039  
  21214997.837   113485921.73108     -3955.612    21215005.285    88266859.43305
     -3076.594  
  21153135.478   113194698.91108      2916.480    21153139.689    88040344.53807
      2268.375  
 20 09 27 06 12 25.0000000  0 16G15G18G30G20G 5G29G27G24G13R10R 8R 2
                                R 1R24R23R17
  19999783.879   105099574.86649       283.339    19999783.351    81895770.88748
       220.781  
  20396114.531   107182307.49949       643.222    20396114.900    83518681.35948
       501.207  
  24501311.642   128755258.95347     -1977.566    24501313.424   100328762.99543
     -1540.956  
  21864519.008   114898825.35949      2672.434    21864518.518    89531550.26547
      2082.410  
  23580198.190   123914775.71846     -3196.245    23580198.938    96556967.59244
     -2490.585  
  24273166.800   127556340.84447     -3687.219    24273168.496    99394546.93445
     -2873.163  
  24375291.212   128093028.21947      1879.027    24375293.886    99812761.96145
      1464.176  
  24035328.762   126306505.95545      3795.719    24035333.467    98420683.37545
      2957.711  
  20980750.244   110254584.71948     -1759.351    20980749.658    85912660.55447
     -1370.925  
  22606552.317   120505656.04306      2595.387           0.000           0.0000 
         0.000  
  20760946.580   111173923.87407     -2741.523    20760949.387    86468619.96706
     -2132.297  
  22565347.504   120413026.75107      3411.703    22565354.457    93654609.11106
      2653.543  
  19254406.698   102925836.53108        41.706    19254413.268    80053458.02706
        32.437  
  19680833.961   105242265.87409     -1234.522    19680838.442    81855110.37507
      -960.187  
  21218695.873   113505703.85308     -3957.438    21218703.283    88282245.52505
     -3078.011  
  21150411.768   113180123.63108      2913.285    21150416.019    88029008.21807
      2265.887  
 20 09 27 06 12 30.0000000  0 16G15G18G30G20G 5G29G27G24G13R10R 8R 2
                                R 1R24R23R17
  19999516.138   105098167.72149       280.023    19999515.704    81894674.41748
       218.198  
  20395504.255   107179100.23149       640.059    20395504.644    83516182.18248
       498.741  
  24503195.160   128765156.37647     -1980.327    24503197.116   100336475.27444
     -1543.116  
  21861977.087   114885467.13249      2671.316    21861976.562    89521141.25847
      2081.542  
  23583239.817   123930759.85746     -3196.898    23583240.410    96569422.75546
     -2491.093  
  24276676.008   127574781.20147     -3688.128    24276677.704    99408916.02546
     -2873.871  
  24373504.597   128083639.52647      1876.647    24373507.581    99805446.08945
      1462.323  
  24031717.852   126287530.80945      3794.288    24031722.405    98405897.58644
      2956.594  
  20982425.800   110263389.70248     -1762.141    20982425.219    85919521.57247
     -1373.102  
  22604119.441   120492687.97806      2592.354           0.000           0.0000 
         0.000  
  20763507.376   111187636.44607     -2743.210    20763510.292    86479285.29405
     -2133.612  
  22562151.429   120395971.31907      3410.667    22562158.076    93641343.75606
      2652.737  
  19254369.283   102925636.43208        38.851    19254375.760    80053302.39406
        30.219  
  19681990.794   105248451.16509     -1239.125    19681995.169    81859921.16207
      -963.765  
  21222396.319   113525498.65408     -3960.047    21222403.719    88297641.48105
     -3080.035  
  21147691.204   113165565.68808      2910.074    21147695.471    88017685.36007
      2263.386  
 20 09 27 06 12 35.0000000  0 16G15G18G30G20G 5G29G27G24G13R10R 8R 2
                                R 1R24R23R17
  19999251.427   105096776.34549       276.621    19999250.987    81893590.22548
       215.546  
  20394896.643   107175907.92649       636.894    20394897.048    83513694.67448
       496.277  
  24505081.000   128775066.28347     -1983.503    24505082.907   100344197.27444
     -1545.586  
  21859436.080   114872114.48548      2669.749    21859435.550    89510736.61146
      2080.323  
  23586282.079   123946746.92846     -3197.969    23586282.866    96581880.22944
     -2491.922  
  24280185.365   127593223.77746     -3689.261    24280187.055    99423286.85545
     -2874.750  
  24371720.827   128074265.06347      1873.445    24371723.671    99798141.30745
      1459.824  
  24028107.247   126268557.73145      3794.273    24028112.212    98391113.41945
      2956.581  
  20984103.993   110272208.16848     -1765.133    20984103.415    85926393.09546
     -1375.433  
  22601689.748   120479735.56507      2588.753           0.000           0.0000 
         0.000  
  20766069.449   111201356.13606     -2744.875    20766072.413    86489956.15706
     -2134.905  
  22558956.323   120378921.40407      3409.265    22558962.946    93628082.71807
      2651.652  
  19254334.302   102925449.97208        35.706    19254340.890    80053157.38306
        27.772  
  19683151.542   105254658.51909     -1243.851    19683155.985    81864749.11107
      -967.440  
  21226099.050   113545305.17108     -3962.652    21226106.347    88313046.55205
     -3082.065  
  21144973.867   113151024.07408      2906.397    21144978.073    88006375.20607
      2260.526  
 20 09 27 06 12 40.0000000  0 16G15G18G30G20G 5G29G27G24G13R10R 8R 2
                                R 1R24R23R17
  19998989.963   105095402.77949       273.480    19998989.425    81892519.92348
       213.101  
  20394292.454   107172732.54549       634.125    20394292.876    83511220.34948
       494.121  
  24506969.487   128784990.60247     -1985.714    24506971.475   100351930.51943
     -1547.308  
  21856896.641   114858769.42549      2668.883    21856896.002    89500337.87046
      2079.648  
  23589325.446   123962739.02646     -3198.359    23589325.978    96594341.54545
     -2492.229  
  24283695.710   127611670.54646     -3689.406    24283697.337    99437660.93345
     -2874.870  
  24369939.835   128064906.85747      1870.628    24369942.947    99790849.19845
      1457.628  
  24024497.458   126249588.72645      3794.026    24024502.341    98376332.37945
      2956.390  
  20985785.043   110281042.08248     -1767.691    20985784.318    85933276.67746
     -1377.425  
  22599263.196   120466800.95707      2585.761           0.000           0.0000 
         0.000  
  20768633.296   111215085.04507     -2745.737    20768636.213    86500634.20006
     -2135.577  
  22555762.447   120361878.92407      3408.422    22555769.304    93614827.47807
      2650.996  
  19254302.508   102925279.07608        33.246    19254308.915    80053024.44506
        25.854  
  19684316.980   105260890.04909     -1248.104    19684321.134    81869595.83607
      -970.754  
  21229804.181   113565125.37308     -3964.765    21229811.640    88328462.24705
     -3083.710  
  21142259.710   113136500.82308      2903.562    21142264.009    87995079.36607
      2258.327  
 20 09 27 06 12 45.0000000  0 16G15G18G30G20G 5G29G27G24G13R10R 8R 2
                                R 1R24R23R17
  19998731.353   105094043.68149       270.015    19998730.813    81891460.88748
       210.401  
  20393690.740   107169570.76749       630.809    20393691.149    83508756.62748
       491.534  
  24508860.070   128794925.99347     -1988.449    24508862.183   100359672.37144
     -1549.449  
  21854357.956   114845428.51649      2667.465    21854357.462    89489942.34747
      2078.542  
  23592368.828   123978732.69846     -3198.930    23592369.557    96606804.15045
     -2492.675  
  24287206.143   127630118.15246     -3689.531    24287207.930    99452035.66345
     -2874.964  
  24368161.502   128055561.46646      1867.730    24368164.608    99783567.10346
      1455.379  
  24020887.909   126230620.47946      3793.147    24020892.578    98361551.97544
      2955.706  
  20987468.379   110289888.10548     -1770.460    20987467.653    85940169.68047
     -1379.581  
  22596839.432   120453880.77906      2582.304           0.000           0.0000 
         0.000  
  20771197.961   111228819.68206     -2747.429    20771200.989    86511316.68106
     -2136.895  
  22552569.581   120344840.52107      3406.910    22552576.373    93601575.41307
      2649.824  
  19254272.774   102925120.34908        30.054    19254279.074    80052900.99906
        23.374  
  19685486.148   105267142.33409     -1252.886    19685490.373    81874458.72307
      -974.472  
  21233511.210   113584955.91808     -3967.355    21233518.577    88343885.99805
     -3085.727  
  21139548.537   113121992.60108      2899.769    21139552.824    87983795.19507
      2255.371  
 20 09 27 06 12 50.0000000  0 16G15G18G30G20G 5G29G27G24G13R10R 8R 2
                                R 1R24R23R17
  19998475.970   105092701.35149       267.081    19998475.376    81890414.91748
       208.117  
  20393092.082   107166424.92149       627.641    20393092.607    83506305.32248
       489.070  
  24510753.328   128804874.78647     -1990.694    24510755.346   100367424.68244
     -1551.195  
  21851820.600   114832094.17948      2666.351    21851819.888    89479551.97046
      2077.570  
  23595413.157   123994730.25646     -3199.675    23595413.675    96619269.77345
     -2493.258  
  24290717.185   127648569.05446     -3690.305    24290719.014    99466412.99744
     -2875.563  
  24366385.960   128046231.27146      1864.660    24366388.961    99776296.81145
      1452.980  
  24017278.932   126211655.45845      3793.085    24017284.010    98346774.02245
      2955.656  
  20989154.377   110298748.52048     -1773.547    20989153.696    85947073.90347
     -1381.983  
  22594418.848   120440977.42306      2579.211           0.000           0.0000 
         0.000  
  20773764.439   111242562.42806     -2749.026    20773767.453    86522005.47806
     -2138.136  
  22549377.862   120327808.61607      3405.835    22549384.621    93588328.39606
      2648.984  
  19254245.862   102924976.20608        27.456    19254252.152    80052788.88007
        21.352  
  19686659.627   105273417.70409     -1257.171    19686663.935    81879339.55907
      -977.805  
  21237220.878   113604799.07608     -3969.738    21237228.098    88359319.56105
     -3087.577  
  21136840.591   113107501.77508      2896.715    21136844.772    87972524.56507
      2253.000  
 20 09 27 06 12 55.0000000  0 16G15G18G30G20G 5G29G27G24G13R10R 8R 2
                                R 1R24R23R17
  19998223.461   105091374.12649       263.777    19998222.859    81889380.71448
       205.538  
  20392496.275   107163293.34149       624.843    20392496.740    83503865.12748
       486.891  
  24512648.821   128814835.32547     -1993.206    24512650.934   100375186.14144
     -1553.151  
  21849284.008   114818764.77149      2665.175    21849283.516    89469165.41647
      2076.761  
  23598457.880   124010730.00947     -3200.354    23598458.596    96631737.12345
     -2493.789  
  24294228.413   127667021.40046     -3690.983    24294230.361    99480791.40745
     -2876.098  
  24364613.057   128036914.69746      1861.852    24364616.315    99769037.15346
      1450.789  
  24013670.265   126192692.00646      3792.523    24013675.232    98331997.36645
      2955.215  
  20990842.866   110307621.68148     -1776.168    20990842.398    85953988.04247
     -1384.031  
  22592001.045   120428089.26606      2576.222           0.000           0.0000 
         0.000  
  20776332.047   111256311.63007     -2750.289    20776335.093    86532699.29406
     -2139.116  
  22546187.066   120310781.29307      3404.813    22546193.561    93575084.90406
      2648.183  
  19254221.375   102924845.03008        24.819    19254227.623    80052686.86606
        19.304  
  19687837.219   105279714.47309     -1261.625    19687841.592    81884237.05607
      -981.270  
  21240932.398   113624653.11408     -3972.102    21240939.570    88374761.58705
     -3089.417  
  21134135.595   113093026.60608      2893.281    21134139.858    87961266.09007
      2250.328  
 20 09 27 06 13  0.0000000  0 16G15G18G30G20G 5G29G27G24G13R10R 8R 2
                                R 1R24R23R17
  19997973.988   105090063.98149       260.637    19997973.533    81888359.82748
       203.094  
  20391903.498   107160178.02849       621.871    20391903.815    83501437.60748
       484.570  
  24514546.781   128824809.55047     -1995.648    24514549.046   100382958.24844
     -1555.054  
  21846748.949   114805442.16048      2664.288    21846748.371    89458784.17346
      2076.070  
  23601503.147   124026733.96246     -3200.753    23601503.791    96644207.71644
     -2494.097  
  24297740.447   127685477.19946     -3691.398    24297742.331    99495172.52544
     -2876.417  
  24362843.112   128027613.63547      1859.128    24362846.330    99761789.55045
      1448.664  
  24010062.091   126173731.98445      3791.792    24010067.383    98317223.32744
      2954.647  
  20992534.188   110316509.61048     -1778.847    20992533.562    85960913.70247
     -1386.113  
  22589586.494   120415218.28506      2572.913           0.000           0.0000 
         0.000  
  20778901.278   111270069.37306     -2752.491    20778904.129    86543399.76806
     -2140.828  
  22542997.341   120293760.96407      3403.632    22543003.956    93561846.89107
      2647.269  
  19254199.464   102924728.59008        22.097    19254205.973    80052596.28606
        17.183  
  19689019.094   105286034.64309     -1266.008    19689023.328    81889152.73207
      -984.676  
  21244646.151   113644519.97208     -3974.339    21244653.533    88390213.57305
     -3091.155  
  21131433.985   113078569.27808      2889.961    21131438.049    87950021.50407
      2247.746  
 20 09 27 06 13  5.0000000  0 16G15G18G30G20G 5G29G27G24G13R10R 8R 2
                                R 1R24R23R17
  19997727.732   105088769.92849       257.210    19997727.366    81887351.47048
       200.425  
  20391313.397   107157077.99449       618.507    20391313.807    83499021.99548
       481.949  
  24516447.278   128834796.47747     -1998.879    24516449.483   100390740.25344
     -1557.569  
  21844214.824   114792125.52449      2662.801    21844214.184    89448407.57047
      2074.905  
  23604549.396   124042741.13846     -3201.832    23604549.735    96656680.85045
     -2494.938  
  24301252.891   127703935.43447     -3691.952    24301254.879    99509555.57045
     -2876.851  
  24361075.998   128018327.13946      1855.668    24361079.178    99754553.32746
      1445.977  
  24006454.769   126154774.56746      3791.410    24006459.635    98302451.32845
      2954.343  
  20994228.176   110325411.19948     -1781.577    20994227.616    85967850.00747
     -1388.241  
  22587174.904   120402363.56006      2569.469           0.000           0.0000 
         0.000  
  20781471.793   111283834.55207     -2753.788    20781474.887    86554106.01106
     -2141.840  
  22539808.876   120276746.49007      3402.136    22539815.556    93548613.44006
      2646.112  
  19254180.402   102924626.06708        19.094    19254186.712    80052516.55107
        14.847  
  19690205.304   105292377.25009     -1270.733    19690209.381    81894085.86707
      -988.352  
  21248362.341   113664398.85908     -3976.895    21248369.664    88405674.92106
     -3093.144  
  21128735.322   113064128.59308      2886.519    21128739.381    87938789.86907
      2245.069  
 20 09 27 06 13 10.0000000  0 16G15G18G30G20G 5G29G27G24G13R10R 8R 2
                                R 1R24R23R17
  19997484.531   105087491.08449       254.339    19997483.889    81886354.97348
       198.187  
  20390726.359   107153992.40449       615.914    20390726.724    83496617.64448
       479.934  
  24518350.024   128844795.28647     -2001.026    24518351.972   100398531.53343
     -1559.245  
  21841681.643   114778813.91549      2662.073    21841680.981    89438034.87247
      2074.340  
  23607595.825   124058750.67147     -3202.065    23607596.195    96669155.78045
     -2495.120  
  24304765.755   127722395.28347     -3692.203    24304767.637    99523939.82545
     -2877.050  
  24359311.366   128009054.31046      1853.554    24359314.588    99747327.78245
      1444.327  
  24002847.568   126135818.78646      3791.269    24002852.330    98287680.57844
      2954.229  
  20995924.437   110334325.70648     -1784.133    20995923.872    85974796.39147
     -1390.233  
  22584766.143   120389523.97606      2566.699           0.000           0.0000 
         0.000  
  20784043.533   111297606.10207     -2754.875    20784046.583    86564817.22206
     -2142.679  
  22536621.194   120259736.93907      3401.554    22536627.886    93535383.80306
      2645.656  
  19254163.513   102924536.56608        16.602    19254169.899    80052446.95907
        12.913  
  19691395.417   105298741.31909     -1274.804    19691399.529    81899035.68807
      -991.520  
  21252080.582   113684288.69408     -3979.030    21252087.921    88421144.76905
     -3094.809  
  21126039.661   113049703.84808      2883.374    21126043.797    87927570.62807
      2242.624  
 20 09 27 06 13 15.0000000  0 16G15G18G30G20G 5G29G27G24G13R10R 8R 2
                                R 1R24R23R17
  19997244.011   105086227.70949       250.938    19997243.582    81885370.52248
       195.535  
  20390141.962   107150921.47149       612.604    20390142.336    83494224.70848
       477.352  
  24520255.072   128854806.13547     -2003.336    24520257.011   100406332.19144
     -1561.042  
  21839149.601   114765507.56849      2660.691    21839149.011    89427666.31347
      2073.266  
  23610642.838   124074762.80046     -3202.973    23610643.148    96681632.79544
     -2495.823  
  24308278.793   127740856.92447     -3692.651    24308280.870    99538325.51744
     -2877.395  
  24357549.426   127999795.50346      1850.288    24357552.966    99740113.10946
      1441.781  
  23999240.921   126116865.01146      3790.277    23999245.633    98272911.44644
      2953.465  
  20997623.363   110343253.27748     -1786.973    20997622.615    85981752.93047
     -1392.445  
  22582360.415   120376699.99906      2562.987           0.000           0.0000 
         0.000  
  20786616.456   111311384.45507     -2756.488    20786619.463    86575533.70505
     -2143.937  
  22533434.695   120242732.54306      3400.441    22533441.480    93522158.15807
      2644.784  
  19254149.258   102924460.36708        13.862    19254155.700    80052387.67706
        10.776  
  19692589.641   105305127.18009     -1279.308    19692593.794    81904002.47207
      -995.022  
  21255800.901   113704189.80008     -3981.375    21255808.329    88436623.41105
     -3096.628  
  21123347.189   113035295.29208      2880.050    21123351.117    87916363.97607
      2240.034  
 20 09 27 06 13 20.0000000  0 16G15G18G30G20G 5G29G27G24G13R10R 8R 2
                                R 1R24R23R17
  19997007.100   105084982.10749       247.589    19997006.471    81884399.93348
       192.925  
  20389560.816   107147867.52449       609.374    20389561.357    83491845.00748
       474.835  
  24522162.745   128864831.33647     -2005.843    24522164.719   100414144.06444
     -1562.996  
  21836618.903   114752208.85149      2659.417    21836618.236    89417303.68447
      2072.273  
  23613690.809   124090779.83747     -3203.430    23613691.222    96694113.58345
     -2496.183  
  24311792.793   127759322.74347     -3693.340    24311794.802    99552714.45245
     -2877.930  
  24355790.474   127990552.99246      1847.238    24355794.178    99732911.16546
      1439.402  
  23995634.827   126097915.51146      3789.574    23995639.614    98258145.62044
      2952.918  
  20999325.136   110352196.18648     -1789.801    20999324.509    85988721.43047
     -1394.648  
  22579958.148   120363894.09506      2559.574           0.000           0.0000 
         0.000  
  20789191.281   111325172.05807     -2758.117    20789194.288    86586257.38806
     -2145.206  
  22530249.275   120225735.59107      3399.008    22530256.237    93508938.34207
      2643.676  
  19254137.832   102924399.72608        11.019    19254144.407    80052340.50306
         8.566  
  19693788.342   105311537.17609     -1284.179    19693792.599    81908988.02107
      -998.809  
  21259523.799   113724104.54008     -3983.992    21259531.136    88452112.66105
     -3098.659  
  21120658.077   113020905.31108      2876.292    21120662.073    87905171.77107
      2237.117  
 20 09 27 06 13 25.0000000  0 16G15G18G30G20G 5G29G27G24G13R10R 8R 2
                                R 1R24R23R17
  19996773.028   105083752.30149       244.434    19996772.507    81883441.64248
       190.464  
  20388982.525   107144828.61849       606.277    20388983.072    83489477.02548
       472.421  
  24524072.747   128874868.99747     -2008.804    24524074.763   100421965.62344
     -1565.296  
  21834089.332   114738915.80249      2658.133    21834088.714    89406945.46147
      2071.273  
  23616739.332   124106799.80947     -3204.258    23616739.675    96706596.67845
     -2496.827  
  24315307.208   127777790.65347     -3693.621    24315309.219    99567105.02544
     -2878.147  
  24354034.433   127981324.75046      1844.199    24354038.013    99725720.33846
      1437.038  
  23992029.296   126078968.22446      3789.512    23992034.106    98243381.51244
      2952.866  
  21001029.405   110361152.49648     -1792.569    21001028.830    85995700.37147
     -1396.809  
  22577558.766   120351104.13606      2556.296           0.000           0.0000 
         0.000  
  20791767.223   111338966.64407     -2759.335    20791770.323    86596986.51306
     -2146.152  
  22527065.152   120208744.37807      3397.582    22527071.953    93495722.94606
      2642.559  
  19254129.055   102924352.71208         8.176    19254135.500    80052303.94007
         6.359  
  19694991.161   105317969.25309     -1288.699    19694995.272    81913990.74507
     -1002.324  
  21263248.747   113744030.75008     -3986.241    21263256.055    88467610.81805
     -3100.414  
  21117971.983   113006531.79108      2873.038    21117976.112    87893992.36607
      2234.581  
 20 09 27 06 13 30.0000000  0 16G15G18G30G20G 5G29G27G24G13R10R 8R 2
                                R 1R24R23R17
  19996541.819   105082537.32249       241.749    19996541.252    81882494.90848
       188.374  
  20388406.899   107141803.74749       603.944    20388407.250    83487119.97648
       470.601  
  24525985.203   128884918.01847     -2010.651    24525987.156   100429796.02344
     -1566.741  
  21831560.736   114725627.37949      2657.379    21831559.899    89396590.85547
      2070.683  
  23619788.260   124122821.69246     -3204.663    23619788.749    96719081.25045
     -2497.148  
  24318821.826   127796259.68847     -3693.675    24318823.785    99581496.46244
     -2878.195  
  24352280.837   127972109.91446      1841.956    24352284.289    99718539.94245
      1435.288  
  23988423.964   126060022.45346      3789.319    23988428.666    98228618.61744
      2952.722  
  21002736.159   110370121.32848     -1794.753    21002735.645    86002689.05847
     -1398.512  
  22575162.147   120338329.15206      2553.691           0.000           0.0000 
         0.000  
  20794344.457   111352767.45707     -2760.542    20794347.555    86607720.46906
     -2147.093  
  22523881.814   120191757.66306      3397.211    22523888.795    93482511.06306
      2642.273  
  19254122.673   102924318.28508         5.964    19254129.265    80052277.17406
         4.640  
  19696197.896   105324422.42509     -1292.496    19696202.033    81919009.88007
     -1005.272  
  21266975.731   113763967.47908     -3988.242    21266983.151    88483117.16405
     -3101.969  
  21115288.838   112992173.80008      2870.226    21115293.059    87882825.03207
      2232.395  
 20 09 27 06 13 35.0000000  0 16G15G18G30G20G 5G29G27G24G13R10R 8R 2
                                R 1R24R23R17
  19996313.654   105081338.11649       238.230    19996313.163    81881560.45548
       185.628  
  20387834.121   107138793.87249       600.499    20387834.568    83484774.62648
       467.922  
  24527899.738   128894979.37647     -2013.684    24527901.823   100437636.01444
     -1569.109  
  21829033.067   114712344.54348      2656.352    21829032.312    89386240.59047
      2069.801  
  23622837.722   124138846.37746     -3205.070    23622838.299    96731568.02345
     -2497.457  
  24322336.816   127814730.80546     -3694.320    24322338.658    99595889.52845
     -2878.699  
  24350530.135   127962909.31747      1838.434    24350533.441    99711370.67245
      1432.547  
  23984819.264   126041079.03146      3788.375    23984823.696    98213857.55745
      2951.988  
  21004445.361   110379103.46548     -1797.438    21004444.858    86009688.12347
     -1400.605  
  22572768.638   120325570.14806      2550.309           0.000           0.0000 
         0.000  
  20796923.001   111366575.06906     -2762.453    20796925.966    86618459.70806
     -2148.577  
  22520699.567   120174776.48907      3395.921    22520706.444    93469303.46807
      2641.269  
  19254118.770   102924297.36108         2.987    19254125.150    80052260.90706
         2.319  
  19697408.761   105330897.68509     -1297.262    19697413.115    81924046.20507
     -1008.979  
  21270704.809   113783915.65308     -3990.949    21270712.169    88498632.41005
     -3104.073  
  21112608.874   112977832.36808      2866.672    21112612.908    87871670.58907
      2229.629  
 20 09 27 06 13 40.0000000  0 16G15G18G30G20G 5G29G27G24G13R10R 8R 2
                                R 1R24R23R17
  19996088.531   105080155.64849       234.867    19996088.241    81880639.06048
       183.007  
  20387264.388   107135799.99649       597.055    20387264.828    83482441.73148
       465.237  
  24529816.968   128905054.07947     -2016.495    24529818.780   100445486.44444
     -1571.300  
  21826506.738   114699068.37548      2654.565    21826505.936    89375895.53447
      2068.491  
  23625887.946   124154875.07247     -3206.066    23625888.154    96744057.92145
     -2498.237  
  24325852.508   127833205.01546     -3695.453    24325854.087    99610284.99944
     -2879.581  
  24348782.260   127953724.08246      1835.421    24348785.569    99704213.33346
      1430.195  
  23981214.927   126022138.80146      3787.395    23981219.453    98199098.90946
      2951.214  
  21006157.246   110388099.92048     -1800.832    21006156.783    86016698.35647
     -1403.246  
  22570378.253   120312828.08606      2546.496           0.000           0.0000 
         0.000  
  20799502.882   111380390.77706     -2764.120    20799506.050    86629205.26006
     -2149.874  
  22517518.518   120157801.95807      3394.363    22517525.602    93456101.10507
      2640.062  
  19254117.501   102924290.97908        -0.222    19254123.936    80052255.92206
        -0.175  
  19698623.948   105337395.98809     -1301.988    19698628.308    81929100.41307
     -1012.660  
  21274436.330   113803876.27908     -3993.559    21274443.638    88514157.32405
     -3106.105  
  21109932.093   112963508.55708      2862.905    21109936.060    87860529.86107
      2226.703  
 20 09 27 06 13 45.0000000  0 16G15G18G30G20G 5G29G27G24G13R10R 8R 2
                                R 1R24R23R17
  19995866.652   105078989.35549       232.101    19995866.257    81879730.25948
       180.858  
  20386697.694   107132821.53149       594.773    20386698.022    83480120.84648
       463.460  
  24531736.447   128915141.44947     -2018.089    24531738.430   100453346.71545
     -1572.543  
  21823981.551   114685798.21249      2653.890    21823980.783    89365555.14547
      2067.964  
  23628938.770   124170907.03747     -3206.519    23628939.147    96756550.32045
     -2498.594  
  24329368.386   127851681.63847     -3695.319    24329370.124    99624682.33045
     -2879.476  
  24347037.088   127944553.51346      1833.449    24347040.433    99697067.44945
      1428.656  
  23977611.344   126003201.31246      3788.086    23977616.027    98184342.44845
      2951.753  
  21007871.979   110397110.05448     -1802.847    21007871.392    86023719.24047
     -1404.816  
  22567990.824   120300102.43006      2543.711           0.000           0.0000 
         0.000  
  20802084.256   111394213.98206     -2765.035    20802087.331    86639956.64306
     -2150.581  
  22514338.692   120140833.04707      3394.167    22514345.669    93442903.08006
      2639.914  
  19254118.996   102924298.50508        -2.449    19254125.375    80052261.78107
        -1.909  
  19699843.412   105343916.70209     -1305.854    19699847.806    81934172.08207
     -1015.667  
  21278169.916   113823848.78908     -3995.144    21278177.280    88529691.49405
     -3107.340  
  21107258.485   112949201.66608      2860.063    21107262.643    87849402.28907
      2224.491  
 20 09 27 06 13 50.0000000  0 16G15G18G30G20G 5G29G27G24G13R10R 8R 2
                                R 1R24R23R17
  19995647.624   105077838.79549       228.183    19995647.206    81878833.72148
       177.800  
  20386133.859   107129858.09249       590.913    20386134.136    83477811.67348
       460.449  
  24533658.400   128925241.18947     -2021.262    24533660.494   100461216.65144
     -1575.011  
  21821457.326   114672533.63248      2652.125    21821456.619    89355219.11546
      2066.577  
  23631989.914   124186941.84647     -3207.879    23631990.614    96769045.00645
     -2499.644  
  24332884.843   127870160.30747     -3696.562    24332886.468    99639081.29645
     -2880.441  
  24345294.785   127935397.30947      1829.332    24345297.938    99689932.72346
      1425.448  
  23974008.148   125984266.14146      3786.539    23974012.847    98169587.81144
      2950.558  
  21009588.994   110406133.53048     -1806.452    21009588.417    86030750.51346
     -1407.628  
  22565606.496   120287392.96407      2539.628           0.000           0.0000 
         0.000  
  20804667.086   111408044.23106     -2767.109    20804670.063    86650713.50706
     -2152.195  
  22511159.783   120123870.00207      3391.695    22511166.639    93429709.58107
      2637.979  
  19254122.929   102924319.52608        -6.034    19254129.458    80052278.13306
        -4.694  
  19701066.998   105350459.42109     -1311.065    19701071.133    81939260.87107
     -1019.718  
  21281905.709   113843832.66908     -3998.296    21281913.063    88545234.51405
     -3109.789  
  21104588.062   112934911.38308      2855.905    21104592.063    87838287.61807
      2221.258  
 20 09 27 06 13 55.0000000  0 16G15G18G30G20G 5G29G27G24G13R10R 8R 2
                                R 1R24R23R17
  19995432.018   105076705.36849       225.336    19995431.574    81877950.52748
       175.581  
  20385573.065   107126911.00449       588.051    20385573.424    83475515.24248
       458.222  
  24535582.852   128935354.59947     -2023.487    24535585.225   100469097.19845
     -1576.745  
  21818934.595   114659276.09248      2651.202    21818933.687    89344888.56547
      2065.871  
  23635042.077   124202980.85246     -3207.831    23635042.531    96781542.94045
     -2499.608  
  24336401.915   127888642.30247     -3696.328    24336403.362    99653482.85745
     -2880.254  
  24343555.381   127926256.80447      1826.562    24343558.729    99682810.26645
      1423.292  
  23970405.577   125965334.65746      3786.175    23970410.386    98154836.05444
      2950.270  
  21011308.867   110415171.64948     -1808.679    21011308.372    86037793.19346
     -1409.363  
  22563225.544   120274700.83806      2536.871           0.000           0.0000 
         0.000  
  20807251.236   111421882.79807     -2768.016    20807254.238    86661476.81606
     -2152.905  
  22507982.057   120106913.48007      3391.190    22507989.112    93416521.16407
      2637.589  
  19254129.650   102924355.61408        -8.331    19254136.205    80052306.21706
        -6.479  
  19702294.850   105357025.54509     -1315.094    19702299.034    81944367.86507
     -1022.851  
  21285643.912   113863829.28608     -4000.163    21285651.229    88560787.44705
     -3111.238  
  21101921.026   112920639.15808      2852.862    21101924.871    87827186.98507
      2218.890  
 20 09 27 06 14  0.0000000  0 16G15G18G30G20G 5G29G27G24G13R10R 8R 2
                                R 1R24R23R17
  19995218.887   105075585.73649       222.456    19995218.609    81877078.09348
       173.343  
  20385014.741   107123977.02049       585.246    20385015.166    83473229.02048
       456.031  
  24537509.403   128945478.34647     -2025.890    24537511.605   100476985.86945
     -1578.613  
  21816412.448   114646022.24448      2650.241    21816411.527    89334560.89847
      2065.124  
  23638094.442   124219020.76347     -3208.265    23638094.820    96794041.55045
     -2499.948  
  24339919.012   127907124.36647     -3696.433    24339920.607    99667884.42144
     -2880.344  
  24341818.412   127917128.68747      1824.266    24341821.702    99675697.43146
      1421.499  
  23966803.131   125946403.77347      3785.827    23966807.809    98140084.73145
      2949.999  
  21013031.021   110424221.12748     -1811.245    21013030.308    86044844.73146
     -1411.363  
  22560847.230   120262022.71206      2534.065           0.000           0.0000 
         0.000  
  20809836.514   111435726.34307     -2769.535    20809839.619    86672244.02205
     -2154.086  
  22504805.026   120089960.80107      3389.960    22504812.070    93403335.79207
      2636.641  
  19254138.674   102924403.16508       -10.832    19254145.119    80052343.18306
        -8.429  
  19703526.469   105363611.72409     -1319.438    19703530.784    81949490.43407
     -1026.234  
  21289383.805   113883835.37708     -4002.257    21289391.123    88576347.72105
     -3112.870  
  21099256.573   112906381.56808      2850.004    21099260.561    87816097.75807
      2216.668  
 20 09 27 06 14  5.0000000  0 16G15G18G30G20G 5G29G27G24G13R10R 8R 2
                                R 1R24R23R17
  19995008.984   105074482.31049       218.944    19995008.587    81876218.27748
       170.601  
  20384459.279   107121058.51949       582.042    20384459.603    83470954.86348
       453.535  
  24539438.254   128955614.83947     -2028.937    24539440.616   100484884.44244
     -1580.992  
  21813891.445   114632774.50349      2648.866    21813890.555    89324237.97047
      2064.047  
  23641147.536   124235064.03647     -3209.457    23641147.611    96806542.78345
     -2500.883  
  24343436.445   127925608.85047     -3697.175    24343438.069    99682287.90144
     -2880.926  
  24340084.260   127908015.46846      1820.891    24340087.651    99668596.24945
      1418.874  
  23963201.272   125927475.62347      3785.383    23963206.036    98125335.53844
      2949.648  
  21014755.662   110433284.33448     -1814.163    21014754.888    86051906.97347
     -1413.633  
  22558472.031   120249361.16006      2530.844           0.000           0.0000 
         0.000  
  20812423.067   111449577.34607     -2771.242    20812426.210    86683017.02305
     -2155.409  
  22501629.325   120073014.12007      3388.569    22501636.463    93390155.03007
      2635.554  
  19254150.086   102924464.63508       -13.703    19254156.424    80052390.99906
       -10.659  
  19704762.387   105370220.45209     -1323.969    19704766.634    81954630.55308
     -1029.757  
  21293125.929   113903853.28108     -4004.870    21293133.452    88591917.19205
     -3114.901  
  21096595.466   112892141.10508      2846.050    21096599.360    87805021.83907
      2213.593  
 20 09 27 06 14 10.0000000  0 16G15G18G30G20G 5G29G27G24G13R10R 8R 2
                                R 1R24R23R17
  19994802.313   105073396.84349       215.465    19994801.977    81875372.46348
       167.895  
  20383907.249   107118157.23649       578.757    20383907.674    83468694.11848
       450.976  
  24541369.927   128965765.82046     -2031.319    24541372.399   100492794.27145
     -1582.852  
  21811371.963   114619534.56748      2647.354    21811371.291    89313921.16247
      2062.875  
  23644201.401   124251112.23847     -3210.020    23644201.494    96819047.89145
     -2501.308  
  24346954.848   127944097.52647     -3698.089    24346956.475    99696694.65745
     -2881.633  
  24338353.203   127898918.67347      1817.871    24338356.456    99661507.82846
      1416.519  
  23959600.152   125908551.92446      3784.413    23959604.976    98110589.80144
      2948.898  
  21016483.327   110442363.05948     -1817.164    21016482.657    86058981.30646
     -1415.976  
  22556100.232   120236718.00906      2526.972           0.000           0.0000 
         0.000  
  20815011.302   111463437.63206     -2772.871    20815014.483    86693797.24106
     -2156.679  
  22498454.962   120056075.26307      3387.184    22498462.083    93376980.39407
      2634.477  
  19254164.481   102924541.89908       -16.910    19254171.101    80052451.08506
       -13.156  
  19706002.794   105376853.40009     -1328.917    19706007.036    81959789.51007
     -1033.604  
  21296870.510   113923884.70008     -4007.398    21296878.128    88607497.18105
     -3116.870  
  21093937.754   112877919.49308      2842.691    21093941.782    87793960.59607
      2210.980  
 20 09 27 06 14 15.0000000  0 16G15G18G30G20G 5G29G27G24G13R10R 8R 2
                                R 1R24R23R17
  19994598.702   105072326.70249       212.421    19994598.291    81874538.58848
       165.519  
  20383357.853   107115270.55049       575.745    20383358.219    83466444.75648
       448.632  
  24543303.875   128975928.59647     -2034.055    24543306.291   100500713.29844
     -1584.980  
  21808853.417   114606299.82948      2646.319    21808852.773    89303608.37747
      2062.065  
  23647255.614   124267162.92147     -3210.289    23647255.752    96831554.91245
     -2501.526  
  24350473.448   127962587.73947     -3698.417    24350475.067    99711102.60845
     -2881.883  
  24336624.872   127889835.88547      1815.058    24336628.112    99654430.33146
      1414.327  
  23955999.607   125889630.33746      3783.554    23956004.282    98095845.77844
      2948.227  
  21018213.282   110451454.59448     -1819.656    21018212.655    86066065.60946
     -1417.918  
  22553731.228   120224090.54106      2523.894           0.000           0.0000 
         0.000  
  20817600.768   111477304.44506     -2774.059    20817603.965    86704582.53106
     -2157.605  
  22495281.580   120039141.36407      3386.206    22495288.690    93363809.57107
      2633.714  
  19254181.478   102924632.22608       -19.530    19254187.941    80052521.35006
       -15.190  
  19707247.137   105383507.90009     -1333.226    19707251.515    81964965.23707
     -1036.956  
  21300617.357   113943927.02208     -4009.507    21300624.663    88623085.65305
     -3118.512  
  21091283.268   112863714.15008      2839.199    21091287.076    87782911.99607
      2208.266  
 20 09 27 06 14 20.0000000  0 16G15G18G30G20G 5G29G27G24G13R10R 8R 2
                                R 1R24R23R17
  19994398.131   105071272.47949       209.604    19994397.793    81873717.11448
       163.323  
  20382811.531   107112399.07849       573.038    20382811.910    83464207.24548
       446.520  
  24545240.105   128986103.80447     -2035.871    24545242.648   100508642.01144
     -1586.401  
  21806336.016   114593070.92248      2645.468    21806335.493    89293300.13146
      2061.397  
  23650310.614   124283216.59047     -3210.641    23650310.792    96844064.28845
     -2501.797  
  24353992.520   127981080.02346     -3698.512    24353994.139    99725512.14845
     -2881.961  
  24334899.318   127880767.60247      1812.370    24334902.497    99647364.12946
      1412.238  
  23952399.315   125870711.27147      3783.601    23952403.984    98081103.66044
      2948.266  
  21019945.892   110460559.52448     -1821.964    21019945.296    86073160.35846
     -1419.714  
  22551365.386   120211479.33806      2520.789           0.000           0.0000 
         0.000  
  20820191.584   111491178.30807     -2775.382    20820194.859    86715373.29406
     -2158.637  
  22492109.310   120022213.21407      3385.215    22492116.425    93350643.24607
      2632.944  
  19254200.956   102924736.09608       -21.772    19254207.446    80052602.16406
       -16.929  
  19708495.748   105390184.47509     -1337.237    19708500.115    81970158.13608
     -1040.073  
  21304366.083   113963980.90108     -4011.729    21304373.645    88638683.11805
     -3120.233  
  21088631.724   112849525.63708      2836.438    21088635.730    87771876.50107
      2206.116  
 20 09 27 06 14 25.0000000  0 16G15G18G30G20G 5G29G27G24G13R10R 8R 2
                                R 1R24R23R17
  19994200.221   105070232.92249       206.738    19994199.979    81872907.06948
       161.094  
  20382267.664   107109541.59749       570.414    20382268.088    83461980.63248
       444.472  
  24547178.634   128996290.21847     -2038.316    24547180.915   100516579.48344
     -1588.300  
  21803819.559   114579846.66648      2644.562    21803818.886    89282995.51446
      2060.699  
  23653366.026   124299272.10547     -3211.327    23653366.051    96856575.03544
     -2502.339  
  24357511.612   127999573.16446     -3698.887    24357513.303    99739922.38445
     -2882.254  
  24333176.192   127871712.67346      1810.077    24333179.352    99640308.35946
      1410.445  
  23948799.328   125851793.74147      3783.425    23948803.871    98066362.73944
      2948.121  
  21021680.815   110469676.66648     -1824.395    21021680.156    86080264.63246
     -1421.604  
  22549002.344   120198883.05307      2517.749           0.000           0.0000 
         0.000  
  20822783.493   111505058.04906     -2776.753    20822786.684    86726168.65406
     -2159.698  
  22488937.795   120005289.64907      3384.440    22488944.921    93337480.48207
      2632.344  
  19254222.649   102924852.55708       -24.227    19254229.090    80052692.74406
       -18.844  
  19709748.315   105396882.07509     -1341.366    19709752.532    81975367.37908
     -1043.284  
  21308116.858   113984044.89108     -4013.719    21308124.378    88654288.42905
     -3121.784  
  21085983.179   112835352.77008      2833.304    21085987.288    87760853.15807
      2203.679  
 20 09 27 06 14 30.0000000  0 16G15G18G30G20G 5G29G27G24G13R10R 8R 2
                                R 1R24R23R17
  19994005.733   105069210.09849       202.691    19994005.335    81872110.06648
       157.940  
  20381727.041   107106700.16849       566.495    20381727.404    83459766.52748
       441.421  
  24549119.432   129006489.86847     -2041.765    24549121.795   100524527.25244
     -1590.987  
  21801304.441   114566629.10048      2642.461    21801303.774    89272696.11247
      2059.055  
  23656421.992   124315331.34446     -3212.270    23656421.911    96869088.73844
     -2503.065  
  24361031.238   128018069.27046     -3699.769    24361032.878    99754334.89345
     -2882.944  
  24331456.120   127862673.10247      1806.026    24331459.090    99633264.54946
      1407.293  
  23945200.180   125832879.59247      3782.421    23945204.641    98051624.46344
      2947.347  
  21023418.594   110478808.06848     -1827.882    21023417.740    86087379.99646
     -1424.328  
  22546642.362   120186303.99207      2513.898           0.000           0.0000 
         0.000  
  20825376.751   111518945.82906     -2778.796    20825380.221    86736970.26906
     -2161.288  
  22485767.558   119988372.50607      3382.476    22485774.577    93324322.71907
      2630.815  
  19254247.182   102924983.54408       -28.078    19254253.623    80052794.61806
       -21.843  
  19711005.004   105403602.62309     -1346.733    19711009.292    81980594.46807
     -1047.464  
  21311870.043   114004121.12108     -4016.608    21311877.475    88669903.26205
     -3124.034  
  21083337.956   112821197.76908      2829.108    21083341.960    87749843.71207
      2200.414  
 20 09 27 06 14 35.0000000  0 16G15G18G30G20G 5G29G27G24G13R10R 8R 2
                                R 1R24R23R17
  19993814.290   105068204.96449       199.813    19993813.867    81871326.84648
       155.698  
  20381189.453   107103875.74749       563.702    20381189.911    83457565.67948
       439.245  
  24551063.144   129016703.67647     -2043.875    24551065.450   100532486.06945
     -1592.636  
  21798790.643   114553419.19048      2641.718    21798789.875    89262402.67946
      2058.476  
  23659478.895   124331395.35547     -3212.629    23659478.925    96881606.13845
     -2503.351  
  24364551.683   128036569.17446     -3699.667    24364553.513    99768750.36445
     -2882.867  
  24329738.888   127853649.95246      1803.526    24329742.034    99626233.52445
      1405.344  
  23941601.734   125813969.87947      3781.851    23941606.179    98036889.67244
      2946.910  
  21025159.018   110487954.62448     -1830.207    21025158.462    86094507.18246
     -1426.137  
  22544286.121   120173743.15207      2510.793           0.000           0.0000 
         0.000  
  20827971.943   111532842.34006     -2779.593    20827975.212    86747778.65906
     -2161.910  
  22482598.818   119971463.18807      3381.520    22482606.006    93311171.03907
      2630.069  
  19254274.446   102925129.91008       -30.277    19254281.018    80052908.45606
       -23.551  
  19712266.374   105410347.04709     -1350.765    19712270.608    81985840.13207
     -1050.593  
  21315625.462   114024210.67308     -4018.554    21315632.929    88685528.46805
     -3125.546  
  21080696.287   112807061.41508      2825.882    21080700.230    87738848.77207
      2197.909  
 20 09 27 06 14 40.0000000  0 16G15G18G30G20G 5G29G27G24G13R10R 8R 2
                                R 1R24R23R17
  19993625.886   105067214.26949       196.559    19993625.329    81870554.87948
       153.163  
  20380654.719   107101065.07949       560.651    20380655.068    83455375.55448
       436.871  
  24553008.861   129026928.39547     -2046.387    24553011.115   100540453.39743
     -1594.581  
  21796277.597   114540213.66549      2640.651    21796276.953    89252112.68347
      2057.652  
  23662535.968   124347460.97447     -3213.659    23662535.981    96894124.80045
     -2504.155  
  24368072.166   128055069.75347     -3700.269    24368074.080    99783166.40345
     -2883.332  
  24328024.379   127844639.99446      1800.827    24328027.417    99619212.76546
      1403.234  
  23938003.686   125795061.41747      3781.629    23938007.989    98022155.78145
      2946.719  
  21026901.905   110497113.08948     -1832.938    21026901.148    86101643.65846
     -1428.262  
  22541932.481   120161197.17406      2507.229           0.000           0.0000 
         0.000  
  20830568.069   111546744.44307     -2781.145    20830571.431    86758591.41406
     -2163.112  
  22479430.563   119954557.89707      3380.526    22479437.839    93298022.49807
      2629.305  
  19254304.185   102925288.60308       -33.003    19254310.585    80053031.85306
       -25.676  
  19713531.460   105417112.21709     -1355.269    19713535.537    81991101.91308
     -1054.101  
  21319382.957   114044310.14408     -4020.948    21319390.355    88701161.37905
     -3127.410  
  21078057.456   112792940.62708      2822.640    21078061.392    87727865.93307
      2195.382  
 20 09 27 06 14 45.0000000  0 16G15G18G30G20G 5G29G27G24G13R10R 8R 2
                                R 1R24R23R17
  19993440.351   105066239.30849       193.034    19993439.952    81869795.16748
       150.414  
  20380122.670   107098269.51449       557.401    20380123.174    83453197.19448
       434.340  
  24554956.888   129037165.37547     -2048.831    24554959.232   100548430.26944
     -1596.495  
  21793765.721   114527013.79648      2639.089    21793765.256    89241827.08047
      2056.434  
  23665593.813   124363529.37147     -3214.472    23665593.729    96906645.61344
     -2504.788  
  24371593.183   128073572.13447     -3700.902    24371594.839    99797583.82544
     -2883.824  
  24326312.686   127835644.33047      1797.742    24326315.716    99612203.13346
      1400.836  
  23934406.008   125776155.33347      3780.820    23934410.261    98007423.75045
      2946.094  
  21028647.073   110506284.85048     -1836.046    21028646.539    86108790.49546
     -1430.687  
  22539581.831   120148667.45006      2504.026           0.000           0.0000 
         0.000  
  20833165.449   111560653.54406     -2782.800    20833168.805    86769409.60406
     -2164.401  
  22476263.680   119937658.51907      3379.108    22476270.835    93284878.56807
      2628.195  
  19254336.370   102925460.58908       -36.108    19254342.794    80053165.61206
       -28.089  
  19714800.646   105423899.25209     -1359.780    19714804.782    81996380.70807
     -1057.714  
  21323142.356   114064420.76508     -4023.617    21323149.684    88716802.95205
     -3129.484  
  21075421.759   112778836.50908      2819.016    21075425.899    87716896.07708
      2192.565  
 20 09 27 06 14 50.0000000  0 16G15G18G30G20G 5G29G27G24G13R10R 8R 2
                                R 1R24R23R17
  19993257.859   105065280.71449       190.082    19993257.507    81869048.21148
       148.113  
  20379593.665   107095489.70149       554.425    20379594.215    83451031.10148
       432.015  
  24556907.387   129047415.22646     -2051.202    24556909.792   100556417.14144
     -1598.344  
  21791255.166   114513820.33148      2638.023    21791254.528    89231546.44346
      2055.698  
  23668652.164   124379601.24247     -3214.770    23668652.209    96919169.17145
     -2505.016  
  24375114.624   128092077.05746     -3701.187    24375116.270    99812003.24845
     -2884.047  
  24324603.679   127826663.78046      1794.808    24324606.701    99605205.34846
      1398.555  
  23930808.941   125757252.40147      3780.207    23930813.310    97992694.27445
      2945.624  
  21030395.102   110515470.42948     -1838.508    21030394.612    86115948.06046
     -1432.604  
  22537234.370   120136154.66006      2501.059           0.000           0.0000 
         0.000  
  20835764.390   111574570.19306     -2784.116    20835767.650    86780233.63806
     -2165.434  
  22473097.894   119920765.02807      3378.175    22473105.031    93271739.15007
      2627.464  
  19254371.160   102925646.84208       -38.387    19254377.653    80053310.51406
       -29.851  
  19716073.961   105430708.95809     -1364.160    19716078.379    82001677.16608
     -1061.012  
  21326904.143   114084543.25908     -4025.655    21326911.391    88732453.80005
     -3131.066  
  21072789.228   112764749.89708      2815.797    21072793.312    87705939.81707
      2190.063  
 20 09 27 06 14 55.0000000  0 16G15G18G30G20G 5G29G27G24G13R10R 8R 2
                                R 1R24R23R17
  19993078.601   105064338.26849       187.112    19993078.006    81868313.84048
       145.801  
  20379067.681   107092725.35349       551.480    20379068.183    83448877.05648
       429.723  
  24558860.162   129057677.68846     -2053.780    24558862.466   100564413.82644
     -1600.352  
  21788745.556   114500632.93048      2636.956    21788744.986    89221270.53947
      2054.770  
  23671711.153   124395676.30346     -3215.355    23671711.236    96931695.18544
     -2505.477  
  24378636.385   128110584.28347     -3701.359    24378637.983    99826424.41545
     -2884.184  
  24322897.669   127817698.13547      1791.573    24322900.681    99598219.13845
      1396.030  
  23927212.410   125738352.53347      3779.789    23927216.934    97977967.12145
      2945.293  
  21032145.624   110524669.64248     -1841.124    21032145.120    86123116.28546
     -1434.648  
  22534890.132   120123658.55606      2497.840           0.000           0.0000 
         0.000  
  20838364.597   111588494.18306     -2785.590    20838367.911    86791063.41506
     -2166.574  
  22469933.131   119903877.84107      3376.969    22469940.235    93258604.69807
      2626.531  
  19254408.563   102925846.96708       -41.258    19254415.150    80053466.16606
       -32.090  
  19717351.781   105437541.06609     -1368.520    19717356.054    82006991.02308
     -1064.406  
  21330667.972   114104677.30008     -4027.917    21330675.311    88748113.60405
     -3132.827  
  21070160.118   112750680.59408      2812.195    21070164.316    87694997.03408
      2187.261  
 20 09 27 06 15  0.0000000  0 16G15G18G30G20G 5G29G27G24G13R10R 8R 2
                                R 1R24R23R17
  19992902.197   105063411.88449       183.835    19992901.677    81867591.98648
       143.249  
  20378544.566   107089976.39949       548.340    20378545.104    83446735.01248
       427.272  
  24560815.450   129067952.64047     -2055.909    24560817.690   100572420.29944
     -1602.008  
  21786237.275   114487451.51148      2635.719    21786236.680    89210999.32047
      2053.809  
  23674770.675   124411754.45246     -3215.581    23674770.768    96944223.61644
     -2505.651  
  24382158.562   128129093.63947     -3701.750    24382160.345    99840847.27645
     -2884.488  
  24321194.398   127808747.19847      1788.745    24321197.316    99591244.39145
      1393.827  
  23923616.409   125719455.45546      3779.438    23923620.939    97963242.12245
      2945.015  
  21033898.834   110533882.32048     -1843.835    21033898.305    86130295.00546
     -1436.753  
  22532549.054   120111179.00806      2494.577           0.000           0.0000 
         0.000  
  20840966.234   111602425.33406     -2786.698    20840969.380    86801898.75406
     -2167.433  
  22466769.567   119886996.33107      3375.862    22466776.620    93245474.64807
      2625.671  
  19254448.604   102926060.82408       -44.020    19254455.090    80053632.47306
       -34.242  
  19718633.536   105444395.40909     -1372.890    19718637.812    82012322.17407
     -1067.804  
  21334433.826   114124822.95608     -4029.991    21334441.326    88763782.43305
     -3134.440  
  21067534.184   112736628.37808      2808.762    21067538.217    87684067.52608
      2184.594  
 20 09 27 06 15  5.0000000  0 16G15G18G30G20G 5G29G27G24G13R10R 8R 2
                                R 1R24R23R17
  19992729.597   105062504.92549       179.555    19992729.241    81866885.26848
       139.913  
  20378025.068   107087246.22949       544.175    20378025.435    83444607.61748
       424.031  
  24562773.793   129078243.39746     -2059.687    24562775.762   100580439.11844
     -1604.948  
  21783730.686   114474279.52048      2633.512    21783730.083    89200735.44347
      2052.086  
  23677831.517   124427839.19346     -3217.648    23677831.754    96956757.15545
     -2507.261  
  24385681.895   128147608.44046     -3703.473    24385683.672    99855274.39645
     -2885.831  
  24319494.614   127799814.43047      1784.688    24319497.362    99584283.77346
      1390.659  
  23920021.590   125700564.61647      3777.550    23920026.236    97948522.00945
      2943.550  
  21035655.033   110543111.89848     -1847.546    21035654.405    86137486.87746
     -1439.652  
  22530211.609   120098719.49006      2489.952           0.000           0.0000 
         0.000  
  20843569.834   111616367.21006     -2789.234    20843573.018    86812742.43906
     -2169.410  
  22463607.720   119870124.45507      3373.495    22463614.912    93232352.10407
      2623.836  
  19254491.814   102926291.93108       -47.964    19254498.398    80053812.22006
       -37.308  
  19719920.172   105451275.40909     -1378.488    19719924.380    82017673.26708
     -1072.159  
  21338202.688   114144983.48408     -4033.406    21338210.009    88779462.83705
     -3137.097  
  21064912.017   112722596.75808      2804.398    21064916.187    87673154.04808
      2181.198  
 20 09 27 06 15 10.0000000  0 17G15G18G30G20G 5G29G27G24G10G13R10R 8
                                R 2R 1R24R23R17
  19992559.854   105061612.39149       177.585    19992559.267    81866189.78148
       138.374  
  20377508.038   107084529.84649       542.440    20377508.462    83442490.95048
       422.675  
  24564734.231   129088545.09647     -2061.030    24564735.940   100588466.40944
     -1605.999  
  21781225.076   114461112.04348      2633.402    21781224.485    89190475.06447
      2051.999  
  23680892.509   124443925.43646     -3216.780    23680892.645    96969291.89845
     -2506.586  
  24389205.234   128166123.74147     -3702.651    24389207.029    99869701.86144
     -2885.190  
  24317797.278   127790894.86847      1783.128    24317800.070    99577333.45945
      1389.445  
  23916427.172   125681675.07246      3778.676    23916431.490    97933802.90445
      2944.422  
  24996017.308   131354955.02817      3212.953           0.000           0.0000 
         0.000  
  21037413.729   110552353.25048     -1848.792    21037412.979    86144687.94546
     -1440.617  
  22527877.118   120086275.02606      2487.742           0.000           0.0000 
         0.000  
  20846174.384   111630314.36606     -2789.441    20846177.598    86823590.23406
     -2169.565  
  22460446.655   119853256.72007      3373.754    22460453.679    93219232.78207
      2624.034  
  19254537.473   102926535.25608       -49.348    19254543.867    80054001.48206
       -38.387  
  19721210.693   105458176.03009     -1381.609    19721214.824    82023040.41908
     -1074.590  
  21341973.247   114165153.80508     -4034.715    21341980.585    88795150.86305
     -3138.116  
  21062292.817   112708580.70108      2802.265    21062296.835    87662252.68407
      2179.539  
 20 09 27 06 15 15.0000000  0 17G15G18G30G20G 5G29G27G24G10G13R10R 8
                                R 2R 1R24R23R17
  19992392.384   105060732.04949       174.176    19992391.713    81865503.80248
       135.719  
  20376993.486   107081825.01149       539.246    20376993.890    83440383.29848
       420.191  
  24566696.121   129098855.39946     -2063.335    24566698.106   100596500.43144
     -1607.789  
  21778719.651   114447946.75649      2632.242    21778719.143    89180216.41747
      2051.097  
  23683953.333   124460010.86547     -3217.582    23683953.636    96981825.95545
     -2507.215  
  24392728.410   128184637.28548     -3703.483    24392729.999    99884127.99045
     -2885.836  
  24316102.045   127781986.20546      1779.531    24316104.685    99570391.66945
      1386.652  
  23912832.284   125662784.46346      3777.559    23912836.756    97919082.91545
      2943.543  
  24992961.005   131338890.29347      3212.464    24992963.888   102342011.83355
      2503.214  
  21039174.137   110561604.22348     -1851.479    21039173.501    86151896.51947
     -1442.710  
  22525544.841   120073843.26906      2484.355           0.000           0.0000 
         0.000  
  20848779.579   111644265.03406     -2791.034    20848782.652    86834440.75406
     -2170.805  
  22457286.162   119836391.12707      3372.296    22457293.206    93206115.14306
      2622.901  
  19254584.767   102926788.41108       -52.383    19254591.257    80054198.39107
       -40.742  
  19722504.577   105465095.03709     -1386.246    19722508.627    82028421.85308
     -1078.195  
  21345745.257   114185331.64208     -4036.765    21345752.607    88810844.71505
     -3139.710  
  21059676.028   112694577.92208      2798.585    21059680.076    87651361.64507
      2176.680  
