     2.11           OBSERVATION DATA    G                   RINEX VERSION / TYPE
LEICA GEO OFFICE 8.4                    29-9-20 09:58       PGM / RUN BY / DATE
                                                            OBSERVER / AGENCY
TARY                                                        MARKER NAME
TARY                                                        MARKER NUMBER
457569              LEICA GX1220        2.14                REC # / TYPE / VERS
                    LEIAX1202                               ANT # / TYPE
 -1173808.7423  3860805.5125  4923766.2475                  APPROX POSITION XYZ
        1.8130        0.0000        0.0000                  ANTENNA: DELTA H/E/N
L1PhaOff:   0.0648  L2PhaOff:   0.0622                      COMMENT
     1     1                                                WAVELENGTH FACT L1/2
     6    C1    L1    D1    P2    L2    D2                  # / TYPES OF OBSERV
  2020     9    28     9    16   55.0000000     GPS         TIME OF FIRST OBS
  2020     9    28    10    51   20.0000000     GPS         TIME OF LAST OBS
    18                                                      LEAP SECONDS
    11                                                      # OF SATELLITES
          C1    L1    D1    P2    L2    D2                  COMMENT
   G 1   986   986   986   985   985   985                  PRN / # OF OBS
   G 2     0     0     0     0     0     0                  PRN / # OF OBS
   G 3     0     0     0     0     0     0                  PRN / # OF OBS
   G 4     0     0     0     0     0     0                  PRN / # OF OBS
   G 5     0     0     0     0     0     0                  PRN / # OF OBS
   G 6     0     0     0     0     0     0                  PRN / # OF OBS
   G 7     0     0     0     0     0     0                  PRN / # OF OBS
   G 8     0     0     0     0     0     0                  PRN / # OF OBS
   G 9     0     0     0     0     0     0                  PRN / # OF OBS
   G10  1134  1134  1134  1134  1134  1134                  PRN / # OF OBS
   G11   641   641   641   641   641   641                  PRN / # OF OBS
   G12  1134  1134  1134  1134  1134  1134                  PRN / # OF OBS
   G13     0     0     0     0     0     0                  PRN / # OF OBS
   G14     0     0     0     0     0     0                  PRN / # OF OBS
   G15     0     0     0     0     0     0                  PRN / # OF OBS
   G16     0     0     0     0     0     0                  PRN / # OF OBS
   G17     0     0     0     0     0     0                  PRN / # OF OBS
   G18     0     0     0     0     0     0                  PRN / # OF OBS
   G19     0     0     0     0     0     0                  PRN / # OF OBS
   G20  1022  1022  1022  1022  1022  1022                  PRN / # OF OBS
   G21  1132  1132  1132  1132  1132  1132                  PRN / # OF OBS
   G22   393   393   393   393   393   393                  PRN / # OF OBS
   G23     0     0     0     0     0     0                  PRN / # OF OBS
   G24  1094  1094  1094  1094  1094  1094                  PRN / # OF OBS
   G25  1074  1074  1074  1073  1073  1073                  PRN / # OF OBS
   G26     0     0     0     0     0     0                  PRN / # OF OBS
   G27     0     0     0     0     0     0                  PRN / # OF OBS
   G28     0     0     0     0     0     0                  PRN / # OF OBS
   G29     0     0     0     0     0     0                  PRN / # OF OBS
   G30     0     0     0     0     0     0                  PRN / # OF OBS
   G31   865   865   865   865   865   865                  PRN / # OF OBS
   G32  1134  1134  1134  1134  1134  1134                  PRN / # OF OBS
                                                            END OF HEADER
 20 09 28 09 16 55.0000000  0  7G11G12G21G24G32G20G10
  23900117.515   125595967.18157       327.183    23900118.169    97866965.52054
       254.945  
  23561906.504   123818668.66757      2968.477    23561907.342    96482089.34555
      2313.093  
  23003982.065   120886759.41758        26.491    23003981.329    94197484.18456
        20.640  
  21380250.587   112354001.59858     -2243.738    21380253.106    87548599.17158
     -1748.371  
  21636907.916   113702752.06058      2293.827    21636910.419    88599581.80757
      1787.395  
  21090725.925   110832524.44958     -2525.175    21090725.949    86363025.61157
     -1967.672  
  20381117.695   107103536.37759        30.870    20381119.699    83457326.95258
        24.051  
 20 09 28 09 17  0.0000000  0  7G11G12G21G24G32G20G10
  23899808.208   125594341.17046       324.113    23899808.915    97865698.48845
       252.550  
  23559083.133   123803831.59747      2966.707    23559084.021    96470528.00745
      2311.714  
  23003958.444   120886635.44448        23.589    23003957.700    94197387.58346
        18.378  
  21382386.812   112365227.50548     -2246.354    21382389.209    87557346.62548
     -1750.410  
  21634726.212   113691287.50548      2292.340    21634728.880    88590648.39547
      1786.233  
  21093129.891   110845157.47148     -2527.648    21093129.970    86372869.51947
     -1969.597  
  20381089.920   107103390.51049        27.879    20381092.109    83457213.29048
        21.719  
 20 09 28 09 17  5.0000000  0  7G11G12G21G24G32G20G10
  23899501.844   125592732.77647       319.921    23899502.863    97864445.19645
       249.285  
  23556261.485   123789003.89347      2964.527    23556262.111    96458973.94545
      2310.020  
  23003937.503   120886525.90148        20.304    23003936.944    94197302.21446
        15.820  
  21384525.528   112376466.78348     -2249.315    21384528.011    87566104.50447
     -1752.719  
  21632546.015   113679830.48948      2290.562    21632548.569    88581720.85247
      1784.851  
  21095536.171   110857802.80848     -2530.405    21095536.417    86382723.02047
     -1971.749  
  20381065.001   107103259.74749        24.569    20381067.188    83457111.39748
        19.140  
 20 09 28 09 17 10.0000000  0  7G11G12G21G24G32G20G10
  23899199.202   125591141.72547       316.645    23899199.799    97863205.41744
       246.734  
  23553441.688   123774185.10247      2962.854    23553442.188    96447426.83246
      2308.715  
  23003919.429   120886430.39148        17.827    23003918.663    94197227.79745
        13.890  
  21386666.694   112387718.93848     -2251.547    21386669.249    87574872.42348
     -1754.457  
  21630367.142   113668380.59148      2289.355    21630369.718    88572798.85648
      1783.909  
  21097944.920   110870460.05848     -2532.538    21097944.818    86392585.80047
     -1973.409  
  20381042.935   107103143.69749        21.847    20381044.966    83457020.96648
        17.020  
 20 09 28 09 17 15.0000000  0  7G11G12G21G24G32G20G10
  23898899.645   125589566.10546       313.077    23898899.481    97861977.66444
       243.952  
  23550623.013   123759373.55147      2961.445    23550623.739    96435885.37945
      2307.617  
  23003903.634   120886347.19948        15.188    23003902.817    94197162.97046
        11.831  
  21388810.154   112398982.27148     -2253.922    21388812.673    87583649.04248
     -1756.304  
  21628189.414   113656936.05349      2288.352    21628192.094    88563881.03647
      1783.128  
  21100355.393   110883127.42848     -2534.632    21100355.407    86402456.47747
     -1975.042  
  20381023.338   107103040.59049        19.183    20381025.431    83456940.63048
        14.944  
 20 09 28 09 17 20.0000000  0  7G11G12G21G24G32G20G10
  23898603.147   125588007.65446       309.613    23898602.938    97860763.27844
       241.254  
  23547806.054   123744570.79947      2959.480    23547806.755    96424350.77045
      2306.085  
  23003890.337   120886277.88448        12.328    23003889.611    94197108.95946
         9.601  
  21390955.915   112410258.26148     -2256.565    21390958.308    87592435.52848
     -1758.366  
  21626012.821   113645498.48249      2286.663    21626015.444    88554968.64147
      1781.812  
  21102768.116   110895806.49548     -2537.055    21102768.183    86412336.26447
     -1976.929  
  20381006.578   107102952.01749        16.183    20381008.569    83456871.61348
        12.604  
 20 09 28 09 17 25.0000000  0  7G11G12G21G24G32G20G10
  23898309.810   125586466.87646       306.105    23898309.182    97859562.67944
       238.519  
  23544991.017   123729777.56047      2957.688    23544991.778    96412823.56646
      2304.688  
  23003880.047   120886223.15748         9.394    23003879.373    94197066.31546
         7.316  
  21393104.124   112421547.67448     -2259.250    21393106.604    87601232.47047
     -1760.457  
  21623837.740   113634068.57149      2285.265    21623840.506    88546062.23047
      1780.723  
  21105183.149   110908497.98548     -2539.526    21105183.184    86422225.72747
     -1978.854  
  20380992.499   107102878.71449        13.124    20380994.657    83456814.48848
        10.223  
 20 09 28 09 17 30.0000000  0  7G11G12G21G24G32G20G10
  23898019.966   125584943.17546       303.238    23898019.117    97858375.37845
       236.284  
  23542177.757   123714993.21547      2955.719    23542178.491    96401303.28345
      2303.151  
  23003872.258   120886182.28848         6.688    23003871.572    94197034.46645
         5.207  
  21395254.814   112432849.90748     -2261.792    21395257.332    87610039.40547
     -1762.438  
  21621664.002   113622645.62749      2283.854    21621666.778    88537161.23847
      1779.624  
  21107600.656   110921201.19548     -2541.819    21107600.628    86432124.32147
     -1980.640  
  20380981.288   107102819.92949        10.315    20380983.433    83456768.68548
         8.035  
 20 09 28 09 17 35.0000000  0  7G11G12G21G24G32G20G10
  23897733.061   125583435.82146       299.770    23897732.332    97857200.82445
       233.581  
  23539365.808   123700216.98147      2954.410    23539366.633    96389789.34745
      2302.133  
  23003866.895   120886154.57448         4.480    23003866.224    94197012.87946
         3.488  
  21397407.979   112444164.14648     -2263.809    21397410.292    87618855.69948
     -1764.011  
  21619491.402   113611228.94149      2282.886    21619494.279    88528265.12447
      1778.870  
  21110020.050   110933915.38648     -2543.972    21110020.035    86442031.48047
     -1982.320  
  20380972.703   107102774.99849         7.640    20380974.883    83456733.67748
         5.949  
 20 09 28 09 17 40.0000000  0  7G11G12G21G24G32G20G10
  23897449.467   125581945.43046       296.159    23897448.875    97856039.49045
       230.770  
  23536555.722   123685449.50147      2952.718    23536556.489    96378282.21846
      2300.816  
  23003864.210   120886140.68448         1.171    23003863.726    94197002.05746
         0.909  
  21399563.237   112455490.95048     -2266.734    21399565.658    87627681.77847
     -1766.288  
  21617320.340   113599819.15449      2281.104    21617323.016    88519374.38247
      1777.480  
  21112441.749   110946641.18948     -2546.473    21112441.619    86451947.68147
     -1984.270  
  20380967.009   107102744.54749         4.499    20380969.028    83456709.94848
         3.504  
 20 09 28 09 17 45.0000000  0  7G11G12G21G24G32G20G10
  23897169.237   125580472.93846       292.500    23897168.911    97854892.08344
       227.918  
  23533747.315   123670691.69147      2950.625    23533748.028    96366782.63246
      2299.184  
  23003864.419   120886141.43748        -1.535    23003863.761    94197002.63946
        -1.198  
  21401721.351   112466831.25548     -2269.289    21401723.730    87636518.38147
     -1768.280  
  21615150.618   113588417.12349      2279.688    21615153.198    88510489.68648
      1776.375  
  21114865.723   110959379.47448     -2548.777    21114865.641    86461873.61447
     -1986.063  
  20380964.151   107102729.43749         1.559    20380966.328    83456698.17448
         1.211  
 20 09 28 09 17 50.0000000  0  7G11G12G21G24G32G20G10
  23896892.347   125579017.15146       289.714    23896891.787    97853757.71144
       225.749  
  23530940.630   123655942.52447      2949.098    23530941.346    96355289.77045
      2297.995  
  23003867.066   120886155.78448        -4.301    23003866.463    94197013.82545
        -3.355  
  21403881.559   112478183.94648     -2271.534    21403884.014    87645364.63147
     -1770.030  
  21612982.036   113577021.80749      2278.402    21612984.841    88501610.22147
      1775.374  
  21117291.968   110972129.20048     -2551.062    21117291.854    86471808.45847
     -1987.844  
  20380963.948   107102728.61949        -1.226    20380966.096    83456697.53948
        -0.956  
 20 09 28 09 17 55.0000000  0  7G11G12G21G24G32G20G10
  23896618.459   125577577.76746       286.359    23896617.925    97852636.10444
       223.132  
  23528135.501   123641201.53547      2947.172    23528136.391    96343803.29246
      2296.496  
  23003872.333   120886183.27548        -6.934    23003871.820    94197035.23346
        -5.406  
  21406044.235   112489548.53948     -2274.276    21406046.730    87654220.15748
     -1772.168  
  21610814.792   113565632.76849      2277.104    21610817.475    88492735.65447
      1774.362  
  21119720.124   110984889.90148     -2553.292    21119720.012    86481751.85947
     -1989.581  
  20380966.406   107102741.65849        -4.066    20380968.539    83456707.69848
        -3.171  
 20 09 28 09 18  0.0000000  0  7G11G12G21G24G32G20G10
  23896347.933   125576155.14246       282.440    23896347.119    97851527.57544
       220.082  
  23525332.110   123626469.14647      2945.433    23525332.872    96332323.50746
      2295.140  
  23003880.116   120886224.29848        -9.566    23003879.628    94197067.20446
        -7.456  
  21408209.178   112500925.39548     -2276.555    21408211.650    87663085.23648
     -1773.940  
  21608648.875   113554250.32949      2275.796    21608651.569    88483866.22747
      1773.344  
  21122150.542   110997661.89548     -2555.492    21122150.654    86491704.05647
     -1991.297  
  20380971.565   107102768.89549        -6.847    20380973.647    83456728.92748
        -5.339  
 20 09 28 09 18  5.0000000  0  6G12G21G24G32G20G10
  23522530.049   123611744.74947      2944.866    23522530.801    96320849.96145
      2294.698  
  23003890.345   120886278.30147       -11.401    23003889.867    94197109.28945
        -8.887  
  21410376.409   112512314.01948     -2278.172    21410378.780    87671959.48747
     -1775.203  
  21606483.911   113542873.96148      2275.547    21606486.646    88475001.51047
      1773.148  
  21124583.072   111010444.61548     -2556.895    21124583.007    86501664.60447
     -1992.387  
  20380979.357   107102809.78049        -8.776    20380981.462    83456760.77248
        -6.843  
 20 09 28 09 18 10.0000000  0  6G12G21G24G32G20G10
  23519729.674   123597028.39747      2941.848    23519730.455    96309382.66846
      2292.344  
  23003903.051   120886345.35345       -15.203    23003902.475    94197161.53844
       -11.851  
  21412545.738   112523714.23348     -2281.979    21412548.084    87680842.76748
     -1778.167  
  21604320.265   113531503.70347      2272.652    21604322.949    88466141.59446
      1770.894  
  21127017.518   111023237.99549     -2560.358    21127017.543    86511633.46547
     -1995.089  
  20380989.832   107102864.29849       -12.883    20380991.960    83456803.25948
       -10.042  
 20 09 28 09 18 15.0000000  0  6G12G21G24G32G20G10
  23516931.390   123582323.47447      2939.992    23516932.249    96297924.29746
      2290.901  
  23003918.860   120886428.49648       -18.140    23003918.404    94197226.32946
       -14.140  
  21414717.930   112535129.58648     -2284.352    21414720.354    87689737.85148
     -1780.016  
  21602158.342   113520142.84849      2271.418    21602160.906    88457288.98447
      1769.934  
  21129454.825   111036045.56748     -2562.718    21129454.766    86521613.39447
     -1996.926  
  20381003.342   107102935.91649       -15.891    20381005.604    83456859.06748
       -12.386  
 20 09 28 09 18 20.0000000  0  7G11G12G21G24G32G20G10
  23895296.845   125570630.45355       269.175    23895297.801    97847249.98054
       209.745  
  23514134.826   123567627.30447      2938.461    23514135.567    96286472.72746
      2289.707  
  23003937.323   120886525.42247       -20.851    23003936.704    94197301.85844
       -16.250  
  21416892.605   112546557.32648     -2286.937    21416895.042    87698642.58447
     -1782.031  
  21599997.753   113508788.87548      2270.058    21600000.399    88448441.72347
      1768.875  
  21131894.213   111048864.54448     -2565.051    21131894.194    86531602.19247
     -1998.741  
  20381019.710   107103021.86749       -18.656    20381021.960    83456926.04348
       -14.539  
 20 09 28 09 18 25.0000000  0  6G12G21G24G32G20G10
  23511340.182   123552941.38247      2937.073    23511341.063    96275029.16845
      2288.624  
  23003958.618   120886637.45647       -23.094    23003958.224    94197389.13545
       -18.000  
  21419069.751   112557998.90448     -2289.020    21419072.428    87707558.08748
     -1783.659  
  21597838.856   113497443.04448      2269.175    21597841.376    88439600.82647
      1768.188  
  21134336.058   111061696.37348     -2567.022    21134336.069    86541601.04347
     -2000.280  
  20381039.113   107103123.64249       -21.305    20381041.251    83457005.34748
       -16.604  
 20 09 28 09 18 30.0000000  0  6G12G21G24G32G20G10
  23508546.650   123538261.89747      2934.305    23508547.542    96263590.57346
      2286.464  
  23003982.000   120886760.73647       -26.484    23003981.650    94197485.18546
       -20.640  
  21421248.987   112569450.42948     -2291.972    21421251.527    87716481.35048
     -1785.957  
  21595680.550   113486101.66648      2267.241    21595683.319    88430763.41247
      1766.679  
  21136779.622   111074537.23248     -2569.660    21136779.396    86551606.90347
     -2002.335  
  20381060.830   107103237.39549       -24.594    20381062.731    83457093.99348
       -19.167  
 20 09 28 09 18 35.0000000  0  6G12G21G24G32G20G10
  23505755.378   123523593.31947      2932.887    23505756.166    96252160.51146
      2285.363  
  23004008.497   120886899.82445       -29.675    23004007.967    94197593.57545
       -23.128  
  21423430.881   112580916.44948     -2294.515    21423433.309    87725415.94647
     -1787.934  
  21593524.115   113474769.24047      2266.000    21593526.726    88421932.95846
      1765.711  
  21139225.682   111087391.57848     -2572.109    21139225.624    86561623.26846
     -2004.246  
  20381085.583   107103367.68949       -27.593    20381087.661    83457195.54348
       -21.503  
 20 09 28 09 18 40.0000000  0  6G12G21G24G32G20G10
  23502965.431   123508932.92547      2931.008    23502966.305    96240736.84046
      2283.898  
  23004037.389   120887051.90245       -32.262    23004036.800    94197712.14044
       -25.141  
  21425615.059   112592394.22548     -2296.776    21425617.530    87734359.68347
     -1789.699  
  21591368.624   113463442.93348      2264.309    21591371.619    88413107.25246
      1764.395  
  21141673.857   111100256.73448     -2574.386    21141673.834    86571648.05746
     -2006.020  
  20381112.990   107103511.68449       -30.477    20381115.022    83457307.74048
       -23.749  
 20 09 28 09 18 45.0000000  0  5G12G24G32G20G10
  23500178.749   123494288.06247      2924.093    23500179.665    96229325.26546
      2278.512  
  21427802.670   112603890.95348     -2304.770    21427805.405    87743318.13647
     -1795.930  
  21589216.019   113452130.10648      2257.840    21589218.917    88404292.04646
      1759.351  
  21144125.435   111113139.98848     -2581.789    21144125.192    86581686.92946
     -2011.789  
  20381144.388   107103676.77749       -38.539    20381146.548    83457436.36648
       -30.034  
 20 09 28 09 18 50.0000000  0  5G12G24G32G20G10
  23497395.649   123479663.21047      2926.594    23497396.632    96217929.27245
      2280.461  
  21429995.023   112615411.06248     -2302.624    21429997.420    87752294.85248
     -1794.258  
  21587066.656   113440835.28447      2260.582    21587069.360    88395490.90645
      1761.488  
  21146581.379   111126045.74648     -2579.703    21146581.199    86591743.36746
     -2010.160  
  20381180.731   107103867.38049       -37.085    20381182.723    83457584.90248
       -28.902  
 20 09 28 09 18 55.0000000  0  6G12G21G24G32G20G10
  23494610.837   123465029.11147      2925.855    23494611.876    96206526.10245
      2279.883  
  23004144.470   120887598.17757       -39.645    23004145.244    94198129.20256
       -30.895  
  21432186.022   112626925.34248     -2304.073    21432188.708    87761267.02747
     -1795.387  
  21584915.208   113429529.03548      2260.687    21584917.856    88386680.85747
      1761.569  
  21149035.982   111138944.77248     -2580.862    21149035.763    86601794.55547
     -2011.065  
  20381216.319   107104054.24449       -38.698    20381218.387    83457730.50448
       -30.159  
 20 09 28 09 19  0.0000000  0  6G12G21G24G32G20G10
  23491824.161   123450385.40747      2926.491    23491825.161    96195115.43746
      2280.379  
  23004179.838   120887785.97648       -40.156    23004180.195    94198275.56946
       -31.293  
  21434375.907   112638433.44848     -2304.156    21434378.523    87770234.36247
     -1795.449  
  21582761.474   113418211.18049      2261.707    21582764.157    88377861.72848
      1762.366  
  21151489.263   111151836.63248     -2580.824    21151489.125    86611840.15947
     -2011.035  
  20381250.941   107104236.99749       -39.288    20381253.065    83457872.90948
       -30.616  
 20 09 28 09 19  5.0000000  0  7G11G12G21G24G32G20G10
  23893123.587   125559217.74656       237.823    23893125.090    97838356.53054
       185.316  
  23489042.282   123435766.97047      2921.257    23489043.347    96183724.46946
      2276.304  
  23004221.429   120888003.84948       -46.445    23004221.585    94198445.33646
       -36.194  
  21436571.306   112649970.19248     -2309.957    21436573.976    87779224.03247
     -1799.968  
  21580612.103   113406916.50648      2256.765    21580614.860    88369060.68448
      1758.516  
  21153947.877   111164756.20648     -2586.476    21153947.574    86621907.34547
     -2015.440  
  20381291.657   107104450.52449       -45.535    20381293.842    83458039.28948
       -35.483  
 20 09 28 09 19 10.0000000  0  7G11G12G21G24G32G20G10
  23892898.787   125558036.69646       234.765    23892898.928    97837436.21844
       182.929  
  23486263.433   123421163.77247      2920.272    23486264.483    96172345.36145
      2275.534  
  23004267.004   120888241.65748       -48.511    23004266.574    94198630.65146
       -37.805  
  21438770.140   112661525.58048     -2311.940    21438772.848    87788228.23047
     -1801.516  
  21578465.210   113395634.97349      2255.956    21578468.013    88360269.89048
      1757.886  
  21156409.718   111177693.42548     -2588.102    21156409.435    86631988.29047
     -2016.707  
  20381336.187   107104684.74949       -47.906    20381338.286    83458221.81348
       -37.331  
 20 09 28 09 19 15.0000000  0  7G11G12G21G24G32G20G10
  23892677.165   125556869.56846       232.351    23892676.719    97836526.77744
       181.051  
  23483485.730   123406566.62247      2918.831    23483486.560    96160970.94846
      2274.410  
  23004314.409   120888490.24648       -50.796    23004313.928    94198824.37246
       -39.586  
  21440970.901   112673090.34748     -2313.977    21440973.436    87797239.74048
     -1803.101  
  21576319.279   113384357.37349      2255.012    21576322.133    88351482.15347
      1757.147  
  21158873.275   111190639.12948     -2590.035    21158872.813    86642075.84747
     -2018.211  
  20381382.993   107104930.49749       -50.382    20381385.173    83458413.30548
       -39.262  
 20 09 28 09 19 20.0000000  0  7G11G12G21G24G32G20G10
  23892458.161   125555718.75346       228.563    23892458.157    97835630.05244
       178.098  
  23480709.529   123391977.87247      2917.004    23480710.622    96149603.10346
      2272.988  
  23004364.019   120888751.91748       -53.769    23004363.959    94199028.27246
       -41.902  
  21443173.748   112684666.82548     -2316.519    21443176.480    87806260.37047
     -1805.081  
  21574174.481   113373086.01149      2253.675    21574177.220    88342699.27947
      1756.108  
  21161338.725   111203595.59348     -2592.539    21161338.376    86652171.78947
     -2020.163  
  20381432.463   107105190.08649       -53.254    20381434.509    83458615.57848
       -41.499  
 20 09 28 09 19 25.0000000  0  7G11G12G21G24G32G20G10
  23892242.578   125554585.85746       224.547    23892242.508    97834747.25444
       174.969  
  23477935.425   123377399.23347      2914.499    23477936.372    96138243.13546
      2271.035  
  23004416.765   120889028.34848       -56.890    23004416.437    94199243.69246
       -44.332  
  21445379.258   112696256.57448     -2319.453    21445381.928    87815291.33947
     -1807.370  
  21572031.033   113361822.61549      2251.827    21572033.768    88333922.61147
      1754.668  
  21163806.653   111216564.48648     -2595.140    21163806.375    86662277.42647
     -2022.190  
  20381484.798   107105465.17449       -56.589    20381486.758    83458829.93548
       -44.098  
 20 09 28 09 19 30.0000000  0  7G11G12G21G24G32G20G10
  23892030.352   125553470.44546       221.285    23892030.496    97833878.13445
       172.425  
  23475163.024   123362830.16547      2912.828    23475163.859    96126890.62946
      2269.733  
  23004472.139   120889319.05748       -59.749    23004471.648    94199470.20646
       -46.563  
  21447587.252   112707859.16248     -2321.937    21447589.837    87824332.32647
     -1809.304  
  21569889.122   113350566.63749      2250.374    21569891.797    88325151.72147
      1753.535  
  21166276.857   111229545.33748     -2597.313    21166276.563    86672392.37247
     -2023.883  
  20381539.960   107105755.29949       -59.644    20381542.188    83459056.00748
       -46.480  
 20 09 28 09 19 35.0000000  0  7G11G12G21G24G32G20G10
  23891821.159   125552371.59946       218.012    23891821.150    97833021.86445
       169.875  
  23472392.151   123348269.87847      2911.069    23472393.001    96115544.95945
      2268.362  
  23004529.970   120889623.11848       -62.371    23004529.485    94199707.13646
       -48.605  
  21449797.352   112719473.75448     -2324.184    21449799.942    87833382.65047
     -1811.054  
  21567748.521   113339317.23449      2249.249    21567751.031    88316385.95347
      1752.660  
  21168749.153   111242537.18848     -2599.620    21168748.723    86682515.89047
     -2025.684  
  20381597.798   107106059.55449       -62.280    20381600.063    83459293.08848
       -48.535  
 20 09 28 09 19 40.0000000  0  7G11G12G21G24G32G20G10
  23891615.315   125551289.72446       214.668    23891615.304    97832178.86444
       167.269  
  23469623.225   123333718.70047      2909.546    23469624.151    96104206.38846
      2267.175  
  23004590.307   120889940.97148       -64.523    23004589.683    94199954.82146
       -50.281  
  21452009.898   112731100.66948     -2326.410    21452012.478    87842442.58247
     -1812.788  
  21565609.068   113328074.80449      2248.089    21565611.737    88307625.62247
      1751.754  
  21171223.557   111255540.48448     -2601.570    21171223.312    86692648.32747
     -2027.198  
  20381658.495   107106378.36249       -65.022    20381660.632    83459541.51548
       -50.671  
 20 09 28 09 19 45.0000000  0  7G11G12G21G24G32G20G10
  23891412.602   125550224.18146       210.805    23891412.308    97831348.56944
       164.261  
  23466855.814   123319175.98247      2907.453    23466856.776    96092874.42046
      2265.543  
  23004653.346   120890271.93248       -67.554    23004652.783    94200212.70847
       -52.644  
  21454224.723   112742739.21548     -2328.960    21454227.220    87851511.58347
     -1814.777  
  21563470.941   113316838.68549      2246.512    21563473.652    88298870.20847
      1750.526  
  21173700.044   111268554.51548     -2604.063    21173699.868    86702789.12747
     -2029.144  
  20381721.851   107106711.04849       -68.108    20381723.879    83459800.75148
       -53.074  
 20 09 28 09 19 50.0000000  0  7G11G12G21G24G32G20G10
  23891213.063   125549176.56446       207.410    23891212.989    97830532.23445
       161.612  
  23464090.458   123304643.47047      2905.555    23464091.365    96081550.39645
      2264.066  
  23004719.204   120890617.67248       -70.511    23004718.740    94200482.10246
       -54.949  
  21456442.027   112754391.03548     -2331.688    21456444.418    87860590.91947
     -1816.902  
  21561334.341   113305610.55649      2244.878    21561337.049    88290121.02047
      1749.253  
  21176178.833   111281580.98348     -2606.477    21176178.614    86712939.61547
     -2031.023  
  20381788.078   107107059.29549       -71.184    20381790.307    83460072.10848
       -55.473  
 20 09 28 09 19 55.0000000  0  7G11G12G21G24G32G20G10
  23891016.892   125548146.11746       204.383    23891017.093    97829729.29045
       159.257  
  23461326.770   123290120.28547      2903.706    23461327.720    96070233.63845
      2262.625  
  23004787.743   120890977.37948       -73.574    23004787.153    94200762.40046
       -57.331  
  21458661.605   112766055.24648     -2334.133    21458664.051    87869679.91247
     -1818.808  
  21559199.065   113294389.60249      2243.405    21559201.666    88281377.42147
      1748.105  
  21178660.078   111294619.04248     -2608.934    21178659.795    86723099.13847
     -2032.938  
  20381857.155   107107422.29549       -74.121    20381859.171    83460354.96748
       -57.762  
 20 09 28 09 20  0.0000000  0  7G11G12G21G24G32G20G10
  23890823.945   125547132.89346       201.238    23890824.085    97828939.76745
       156.804  
  23458564.772   123275606.57747      2902.050    23458565.936    96058924.28146
      2261.336  
  23004858.943   120891351.10148       -75.905    23004858.210    94201053.61546
       -59.151  
  21460883.662   112777732.08048     -2336.305    21460886.124    87878778.74447
     -1820.499  
  21557065.118   113283175.91849      2242.340    21557067.728    88272639.49147
      1747.273  
  21181143.210   111307668.77448     -2610.792    21181142.945    86733267.75447
     -2034.387  
  20381929.090   107107800.13149       -76.733    20381931.207    83460649.38248
       -59.796  
 20 09 28 09 20  5.0000000  0  7G11G12G21G24G32G20G10
  23890634.291   125546135.06546       197.714    23890634.386    97828162.26644
       154.062  
  23455804.363   123261100.56147      2900.101    23455805.370    96047620.91246
      2259.815  
  23004932.209   120891736.99148       -78.710    23004931.736    94201354.31646
       -61.336  
  21463107.635   112789419.69948     -2338.847    21463110.128    87887885.97947
     -1822.480  
  21554932.305   113271967.62749      2240.718    21554934.801    88263905.76147
      1746.011  
  21183628.457   111320728.30048     -2613.207    21183628.287    86743444.00047
     -2036.270  
  20382003.305   107108190.94649       -79.761    20382005.440    83460953.91448
       -62.155  
 20 09 28 09 20 10.0000000  0  7G11G12G21G24G32G20G10
  23890447.767   125545155.22046       194.065    23890447.910    97827398.73845
       151.219  
  23453045.901   123246604.77747      2898.102    23453047.029    96036325.50146
      2258.258  
  23005008.532   120892137.60548       -81.550    23005007.958    94201666.46646
       -63.550  
  21465334.257   112801120.42648     -2341.382    21465336.817    87897003.43047
     -1824.457  
  21552801.016   113260767.31949      2239.238    21552803.575    88255178.24748
      1744.859  
  21186115.984   111333800.21848     -2615.679    21186115.614    86753629.90747
     -2038.194  
  20382080.762   107108597.29849       -82.793    20382082.851    83461270.55548
       -64.516  
 20 09 28 09 20 15.0000000  0  7G11G12G21G24G32G20G10
  23890264.568   125544192.22046       191.214    23890264.811    97826648.35545
       148.995  
  23450289.318   123232118.14747      2896.280    23450290.411    96025037.23646
      2256.839  
  23005087.283   120892551.88048       -84.202    23005086.910    94201989.29146
       -65.616  
  21467563.189   112812833.38748     -2343.729    21467565.742    87906130.41147
     -1826.285  
  21550670.859   113249573.89149      2238.120    21550673.560    88246456.09948
      1743.987  
  21188605.583   111346883.40048     -2617.729    21188605.350    86763824.58647
     -2039.792  
  20382160.896   107109018.12549       -85.602    20382162.961    83461598.47048
       -66.707  
 20 09 28 09 20 20.0000000  0  7G11G12G21G24G32G20G10
  23890084.500   125543246.46046       187.586    23890084.830    97825911.39445
       146.167  
  23447534.427   123217641.03547      2894.191    23447535.455    96013756.36946
      2255.211  
  23005168.933   120892980.17448       -86.815    23005168.507    94202323.01146
       -67.651  
  21469794.392   112824558.87548     -2346.296    21469797.089    87915267.15747
     -1828.284  
  21548542.245   113238387.76049      2236.444    21548544.782    88237739.63948
      1742.679  
  21191097.499   111359978.25548     -2620.093    21191097.271    86774028.36547
     -2041.633  
  20382243.680   107109453.81049       -88.617    20382245.741    83461937.97048
       -69.054  
 20 09 28 09 20 25.0000000  0  7G11G12G21G24G32G20G10
  23889907.732   125542317.53746       183.921    23889908.124    97825187.56245
       143.312  
  23444781.257   123203173.02847      2892.496    23444782.184    96002482.62446
      2253.890  
  23005253.051   120893422.12248       -89.805    23005252.491    94202667.41046
       -69.979  
  21472028.068   112836296.45648     -2348.894    21472030.638    87924413.32147
     -1830.313  
  21546414.957   113227208.47449      2235.112    21546417.458    88229028.51047
      1741.645  
  21193591.494   111373084.34948     -2622.531    21193591.161    86784240.89947
     -2043.534  
  20382329.304   107109903.89549       -91.605    20382331.441    83462288.68048
       -71.382  
 20 09 28 09 20 30.0000000  0  7G11G12G21G24G32G20G10
  23889734.176   125541405.64646       181.093    23889734.575    97824477.00045
       141.108  
  23442029.765   123188714.43147      2890.620    23442030.879    95991216.20646
      2252.433  
  23005339.649   120893877.88448       -92.441    23005339.225    94203022.54146
       -72.034  
  21474264.051   112848046.37548     -2351.233    21474266.618    87933569.09747
     -1832.132  
  21544289.017   113216036.27149      2233.628    21544291.345    88220322.89848
      1740.487  
  21196087.590   111386201.86348     -2624.688    21196087.478    86794462.33547
     -2045.214  
  20382417.809   107110368.64749       -94.324    20382419.842    83462650.82248
       -73.504  
 20 09 28 09 20 35.0000000  0  7G11G12G21G24G32G20G10
  23889563.797   125540510.77046       176.874    23889564.197    97823779.70845
       137.819  
  23439280.229   123174265.17947      2888.738    23439281.324    95979957.05446
      2250.960  
  23005429.083   120894347.48748       -95.452    23005428.617    94203388.46146
       -74.383  
  21476502.290   112859808.52748     -2353.909    21476504.819    87942734.40848
     -1834.219  
  21542164.384   113204871.12849      2232.215    21542166.728    88211622.79348
      1739.386  
  21198585.950   111399330.73948     -2627.102    21198585.756    86804692.61547
     -2047.094  
  20382509.150   107110848.02249       -97.453    20382511.181    83463024.36948
       -75.941  
 20 09 28 09 20 40.0000000  0  7G11G12G21G24G32G20G10
  23889396.862   125539633.01846       173.882    23889397.283    97823095.75345
       135.488  
  23436532.438   123159825.47047      2887.714    23436533.422    95968705.35245
      2250.164  
  23005521.007   120894830.98848       -97.960    23005520.643    94203765.23146
       -76.335  
  21478742.816   112871582.97348     -2356.023    21478745.475    87951909.30247
     -1835.867  
  21540041.086   113193713.18249      2231.090    21540043.572    88202928.29147
      1738.508  
  21201086.593   111412471.14248     -2629.031    21201086.252    86814931.88447
     -2048.598  
  20382603.159   107111342.16849      -100.098    20382605.199    83463409.41948
       -78.000  
 20 09 28 09 20 45.0000000  0  7G11G12G21G24G32G20G10
  23889232.793   125538771.01747       170.288    23889233.448    97822424.06244
       132.691  
  23433786.165   123145393.89647      2885.405    23433787.012    95957459.98146
      2248.366  
  23005615.593   120895327.04148      -100.746    23005614.878    94204151.76246
       -78.507  
  21480985.618   112883368.41848     -2358.358    21480988.065    87961092.77047
     -1837.687  
  21537918.927   113182561.03849      2229.597    21537921.375    88194238.31247
      1737.344  
  21203588.964   111425621.66048     -2631.331    21203588.963    86825179.03647
     -2050.390  
  20382699.645   107111849.67449      -103.070    20382701.665    83463804.87248
       -80.315  
 20 09 28 09 20 50.0000000  0  7G11G12G21G24G32G20G10
  23889072.188   125537927.12846       167.222    23889072.724    97821766.45544
       130.301  
  23431041.960   123130972.81547      2883.320    23431042.763    95946222.77045
      2246.738  
  23005712.808   120895838.03648      -103.789    23005712.065    94204549.94646
       -80.879  
  21483230.900   112895167.20148     -2361.063    21483233.336    87970286.62447
     -1839.793  
  21535798.279   113171417.08149      2228.046    21535800.644    88185554.71248
      1736.137  
  21206093.810   111438784.68348     -2634.035    21206093.587    86835435.92947
     -2052.499  
  20382799.179   107112372.94549      -106.265    20382801.303    83464212.62248
       -82.808  
 20 09 28 09 20 55.0000000  0  7G11G12G21G24G32G20G10
  23888914.608   125537099.85146       163.566    23888915.251    97821121.85145
       127.452  
  23428299.456   123116560.73647      2881.843    23428300.238    95934992.59045
      2245.590  
  23005812.485   120896362.37548      -106.160    23005811.940    94204958.51047
       -82.726  
  21485478.291   112906977.72648     -2363.309    21485480.796    87979489.62747
     -1841.543  
  21533678.786   113160279.75649      2226.722    21533681.374    88176876.27847
      1735.104  
  21208600.745   111451958.71948     -2636.019    21208600.650    86845701.40247
     -2054.043  
  20382901.547   107112910.42549      -109.008    20382903.627    83464631.43348
       -84.944  
 20 09 28 09 21  0.0000000  0  7G11G12G21G24G32G20G10
  23888760.670   125536290.11946       160.480    23888761.204    97820490.89845
       125.046  
  23425558.830   123102158.61647      2879.440    23425559.671    95923770.17546
      2243.718  
  23005915.040   120896901.05648      -108.836    23005914.504    94205378.27346
       -84.808  
  21487728.144   112918800.97548     -2365.784    21487730.671    87988702.55247
     -1843.473  
  21531561.004   113149150.05449      2225.327    21531563.326    88168203.78747
      1734.019  
  21211109.944   111465144.61748     -2638.280    21211109.904    86855976.12847
     -2055.809  
  20383006.788   107113463.06349      -111.883    20383008.882    83465062.06048
       -87.184  
 20 09 28 09 21  5.0000000  0  7G11G12G21G24G32G20G10
  23888609.615   125535496.41446       156.679    23888610.371    97819872.41744
       122.085  
  23422819.728   123087764.97447      2877.918    23422820.633    95912554.37046
      2242.531  
  23006019.911   120897452.59048      -111.949    23006019.547    94205808.03546
       -87.238  
  21489980.284   112930635.39448     -2368.065    21489982.787    87997924.18247
     -1845.250  
  21529444.169   113138026.44349      2224.069    21529446.756    88159536.04048
      1733.038  
  21213621.064   111478340.85648     -2640.210    21213620.865    86866258.90547
     -2057.309  
  20383114.494   107114029.37849      -114.711    20383116.580    83465503.34948
       -89.386  
 20 09 28 09 21 10.0000000  0  7G11G12G21G24G32G20G10
  23888461.965   125534720.19846       153.262    23888462.667    97819267.59644
       119.421  
  23420082.707   123073381.33147      2875.453    23420083.544    95901346.35246
      2240.608  
  23006127.605   120898018.43348      -114.792    23006127.010    94206248.95346
       -89.453  
  21492234.702   112942482.59448     -2370.770    21492237.087    88007155.76047
     -1847.354  
  21527328.871   113126910.44849      2222.300    21527331.386    88150874.23447
      1731.660  
  21216134.449   111491548.97148     -2643.062    21216134.291    86876550.93147
     -2059.530  
  20383225.055   107114610.87749      -117.926    20383227.205    83465956.46448
       -91.895  
 20 09 28 09 21 15.0000000  0  7G11G12G21G24G32G20G10
  23888317.588   125533961.11546       150.140    23888318.281    97818676.10745
       116.987  
  23417347.418   123059007.26447      2874.108    23417348.148    95890145.79846
      2239.565  
  23006237.977   120898598.16348      -117.180    23006237.404    94206700.68446
       -91.312  
  21494491.611   112954342.10548     -2372.992    21494493.824    88016396.93747
     -1849.089  
  21525214.910   113115801.63449      2221.289    21525217.501    88142218.00947
      1730.871  
  21218650.154   111504768.49848     -2644.878    21218649.920    86886851.85847
     -2060.948  
  20383338.652   107115207.11549      -120.492    20383340.773    83466421.06648
       -93.895  
 20 09 28 09 21 20.0000000  0  7G11G12G21G24G32G20G10
  23888176.385   125533219.09146       146.464    23888176.924    97818097.89844
       114.125  
  23414613.773   123044642.76447      2871.688    23414614.708    95878952.69646
      2237.675  
  23006350.819   120899191.71348      -120.137    23006350.515    94207163.20046
       -93.617  
  21496750.583   112966213.77248     -2375.668    21496753.004    88025647.58847
     -1851.171  
  21523102.273   113104699.93449      2219.629    21523104.843    88133567.33948
      1729.578  
  21221167.952   111517999.39648     -2647.309    21221167.737    86897161.64547
     -2062.840  
  20383454.943   107115818.04249      -123.663    20383457.021    83466897.11548
       -96.363  
 20 09 28 09 21 25.0000000  0  7G11G12G21G24G32G20G10
  23888038.424   125532494.13046       143.058    23888038.952    97817532.99145
       111.472  
  23411882.068   123030287.87147      2870.012    23411883.191    95867767.08946
      2236.370  
  23006466.520   120899799.16248      -122.979    23006466.018    94207636.53946
       -95.831  
  21499012.022   112978097.52648     -2377.909    21499014.360    88034907.65247
     -1852.921  
  21520991.160   113093605.42849      2218.140    21520993.653    88124922.27648
      1728.417  
  21223687.841   111531241.72248     -2649.504    21223687.736    86907480.33947
     -2064.551  
  20383573.883   107116443.69849      -126.559    20383575.956    83467384.63548
       -98.620  
 20 09 28 09 21 30.0000000  0  7G11G12G21G24G32G20G10
  23887903.527   125531785.71147       139.980    23887904.180    97816980.99444
       109.074  
  23409152.065   123015941.98647      2868.312    23409153.148    95856588.49146
      2235.047  
  23006584.499   120900419.95848      -125.527    23006584.228    94208120.27546
       -97.816  
  21501275.750   112989993.02948     -2380.168    21501277.939    88044176.88147
     -1854.680  
  21518881.191   113082517.56149      2216.870    21518883.679    88116282.37947
      1727.430  
  21226209.796   111544494.90448     -2651.573    21226209.656    86917807.49347
     -2066.164  
  20383695.675   107117083.56849      -129.281    20383697.804    83467883.23948
      -100.742  
 20 09 28 09 21 35.0000000  0  7G11G12G21G24G32G20G10
  23887772.034   125531094.39847       136.195    23887772.785    97816442.30044
       106.121  
  23406423.964   123001605.74847      2866.089    23406425.051    95845417.41945
      2233.316  
  23006705.334   120901054.60848      -128.410    23006704.888    94208614.79646
      -100.063  
  21503541.590   113001900.78848     -2382.835    21503543.978    88053455.65147
     -1856.757  
  21516772.552   113071436.86649      2215.359    21516775.171    88107648.07847
      1726.249  
  21228734.046   111557759.45648     -2654.140    21228733.830    86928143.50047
     -2068.163  
  20383820.315   107117738.17849      -132.585    20383822.357    83468393.32448
      -103.315  
 20 09 28 09 21 40.0000000  0  7G11G12G21G24G32G20G10
  23887643.782   125530420.58346       133.113    23887644.535    97815917.23245
       103.722  
  23403697.762   122987279.61747      2864.038    23403698.890    95834254.21446
      2231.715  
  23006828.825   120901703.58948      -130.895    23006828.424    94209120.50146
      -101.999  
  21505810.087   113013821.16148     -2385.304    21505812.442    88062744.25547
     -1858.683  
  21514665.431   113060363.81149      2213.984    21514667.886    88099019.72448
      1725.179  
  21231260.392   111571035.84248     -2656.387    21231260.209    86938488.72647
     -2069.913  
  20383947.629   107118407.96749      -135.297    20383949.829    83468915.23648
      -105.430  
 20 09 28 09 21 45.0000000  0  7G11G12G21G24G32G20G10
  23887518.786   125529763.44546       129.808    23887519.361    97815405.19444
       101.144  
  23400973.294   122972962.69047      2862.258    23400974.483    95823098.19045
      2230.331  
  23006954.992   120902366.03648      -133.559    23006954.446    94209636.69646
      -104.073  
  21508080.663   113025753.18448     -2387.453    21508082.886    88072041.93647
     -1860.355  
  21512559.651   113049297.51949      2212.632    21512562.074    88090396.64948
      1724.124  
  21233789.023   111584323.16848     -2658.554    21233788.809    86948842.48247
     -2071.605  
  20384078.000   107119092.10449      -138.172    20384080.001    83469448.33248
      -107.667  
 20 09 28 09 21 50.0000000  0  7G11G12G21G24G32G20G10
  23887396.738   125529122.89346       126.331    23887397.414    97814906.06344
        98.437  
  23398250.501   122958654.94047      2860.538    23398251.693    95811949.32346
      2228.991  
  23007083.423   120903041.85248      -136.776    23007083.166    94210163.31346
      -106.582  
  21510353.361   113037696.94948     -2390.109    21510355.777    88081348.76547
     -1862.425  
  21510455.013   113038237.94349      2211.062    21510457.476    88081778.80048
      1722.901  
  21236319.546   111597621.31348     -2660.901    21236319.352    86959204.66547
     -2073.434  
  20384210.838   107119790.51349      -141.405    20384212.859    83469992.55048
      -110.190  
 20 09 28 09 21 55.0000000  0  8G11G12G25G21G24G32G20G10
  23887279.881   125528508.92746       121.812    23887280.442    97814427.67444
        94.917  
  23395531.574   122944366.41647      2857.270    23395532.652    95800815.43046
      2226.445  
  24572653.022   129130163.06415      3696.109           0.000           0.0000 
         0.000  
  23007216.616   120903741.00648      -140.488    23007216.241    94210708.10946
      -109.472  
  21512630.411   113049662.42648     -2393.444    21512632.778    88090672.51447
     -1865.027  
  21508353.774   113027195.04749      2208.566    21508356.038    88073173.94948
      1720.957  
  21238854.070   111610940.32548     -2664.305    21238854.019    86969583.10747
     -2076.086  
  20384348.410   107120513.14849      -145.276    20384350.341    83470555.64148
      -113.206  
 20 09 28 09 22  0.0000000  0  8G11G12G25G21G24G32G20G10
  23887164.368   125527901.65547       120.358    23887164.939    97813954.46044
        93.785  
  23392812.442   122930077.18547      2857.816    23392813.333    95789680.99046
      2226.870  
  24569135.408   129111676.59545      3698.168    24569141.202   100606513.46956
      2881.688  
  23007350.193   120904443.64348      -141.215    23007349.748    94211255.61046
      -110.039  
  21514907.678   113061629.60648     -2393.867    21514910.040    88099997.58747
     -1865.354  
  21506251.596   113016148.96349      2209.147    21506254.115    88064566.61548
      1721.410  
  21241388.771   111624260.26648     -2664.276    21241388.665    86979962.27847
     -2076.063  
  20384486.761   107121240.15449      -146.089    20384488.807    83471122.13948
      -113.839  
 20 09 28 09 22  5.0000000  0  8G11G12G25G21G24G32G20G10
  23887051.690   125527309.43446       116.496    23887052.369    97813493.00344
        90.773  
  23390094.626   122915795.68347      2855.660    23390095.718    95778552.56045
      2225.187  
  24565617.556   129093189.43745      3697.094    24565620.900   100592107.92145
      2880.852  
  23007486.237   120905158.15548      -144.644    23007485.710    94211812.38346
      -112.714  
  21517186.826   113073606.73548     -2396.827    21517189.250    88109330.41547
     -1867.659  
  21504150.767   113005108.09749      2207.199    21504153.171    88055963.34848
      1719.891  
  21243925.192   111637589.56148     -2667.249    21243925.030    86990348.73847
     -2078.379  
  20384627.383   107121979.94549      -149.788    20384629.479    83471698.60448
      -116.723  
 20 09 28 09 22 10.0000000  0  8G11G12G25G21G24G32G20G10
  23886942.433   125526735.34646       113.147    23886943.064    97813045.66645
        88.164  
  23387379.048   122901525.00847      2853.211    23387380.056    95767432.59745
      2223.284  
  24562099.893   129074704.59045      3696.793    24562103.973   100577704.16445
      2880.616  
  23007624.952   120905887.54648      -147.085    23007624.356    94212380.73846
      -114.617  
  21519468.666   113085597.10748     -2399.098    21519470.921    88118673.56747
     -1869.429  
  21502051.248   112994075.45649      2206.082    21502053.698    88047366.48347
      1719.022  
  21246464.082   111650931.24048     -2669.254    21246463.850    87000744.84447
     -2079.940  
  20384771.247   107122735.51549      -152.422    20384773.327    83472287.35648
      -118.772  
 20 09 28 09 22 15.0000000  0  8G11G12G25G21G24G32G20G10
  23886836.593   125526179.27646       110.086    23886837.390    97812612.35644
        85.777  
  23384665.185   122887265.00047      2850.905    23384666.353    95756320.93946
      2221.483  
  24558582.517   129056221.93445      3696.604    24558586.583   100563302.07045
      2880.468  
  23007766.540   120906631.75248      -150.265    23007765.943    94212960.64046
      -117.093  
  21521752.757   113097600.55048     -2401.952    21521755.017    88128026.90347
     -1871.656  
  21499953.450   112983051.01349      2204.105    21499955.932    88038776.01448
      1717.479  
  21249005.287   111664285.23948     -2672.008    21249005.123    87011150.55647
     -2082.085  
  20384917.951   107123506.82449      -155.831    20384920.118    83472888.37648
      -121.429  
 20 09 28 09 22 20.0000000  0  8G11G12G25G21G24G32G20G10
  23886733.762   125525639.89846       106.281    23886734.757    97812192.06144
        82.812  
  23381953.436   122873014.34947      2849.625    23381954.596    95745216.55846
      2220.488  
  24555065.219   129037740.25145      3696.206    24555070.424   100548900.79844
      2880.159  
  23007910.795   120907389.41348      -152.746    23007910.257    94213551.01946
      -119.027  
  21524039.151   113109615.75848     -2403.987    21524041.572    88137389.40247
     -1873.241  
  21497856.786   112972033.38049      2202.969    21497859.149    88030190.84948
      1716.598  
  21251548.590   111677650.13648     -2674.004    21251548.370    87021564.76047
     -2083.645  
  20385067.512   107124292.49349      -158.422    20385069.564    83473500.58648
      -123.449  
 20 09 28 09 22 25.0000000  0  8G11G12G25G21G24G32G20G10
  23886635.177   125525121.51646       102.258    23886636.214    97811788.13644
        79.679  
  23379244.197   122858777.45447      2846.772    23379245.301    95734122.88846
      2218.262  
  24551549.236   129019263.88945      3694.805    24551554.043   100534503.68146
      2879.070  
  23008058.263   120908164.92348      -156.293    23008057.721    94214155.32646
      -121.788  
  21526328.778   113121647.04948     -2407.140    21526331.036    88146764.43647
     -1875.695  
  21495762.226   112961026.92249      2200.992    21495764.805    88021614.39248
      1715.054  
  21254094.715   111691030.29848     -2676.788    21254094.492    87031990.86147
     -2085.812  
  20385220.509   107125096.90249      -162.016    20385222.700    83474127.40048
      -126.249  
 20 09 28 09 22 30.0000000  0  8G11G12G25G21G24G32G20G10
  23886539.105   125524616.78146        99.843    23886539.982    97811394.83344
        77.796  
  23376536.144   122844546.91247      2845.241    23376537.409    95723034.17845
      2217.074  
  24548032.818   129000785.33145      3695.640    24548037.754   100520104.81645
      2879.715  
  23008207.820   120908950.85148      -158.145    23008207.155    94214767.73646
      -123.233  
  21528619.721   113133686.88148     -2408.792    21528622.223    88156146.12247
     -1876.983  
  21493668.588   112950024.24749      2200.145    21493670.953    88013040.88647
      1714.395  
  21256642.347   111704418.35348     -2678.465    21256642.344    87042423.10547
     -2087.117  
  20385375.784   107125912.65849      -164.175    20385378.024    83474763.05248
      -127.934  
 20 09 28 09 22 35.0000000  0  8G11G12G25G21G24G32G20G10
  23886446.414   125524129.37346        95.863    23886447.285    97811015.03643
        74.694  
  23373830.187   122830326.42147      2842.644    23373831.302    95711953.30946
      2215.047  
  24544516.670   128982308.37945      3694.792    24544521.577   100505707.22045
      2879.059  
  23008360.027   120909750.85748      -161.242    23008359.545    94215391.12046
      -125.644  
  21530913.325   113145739.03648     -2411.815    21530915.580    88165537.41047
     -1879.339  
  21491576.292   112939029.03349      2198.320    21491578.801    88004473.18648
      1712.972  
  21259192.096   111717817.87548     -2680.984    21259192.141    87052864.28947
     -2089.082  
  20385533.908   107126743.41949      -167.535    20385536.029    83475410.39848
      -130.550  
 20 09 28 09 22 40.0000000  0  8G11G12G25G21G24G32G20G10
  23886356.815   125523658.34046        92.687    23886357.297    97810647.98545
        72.223  
  23371125.865   122816115.04847      2841.504    23371126.932    95700879.55245
      2214.159  
  24541000.603   128963832.10345      3695.444    24541006.217   100491310.16145
      2879.569  
  23008514.912   120910564.06548      -164.104    23008514.133    94216024.79145
      -127.879  
  21533208.840   113157802.61048     -2413.839    21533211.164    88174937.59847
     -1880.918  
  21489485.162   112928040.38349      2196.948    21489487.631    87995910.60148
      1711.906  
  21261744.157   111731228.01448     -2683.258    21261743.889    87063313.73647
     -2090.851  
  20385694.694   107127588.29349      -170.496    20385696.727    83476068.74448
      -132.855  
 20 09 28 09 22 45.0000000  0  8G11G12G25G21G24G32G20G10
  23886270.598   125523205.58046        88.445    23886271.396    97810295.17444
        68.913  
  23368423.490   122801914.75147      2839.190    23368424.769    95689814.39946
      2212.359  
  24537484.982   128945358.48545      3694.676    24537490.534   100476915.14944
      2878.965  
  23008672.473   120911392.36948      -166.870    23008671.905    94216670.21346
      -130.030  
  21535507.013   113169879.40548     -2416.503    21535509.417    88184348.09147
     -1882.991  
  21487395.744   112917060.20249      2195.410    21487398.166    87987354.62248
      1710.706  
  21264298.274   111744650.67748     -2685.632    21264298.090    87073772.95047
     -2092.703  
  20385858.539   107128449.18049      -173.695    20385860.602    83476739.56348
      -135.351  
 20 09 28 09 22 50.0000000  0  8G11G12G25G21G24G32G20G10
  23886187.453   125522768.80546        85.495    23886188.127    97809954.85845
        66.616  
  23365723.069   122787723.25647      2837.331    23365724.279    95678756.12546
      2210.909  
  24533969.557   128926885.14545      3694.695    24533975.137   100462520.34345
      2878.979  
  23008832.493   120912233.43748      -169.348    23008831.840    94217325.58946
      -131.960  
  21537807.271   113181967.12548     -2418.684    21537809.648    88193767.08947
     -1884.691  
  21485307.452   112906086.18249      2194.136    21485309.918    87978803.44048
      1709.714  
  21266854.509   111758083.53348     -2687.612    21266854.506    87084240.11147
     -2094.245  
  20386024.855   107129323.77049      -176.250    20386027.153    83477421.06348
      -137.339  
 20 09 28 09 22 55.0000000  0  8G11G12G25G21G24G32G20G10
  23886107.583   125522348.89847        82.457    23886108.213    97809627.65444
        64.249  
  23363024.355   122773541.42047      2835.284    23363025.479    95667705.36346
      2209.313  
  24530454.541   128908413.07745      3694.492    24530459.737   100448126.55744
      2878.823  
  23008995.197   120913088.16748      -172.270    23008994.534    94217991.60946
      -134.238  
  21540109.625   113194066.66748     -2421.020    21540112.061    88203195.30547
     -1886.512  
  21483220.492   112895119.19749      2192.698    21483222.887    87970257.74248
      1708.593  
  21269412.812   111771527.47548     -2689.844    21269412.626    87094715.90147
     -2095.983  
  20386194.014   107130212.95649      -179.309    20386196.154    83478113.93648
      -139.723  
 20 09 28 09 23  0.0000000  0  8G11G12G25G21G24G32G20G10
  23886031.111   125521946.06946        78.612    23886031.416    97809313.74644
        61.254  
  23360327.495   122759369.44947      2833.319    23360328.623    95656662.31346
      2207.785  
  24526939.587   128889942.40145      3693.273    24526944.850   100433733.83745
      2877.874  
  23009160.354   120913956.72948      -175.324    23009159.851    94218668.42846
      -136.620  
  21542414.456   113206178.26548     -2423.645    21542416.669    88212632.91347
     -1888.558  
  21481134.863   112884159.42249      2191.093    21481137.336    87961717.66548
      1707.343  
  21271973.213   111784982.63048     -2692.367    21271973.178    87105200.43547
     -2097.952  
  20386366.036   107131116.90849      -182.409    20386368.323    83478818.31648
      -142.141  
 20 09 28 09 23  5.0000000  0  8G11G12G25G21G24G32G20G10
  23885957.679   125521560.52346        75.140    23885958.152    97809013.33844
        58.546  
  23357632.553   122745207.65547      2831.374    23357633.724    95645627.18446
      2206.266  
  24523425.140   128871473.33045      3693.605    24523430.295   100419342.35645
      2878.133  
  23009328.388   120914839.41048      -178.043    23009327.879    94219356.22546
      -138.738  
  21544721.351   113218301.98548     -2425.957    21544723.729    88222079.96947
     -1890.359  
  21479050.760   112873207.16749      2189.597    21479053.237    87953183.44148
      1706.176  
  21274535.901   111798449.26848     -2694.395    21274535.658    87115693.92647
     -2099.531  
  20386540.915   107132035.90149      -185.269    20386543.170    83479534.41248
      -144.367  
 20 09 28 09 23 10.0000000  0  8G11G12G25G21G24G32G20G10
  23885887.316   125521190.98147        72.465    23885887.736    97808725.37144
        56.464  
  23354939.319   122731054.76947      2829.800    23354940.305    95634598.99146
      2205.038  
  24519910.630   128853004.79546      3693.374    24519915.964   100404951.31645
      2877.953  
  23009498.714   120915734.91648      -180.308    23009498.304    94220054.02446
      -140.503  
  21547030.553   113230436.70648     -2428.147    21547032.981    88231535.59847
     -1892.066  
  21476967.808   112862261.15349      2188.473    21476970.357    87944654.08248
      1705.301  
  21277100.500   111811926.17048     -2696.391    21277100.319    87126195.40747
     -2101.085  
  20386718.460   107132968.68749      -188.004    20386720.720    83480261.25948
      -146.499  
 20 09 28 09 23 15.0000000  0  8G11G12G25G21G24G32G20G10
  23885820.316   125520838.79947        68.070    23885820.651    97808450.95144
        53.038  
  23352248.159   122716912.06647      2827.672    23352249.060    95623578.73246
      2203.382  
  24516396.535   128834537.91645      3693.445    24516401.794   100390561.56645
      2878.011  
  23009671.883   120916644.49048      -183.453    23009671.192    94220762.78646
      -142.953  
  21549342.036   113242583.62948     -2430.651    21549344.456    88241000.73247
     -1894.019  
  21474886.169   112851322.62849      2186.905    21474888.703    87936130.55848
      1704.078  
  21279667.155   111825414.56648     -2698.789    21279666.969    87136705.84847
     -2102.957  
  20386898.853   107133916.50549      -191.141    20386900.954    83480999.82048
      -148.944  
 20 09 28 09 23 20.0000000  0  8G11G12G25G21G24G32G20G10
  23885756.628   125520503.77246        65.163    23885756.872    97808189.91044
        50.773  
  23349558.714   122702779.40447      2825.441    23349559.832    95612566.29245
      2201.644  
  24512882.802   128816072.71946      3692.793    24512888.204   100376173.09846
      2877.495  
  23009847.712   120917568.07448      -186.253    23009847.014    94221482.46346
      -145.137  
  21551655.791   113254742.71548     -2432.968    21551658.343    88250475.33947
     -1895.824  
  21472806.067   112840391.52149      2185.347    21472808.523    87927612.81948
      1702.862  
  21282236.111   111838914.33148     -2701.191    21282236.079    87147225.14347
     -2104.827  
  20387082.118   107134879.28849      -194.063    20387084.356    83481750.04148
      -151.223  
 20 09 28 09 23 25.0000000  0  8G11G12G25G21G24G32G20G10
  23885696.316   125520186.04946        62.331    23885696.538    97807942.31944
        48.566  
  23346871.167   122688656.96847      2823.812    23346872.268    95601561.82246
      2200.375  
  24509369.513   128797609.29346      3692.398    24509374.544   100361785.99744
      2877.190  
  23010026.021   120918505.77848      -188.785    23010025.550    94222213.13445
      -147.109  
  21553971.847   113266913.95148     -2435.277    21553974.422    88259959.41847
     -1897.621  
  21470727.302   112829467.94849      2184.172    21470729.823    87919100.95047
      1701.949  
  21284807.164   111852425.59148     -2703.180    21284807.163    87157753.39647
     -2106.378  
  20387268.208   107135857.16749      -196.969    20387270.425    83482512.02348
      -153.484  
 20 09 28 09 23 30.0000000  0  8G11G12G25G21G24G32G20G10
  23885638.861   125519884.46746        58.625    23885639.218    97807707.32344
        45.679  
  23344185.559   122674543.59647      2821.461    23344186.705    95590564.42146
      2198.543  
  24505855.994   128779146.37245      3692.309    24505861.588   100347399.34345
      2877.124  
  23010207.009   120919456.38048      -191.683    23010206.255    94222953.87046
      -149.367  
  21556290.195   113279096.23148     -2437.815    21556292.687    88269452.10647
     -1899.601  
  21468649.872   112818550.69549      2182.601    21468652.561    87910594.00348
      1700.727  
  21287380.296   111865947.08048     -2705.543    21287380.165    87168289.62647
     -2108.219  
  20387456.802   107136848.85649      -199.940    20387458.947    83483284.76948
      -155.800  
 20 09 28 09 23 35.0000000  0  8G11G12G25G21G24G32G20G10
  23885584.772   125519600.47546        55.090    23885585.149    97807486.04645
        42.925  
  23341501.849   122660440.70347      2819.839    23341503.062    95579575.16346
      2197.273  
  24502343.023   128760685.55546      3692.070    24502348.850   100333014.32846
      2876.937  
  23010390.635   120920421.40248      -194.453    23010389.918    94223705.84546
      -151.522  
  21558610.633   113291290.78148     -2440.027    21558613.147    88278954.34647
     -1901.323  
  21466573.954   112807641.23849      2181.171    21466576.514    87902093.12948
      1699.609  
  21289955.506   111879480.30748     -2707.562    21289955.345    87178834.99447
     -2109.792  
  20387648.399   107137855.92849      -202.699    20387650.639    83484069.50048
      -157.948  
 20 09 28 09 23 40.0000000  0  8G11G12G25G21G24G32G20G10
  23885534.017   125519333.03746        51.644    23885534.099    97807277.62844
        40.237  
  23338820.034   122646347.35647      2817.386    23338821.111    95568593.36746
      2195.367  
  24498830.269   128742225.81245      3691.508    24498836.251   100318630.10446
      2876.496  
  23010576.744   120921399.75548      -197.035    23010576.220    94224468.19246
      -153.535  
  21560933.350   113303496.86648     -2442.448    21560935.835    88288465.58447
     -1903.210  
  21464499.178   112796738.58849      2179.727    21464501.690    87893597.57148
      1698.483  
  21292532.800   111893024.23848     -2709.938    21292532.736    87189388.70147
     -2111.645  
  20387842.873   107138877.32949      -205.792    20387845.029    83484865.39948
      -160.362  
 20 09 28 09 23 45.0000000  0  8G11G12G25G21G24G32G20G10
  23885486.285   125519082.67246        48.284    23885486.453    97807082.55744
        37.620  
  23336140.144   122632264.06447      2815.473    23336141.126    95557619.40045
      2193.874  
  24495317.839   128723767.65345      3690.905    24495323.830   100304247.17246
      2876.030  
  23010765.544   120922391.99948      -199.647    23010764.922    94225241.36445
      -155.573  
  21563258.354   113315714.96848     -2444.922    21563260.968    88297986.18047
     -1905.137  
  21462425.935   112785843.24949      2178.328    21462428.330    87885107.69448
      1697.395  
  21295112.231   111906579.39248     -2712.261    21295112.308    87199951.14847
     -2113.452  
  20388040.006   107139913.58449      -208.813    20388042.092    83485672.87048
      -162.714  
 20 09 28 09 23 50.0000000  0  8G11G12G25G21G24G32G20G10
  23885441.964   125518849.48746        44.718    23885442.027    97806900.85844
        34.844  
  23333461.959   122618190.88747      2813.949    23333463.062    95546653.30246
      2192.683  
  24491805.844   128705311.14945      3691.332    24491811.718   100289865.47146
      2876.359  
  23010957.176   120923398.18848      -202.535    23010956.356    94226025.40946
      -157.823  
  21565585.823   113327945.11948     -2447.141    21565588.304    88307516.16947
     -1906.867  
  21460354.036   112774955.31749      2177.054    21460356.434    87876623.59348
      1696.401  
  21297693.733   111920145.83948     -2714.378    21297693.841    87210522.40647
     -2115.104  
  20388240.003   107140964.76449      -211.569    20388242.102    83486491.97048
      -164.862  
 20 09 28 09 23 55.0000000  0  8G11G12G25G21G24G32G20G10
  23885400.682   125518632.51546        41.723    23885400.664    97806731.79944
        32.507  
  23330785.870   122604127.03747      2811.690    23330786.669    95535694.48346
      2190.930  
  24488293.740   128686855.41945      3691.137    24488299.774   100275484.43245
      2876.210  
  23011151.051   120924417.38548      -205.227    23011150.273    94226819.59445
      -159.921  
  21567915.216   113340186.34848     -2449.339    21567917.596    88317054.79247
     -1908.577  
  21458283.259   112764073.86949      2175.598    21458285.764    87868144.54848
      1695.270  
  21300277.358   111933722.66548     -2716.465    21300277.361    87221101.74047
     -2116.729  
  20388442.671   107142029.98149      -214.460    20388445.035    83487322.01248
      -167.117  
 20 09 28 09 24  0.0000000  0  8G11G12G25G21G24G32G20G10
  23885362.845   125518433.21346        38.147    23885362.714    97806576.49344
        29.723  
  23328111.484   122590073.79347      2809.430    23328112.317    95524743.92946
      2189.168  
  24484782.032   128668401.89246      3690.831    24484788.075   100261105.04645
      2875.969  
  23011347.622   120925450.99848      -208.155    23011346.877    94227624.99946
      -162.203  
  21570246.890   113352439.84648     -2452.026    21570249.321    88326602.97247
     -1910.675  
  21456214.197   112753200.28549      2173.757    21456216.567    87859671.62748
      1693.836  
  21302863.243   111947311.23948     -2718.906    21302863.295    87231690.23747
     -2118.633  
  20388648.370   107143110.59349      -217.741    20388650.653    83488164.04348
      -169.671  
 20 09 28 09 24  5.0000000  0  8G11G12G25G21G24G32G20G10
  23885328.060   125518250.25746        34.597    23885327.739    97806433.93244
        26.956  
  23325438.993   122576029.88647      2807.922    23325439.890    95513800.66046
      2187.991  
  24481270.790   128649949.28845      3690.679    24481276.483   100246726.38445
      2875.851  
  23011546.822   120926497.70748      -210.706    23011546.092    94228440.62446
      -164.190  
  21572580.830   113364704.47248     -2454.050    21572583.247    88336159.82247
     -1912.249  
  21454146.278   112742333.26249      2172.784    21454148.597    87851203.82348
      1693.073  
  21305451.053   111960910.23948     -2720.832    21305450.974    87242286.85247
     -2120.132  
  20388856.738   107144205.29149      -220.319    20388858.960    83489017.05748
      -171.680  
 20 09 28 09 24 10.0000000  0  8G11G12G25G21G24G32G20G10
  23885296.470   125518084.63046        31.020    23885296.144    97806304.86944
        24.167  
  23322768.607   122561996.47547      2805.359    23322769.435    95502865.56146
      2185.996  
  24477759.537   128631498.59145      3689.585    24477765.440   100232349.27946
      2875.012  
  23011748.693   120927558.60648      -213.710    23011748.052    94229267.30346
      -166.531  
  21574917.060   113376981.34848     -2456.883    21574919.612    88345726.22047
     -1914.437  
  21452079.666   112731473.89249      2170.894    21452082.091    87842741.97948
      1691.602  
  21308040.948   111974520.72848     -2723.440    21308041.062    87252892.42047
     -2122.164  
  20389067.965   107145315.20149      -223.687    20389069.962    83489881.92148
      -174.305  
 20 09 28 09 24 15.0000000  0  8G11G12G25G21G24G32G20G10
  23885268.322   125517936.05246        27.973    23885268.016    97806189.09445
        21.792  
  23320100.096   122547973.13447      2803.789    23320100.917    95491938.30046
      2184.765  
  24474248.901   128613049.53946      3689.651    24474254.695   100217973.39745
      2875.050  
  23011953.249   120928633.30448      -216.120    23011952.444    94230104.72446
      -168.409  
  21577255.590   113389270.06248     -2458.812    21577257.924    88355301.84347
     -1915.960  
  21450014.596   112720621.78649      2169.926    21450017.036    87834285.80048
      1690.848  
  21310633.128   111988142.32248     -2725.124    21310633.104    87263506.64847
     -2123.476  
  20389281.860   107146439.88649      -226.281    20389284.135    83490758.29648
      -176.328  
 20 09 28 09 24 20.0000000  0  8G11G12G25G21G24G32G20G10
  23885243.193   125517804.40646        24.374    23885242.920    97806086.48844
        18.992  
  23317433.311   122533959.83347      2801.522    23317434.137    95481018.87946
      2183.007  
  24470738.504   128594602.05945      3689.383    24470744.100   100203598.75545
      2874.839  
  23012160.274   120929721.76148      -219.206    23012159.557    94230952.87946
      -170.813  
  21579596.176   113401570.61448     -2461.328    21579598.679    88364886.68647
     -1917.921  
  21447950.831   112709776.90549      2168.047    21447953.478    87825835.25148
      1689.383  
  21313227.184   112001774.98848     -2727.874    21313227.328    87274129.50147
     -2125.621  
  20389498.800   107147579.31849      -229.484    20389500.993    83491646.16948
      -178.819  
 20 09 28 09 24 25.0000000  0  8G11G12G25G21G24G32G20G10
  23885221.463   125517690.49646        21.242    23885221.267    97805997.75944
        16.550  
  23314768.785   122519957.46747      2799.656    23314769.495    95470107.95846
      2181.547  
  24467228.523   128576157.01746      3688.902    24467234.258   100189226.00845
      2874.465  
  23012370.174   120930824.76348      -221.983    23012369.588    94231812.35746
      -172.976  
  21581939.252   113413883.65748     -2463.813    21581941.895    88374481.26247
     -1919.855  
  21445888.807   112698940.08449      2166.605    21445891.124    87817390.97548
      1688.261  
  21315823.757   112015419.51048     -2729.995    21315823.802    87284761.59847
     -2127.272  
  20389718.598   107148734.36249      -232.640    20389720.784    83492546.20748
      -181.281  
 20 09 28 09 24 30.0000000  0  8G11G12G25G21G24G32G20G10
  23885202.807   125517592.80246        17.933    23885202.793    97805921.67444
        13.976  
  23312105.969   122505964.40147      2797.711    23312106.853    95459204.32246
      2180.039  
  24463718.658   128557712.80146      3689.062    24463724.215   100174853.90646
      2874.593  
  23012582.554   120931940.73448      -224.440    23012581.833    94232681.93546
      -174.894  
  21584284.430   113426207.58848     -2465.809    21584287.052    88384084.32347
     -1921.414  
  21443827.725   112688109.71449      2165.597    21443830.237    87808951.73648
      1687.476  
  21318422.225   112029074.30248     -2731.777    21318422.253    87295401.69647
     -2128.660  
  20389941.064   107149903.36949      -235.194    20389943.268    83493457.11948
      -183.272  
 20 09 28 09 24 35.0000000  0  8G11G12G25G21G24G32G20G10
  23885187.414   125517511.03746        14.323    23885187.220    97805857.93545
        11.159  
  23309444.882   122491980.38747      2795.684    23309445.683    95448307.71446
      2178.457  
  24460209.058   128539269.20246      3688.741    24460214.626   100160482.28945
      2874.340  
  23012797.402   120933069.38948      -227.284    23012796.756    94233561.41346
      -177.109  
  21586631.696   113438542.14848     -2467.992    21586634.158    88393695.67148
     -1923.112  
  21441767.962   112677285.55549      2164.094    21441770.568    87800517.33148
      1686.305  
  21321022.605   112042739.11148     -2734.156    21321022.633    87306049.59947
     -2130.516  
  20390166.188   107151086.12449      -238.113    20390168.179    83494378.74648
      -185.547  
 20 09 28 09 24 40.0000000  0  8G11G12G25G21G24G32G20G10
  23885175.065   125517446.70146        10.676    23885175.032    97805807.81145
         8.315  
  23306785.884   122478007.00847      2793.547    23306786.713    95437419.39346
      2176.788  
  24456699.642   128520827.71746      3688.051    24456705.131   100146112.30446
      2873.801  
  23013014.896   120934212.33248      -230.156    23013014.337    94234452.02746
      -179.348  
  21588981.058   113450888.93948     -2470.934    21588983.727    88403316.54547
     -1925.405  
  21439709.739   112666469.14849      2162.515    21439712.129    87792088.95948
      1685.073  
  21323625.071   112056415.44048     -2736.444    21323625.199    87316706.48247
     -2132.297  
  20390394.159   107152284.15049      -241.262    20390396.270    83495312.27448
      -188.000  
 20 09 28 09 24 45.0000000  0  8G11G12G25G21G24G32G20G10
  23885166.168   125517399.88647         7.293    23885166.239    97805771.33444
         5.680  
  23304128.769   122464044.34047      2791.098    23304129.649    95426539.44345
      2174.887  
  24453190.835   128502388.50046      3687.750    24453196.427   100131744.09346
      2873.566  
  23013235.085   120935369.58948      -232.738    23013234.364    94235353.78446
      -181.358  
  21591333.085   113463248.01748     -2473.063    21591335.489    88412946.99447
     -1927.065  
  21437652.865   112655660.54349      2161.015    21437655.383    87783666.67848
      1683.906  
  21326229.839   112070103.33848     -2738.730    21326229.943    87327372.38147
     -2134.078  
  20390624.985   107153497.49249      -244.090    20390627.032    83496257.73548
      -190.203  
 20 09 28 09 24 50.0000000  0  8G11G12G25G21G24G32G20G10
  23885160.506   125517369.47646         4.597    23885160.326    97805747.62244
         3.577  
  23301473.545   122450091.16847      2789.676    23301474.246    95415666.88446
      2173.777  
  24449682.214   128483950.29546      3687.527    24449687.729   100117376.68846
      2873.398  
  23013457.735   120936539.99348      -235.522    23013457.100    94236265.78846
      -183.527  
  21593687.025   113475618.18448     -2475.359    21593689.674    88422586.08247
     -1928.854  
  21435597.312   112644858.60249      2159.539    21435599.866    87775249.59047
      1682.753  
  21328836.491   112083801.63948     -2740.882    21328836.668    87338046.38847
     -2135.757  
  20390858.681   107154725.04049      -247.117    20390860.726    83497214.26748
      -192.563  
 20 09 28 09 24 55.0000000  0  8G11G12G25G21G24G32G20G10
  23885158.085   125517356.31346         1.043    23885158.015    97805737.37745
         0.808  
  23298820.223   122436148.52347      2787.559    23298821.048    95404802.51646
      2172.125  
  24446173.961   128465514.17546      3687.172    24446179.261   100103010.90945
      2873.116  
  23013683.214   120937724.49048      -238.159    23013682.480    94237188.77446
      -185.581  
  21596043.259   113488000.30648     -2477.612    21596045.839    88432234.49447
     -1930.608  
  21433543.266   112634064.26849      2158.253    21433545.796    87766838.42147
      1681.753  
  21331445.418   112097511.36348     -2742.926    21331445.573    87348729.29447
     -2137.347  
  20391095.029   107155967.71449      -249.957    20391097.130    83498182.58448
      -194.772  
 20 09 28 09 25  0.0000000  0  8G11G12G25G21G24G32G20G10
  23885158.672   125517359.62046        -2.276    23885158.576    97805739.95743
        -1.776  
  23296168.808   122422215.58547      2785.609    23296169.603    95393945.69746
      2170.605  
  24442666.014   128447079.31646      3686.706    24442671.422   100088646.04945
      2872.754  
  23013911.170   120938922.27948      -241.101    23013910.577    94238122.10746
      -187.874  
  21598401.579   113500393.70348     -2479.859    21598404.200    88441891.68247
     -1932.358  
  21431490.357   112623276.75049      2156.754    21431492.940    87758432.57048
      1680.586  
  21334056.228   112111231.63748     -2745.249    21334056.409    87359420.41747
     -2139.160  
  20391334.222   107157224.71249      -252.922    20391336.459    83499162.06648
      -197.085  
 20 09 28 09 25  5.0000000  0  8G11G12G25G21G24G32G20G10
  23885162.726   125517380.67246        -6.058    23885162.901    97805756.35445
        -4.723  
  23293519.530   122408293.63047      2783.426    23293520.415    95383097.46445
      2168.901  
  24439158.304   128428646.89646      3686.234    24439163.995   100074283.19345
      2872.394  
  23014141.779   120940134.54648      -243.785    23014141.135    94239066.73546
      -189.964  
  21600762.365   113512799.53448     -2482.190    21600764.997    88451558.56347
     -1934.180  
  21429439.172   112612497.26349      2155.206    21429441.551    87750032.97348
      1679.379  
  21336669.304   112124963.63148     -2747.508    21336669.450    87370120.66647
     -2140.918  
  20391576.471   107158497.27149      -255.964    20391578.474    83500153.67148
      -199.457  
 20 09 28 09 25 10.0000000  0  8G11G12G25G21G24G32G20G10
  23885169.779   125517417.70746        -9.151    23885170.041    97805785.21645
        -7.136  
  23290871.961   122394380.90647      2781.637    23290872.932    95372256.40046
      2167.511  
  24435651.124   128410215.29346      3686.163    24435656.316   100059920.89445
      2872.332  
  23014374.859   120941359.58048      -246.065    23014374.357    94240021.30446
      -191.742  
  21603125.036   113525215.95548     -2484.452    21603127.740    88461233.69648
     -1935.941  
  21427389.118   112601724.06449      2154.086    21427391.642    87741638.28148
      1678.504  
  21339284.320   112138705.66248     -2749.453    21339284.433    87380828.73947
     -2142.433  
  20391821.197   107159783.63049      -258.617    20391823.427    83501156.02548
      -201.522  
 20 09 28 09 25 15.0000000  0  8G11G12G25G21G24G32G20G10
  23885180.118   125517471.47547       -12.328    23885180.345    97805827.12944
        -9.609  
  23288226.456   122380478.21547      2779.589    23288227.373    95361423.15646
      2165.914  
  24432144.072   128391785.23546      3685.992    24432149.123   100045559.77645
      2872.199  
  23014610.621   120942598.17348      -249.055    23014610.040    94240986.44946
      -194.069  
  21605490.017   113537643.88748     -2486.667    21605492.688    88470917.79547
     -1937.667  
  21425340.204   112590957.98249      2152.554    21425342.948    87733249.12848
      1677.313  
  21341901.421   112152458.46848     -2751.645    21341901.647    87391545.20247
     -2144.140  
  20392068.770   107161084.63449      -261.699    20392070.810    83502169.79848
      -203.925  
 20 09 28 09 25 20.0000000  0  8G11G12G25G21G24G32G20G10
  23885193.667   125517542.98946       -16.171    23885193.806    97805882.84244
       -12.604  
  23285582.863   122366586.54147      2777.452    23285583.815    95350598.50746
      2164.250  
  24428637.287   128373357.73646      3685.164    24428642.393   100031200.74245
      2871.558  
  23014849.051   120943851.31648      -251.977    23014848.407    94241962.92746
      -196.348  
  21607857.469   113550084.14848     -2489.202    21607860.067    88480611.50348
     -1939.641  
  21423293.003   112580199.95949      2151.020    21423295.742    87724866.25748
      1676.117  
  21344520.828   112166223.01248     -2754.034    21344520.791    87402270.81547
     -2146.003  
  20392319.386   107162401.19449      -264.780    20392321.366    83503195.69048
      -206.328  
 20 09 28 09 25 25.0000000  0  8G11G12G25G21G24G32G20G10
  23885210.575   125517631.31046       -19.093    23885210.601    97805951.67745
       -14.883  
  23282941.171   122352704.95047      2775.483    23282942.129    95339781.71446
      2162.714  
  24425131.072   128354931.92046      3685.324    24425135.991   100016842.95345
      2871.680  
  23015090.156   120945118.11648      -254.229    23015089.722    94242950.04246
      -198.105  
  21610226.803   113562535.86348     -2490.910    21610229.619    88490314.13948
     -1941.097  
  21421247.340   112569449.08549      2149.793    21421249.752    87716488.95948
      1675.159  
  21347142.109   112179998.37148     -2755.836    21347142.130    87413004.85447
     -2147.405  
  20392572.661   107163732.44249      -267.390    20392574.847    83504233.02548
      -208.359  
 20 09 28 09 25 30.0000000  0  8G11G12G25G21G24G32G20G10
  23885230.298   125517735.79746       -22.945    23885230.657    97806033.08644
       -17.883  
  23280301.365   122338832.83247      2773.300    23280302.432    95328972.28546
      2161.015  
  24421625.082   128336507.00846      3684.761    24421629.863   100002485.88545
      2871.238  
  23015333.530   120946397.83648      -257.452    23015333.244    94243947.22146
      -200.617  
  21612598.446   113574998.37148     -2493.843    21612601.140    88500025.18447
     -1943.258  
  21419202.640   112558704.67849      2147.983    21419205.238    87708116.70048
      1673.750  
  21349765.299   112193783.86148     -2758.315    21349765.428    87423746.78947
     -2149.340  
  20392828.603   107165077.64549      -270.663    20392830.784    83505281.23448
      -210.909  
 20 09 28 09 25 35.0000000  0  8G11G12G25G21G24G32G20G10
  23885253.669   125517858.51746       -26.226    23885253.923    97806128.70044
       -20.440  
  23277663.893   122324972.35347      2771.226    23277664.698    95318171.92346
      2159.394  
  24418119.524   128318085.26747      3684.218    24418124.486    99988131.29345
      2870.816  
  23015579.970   120947692.60348      -260.422    23015579.682    94244956.12446
      -202.930  
  21614972.364   113587473.67348     -2496.140    21614975.081    88509746.20148
     -1945.046  
  21417159.661   112547968.87349      2146.534    21417162.390    87699751.14248
      1672.621  
  21352390.984   112207581.58648     -2760.585    21352391.160    87434498.25446
     -2151.108  
  20393087.602   107166438.97349      -273.656    20393089.898    83506342.00948
      -213.241  
 20 09 28 09 25 40.0000000  0  8G11G12G25G21G24G32G20G10
  23885280.096   125517997.29846       -29.629    23885280.251    97806236.88544
       -23.085  
  23275028.102   122311121.26947      2769.070    23275028.934    95307378.91046
      2157.718  
  24414614.232   128299664.46146      3684.004    24414619.099    99973777.41445
      2870.648  
  23015828.867   120949000.19248      -262.812    23015828.540    94245975.03246
      -204.793  
  21617348.380   113599959.63148     -2498.223    21617350.996    88519475.51947
     -1946.672  
  21415118.003   112537239.45349      2145.167    21415120.542    87691390.55348
      1671.554  
  21355018.579   112221389.37948     -2762.679    21355018.595    87445257.56647
     -2152.741  
  20393349.448   107167814.20449      -276.499    20393351.450    83507413.61848
      -215.456  
 20 09 28 09 25 45.0000000  0  8G11G12G25G21G24G32G20G10
  23885309.564   125518152.87246       -33.012    23885310.065    97806358.09244
       -25.726  
  23272394.229   122297280.30047      2766.938    23272395.145    95296593.76746
      2156.055  
  24411109.170   128281245.23646      3683.246    24411113.863    99959424.80845
      2870.059  
  23016080.251   120950321.41148      -265.819    23016079.870    94247004.56046
      -207.137  
  21619726.483   113612456.89648     -2500.858    21619729.092    88529213.64447
     -1948.726  
  21413077.677   112526517.15549      2143.519    21413080.173    87683035.52348
      1670.272  
  21357648.057   112235207.87948     -2764.816    21357648.234    87456025.21847
     -2154.405  
  20393613.968   107169204.04549      -279.652    20393615.928    83508496.61248
      -217.913  
 20 09 28 09 25 50.0000000  0  8G11G12G25G21G24G32G20G10
  23885342.660   125518326.20046       -36.265    23885343.053    97806493.13945
       -28.265  
  23269762.417   122283450.50347      2765.112    23269763.505    95285817.32546
      2154.633  
  24407604.636   128262828.78147      3683.386    24407609.398    99945074.29945
      2870.164  
  23016334.471   120951657.19048      -268.492    23016334.103    94248045.41446
      -209.219  
  21622107.051   113624966.61348     -2503.054    21622109.651    88538961.47947
     -1950.433  
  21411038.674   112515802.99649      2142.194    21411041.247    87674686.83448
      1669.238  
  21360280.008   112249038.15448     -2767.030    21360280.114    87466802.04647
     -2156.133  
  20393881.325   107170609.54949      -282.625    20393883.341    83509591.80848
      -220.229  
 20 09 28 09 25 55.0000000  0  8G11G12G25G21G24G32G20G10
  23885378.615   125518515.08546       -39.796    23885379.029    97806640.32945
       -31.015  
  23267132.317   122269629.66947      2762.862    23267133.373    95275047.87445
      2152.883  
  24404100.214   128244412.73446      3682.991    24404104.955    99930724.15845
      2869.859  
  23016590.984   120953005.27048      -271.085    23016590.523    94249095.88046
      -211.237  
  21624489.504   113637486.48748     -2505.366    21624492.157    88548717.22447
     -1952.238  
  21409001.001   112505094.73349      2140.793    21409003.548    87666342.73648
      1668.147  
  21362913.487   112262877.95948     -2769.137    21362913.670    87477586.29747
     -2157.773  
  20394151.357   107172028.45149      -285.375    20394153.441    83510697.44948
      -222.375  
 20 09 28 09 26  0.0000000  0  8G11G12G25G21G24G32G20G10
  23885417.808   125518721.23246       -42.688    23885418.023    97806800.97344
       -33.265  
  23264504.361   122255819.54547      2760.879    23264505.370    95264286.76846
      2151.336  
  24400596.093   128225998.98446      3682.315    24400600.711    99916375.80445
      2869.340  
  23016850.164   120954367.39348      -273.934    23016849.869    94250157.26846
      -213.457  
  21626874.282   113650018.27148     -2507.663    21626876.845    88558482.24747
     -1954.026  
  21406964.837   112494394.11949      2139.409    21406967.313    87658004.60048
      1667.070  
  21365549.258   112276728.99848     -2771.480    21365549.458    87488379.31447
     -2159.598  
  20394424.250   107173462.51449      -288.355    20394426.235    83511814.90248
      -224.695  
 20 09 28 09 26  5.0000000  0  8G11G12G25G21G24G32G20G10
  23885460.233   125518944.74046       -46.272    23885460.808    97806975.14044
       -36.058  
  23261878.484   122242020.24847      2758.691    23261879.565    95253534.09846
      2149.628  
  24397092.606   128207587.50646      3681.983    24397097.234    99902029.18245
      2869.073  
  23017112.030   120955743.66548      -276.550    23017111.703    94251229.68446
      -215.495  
  21629261.333   113662562.08648     -2509.844    21629263.754    88568256.64847
     -1955.726  
  21404930.016   112483701.24949      2137.961    21404932.551    87649672.49648
      1665.940  
  21368187.316   112290591.36948     -2773.578    21368187.417    87499181.16147
     -2161.234  
  20394699.990   107174911.82049      -291.262    20394702.196    83512944.22848
      -226.960  
 20 09 28 09 26 10.0000000  0  8G11G12G25G21G24G32G20G10
  23885506.054   125519185.62346       -50.101    23885506.387    97807162.84145
       -39.043  
  23259254.480   122228231.70247      2756.456    23259255.500    95242789.80245
      2147.890  
  24393589.472   128189178.38246      3681.550    24393594.105    99887684.42345
      2868.738  
  23017376.753   120957134.04148      -279.453    23017376.422    94252313.10046
      -217.757  
  21631650.475   113675117.77348     -2512.327    21631653.083    88578040.30047
     -1957.659  
  21402896.718   112473016.13549      2136.058    21402899.251    87641346.44248
      1664.457  
  21370827.474   112304465.02648     -2775.980    21370827.341    87509991.80047
     -2163.104  
  20394978.770   107176376.37949      -294.526    20394980.840    83514085.44648
      -229.504  
 20 09 28 09 26 15.0000000  0  8G11G12G25G21G24G32G20G10
  23885555.067   125519443.53546       -53.148    23885555.365    97807363.80344
       -41.417  
  23256632.543   122214453.76947      2754.895    23256633.681    95232053.76746
      2146.672  
  24390086.729   128170771.37146      3681.473    24390091.448    99873341.31545
      2868.676  
  23017643.929   120958538.34448      -282.012    23017643.569    94253407.36646
      -219.754  
  21634042.094   113687685.03248     -2514.473    21634044.399    88587832.96447
     -1959.331  
  21400864.748   112462338.49949      2135.104    21400867.411    87633026.21148
      1663.714  
  21373469.521   112318349.73148     -2777.773    21373469.703    87520811.04847
     -2164.503  
  20395260.205   107177855.92349      -297.188    20395262.403    83515238.33848
      -231.577  
 20 09 28 09 26 20.0000000  0  8G11G12G25G21G24G32G20G10
  23885607.149   125519717.60046       -56.671    23885607.600    97807577.35444
       -44.164  
  23254012.512   122200685.44447      2752.363    23254013.769    95221325.22946
      2144.698  
  24386584.149   128152365.50346      3680.535    24386589.039    99858999.09945
      2867.949  
  23017913.566   120959955.54448      -285.129    23017913.191    94254511.67246
      -222.179  
  21636435.602   113700263.00248     -2517.069    21636437.922    88597633.98048
     -1961.354  
  21398834.128   112451667.39049      2133.277    21398836.805    87624711.06248
      1662.289  
  21376113.660   112332244.49748     -2780.133    21376113.772    87531638.13346
     -2166.339  
  20395544.509   107179349.48349      -300.270    20395546.656    83516402.14848
      -233.979  
 20 09 28 09 26 25.0000000  0  8G11G12G25G21G24G32G20G10
  23885662.661   125520009.09746       -59.789    23885663.022    97807804.51644
       -46.594  
  23251394.605   122186928.12547      2750.324    23251395.745    95210605.26445
      2143.109  
  24383082.157   128133962.09746      3680.188    24383086.661    99844658.79145
      2867.676  
  23018185.871   120961386.95748      -287.827    23018185.727    94255627.06846
      -224.284  
  21638831.399   113712853.03148     -2519.124    21638833.872    88607444.39747
     -1962.956  
  21396805.036   112441004.15849      2131.929    21396807.668    87616402.05548
      1661.242  
  21378759.912   112346150.67348     -2782.343    21378760.060    87542474.11447
     -2168.063  
  20395831.662   107180858.41949      -303.249    20395833.621    83517577.94348
      -236.301  
 20 09 28 09 26 30.0000000  0  8G11G12G25G21G24G32G20G10
  23885721.217   125520317.25246       -63.309    23885721.673    97808044.61844
       -49.336  
  23248778.446   122173180.99347      2748.280    23248779.667    95199893.23946
      2141.520  
  24379580.348   128115560.43946      3679.690    24379585.010    99830319.83445
      2867.288  
  23018460.855   120962831.78748      -290.082    23018460.477    94256752.90646
      -226.043  
  21641229.301   113725454.15248     -2521.362    21641231.761    88617263.44947
     -1964.702  
  21394777.101   112430347.97449      2130.609    21394779.758    87608098.54048
      1660.210  
  21381408.248   112360067.40048     -2784.222    21381408.314    87553318.30447
     -2169.527  
  20396121.479   107182381.88849      -306.109    20396123.734    83518765.06248
      -238.530  
 20 09 28 09 26 35.0000000  0  8G11G12G25G21G24G32G20G10
  23885782.862   125520641.72746       -66.839    23885783.498    97808297.47145
       -52.086  
  23246164.391   122159443.75947      2746.270    23246165.358    95189188.92446
      2139.949  
  24376078.981   128097160.13046      3679.504    24376083.597    99815981.94545
      2867.144  
  23018738.301   120964289.77748      -293.132    23018737.945    94257888.99846
      -228.418  
  21643629.280   113738066.25648     -2523.796    21643631.856    88627091.06147
     -1966.598  
  21392750.659   112419698.54349      2129.016    21392753.301    87599800.28748
      1658.969  
  21384058.494   112373994.41148     -2786.515    21384058.503    87564170.50847
     -2171.313  
  20396414.140   107183919.61149      -309.133    20396416.315    83519963.28948
      -240.886  
 20 09 28 09 26 40.0000000  0  8G11G12G25G21G24G32G20G10
  23885847.953   125520983.22346       -69.863    23885848.367    97808563.56844
       -54.441  
  23243552.387   122145717.05647      2744.487    23243553.270    95178492.82746
      2138.562  
  24372577.694   128078761.93146      3679.085    24372582.348    99801645.66544
      2866.815  
  23019018.422   120965761.54048      -295.781    23019018.080    94259035.82246
      -230.479  
  21646031.357   113750689.75148     -2525.886    21646033.891    88636927.55547
     -1968.227  
  21390725.565   112409056.51249      2127.636    21390728.055    87591507.80248
      1657.895  
  21386710.816   112387932.33048     -2788.711    21386710.852    87575031.21847
     -2173.022  
  20396709.661   107185472.24049      -311.969    20396711.801    83521173.13048
      -243.098  
 20 09 28 09 26 45.0000000  0  8G11G12G25G21G24G32G20G10
  23885916.225   125521342.02346       -73.574    23885916.723    97808843.16244
       -57.331  
  23240942.280   122132001.22447      2742.011    23240943.377    95167805.19046
      2136.632  
  24369077.203   128060366.07046      3679.227    24369081.815    99787311.25545
      2866.929  
  23019301.203   120967247.40948      -298.425    23019300.870    94260193.64246
      -232.542  
  21648435.899   113763325.11148     -2528.117    21648438.373    88646773.28747
     -1969.965  
  21388701.993   112398422.22449      2126.194    21388704.541    87583221.35248
      1656.772  
  21389365.225   112401881.44048     -2790.905    21389365.164    87585900.65147
     -2174.734  
  20397008.040   107187040.11049      -314.948    20397009.989    83522394.84748
      -245.418  
 20 09 28 09 26 50.0000000  0  8G11G12G25G21G24G32G20G10
  23885987.524   125521717.32846       -76.855    23885987.990    97809135.61345
       -59.890  
  23238334.096   122118295.49847      2740.102    23238335.155    95157125.42546
      2135.144  
  24365576.695   128041971.96146      3678.871    24365581.445    99772978.20045
      2866.647  
  23019586.483   120968746.59448      -301.086    23019586.124    94261361.83646
      -234.617  
  21650842.380   113775971.41348     -2530.296    21650844.807    88656627.54647
     -1971.663  
  21386679.564   112387794.88349      2124.867    21386682.241    87574940.31048
      1655.738  
  21392021.736   112415841.00148     -2792.917    21392021.670    87596778.22346
     -2176.304  
  20397309.090   107188622.38849      -317.706    20397311.095    83523627.79348
      -247.565  
 20 09 28 09 26 55.0000000  0  8G11G12G25G21G24G32G20G10
  23886062.110   125522109.96846       -80.191    23886062.716    97809441.57145
       -62.488  
  23235728.039   122104600.76647      2737.737    23235729.153    95146454.22246
      2133.300  
  24362076.885   128023580.27345      3677.815    24362081.690    99758647.00845
      2865.828  
  23019874.406   120970259.95248      -304.343    23019874.305    94262541.07846
      -237.151  
  21653251.103   113788629.55848     -2532.926    21653253.702    88666491.03747
     -1973.710  
  21384658.831   112377175.35849      2122.945    21384661.398    87566665.35848
      1654.237  
  21394680.140   112429811.85248     -2795.402    21394680.173    87607664.59746
     -2178.238  
  20397612.992   107190219.99649      -321.246    20397615.139    83524872.68048
      -250.323  
 20 09 28 09 27  0.0000000  0  8G11G12G25G21G24G32G20G10
  23886139.938   125522518.86346       -82.961    23886140.509    97809760.18144
       -64.647  
  23233123.896   122090915.89947      2736.480    23233124.878    95135790.71346
      2132.323  
  24358577.362   128005190.00145      3677.605    24358582.031    99744316.95845
      2865.663  
  23020164.991   120971786.33348      -306.315    23020164.698    94263730.47046
      -238.690  
  21655661.936   113801298.41348     -2534.538    21655664.314    88676362.87047
     -1974.968  
  21382639.237   112366562.50649      2122.180    21382641.757    87558395.61048
      1653.644  
  21397340.643   112443792.79448     -2796.812    21397340.634    87618558.83346
     -2179.335  
  20397919.733   107191831.74549      -323.476    20397921.860    83526128.58948
      -252.062  
 20 09 28 09 27  5.0000000  0  8G11G12G25G21G24G32G20G10
  23886220.961   125522944.20646       -86.741    23886221.385    97810091.63744
       -67.593  
  23230521.839   122077241.15347      2733.660    23230522.792    95125135.10446
      2130.125  
  24355077.978   127986801.30245      3677.354    24355082.905    99729988.12046
      2865.473  
  23020457.877   120973325.95948      -309.456    23020457.717    94264930.17746
      -241.137  
  21658074.862   113813978.14448     -2537.276    21658077.347    88686243.18147
     -1977.102  
  21380620.967   112355956.55149      2120.171    21380623.596    87550131.23248
      1652.077  
  21400003.232   112457784.10748     -2799.418    21400003.275    87629461.15447
     -2181.367  
  20398229.149   107193457.89449      -326.977    20398231.284    83527395.72048
      -254.789  
 20 09 28 09 27 10.0000000  0  8G11G12G25G21G24G32G20G10
  23886305.228   125523387.62446       -90.090    23886305.884    97810437.14744
       -70.202  
  23227921.832   122063578.15147      2731.719    23227922.645    95114488.62346
      2128.612  
  24351579.217   127968415.93846      3677.000    24351584.132    99715661.88745
      2865.190  
  23020753.805   120974880.47848      -311.983    23020753.463    94266141.48646
      -243.109  
  21660490.097   113826670.35248     -2539.379    21660492.592    88696133.20847
     -1978.737  
  21378604.436   112345359.14549      2118.969    21378606.893    87541873.51548
      1651.140  
  21402667.929   112471787.40148     -2801.464    21402667.884    87640372.81547
     -2182.961  
  20398541.812   107195100.07549      -329.641    20398543.864    83528675.34148
      -256.867  
 20 09 28 09 27 15.0000000  0  8G11G12G25G21G24G32G20G10
  23886392.703   125523847.40146       -93.405    23886393.303    97810795.42545
       -72.789  
  23225323.760   122049925.19147      2729.499    23225324.465    95103849.95046
      2126.879  
  24348081.091   127950032.13146      3676.683    24348085.807    99701336.83145
      2864.945  
  23021052.165   120976448.15048      -314.722    23021051.867    94267363.05846
      -245.242  
  21662907.398   113839373.45048     -2541.574    21662909.783    88706031.72847
     -1980.449  
  21376589.044   112334768.59249      2117.527    21376591.662    87533621.13948
      1650.020  
  21405334.503   112485800.93748     -2803.641    21405334.654    87651292.44747
     -2184.659  
  20398856.933   107196756.57449      -332.609    20398859.131    83529966.11948
      -259.179  
 20 09 28 09 27 20.0000000  0  8G11G12G25G21G24G32G20G10
  23886483.400   125524324.08246       -97.331    23886483.965    97811166.86144
       -75.847  
  23222727.550   122036282.79647      2727.234    23222728.485    95093219.53346
      2125.112  
  24344583.102   127931650.41846      3676.402    24344588.039    99687013.43346
      2864.726  
  23021353.021   120978029.47548      -317.890    23021352.705    94268595.25446
      -247.711  
  21665326.788   113852087.80348     -2544.147    21665329.389    88715939.01847
     -1982.457  
  21374575.185   112324185.35049      2115.772    21374577.634    87525374.46648
      1648.651  
  21408003.359   112499825.24248     -2806.148    21408003.380    87662220.46447
     -2186.612  
  20399174.913   107198427.88749      -335.914    20399177.095    83531268.44148
      -261.754  
 20 09 28 09 27 25.0000000  0  8G11G12G25G21G24G32G20G10
  23886577.173   125524817.70746      -100.011    23886578.005    97811551.49945
       -77.933  
  23220133.636   122022651.15547      2725.655    23220134.465    95082597.48546
      2123.886  
  24341085.532   127913270.96846      3675.625    24341090.520    99672691.80245
      2864.124  
  23021656.554   120979624.60948      -320.253    23021656.272    94269838.21546
      -249.550  
  21667748.463   113864813.66648     -2546.050    21667750.947    88725855.27047
     -1983.938  
  21372562.651   112313609.59849      2114.676    21372565.090    87517133.62448
      1647.796  
  21410674.147   112513860.42248     -2807.999    21410674.080    87673156.97246
     -2188.054  
  20399495.935   107200114.15049      -338.531    20399497.988    83532582.41248
      -263.792  
 20 09 28 09 27 30.0000000  0  8G11G12G25G21G24G32G20G10
  23886674.208   125525327.84746      -103.851    23886675.242    97811949.01244
       -80.926  
  23217541.459   122009029.73547      2722.801    23217542.378    95071983.41546
      2121.663  
  24337588.501   127894893.22946      3675.214    24337593.365    99658371.47145
      2863.800  
  23021962.548   120981232.99548      -323.121    23021962.271    94271091.51046
      -251.784  
  21670172.241   113877550.42548     -2548.640    21670174.743    88735780.02547
     -1985.957  
  21370551.417   112303040.80649      2112.945    21370554.009    87508898.20848
      1646.448  
  21413346.838   112527905.94948     -2810.371    21413346.961    87684101.53846
     -2189.901  
  20399819.428   107201814.86449      -341.672    20399821.562    83533907.64648
      -266.241  
 20 09 28 09 27 35.0000000  0  8G11G12G25G21G24G32G20G10
  23886774.512   125525854.72746      -107.272    23886775.451    97812359.56944
       -83.594  
  23214951.363   121995418.78547      2720.855    23214952.288    95061377.49546
      2120.144  
  24334091.669   127876517.53746      3674.617    24334096.652    99644052.76845
      2863.335  
  23022271.216   120982854.93148      -326.081    23022270.951    94272355.34646
      -254.093  
  21672598.114   113890298.25648     -2551.050    21672600.481    88745713.39547
     -1987.835  
  21368541.734   112292479.25549      2111.366    21368544.144    87500668.42948
      1645.219  
  21416021.779   112541962.07648     -2812.418    21416021.799    87695054.36447
     -2191.496  
  20400145.981   107203530.28649      -344.796    20400148.073    83535244.34048
      -268.676  
 20 09 28 09 27 40.0000000  0  8G11G12G25G21G24G32G20G10
  23886878.076   125526398.99246      -110.211    23886879.048    97812783.69044
       -85.882  
  23212363.537   121981819.04147      2718.991    23212364.321    95050780.32746
      2118.695  
  24330595.402   127858144.55746      3674.386    24330600.499    99629736.16946
      2863.155  
  23022582.752   120984491.09848      -328.594    23022582.317    94273630.27946
      -256.051  
  21675026.073   113903057.91948     -2553.066    21675028.419    88755655.98847
     -1989.405  
  21366533.364   112281925.60549      2110.051    21366535.754    87492444.81448
      1644.190  
  21418698.630   112556029.46148     -2814.421    21418698.639    87706015.95247
     -2193.059  
  20400475.371   107205261.08549      -347.511    20400477.517    83536593.01448
      -270.793  
 20 09 28 09 27 45.0000000  0  8G11G12G25G21G24G32G20G10
  23886984.698   125526958.95246      -113.460    23886985.709    97813220.00945
       -88.414  
  23209777.255   121968228.78747      2716.922    23209778.054    95040190.55946
      2117.082  
  24327099.286   127839772.53246      3674.027    24327104.286    99615420.32145
      2862.874  
  23022896.376   120986139.73048      -330.898    23022895.883    94274914.93546
      -257.848  
  21677456.129   113915827.64148     -2555.004    21677458.539    88765606.42147
     -1990.913  
  21364526.331   112271378.13849      2108.875    21364528.845    87484226.01448
      1643.277  
  21421377.382   112570106.39648     -2816.352    21421377.405    87716984.98746
     -2194.562  
  20400807.242   107207005.55149      -350.362    20400809.394    83537952.34048
      -273.011  
 20 09 28 09 27 50.0000000  0  8G11G12G25G21G24G32G20G10
  23887094.725   125527536.70846      -117.128    23887095.692    97813670.21644
       -91.272  
  23207193.450   121954650.17347      2714.844    23207194.004    95029609.83746
      2115.464  
  24323603.790   127821403.70446      3673.839    24323608.786    99601106.95945
      2862.730  
  23023213.025   120987803.04848      -334.022    23023212.586    94276211.03046
      -260.280  
  21679888.448   113928609.56348     -2557.495    21679890.850    88775566.36047
     -1992.854  
  21362520.841   112260839.06249      2107.168    21362523.151    87476013.75148
      1641.945  
  21424058.438   112584195.06648     -2818.848    21424058.609    87727963.16247
     -2196.508  
  20401142.160   107208765.86949      -353.383    20401144.455    83539324.01448
      -275.367  
 20 09 28 09 27 55.0000000  0  8G11G12G25G21G24G32G20G10
  23887207.762   125528130.97046      -120.395    23887208.828    97814133.26944
       -93.816  
  23204611.382   121941081.87647      2712.651    23204612.168    95019037.15146
      2113.750  
  24320108.694   127803036.75846      3673.238    24320113.853    99586795.07345
      2862.261  
  23023531.962   120989479.63548      -336.414    23023531.508    94277517.46046
      -262.144  
  21682322.890   113941402.36148     -2559.495    21682325.146    88785534.77147
     -1994.413  
  21360516.482   112250306.99049      2105.729    21360518.927    87467806.94548
      1640.823  
  21426741.384   112598294.07648     -2820.914    21426741.513    87738949.39546
     -2198.117  
  20401479.935   107210540.66849      -356.526    20401481.960    83540706.97648
      -277.816  
 20 09 28 09 28  0.0000000  0  8G11G12G25G21G24G32G20G10
  23887324.014   125528741.81846      -123.910    23887325.089    97814609.27645
       -96.555  
  23202031.410   121927523.97147      2710.448    23202032.055    95008472.54946
      2112.035  
  24316613.986   127784671.66146      3672.983    24316618.999    99572484.60745
      2862.062  
  23023853.541   120991169.54648      -339.315    23023853.132    94278834.27146
      -264.406  
  21684759.407   113954206.12648     -2561.640    21684761.622    88795511.73447
     -1996.085  
  21358513.665   112239781.95949      2104.359    21358516.143    87459605.62848
      1639.758  
  21429426.235   112612403.40548     -2823.007    21429426.357    87749943.66447
     -2199.749  
  20401820.360   107212329.95749      -359.270    20401822.640    83542101.22448
      -279.952  
 20 09 28 09 28  5.0000000  0  8G11G12G25G21G24G32G20G10
  23887443.572   125529369.13046      -127.159    23887444.486    97815098.09344
       -99.089  
  23199453.520   121913976.44347      2708.051    23199454.189    94997916.05546
      2110.168  
  24313119.573   127766308.45946      3672.284    24313124.571    99558175.63345
      2861.520  
  23024177.604   120992872.78948      -342.194    23024177.172    94280161.47446
      -266.647  
  21687197.835   113967020.80848     -2564.093    21687200.296    88805497.19647
     -1998.000  
  21356512.156   112229263.99049      2102.656    21356514.596    87451409.81448
      1638.430  
  21432113.206   112626523.06648     -2825.171    21432113.160    87760945.98346
     -2201.438  
  20402163.640   107214133.78349      -362.531    20402165.761    83543506.80748
      -282.496  
 20 09 28 09 28 10.0000000  0  8G11G12G25G21G24G32G20G10
  23887566.327   125530014.58646      -130.722    23887567.326    97815601.04144
      -101.862  
  23196877.698   121900440.94047      2705.996    23196878.232    94987368.94546
      2108.569  
  24309625.811   127747948.86246      3671.452    24309630.815    99543869.44044
      2860.870  
  23024504.721   120994591.01648      -345.124    23024504.124    94281500.34946
      -268.934  
  21689638.753   113979847.98048     -2566.573    21689641.165    88815492.39647
     -1999.886  
  21354512.377   112218754.67549      2101.082    21354514.742    87443220.74748
      1637.202  
  21434802.252   112640654.69248     -2827.453    21434802.415    87771957.62947
     -2203.214  
  20402509.972   107215953.74049      -365.476    20402512.056    83544924.95548
      -284.789  
 20 09 28 09 28 15.0000000  0  8G11G12G25G21G24G32G20G10
  23887692.317   125530676.10546      -134.316    23887692.958    97816116.51645
      -104.664  
  23194303.954   121886915.38247      2704.042    23194304.480    94976829.57846
      2107.047  
  24306132.310   127729590.61046      3671.280    24306137.427    99529564.32345
      2860.733  
  23024834.123   120996322.07048      -347.625    23024833.547    94282849.21946
      -270.879  
  21692081.770   113992685.58948     -2568.590    21692084.019    88825495.72447
     -2001.500  
  21352513.717   112208251.95549      2099.714    21352516.119    87435036.81248
      1636.137  
  21437493.377   112654796.14548     -2829.617    21437493.390    87782976.94047
     -2204.898  
  20402858.971   107217787.74149      -368.534    20402861.284    83546354.04748
      -287.171  
 20 09 28 09 28 20.0000000  0  8G11G12G25G21G24G32G20G10
  23887821.342   125531354.95246      -137.301    23887822.136    97816645.47544
      -106.992  
  23191732.360   121873401.09947      2701.809    23191732.633    94966298.98046
      2105.300  
  24302639.507   127711235.24846      3670.961    24302644.352    99515261.45244
      2860.484  
  23025166.174   120998067.28748      -350.105    23025165.667    94284209.13146
      -272.812  
  21694526.867   114005534.75448     -2570.757    21694529.309    88835508.05947
     -2003.190  
  21350516.777   112197757.15649      2098.234    21350519.193    87426859.04948
      1634.983  
  21440186.403   112668948.81348     -2831.507    21440186.566    87794004.98446
     -2206.371  
  20403211.016   107219637.12749      -371.289    20403213.195    83547795.12748
      -289.320  
 20 09 28 09 28 25.0000000  0  8G11G12G25G21G24G32G20G10
  23887953.741   125532050.17846      -140.925    23887954.519    97817187.22044
      -109.816  
  23189162.611   121859897.10347      2699.594    23189162.987    94955776.40046
      2103.578  
  24299146.810   127692881.65446      3670.233    24299151.514    99500959.95545
      2859.918  
  23025500.720   120999825.68348      -352.965    23025500.272    94285579.31546
      -275.039  
  21696974.064   114018394.58048     -2573.324    21696976.331    88845528.70447
     -2005.191  
  21348520.967   112187269.25949      2096.727    21348523.262    87418686.66848
      1633.808  
  21442881.496   112683111.65148     -2833.710    21442881.677    87805040.94847
     -2208.090  
  20403565.542   107221500.88849      -374.390    20403567.804    83549247.41048
      -291.734  
 20 09 28 09 28 30.0000000  0  8G11G12G25G21G24G32G20G10
  23888089.190   125532762.59246      -144.262    23888090.084    97817742.33545
      -112.413  
  23186594.928   121846404.30547      2697.738    23186595.319    94945262.54046
      2102.128  
  24295654.705   127674530.73946      3670.909    24295659.634    99486660.57345
      2860.448  
  23025838.134   121001598.05948      -356.305    23025837.527    94286960.38246
      -277.644  
  21699423.345   114031265.85948     -2575.421    21699425.768    88855558.27347
     -2006.824  
  21346526.671   112176789.10149      2095.179    21346529.010    87410520.32148
      1632.605  
  21445578.747   112697285.45948     -2835.812    21445578.967    87816085.46446
     -2209.727  
  20403923.102   107223379.81949      -377.305    20403925.338    83550711.51348
      -294.008  
 20 09 28 09 28 35.0000000  0  8G11G12G25G21G24G32G20G10
  23888227.923   125533491.79646      -147.491    23888228.888    97818310.56044
      -114.933  
  23184029.330   121832922.27647      2695.300    23184029.912    94934757.09546
      2100.233  
  24292163.183   127656182.10146      3669.742    24292167.815    99472362.94045
      2859.535  
  23026178.013   121003384.00748      -358.577    23026177.490    94288352.03246
      -279.414  
  21701874.883   114044148.27548     -2577.430    21701877.149    88865596.51647
     -2008.391  
  21344533.743   112166316.31749      2093.812    21344535.975    87402359.70948
      1631.539  
  21448277.860   112711469.86248     -2837.835    21448278.221    87827138.23946
     -2211.305  
  20404283.523   107225273.59149      -380.031    20404285.794    83552187.17948
      -296.132  
 20 09 28 09 28 40.0000000  0  8G11G12G25G21G24G32G20G10
  23888369.905   125534237.91746      -150.949    23888370.689    97818891.96045
      -117.624  
  23181465.780   121819451.10747      2693.144    23181466.425    94924260.10646
      2098.554  
  24288671.732   127637835.80945      3669.066    24288676.955    99458067.13944
      2859.012  
  23026520.361   121005183.65548      -361.297    23026519.890    94289754.35446
      -281.535  
  21704328.357   114057041.87148     -2579.784    21704330.734    88875643.47447
     -2010.219  
  21342542.126   112155850.98949      2092.281    21342544.430    87394204.91348
      1630.348  
  21450979.096   112725664.95248     -2840.085    21450979.411    87838199.34947
     -2213.059  
  20404646.802   107227182.29449      -383.371    20404648.939    83553674.47848
      -298.734  
 20 09 28 09 28 45.0000000  0  8G11G12G25G21G24G32G20G10
  23888515.145   125535000.22546      -153.961    23888515.754    97819485.94745
      -119.972  
  23178904.184   121805990.17047      2691.042    23178904.839    94913771.09046
      2096.918  
  24285181.019   127619491.36546      3668.374    24285186.036    99443772.78445
      2858.473  
  23026865.387   121006996.34148      -363.905    23026864.694    94291166.83146
      -283.565  
  21706783.912   114069945.96048     -2582.073    21706786.238    88885698.60647
     -2012.007  
  21340552.029   112145392.48849      2090.906    21340554.336    87386055.43748
      1629.273  
  21453682.411   112739870.06548     -2842.339    21453682.583    87849268.26147
     -2214.812  
  20405012.733   107229105.24049      -386.194    20405014.773    83555172.87948
      -300.934  
 20 09 28 09 28 50.0000000  0  8G11G12G25G21G24G32G20G10
  23888663.460   125535779.37146      -157.753    23888664.179    97820093.06545
      -122.929  
  23176344.699   121792540.04947      2688.800    23176345.223    94903290.48646
      2095.167  
  24281690.590   127601149.22445      3667.668    24281695.917    99429480.20645
      2857.922  
  23027212.853   121008822.65848      -366.867    23027212.192    94292589.93446
      -285.874  
  21709241.754   114082861.22548     -2584.171    21709243.940    88895762.45147
     -2013.645  
  21338563.270   112134941.39649      2089.370    21338565.475    87377911.72948
      1628.077  
  21456387.417   112754085.90548     -2844.280    21456387.703    87860345.52346
     -2216.327  
  20405381.525   107231043.07049      -389.180    20405383.537    83556682.87648
      -303.261  
 20 09 28 09 28 55.0000000  0  9G11G12G25G 1G21G24G32G20G10
  23888816.847   125536585.96046      -163.112    23888817.590    97820721.60045
      -127.104  
  23173789.236   121779111.40747      2684.809    23173789.750    94892826.62546
      2092.055  
  24278202.733   127582820.10146      3665.500    24278207.786    99415197.79645
      2856.229  
  24457617.458   128525651.31315      2648.859           0.000           0.0000 
         0.000  
  23027565.082   121010673.19848      -371.554    23027564.278    94294031.91646
      -289.527  
  21711703.585   114095798.20448     -2588.577    21711705.811    88905843.21247
     -2017.151  
  21336577.919   112124508.33449      2085.672    21336580.269    87369782.07848
      1625.194  
  21459096.637   112768322.94948     -2848.671    21459097.004    87871439.31747
     -2219.745  
  20405755.071   107233006.38249      -394.246    20405757.189    83558212.73148
      -307.206  
 20 09 28 09 29  0.0000000  0  9G11G12G25G 1G21G24G32G20G10
  23888971.887   125537400.07346      -163.230    23888972.419    97821355.97544
      -127.195  
  23171234.154   121765684.35947      2685.566    23171234.785    94882364.00046
      2092.644  
  24274713.482   127564484.05746      3668.871    24274718.428    99400909.95945
      2858.854  
  24455094.679   128512402.79845      2649.784    24455100.310   100139549.33255
      2064.765  
  23027918.064   121012528.06748      -371.160    23027917.377    94295477.26746
      -289.219  
  21714165.603   114108736.97548     -2587.590    21714167.916    88915925.37247
     -2016.308  
  21334592.205   112114073.40149      2087.551    21334594.340    87361650.96948
      1626.659  
  21461806.236   112782561.23848     -2847.398    21461806.504    87882534.07746
     -2218.753  
  20406129.757   107234975.24349      -393.918    20406131.804    83559746.90648
      -306.953  
 20 09 28 09 29  5.0000000  0  9G11G12G25G 1G21G24G32G20G10
  23889128.868   125538225.39046      -167.194    23889129.683    97821999.06845
      -130.284  
  23168680.003   121752262.58147      2683.101    23168680.571    94871905.48646
      2090.727  
  24271223.509   127546144.87246      3667.171    24271228.647    99386619.70345
      2857.535  
  24452575.291   128499160.76645      2647.176    24452579.749   100129230.86745
      2062.729  
  23028272.389   121014390.93448      -374.288    23028271.714    94296928.84446
      -291.655  
  21716628.962   114121681.13948     -2590.257    21716631.032    88926011.73247
     -2018.386  
  21332606.859   112103640.27749      2085.456    21332609.159    87353521.26748
      1625.026  
  21464516.592   112796804.47448     -2850.155    21464516.734    87893632.70347
     -2220.902  
  20406506.156   107236953.36149      -397.609    20406508.381    83561288.30048
      -309.828  
 20 09 28 09 29 10.0000000  0  9G11G12G25G 1G21G24G32G20G10
  23889289.465   125539069.21046      -170.441    23889290.047    97822656.61044
      -132.813  
  23166128.362   121738853.39847      2680.668    23166128.850    94861456.80146
      2088.831  
  24267734.523   127527809.75346      3666.296    24267739.562    99372332.60845
      2856.851  
  24450058.037   128485932.50545      2644.667    24450061.662   100118923.15945
      2060.777  
  23028629.943   121016269.11248      -377.289    23028629.240    94298392.35246
      -293.996  
  21719094.391   114134637.99548     -2592.676    21719096.556    88936107.98647
     -2020.269  
  21330623.224   112093216.26649      2083.698    21330625.453    87345398.66648
      1623.660  
  21467229.213   112811059.96048     -2852.555    21467229.433    87904740.87946
     -2222.772  
  20406885.796   107238948.03449      -400.573    20406887.886    83562842.59048
      -312.140  
 20 09 28 09 29 15.0000000  0  9G11G12G25G 1G21G24G32G20G10
  23889453.512   125539931.75146      -174.090    23889454.122    97823328.71844
      -135.656  
  23163579.187   121725457.08147      2678.394    23163579.803    94851018.13046
      2087.062  
  24264246.284   127509478.99946      3666.386    24264251.317    99358048.89045
      2856.922  
  24447543.962   128472718.29845      2641.218    24447546.989   100108626.36945
      2058.090  
  23028990.172   121018162.81548      -379.897    23028989.394    94299867.96746
      -296.026  
  21721562.509   114147607.91948     -2594.906    21721564.803    88946214.41947
     -2022.007  
  21328641.324   112082801.59349      2082.363    21328643.692    87337283.34248
      1622.617  
  21469944.304   112825327.95148     -2854.457    21469944.564    87915858.78946
     -2224.254  
  20407268.472   107240959.51249      -403.522    20407270.566    83564409.97648
      -314.437  
 20 09 28 09 29 20.0000000  0  9G11G12G25G 1G21G24G32G20G10
  23889620.782   125540810.07146      -177.636    23889621.433    97824013.10843
      -138.425  
  23161031.780   121712070.67947      2676.137    23161032.488    94840587.17746
      2085.296  
  24260758.452   127491149.69146      3665.527    24260763.526    99343766.34245
      2856.250  
  24445031.849   128459515.08446      2639.339    24445035.167   100098338.16045
      2056.625  
  23029353.062   121020069.12748      -382.757    23029352.313    94301353.40346
      -298.257  
  21724032.547   114160587.80348     -2597.085    21724034.747    88956328.61347
     -2023.707  
  21326660.739   112072393.35949      2080.766    21326663.125    87329173.03248
      1621.371  
  21472661.298   112839605.47748     -2856.590    21472661.652    87926984.12447
     -2225.918  
  20407653.828   107242984.85149      -406.737    20407656.181    83565988.16348
      -316.941  
 20 09 28 09 29 25.0000000  0  9G11G12G25G 1G21G24G32G20G10
  23889791.450   125541707.31046      -180.972    23889792.184    97824712.27445
      -141.020  
  23158486.998   121698697.47947      2673.944    23158487.603    94830166.51446
      2083.590  
  24257271.577   127472825.00946      3664.941    24257276.259    99329487.32045
      2855.793  
  24442522.184   128446326.20746      2636.758    24442525.574   100088061.10745
      2054.612  
  23029718.797   121021991.20148      -385.438    23029718.148    94302851.12446
      -300.343  
  21726505.040   114173580.81048     -2599.382    21726507.393    88966453.03147
     -2025.495  
  21324681.856   112061994.69749      2079.261    21324684.273    87321070.18248
      1620.198  
  21475380.582   112853895.66148     -2858.765    21475380.945    87938119.33147
     -2227.613  
  20408042.593   107245027.20149      -409.741    20408044.736    83567579.60448
      -319.280  
 20 09 28 09 29 30.0000000  0  9G11G12G25G 1G21G24G32G20G10
  23889965.126   125542620.32946      -184.387    23889965.783    97825423.69644
      -143.679  
  23155944.058   121685334.17547      2671.648    23155944.604    94819753.57846
      2081.805  
  24253784.596   127454501.70446      3664.453    24253789.524    99315209.47244
      2855.417  
  24440014.764   128433148.37345      2634.315    24440017.960   100077792.66245
      2052.788  
  23030086.812   121023925.85648      -388.363    23030086.163    94304358.64846
      -302.624  
  21728979.427   114186583.86848     -2601.737    21728981.740    88976585.28647
     -2027.331  
  21322704.295   112051602.41649      2077.562    21322706.635    87312972.30548
      1618.874  
  21478101.773   112868195.30348     -2861.121    21478101.922    87949261.90346
     -2229.449  
  20408433.831   107247083.35849      -412.808    20408435.956    83569181.80248
      -321.672  
 20 09 28 09 29 35.0000000  0  9G11G12G25G 1G21G24G32G20G10
  23890142.060   125543550.93646      -187.960    23890142.793    97826148.86844
      -146.465  
  23153403.200   121671982.62847      2669.375    23153403.812    94809349.80446
      2080.030  
  24250298.482   127436181.74046      3663.390    24250303.441    99300934.16945
      2854.585  
  24437509.292   128419983.47045      2631.616    24437513.112   100067534.31945
      2050.609  
  23030457.680   121025874.90148      -391.144    23030457.099    94305877.38146
      -304.792  
  21731456.100   114199598.71648     -2604.065    21731458.282    88986726.71847
     -2029.144  
  21320728.281   112041218.36349      2076.042    21320730.473    87304880.84448
      1617.690  
  21480825.080   112882506.28148     -2863.198    21480825.355    87960413.31246
     -2231.065  
  20408828.106   107249155.19649      -415.823    20408830.366    83570796.22148
      -324.022  
 20 09 28 09 29 40.0000000  0  9G11G12G25G 1G21G24G32G20G10
  23890322.462   125544498.42546      -191.128    23890323.144    97826887.18645
      -148.934  
  23150864.685   121658642.14147      2667.272    23150865.266    94798954.63546
      2078.390  
  24246812.841   127417864.32146      3663.765    24246817.527    99286660.87145
      2854.879  
  24435006.172   128406830.79446      2629.792    24435010.095   100057285.47945
      2049.188  
  23030831.221   121027837.62348      -393.516    23030830.530    94307406.76946
      -306.641  
  21733934.853   114212624.61748     -2606.019    21733937.021    88996876.77347
     -2030.667  
  21318753.610   112030841.86449      2074.710    21318756.020    87296795.25848
      1616.655  
  21483550.271   112896827.85248     -2864.995    21483550.520    87971572.97146
     -2232.468  
  20409225.056   107251241.99149      -418.535    20409227.455    83572422.29648
      -326.133  
 20 09 28 09 29 45.0000000  0  9G11G12G25G 1G21G24G32G20G10
  23890505.976   125545462.14346      -194.272    23890506.483    97827638.11845
      -151.387  
  23148328.093   121645312.04347      2665.039    23148328.636    94788567.55646
      2076.651  
  24243327.447   127399548.92346      3663.016    24243332.398    99272389.13345
      2854.292  
  24432505.441   128393689.74346      2627.280    24432509.520   100047045.72845
      2047.230  
  23031207.236   121029813.37948      -396.417    23031206.648    94308946.31546
      -308.897  
  21736415.508   114225660.82948     -2608.211    21736417.692    89007034.86147
     -2032.374  
  21316780.450   112020472.21649      2073.378    21316782.782    87288715.02348
      1615.617  
  21486277.533   112911159.36948     -2867.269    21486277.837    87982740.37746
     -2234.237  
  20409625.049   107253343.09649      -421.530    20409627.228    83574059.51948
      -328.469  
 20 09 28 09 29 50.0000000  0  9G11G12G25G 1G21G24G32G20G10
  23890692.519   125546442.64846      -197.988    23890692.848    97828402.15545
      -154.280  
  23145793.353   121631992.95647      2662.440    23145794.198    94778189.05346
      2074.625  
  24239842.782   127381236.00846      3662.257    24239847.429    99258119.33144
      2853.702  
  24430007.248   128380560.89946      2624.909    24430011.345   100036815.46244
      2045.383  
  23031585.722   121031802.71048      -399.262    23031585.146    94310496.44846
      -311.117  
  21738898.470   114238708.00748     -2610.777    21738900.593    89017201.48847
     -2034.375  
  21314808.610   112010110.03249      2071.645    21314810.764    87280640.59348
      1614.266  
  21489006.726   112925501.40248     -2869.565    21489006.857    87993915.97547
     -2236.027  
  20410027.696   107255459.08249      -424.859    20410029.940    83575708.33848
      -331.063  
 20 09 28 09 29 55.0000000  0  9G11G12G25G 1G21G24G32G20G10
  23890882.257   125547439.66746      -201.222    23890882.628    97829179.05744
      -156.800  
  23143260.930   121618684.70447      2660.714    23143261.726    94767819.00246
      2073.281  
  24236358.350   127362925.47846      3661.902    24236363.014    99243851.38845
      2853.425  
  24427511.311   128367443.97346      2622.980    24427515.326   100026594.46645
      2043.879  
  23031966.904   121033805.39748      -401.531    23031966.083    94312056.98146
      -312.883  
  21741383.112   114251765.94948     -2612.433    21741385.460    89027376.50747
     -2035.690  
  21312838.102   111999755.07049      2070.546    21312840.213    87272571.79948
      1613.409  
  21491737.832   112939853.68348     -2871.211    21491738.101    88005099.55746
     -2237.308  
  20410433.023   107257589.71549      -427.301    20410435.333    83577368.57248
      -332.964  
 20 09 28 09 30  0.0000000  0  9G11G12G25G 1G21G24G32G20G10
  23891075.181   125548453.39646      -204.551    23891075.257    97829968.96445
      -159.395  
  23140730.602   121605387.42447      2658.285    23140731.213    94757457.50546
      2071.386  
  24232874.453   127344617.41246      3661.210    24232878.968    99229585.36645
      2852.887  
  24425017.793   128354339.19646      2619.870    24425021.407   100016382.97245
      2041.452  
  23032350.531   121035821.65348      -404.659    23032349.985    94313628.08846
      -315.323  
  21743870.043   114264834.73948     -2614.742    21743872.253    89037559.97847
     -2037.465  
  21310868.924   111989407.52949      2068.762    21310871.134    87264508.78048
      1612.019  
  21494471.027   112954216.37448     -2873.500    21494471.306    88016291.26246
     -2239.094  
  20410841.391   107259735.17449      -430.586    20410843.676    83579040.35648
      -335.522  
 20 09 28 09 30  5.0000000  0  9G11G12G25G 1G21G24G32G20G10
  23891271.372   125549484.35746      -207.965    23891271.488    97830772.34144
      -162.054  
  23138202.361   121592101.61847      2656.242    23138202.891    94747104.94846
      2069.801  
  24229391.155   127326312.36946      3660.448    24229395.632    99215321.68845
      2852.293  
  24422526.307   128341247.07146      2617.180    24422530.218   100006181.34145
      2039.363  
  23032736.820   121037851.92848      -407.387    23032736.341    94315210.12146
      -317.448  
  21746359.104   114277914.90648     -2617.168    21746361.502    89047752.31747
     -2039.309  
  21308901.267   111979067.85849      2067.242    21308903.530    87256451.89648
      1610.836  
  21497206.280   112968590.00648     -2875.805    21497206.477    88027491.48646
     -2240.890  
  20411252.441   107261895.94449      -433.640    20411254.941    83580724.07448
      -337.905  
 20 09 28 09 30 10.0000000  0  9G11G12G25G 1G21G24G32G20G10
  23891471.001   125550533.00946      -211.164    23891471.031    97831589.43744
      -164.551  
  23135676.427   121578827.83847      2653.816    23135676.975    94736761.74546
      2067.905  
  24225908.411   127308010.86446      3660.140    24225912.980    99201060.80744
      2852.054  
  24420037.312   128328168.09346      2614.792    24420041.110    99995989.92544
      2037.496  
  23033125.964   121039896.70348      -410.058    23033125.341    94316803.44846
      -319.530  
  21748850.424   114291006.87848     -2619.270    21748852.699    89057953.85347
     -2041.027  
  21306935.319   111968736.57549      2065.640    21306937.646    87248401.55648
      1609.586  
  21499943.635   112982975.00048     -2877.886    21499943.842    88038700.57146
     -2242.512  
  20411666.722   107264072.50349      -436.578    20411669.126    83582420.09648
      -340.195  
 20 09 28 09 30 15.0000000  0  9G11G12G25G 1G21G24G32G20G10
  23891673.504   125551597.10646      -214.796    23891673.520    97832418.59643
      -167.378  
  23133152.380   121565563.78847      2651.613    23133153.006    94726426.14146
      2066.187  
  24222426.013   127289710.61445      3659.702    24222430.567    99186800.84645
      2851.715  
  24417550.382   128315099.96746      2612.870    24417554.230    99985806.97544
      2036.000  
  23033517.404   121041953.73448      -412.832    23033516.796    94318406.32946
      -321.690  
  21751343.626   114304108.33548     -2621.378    21751345.832    89068162.78547
     -2042.659  
  21304970.519   111958411.41949      2064.230    21304972.736    87240355.98348
      1608.487  
  21502682.722   112997369.09048     -2880.022    21502682.917    88049916.74846
     -2244.176  
  20412083.471   107266262.62949      -439.574    20412085.756    83584126.68648
      -342.526  
 20 09 28 09 30 20.0000000  0  9G11G12G25G 1G21G24G32G20G10
  23891879.177   125552678.73546      -218.043    23891879.407    97833261.44845
      -169.905  
  23130630.635   121552311.67747      2649.430    23130631.042    94716099.83546
      2064.488  
  24218944.156   127271413.76846      3659.284    24218948.974    99172543.61945
      2851.390  
  24415066.171   128302044.94546      2609.847    24415069.969    99975634.21445
      2033.645  
  23033911.687   121044025.11548      -415.433    23033910.967    94320020.39446
      -323.719  
  21753838.943   114317221.72548     -2623.820    21753841.417    89078381.00747
     -2044.539  
  21303007.238   111948094.55949      2062.602    21303009.534    87232316.87448
      1607.219  
  21505423.910   113011774.47848     -2882.144    21505424.188    88061141.73246
     -2245.832  
  20412503.257   107268468.43149      -442.676    20412505.552    83585845.49548
      -344.944  
 20 09 28 09 30 25.0000000  0  9G11G12G25G 1G21G24G32G20G10
  23892088.072   125553776.76546      -221.688    23892088.508    97834117.05743
      -172.745  
  23128110.939   121539070.24547      2647.128    23128111.341    94705781.86646
      2062.698  
  24215462.908   127253119.15746      3658.750    24215467.602    99158288.07444
      2850.977  
  24412584.123   128289001.73046      2607.461    24412587.681    99965470.69245
      2031.784  
  23034308.262   121046109.63048      -418.551    23034307.545    94321644.68746
      -326.148  
  21756336.366   114330345.64548     -2625.979    21756338.709    89088607.43747
     -2046.129  
  21301045.289   111937784.72949      2061.047    21301047.784    87224283.24448
      1606.008  
  21508167.004   113026189.87748     -2884.198    21508167.356    88072374.51646
     -2247.429  
  20412925.712   107270688.69549      -445.765    20412928.047    83587575.57148
      -347.351  
 20 09 28 09 30 30.0000000  0  9G11G12G25G 1G21G24G32G20G10
  23892300.356   125554892.39346      -224.562    23892300.686    97834986.36145
      -174.987  
  23125593.287   121525840.82947      2644.711    23125594.049    94695473.25446
      2060.812  
  24211982.270   127234828.09246      3657.793    24211986.810    99144035.31545
      2850.227  
  24410104.597   128275971.63746      2605.023    24410108.081    99955317.36144
      2029.886  
  23034707.679   121048208.58148      -421.269    23034707.092    94323280.23346
      -328.265  
  21758836.057   114343481.07948     -2628.258    21758838.214    89098842.83947
     -2047.996  
  21299085.053   111927483.21549      2059.586    21299087.503    87216256.09648
      1604.866  
  21510912.375   113040616.55548     -2886.305    21510912.760    88083616.07947
     -2249.069  
  20413351.210   107272924.70249      -448.688    20413353.476    83589317.91448
      -349.629  
 20 09 28 09 30 35.0000000  0  9G11G12G25G 1G21G24G32G20G10
  23892515.506   125556023.97846      -228.254    23892516.151    97835868.12044
      -177.863  
  23123077.815   121512621.77747      2642.421    23123078.460    94685172.71446
      2059.027  
  24208501.744   127216538.83646      3657.551    24208506.345    99129783.95544
      2850.034  
  24407627.335   128262953.03746      2602.477    24407630.465    99945173.00044
      2027.902  
  23035109.585   121050320.26648      -423.762    23035108.800    94324925.69346
      -330.207  
  21761337.478   114356626.44648     -2630.229    21761339.686    89109085.98047
     -2049.535  
  21297125.955   111917188.39549      2058.090    21297128.434    87208234.16048
      1603.703  
  21513659.459   113055052.85848     -2888.492    21513659.867    88094865.14846
     -2250.777  
  20413779.378   107275174.80349      -451.604    20413781.824    83591071.23948
      -351.902  
 20 09 28 09 30 40.0000000  0  9G11G12G25G 1G21G24G32G20G10
  23892734.108   125557172.73946      -231.339    23892734.781    97836763.28144
      -180.265  
  23120564.573   121499414.38247      2640.386    23120565.279    94674881.25246
      2057.441  
  24205022.011   127198252.84046      3656.858    24205026.791    99115535.10745
      2849.495  
  24405152.397   128249947.21146      2600.063    24405155.614    99935038.58845
      2026.019  
  23035514.172   121052446.04248      -426.457    23035513.451    94326582.14046
      -332.308  
  21763841.138   114369783.14448     -2632.398    21763843.345    89119337.95047
     -2051.223  
  21295168.388   111906901.56649      2056.535    21295170.833    87200218.45348
      1602.492  
  21516408.805   113069500.05048     -2890.457    21516408.929    88106122.69046
     -2252.308  
  20414210.598   107277440.28949      -454.526    20414212.863    83592836.55348
      -354.180  
 20 09 28 09 30 45.0000000  0  9G11G12G25G 1G21G24G32G20G10
  23892955.806   125558337.24246      -234.523    23892956.166    97837670.69044
      -182.750  
  23118053.297   121486217.13647      2638.363    23118053.808    94664597.69946
      2055.862  
  24201542.596   127179968.42146      3656.879    24201547.130    99101287.56945
      2849.520  
  24402679.529   128236952.70346      2597.477    24402683.017    99924913.02945
      2024.008  
  23035921.010   121054584.33648      -429.085    23035920.318    94328248.34846
      -334.355  
  21766346.543   114382949.82148     -2634.395    21766348.941    89129597.69647
     -2052.777  
  21293212.144   111896621.18149      2055.227    21293214.450    87192207.76848
      1601.472  
  21519159.677   113083956.60548     -2892.465    21519159.953    88117387.52046
     -2253.870  
  20414644.290   107279719.63549      -457.394    20414646.570    83594612.66848
      -356.414  
 20 09 28 09 30 50.0000000  0  9G11G12G25G 1G21G24G32G20G10
  23893180.585   125559518.83646      -237.922    23893181.199    97838591.41145
      -185.397  
  23115544.080   121473031.45247      2635.871    23115544.788    94654323.14846
      2053.922  
  24198063.884   127161687.13946      3655.887    24198068.221    99087042.39645
      2848.737  
  24400209.149   128223970.80246      2595.241    24400212.647    99914797.24645
      2022.261  
  23036330.545   121056736.54948      -431.823    23036329.877    94329925.39246
      -336.487  
  21768854.218   114396127.61748     -2636.671    21768856.737    89139866.10847
     -2054.550  
  21291257.229   111886348.62749      2053.702    21291259.778    87184203.18048
      1600.284  
  21521912.644   113098423.86148     -2894.375    21521912.926    88128660.70146
     -2255.359  
  20415081.022   107282014.17749      -460.332    20415083.230    83596400.62248
      -358.703  
 20 09 28 09 30 55.0000000  0  9G11G12G25G 1G21G24G32G20G10
  23893408.790   125560717.65846      -241.745    23893409.365    97839525.55744
      -188.374  
  23113037.125   121459857.41047      2633.612    23113037.753    94644057.66546
      2052.164  
  24194585.497   127143408.99846      3654.801    24194589.940    99072799.69744
      2847.894  
  24397741.195   128211001.70646      2592.645    24397744.738    99904691.47744
      2020.238  
  23036742.710   121058902.77348      -434.722    23036742.095    94331613.35646
      -338.750  
  21771364.001   114409316.55748     -2638.925    21771366.463    89150143.20247
     -2056.309  
  21289304.059   111876084.02349      2052.104    21289306.337    87176204.79348
      1599.039  
  21524667.713   113112901.97048     -2896.870    21524668.115    88139942.33446
     -2257.304  
  20415520.605   107284324.11049      -463.647    20415522.803    83598200.57148
      -361.288  
 20 09 28 09 31  0.0000000  0  9G11G12G25G 1G21G24G32G20G10
  23893640.007   125561932.45946      -244.820    23893640.634    97840472.15944
      -190.772  
  23110532.070   121446693.81847      2631.359    23110532.855    94633800.33846
      2050.405  
  24191107.731   127125132.83545      3655.078    24191111.857    99058558.52945
      2848.109  
  24395275.527   128198044.16146      2590.211    24395278.833    99894594.69545
      2018.190  
  23037157.372   121061081.77348      -437.069    23037156.775    94333311.27546
      -340.577  
  21773875.675   114422515.58548     -2640.901    21773878.161    89160428.15847
     -2057.848  
  21287352.033   111865826.15249      2050.680    21287354.338    87168211.65248
      1597.929  
  21527424.668   113127389.67948     -2898.659    21527425.031    88151231.44646
     -2258.698  
  20415962.842   107286648.17149      -466.395    20415965.057    83600011.52648
      -363.426  
 20 09 28 09 31  5.0000000  0  9G11G12G25G 1G21G24G32G20G10
  23893874.294   125563163.89646      -248.171    23893874.976    97841431.71944
      -193.383  
  23108029.287   121433541.41747      2629.254    23108029.927    94623551.73946
      2048.769  
  24187630.445   127106859.42146      3654.168    24187634.488    99044319.50144
      2847.402  
  24392811.943   128185098.94046      2587.940    24392815.453    99884507.50245
      2016.573  
  23037574.726   121063274.29648      -440.109    23037573.882    94335019.72946
      -342.944  
  21776389.467   114435725.33748     -2643.125    21776391.786    89170721.46947
     -2059.582  
  21285401.330   111855575.73249      2049.152    21285403.824    87160224.30948
      1596.737  
  21530183.560   113141887.75448     -2900.730    21530183.905    88162528.63346
     -2260.312  
  20416407.935   107288987.06049      -469.394    20416410.256    83601834.04048
      -365.765  
 20 09 28 09 31 10.0000000  0  9G11G12G25G 1G21G24G32G20G10
  23894112.025   125564412.86846      -251.374    23894112.449    97842404.94345
      -195.878  
  23105528.805   121420401.04847      2626.866    23105529.380    94613312.51046
      2046.906  
  24184153.741   127088589.49946      3653.800    24184157.880    99030083.21544
      2847.112  
  24390351.052   128172166.86846      2585.023    24390354.451    99874430.58144
      2014.395  
  23037994.732   121065481.16048      -442.507    23037993.942    94336739.36746
      -344.815  
  21778905.343   114448946.60848     -2645.156    21778907.634    89181023.75947
     -2061.164  
  21283452.310   111845333.59749      2047.711    21283454.759    87152243.43248
      1595.617  
  21532944.529   113156396.96048     -2902.852    21532944.945    88173834.50647
     -2261.964  
  20416855.895   107291341.63649      -472.417    20416858.133    83603668.77348
      -368.121  
 20 09 28 09 31 15.0000000  0  9G11G12G25G 1G21G24G32G20G10
  23894352.932   125565678.31246      -254.507    23894353.453    97843391.00545
      -198.320  
  23103030.253   121407271.66347      2624.816    23103030.850    94603081.81946
      2045.309  
  24180677.618   127070322.16246      3653.456    24180681.528    99015848.91745
      2846.847  
  24387892.493   128159246.96146      2582.788    24387895.955    99864363.10945
      2012.559  
  23038417.183   121067701.27848      -445.281    23038416.432    94338469.32946
      -346.977  
  21781423.326   114462178.32048     -2647.292    21781425.667    89191334.18447
     -2062.813  
  21281504.643   111835098.72249      2046.144    21281507.189    87144268.20848
      1594.395  
  21535707.590   113170916.28948     -2904.832    21535707.964    88185148.26446
     -2263.508  
  20417306.703   107293710.86749      -475.207    20417308.945    83605514.93048
      -370.292  
 20 09 28 09 31 20.0000000  0  9G11G12G25G 1G21G24G32G20G10
  23894596.940   125566960.30146      -258.015    23894597.166    97844389.96844
      -201.055  
  23100533.932   121394153.37247      2622.550    23100534.479    94592859.78846
      2043.543  
  24177201.872   127052057.39846      3652.727    24177206.087    99001616.69545
      2846.280  
  24385436.386   128146339.18946      2580.065    24385439.739    99854305.12744
      2010.441  
  23038842.126   121069934.77848      -448.078    23038841.407    94340209.71946
      -349.156  
  21783943.212   114475420.69548     -2649.426    21783945.431    89201652.91447
     -2064.491  
  21279558.490   111824871.15149      2044.902    21279560.833    87136298.67748
      1593.426  
  21538472.401   113185445.74948     -2906.940    21538472.674    88196469.91646
     -2265.152  
  20417760.374   107296094.79949      -478.171    20417762.692    83607372.53948
      -372.605  
 20 09 28 09 31 25.0000000  0  9G11G12G25G 1G21G24G32G20G10
  23894843.960   125568258.68546      -261.663    23894844.301    97845401.69545
      -203.898  
  23098039.713   121381046.07247      2620.300    23098040.302    94582646.32846
      2041.788  
  24173726.776   127033795.23845      3651.862    24173731.051    98987386.40845
      2845.604  
  24382982.381   128133443.55546      2577.504    24382985.644    99844256.57845
      2008.440  
  23039269.724   121072181.53648      -450.902    23039269.028    94341960.44346
      -351.355  
  21786465.174   114488673.56648     -2651.847    21786467.408    89211979.82947
     -2066.281  
  21277613.480   111814650.83649      2043.190    21277615.943    87128334.80248
      1592.093  
  21541239.315   113199985.29348     -2909.379    21541239.609    88207799.42446
     -2267.051  
  20418216.878   107298493.36849      -481.401    20418219.101    83609241.55348
      -375.121  
 20 09 28 09 31 30.0000000  0  9G11G12G25G 1G21G24G32G20G10
  23895094.396   125569574.82546      -264.902    23895094.878    97846427.26344
      -206.422  
  23095547.807   121367951.14347      2618.015    23095548.346    94572442.49746
      2040.007  
  24170252.175   127015536.86846      3651.667    24170256.681    98973159.16345
      2845.456  
  24380531.053   128120561.39346      2575.223    24380534.277    99834218.51645
      2006.663  
  23039699.962   121074442.83048      -453.772    23039699.346    94343722.49146
      -353.593  
  21788989.430   114501938.09248     -2654.022    21788991.585    89222315.82247
     -2068.074  
  21275670.384   111804439.08149      2041.601    21275672.772    87120377.59248
      1590.854  
  21544008.306   113214536.18848     -2911.234    21544008.512    88219137.77746
     -2268.496  
  20418676.248   107300907.87449      -484.313    20418678.451    83611122.98548
      -377.390  
 20 09 28 09 31 35.0000000  0  9G11G12G25G 1G21G24G32G20G10
  23895347.902   125570906.79146      -267.875    23895348.347    97847465.14844
      -208.738  
  23093057.776   121354866.69147      2615.722    23093058.388    94562246.82046
      2038.223  
  24166778.225   126997280.57846      3650.840    24166782.340    98958933.44345
      2844.804  
  24378081.768   128107690.75446      2573.035    24378085.027    99824189.46445
      2004.960  
  23040132.686   121076716.81048      -456.156    23040132.137    94345494.41746
      -355.448  
  21791515.406   114515212.40348     -2655.956    21791517.703    89232659.44647
     -2069.597  
  21273728.240   111794233.98049      2040.253    21273730.816    87112425.57448
      1589.805  
  21546779.013   113229096.53848     -2912.952    21546779.359    88230483.49446
     -2269.836  
  20419138.470   107303336.42749      -487.160    20419140.735    83613015.36648
      -379.608  
 20 09 28 09 31 40.0000000  0  9G11G12G25G 1G21G24G32G20G10
  23895604.630   125572255.46746      -271.613    23895605.032    97848516.07145
      -211.648  
  23090570.054   121341793.55947      2613.281    23090570.573    94552059.97546
      2036.320  
  24163304.757   126979027.06646      3649.976    24163308.722    98944709.96144
      2844.137  
  24375634.884   128094832.57146      2570.207    24375638.252    99814170.11445
      2002.753  
  23040568.083   121079004.30448      -458.772    23040567.338    94347276.86746
      -357.488  
  21794043.470   114528497.41048     -2658.332    21794045.770    89243011.39347
     -2071.430  
  21271787.823   111784036.36449      2038.604    21271790.334    87104479.37648
      1588.520  
  21549551.785   113243667.14948     -2915.394    21549552.173    88241837.20446
     -2271.737  
  20419603.366   107305779.85149      -490.465    20419605.695    83614919.33048
      -382.184  
 20 09 28 09 31 45.0000000  0  9G11G12G25G 1G21G24G32G20G10
  23895864.594   125573621.05846      -274.792    23895864.805    97849580.20644
      -214.124  
  23088084.667   121328732.01247      2611.167    23088085.214    94541882.15746
      2034.672  
  24159831.695   126960776.62646      3649.651    24159835.554    98930488.82844
      2843.883  
  24373190.505   128081987.05346      2567.770    24373193.811    99804160.62945
      2000.854  
  23041005.952   121081305.54248      -461.555    23041005.539    94349070.04246
      -359.655  
  21796573.620   114541793.18448     -2660.124    21796575.811    89253371.73847
     -2072.902  
  21269848.758   111773846.51149      2037.082    21269851.309    87096539.23748
      1587.332  
  21552326.469   113258248.30748     -2917.237    21552326.910    88253199.13247
     -2273.176  
  20420071.296   107308238.40049      -493.309    20420073.580    83616835.08548
      -384.397  
 20 09 28 09 31 50.0000000  0  9G11G12G25G 1G21G24G32G20G10
  23896127.573   125575003.54946      -278.132    23896127.796    97850657.45444
      -216.730  
  23085601.157   121315681.95647      2608.934    23085601.887    94531713.28746
      2032.933  
  24156359.465   126942529.24846      3649.347    24156363.263    98916270.09444
      2843.644  
  24370748.400   128069154.08246      2565.003    24370751.751    99794160.92645
      1998.698  
  23041446.490   121083620.42848      -464.605    23041445.866    94350873.85746
      -362.034  
  21799105.666   114555099.83548     -2662.487    21799108.035    89263740.55347
     -2074.668  
  21267911.186   111763664.28249      2035.695    21267913.757    87088605.03648
      1586.253  
  21555103.095   113272839.85848     -2919.370    21555103.594    88264569.16046
     -2274.835  
  20420541.899   107310711.96849      -496.176    20420544.171    83618762.54448
      -386.633  
 20 09 28 09 31 55.0000000  0  9G11G12G25G 1G21G24G32G20G10
  23896393.808   125576402.50246      -281.707    23896393.946    97851747.54344
      -219.515  
  23083120.156   121302643.02047      2606.577    23083120.720    94521553.10446
      2031.098  
  24152887.536   126924284.51446      3648.710    24152891.377    98902053.42845
      2843.152  
  24368308.568   128056333.36346      2563.202    24368312.002    99784170.75244
      1997.296  
  23041889.496   121085948.59548      -466.972    23041889.129    94352688.00746
      -363.879  
  21801639.994   114568417.00548     -2664.429    21801642.216    89274117.56947
     -2076.183  
  21265974.951   111753489.39249      2034.171    21265977.395    87080676.55048
      1585.066  
  21557881.809   113287441.47348     -2921.531    21557882.225    88275947.03247
     -2276.520  
  20421015.533   107313200.24249      -499.237    20421017.681    83620701.45848
      -389.019  
 20 09 28 09 32  0.0000000  0  9G11G12G25G 1G21G24G32G20G10
  23896663.263   125577818.24846      -284.676    23896663.257    97852850.70045
      -221.828  
  23080641.043   121289615.60247      2604.367    23080641.529    94511401.88746
      2029.379  
  24149416.195   126906042.90045      3647.918    24149420.135    98887839.14545
      2842.526  
  24365871.292   128043525.23646      2560.569    24365874.882    99774190.39945
      1995.245  
  23042335.183   121088290.44748      -469.715    23042334.570    94354512.82546
      -366.015  
  21804176.032   114581744.94248     -2666.683    21804178.315    89284502.97347
     -2077.937  
  21264040.248   111743322.17549      2032.711    21264042.755    87072754.05548
      1583.925  
  21560662.408   113302053.49548     -2923.316    21560662.822    88287333.01846
     -2277.910  
  20421491.842   107315703.54349      -502.226    20421494.127    83622652.08248
      -391.348  
 20 09 28 09 32  5.0000000  0  9G11G12G25G 1G21G24G32G20G10
  23896935.803   125579250.54946      -288.160    23896935.982    97853966.80744
      -224.538  
  23078164.140   121276599.45247      2601.839    23078164.740    94501259.44346
      2027.405  
  24145945.563   126887804.07746      3647.315    24145949.487    98873627.14045
      2842.066  
  24363436.332   128030729.59346      2557.604    24363439.809    99764219.77745
      1992.937  
  23042783.357   121090645.67948      -472.313    23042782.946    94356348.06846
      -368.039  
  21806714.359   114595083.40948     -2668.745    21806716.625    89294896.58347
     -2079.559  
  21262106.858   111733162.39549      2031.203    21262109.314    87064837.34248
      1582.753  
  21563444.896   113316675.68848     -2925.289    21563445.116    88298726.92147
     -2279.449  
  20421971.007   107318221.66749      -505.136    20421973.265    83624614.25848
      -393.616  
 20 09 28 09 32 10.0000000  0  9G11G12G25G 1G21G24G32G20G10
  23897211.511   125580699.21746      -291.160    23897211.684    97855095.64044
      -226.883  
  23075689.349   121263594.46247      2600.022    23075689.859    94491125.69046
      2025.987  
  24142475.160   126869567.92345      3647.176    24142479.337    98859417.11345
      2841.953  
  24361003.779   128017946.12646      2555.387    24361007.275    99754258.61244
      1991.207  
  23043234.178   121093014.13448      -474.773    23043233.524    94358193.61046
      -369.956  
  21809254.608   114608432.31948     -2670.472    21809256.891    89305298.33047
     -2080.972  
  21260174.782   111723009.89149      2029.843    21260177.358    87056926.30548
      1581.691  
  21566229.295   113331307.80848     -2927.246    21566229.611    88310128.55847
     -2280.972  
  20422453.026   107320754.41349      -507.875    20422455.085    83626587.82448
      -395.750  
 20 09 28 09 32 15.0000000  0  9G11G12G25G 1G21G24G32G20G10
  23897490.323   125582164.84946      -294.698    23897490.645    97856237.68645
      -229.640  
  23073216.845   121250601.17447      2597.468    23073217.374    94481001.05846
      2023.999  
  24139005.676   126851335.00146      3646.340    24139009.684    98845209.71645
      2841.309  
  24358573.579   128005175.43346      2552.890    24358577.219    99744307.44245
      1989.262  
  23043687.469   121095396.35248      -477.840    23043686.799    94360049.88346
      -372.347  
  21811796.731   114621791.95648     -2673.167    21811799.106    89315708.43147
     -2082.991  
  21258244.466   111712865.20149      2028.191    21258246.903    87049021.35448
      1580.406  
  21569015.806   113345950.42648     -2929.640    21569016.053    88321538.38346
     -2282.839  
  20422937.892   107323302.33949      -511.023    20422940.085    83628573.22348
      -398.202  
 20 09 28 09 32 20.0000000  0  9G11G12G25G 1G21G24G32G20G10
  23897772.379   125583646.62646      -298.000    23897772.588    97857392.32145
      -232.210  
  23070746.257   121237618.80547      2595.339    23070746.692    94470884.93546
      2022.339  
  24135536.378   126833104.46945      3645.926    24135540.688    98831004.10046
      2840.980  
  24356145.670   127992416.74646      2550.559    24356149.285    99734365.61445
      1987.444  
  23044143.215   121097791.50248      -480.511    23044142.763    94361916.22946
      -374.429  
  21814340.952   114635161.58248     -2674.995    21814343.300    89326126.32347
     -2084.414  
  21256315.250   111702727.47449      2026.805    21256317.629    87041121.82748
      1579.323  
  21571804.022   113360602.72748     -2931.625    21571804.193    88332955.75846
     -2284.386  
  20423425.417   107325864.61149      -514.085    20423427.517    83630569.80148
      -400.590  
 20 09 28 09 32 25.0000000  0  9G11G12G25G 1G21G24G32G20G10
  23898057.640   125585145.80746      -301.582    23898057.928    97858560.52144
      -235.004  
  23068278.098   121224648.63547      2592.847    23068278.706    94460778.31846
      2020.398  
  24132067.878   126814877.75646      3644.491    24132072.202    98816801.51045
      2839.858  
  24353720.388   127979671.30746      2547.430    24353724.017    99724434.10844
      1985.008  
  23044601.618   121100200.92348      -483.395    23044601.194    94363793.71146
      -376.676  
  21816887.290   114648542.74448     -2677.523    21816889.689    89336553.20347
     -2086.386  
  21254387.760   111692598.07349      2024.972    21254390.092    87033228.79448
      1577.898  
  21574594.288   113375265.98548     -2933.809    21574594.546    88344381.66146
     -2286.085  
  20423915.989   107328442.55349      -517.257    20423918.120    83632578.58548
      -403.062  
 20 09 28 09 32 30.0000000  0  9G11G12G25G 1G21G24G32G20G10
  23898346.347   125586662.10046      -304.851    23898346.524    97859742.05445
      -237.550  
  23065812.241   121211690.40847      2590.539    23065812.873    94450681.02146
      2018.597  
  24128600.114   126796654.40546      3644.273    24128604.402    98802601.50946
      2839.695  
  24351297.440   127966938.87646      2545.148    24351300.867    99714512.71345
      1983.245  
  23045062.875   121102624.25548      -485.722    23045062.536    94365682.01646
      -378.487  
  21819435.728   114661934.87248     -2679.219    21819438.004    89346988.63047
     -2087.707  
  21252461.599   111682476.65249      2023.659    21252464.006    87025341.97848
      1576.875  
  21577386.676   113389939.89648     -2935.671    21577386.857    88355815.86446
     -2287.538  
  20424409.427   107331035.83849      -519.952    20424411.675    83634599.32648
      -405.160  
 20 09 28 09 32 35.0000000  0  9G11G12G25G 1G21G24G32G20G10
  23898637.968   125588194.01546      -307.964    23898637.791    97860935.74345
      -239.977  
  23063348.300   121198742.65247      2588.421    23063348.760    94440591.85846
      2016.949  
  24125132.776   126778433.10845      3643.879    24125137.226    98788403.09946
      2839.383  
  24348876.745   127954217.97546      2542.934    24348880.178    99704600.33445
      1981.504  
  23045526.438   121105060.04548      -488.581    23045526.074    94367580.03146
      -380.715  
  21821986.048   114675336.55448     -2681.410    21821988.289    89357431.49647
     -2089.469  
  21250536.768   111672361.78749      2022.191    21250539.385    87017460.26248
      1575.730  
  21580180.981   113404623.00248     -2937.620    21580181.116    88367257.22946
     -2289.058  
  20424905.711   107333643.01449      -523.008    20424907.660    83636630.89548
      -407.542  
 20 09 28 09 32 40.0000000  0  9G11G12G25G 1G21G24G32G20G10
  23898932.586   125589742.96446      -311.406    23898932.597    97862142.70745
      -242.656  
  23060886.650   121185806.75147      2585.961    23060887.114    94430511.95446
      2015.031  
  24121665.941   126760215.17446      3643.176    24121670.403    98774207.31945
      2838.835  
  24346458.472   127941509.99046      2540.456    24346461.889    99694698.03344
      1979.469  
  23045992.442   121107509.65948      -491.402    23045992.090    94369488.82246
      -382.914  
  21824538.469   114688749.02248     -2683.520    21824540.529    89367882.77247
     -2091.059  
  21248613.459   111662254.82149      2020.586    21248615.980    87009584.70848
      1574.480  
  21582977.002   113419316.66148     -2939.761    21582977.111    88378706.83246
     -2290.727  
  20425404.658   107336265.46649      -526.027    20425406.833    83638674.36448
      -409.895  
 20 09 28 09 32 45.0000000  0  9G11G12G25G 1G21G24G32G20G10
  23899230.576   125591308.62846      -314.883    23899230.344    97863362.71344
      -245.366  
  23058427.312   121172882.46747      2583.749    23058427.890    94420441.09546
      2013.309  
  24118199.743   126742000.40246      3642.507    24118204.250    98760014.00145
      2838.316  
  24344042.670   127928814.74246      2537.723    24344045.971    99684805.62845
      1977.440  
  23046461.105   121109972.87448      -494.093    23046460.991    94371408.20546
      -385.012  
  21827092.763   114702172.17548     -2685.632    21827094.977    89378342.37047
     -2092.699  
  21246691.691   111652155.55349      2018.980    21246694.300    87001715.15548
      1573.227  
  21585775.098   113434020.66248     -2941.815    21585775.273    88390164.49547
     -2292.327  
  20425906.460   107338902.95449      -529.011    20425908.691    83640729.54548
      -412.219  
 20 09 28 09 32 50.0000000  0  9G11G12G25G 1G21G24G32G20G10
  23899531.591   125592890.94346      -317.965    23899531.263    97864595.70644
      -247.770  
  23055970.041   121159969.73547      2581.507    23055970.583    94410379.23746
      2011.563  
  24114734.194   126723788.72446      3641.969    24114738.688    98745823.10745
      2837.895  
  24341629.287   127916132.04946      2535.226    24341632.523    99674923.02644
      1975.495  
  23046932.441   121112449.54348      -496.402    23046932.332    94373338.08046
      -386.808  
  21829648.971   114715605.82948     -2687.729    21829651.360    89388810.14647
     -2094.339  
  21244771.256   111642063.81749      2017.781    21244773.824    86993851.46948
      1572.292  
  21588575.095   113448734.84248     -2943.617    21588575.341    88401630.08346
     -2293.729  
  20426411.309   107341555.32849      -531.848    20426413.468    83642796.33548
      -414.429  
 20 09 28 09 32 55.0000000  0  9G11G12G25G 1G21G24G32G20G10
  23899835.779   125594489.77446      -321.429    23899835.553    97865841.53644
      -250.468  
  23053515.071   121147068.43547      2579.269    23053515.537    94400326.29946
      2009.819  
  24111269.186   126705579.95346      3641.632    24111273.480    98731634.44045
      2837.633  
  24339217.998   127903461.85946      2532.843    24339221.307    99665050.12444
      1973.640  
  23047406.257   121114939.56048      -499.167    23047406.157    94375278.34546
      -388.965  
  21832207.268   114729049.83348     -2689.784    21832209.464    89399285.99747
     -2095.999  
  21242852.346   111631979.53249      2016.230    21242854.826    86985993.58748
      1571.085  
  21591377.200   113463459.09348     -2945.797    21591377.210    88413103.52147
     -2295.430  
  20426918.812   107344222.49549      -534.895    20426920.928    83644874.64448
      -416.805  
 20 09 28 09 33  0.0000000  0  9G11G12G25G 1G21G24G32G20G10
  23900143.252   125596105.52346      -324.973    23900143.021    97867100.56545
      -253.229  
  23051062.180   121134178.97147      2576.733    23051062.656    94390282.56646
      2007.839  
  24107804.955   126687374.57746      3641.065    24107809.154    98717448.44745
      2837.190  
  24336809.406   127890804.52746      2530.172    24336812.589    99655187.29545
      1971.558  
  23047882.744   121117443.29548      -502.059    23047882.611    94377229.31346
      -391.218  
  21834767.653   114742504.55648     -2692.035    21834769.996    89409770.19947
     -2097.690  
  21240934.927   111621903.08149      2014.445    21240937.266    86978141.81248
      1569.695  
  21594181.037   113478193.73148     -2947.792    21594181.264    88424585.05946
     -2296.983  
  20427429.183   107346904.82649      -537.995    20427431.321    83646964.77248
      -419.223  
 20 09 28 09 33  5.0000000  0  9G11G12G25G 1G21G24G32G20G10
  23900453.771   125597737.53446      -328.440    23900453.642    97868372.25644
      -255.930  
  23048611.570   121121300.79947      2574.559    23048611.930    94380247.62846
      2006.145  
  24104341.071   126669171.90146      3640.147    24104345.199    98703264.53945
      2836.480  
  24334403.094   127878159.45946      2527.644    24334406.191    99645333.99545
      1969.590  
  23048361.710   121119960.15348      -504.914    23048361.506    94379190.49546
      -393.441  
  21837329.966   114755969.41948     -2694.176    21837332.251    89420262.29747
     -2099.323  
  21239018.673   111611833.85049      2013.004    21239021.185    86970295.65848
      1568.569  
  21596986.936   113492938.17748     -2949.996    21596987.046    88436074.23846
     -2298.702  
  20427942.392   107349601.72449      -540.969    20427944.653    83649066.25248
      -421.539  
 20 09 28 09 33 10.0000000  0  9G11G12G25G 1G21G24G32G20G10
  23900767.506   125599386.37546      -331.382    23900767.416    97869657.08044
      -258.223  
  23046163.260   121108434.37947      2572.089    23046163.475    94370221.86546
      2004.222  
  24100877.965   126650972.59246      3639.660    24100881.961    98689083.24845
      2836.090  
  24331999.229   127865527.25045      2525.019    24332002.587    99635490.73545
      1967.542  
  23048843.136   121122490.65748      -507.504    23048843.069    94381162.32346
      -395.460  
  21839894.175   114769444.98748     -2696.331    21839896.459    89430762.73947
     -2101.042  
  21237104.120   111601772.40049      2011.448    21237106.579    86962455.56948
      1567.358  
  21599794.546   113507692.95348     -2952.237    21599794.740    88447571.46347
     -2300.449  
  20428458.459   107352313.73749      -543.875    20428460.672    83651179.51048
      -423.801  
 20 09 28 09 33 15.0000000  0  9G11G12G25G 1G21G24G32G20G10
  23901084.459   125601052.13446      -335.026    23901084.339    97870955.07444
      -261.062  
  23043717.004   121095579.81047      2569.563    23043717.442    94360205.33246
      2002.254  
  24097415.403   126632776.70746      3638.772    24097419.305    98674904.65745
      2835.406  
  24329597.642   127852907.98345      2522.539    24329601.390    99625657.54645
      1965.612  
  23049327.231   121125034.93848      -510.300    23049327.084    94383144.87546
      -397.641  
  21842460.657   114782931.25448     -2698.285    21842462.880    89441271.52147
     -2102.538  
  21235190.905   111591718.82349      2009.917    21235193.409    86954621.61748
      1566.167  
  21602604.423   113522458.17548     -2954.069    21602604.398    88459076.82247
     -2301.874  
  20428977.386   107355040.96949      -547.059    20428979.624    83653304.62748
      -426.280  
 20 09 28 09 33 20.0000000  0  9G11G12G25G 1G21G24G32G20G10
  23901404.278   125602733.97946      -338.081    23901404.222    97872265.63145
      -263.441  
  23041273.015   121082736.34247      2567.546    23041273.399    94350197.44546
      2000.684  
  24093953.377   126614583.44846      3638.003    24093957.446    98660728.07945
      2834.805  
  24327198.577   127840300.84246      2520.211    24327202.393    99615833.80245
      1963.797  
  23049813.993   121127592.14148      -512.671    23049813.763    94385137.49746
      -399.488  
  21845028.868   114796427.48448     -2700.426    21845031.241    89451788.06247
     -2104.230  
  21233279.209   111581672.32449      2008.461    21233281.709    86946793.18048
      1565.031  
  21605416.033   113537233.00548     -2956.090    21605415.961    88470589.67046
     -2303.448  
  20429499.160   107357782.59749      -549.839    20429501.246    83655440.95948
      -428.449  
 20 09 28 09 33 25.0000000  0  9G11G12G25G 1G21G24G32G20G10
  23901727.530   125604432.86746      -341.601    23901727.454    97873589.39944
      -266.188  
  23038831.138   121069904.94047      2565.152    23038831.517    94340198.97046
      1998.815  
  24090491.905   126596393.79246      3637.406    24090495.964    98646554.36045
      2834.340  
  24324801.962   127827706.85846      2517.324    24324805.880    99606020.32746
      1961.550  
  23050303.216   121130163.24448      -515.729    23050302.935    94387140.95046
      -401.871  
  21847599.144   114809934.62148     -2702.644    21847601.564    89462313.10447
     -2105.961  
  21231368.844   111571633.85249      2006.753    21231371.491    86938971.00148
      1563.698  
  21608229.544   113552018.35748     -2958.277    21608229.504    88482110.72146
     -2305.155  
  20430023.791   107360539.58549      -553.016    20430026.052    83657589.26148
      -430.926  
 20 09 28 09 33 30.0000000  0  9G11G12G25G 1G21G24G32G20G10
  23902054.052   125606148.75546      -344.840    23902054.009    97874926.46344
      -268.711  
  23036391.748   121057085.54647      2563.026    23036392.094    94330209.84846
      1997.159  
  24087031.154   126578207.64346      3637.297    24087035.354    98632383.33245
      2834.258  
  24322407.876   127815125.88446      2515.273    24322411.647    99596216.97044
      1959.949  
  23050795.116   121132748.16448      -518.151    23050794.983    94389155.17646
      -403.758  
  21850171.521   114823452.68048     -2704.559    21850173.819    89472846.65247
     -2107.390  
  21229460.205   111561603.32649      2005.538    21229462.746    86931155.00948
      1562.754  
  21611045.150   113566814.15248     -2960.238    21611045.024    88493639.90246
     -2306.683  
  20430551.270   107363311.84849      -555.820    20430553.535    83659749.46748
      -433.108  
 20 09 28 09 33 35.0000000  0  9G11G12G25G 1G21G24G32G20G10
  23902383.651   125607880.68246      -348.082    23902383.736    97876276.04644
      -271.230  
  23033954.451   121044277.30747      2560.125    23033954.885    94320229.41846
      1994.897  
  24083571.014   126560024.23246      3635.969    24083575.082    98618214.44046
      2833.218  
  24320016.291   127802557.11346      2512.430    24320020.206    99586423.13845
      1957.733  
  23051289.499   121135346.00548      -521.022    23051289.274    94391179.46546
      -405.995  
  21852745.816   114836980.34948     -2706.710    21852748.032    89483387.68947
     -2109.089  
  21227552.697   111551579.89649      2003.683    21227555.213    86923344.54448
      1561.309  
  21613862.417   113581619.52048     -2962.257    21613862.518    88505176.53647
     -2308.258  
  20431081.620   107366098.51449      -558.964    20431083.697    83661920.89348
      -435.559  
 20 09 28 09 33 40.0000000  0  9G11G12G25G 1G21G24G32G20G10
  23902716.464   125609629.75146      -351.527    23902716.435    97877638.95444
      -273.921  
  23031519.435   121031481.24647      2558.101    23031519.893    94310258.46846
      1993.323  
  24080111.421   126541844.54146      3635.637    24080115.696    98604048.49045
      2832.964  
  24317627.006   127790001.58445      2509.304    24317630.831    99576639.57645
      1955.297  
  23051786.346   121137957.82948      -523.551    23051786.257    94393214.65546
      -407.964  
  21855322.007   114850518.97848     -2708.754    21855324.472    89493937.27947
     -2110.719  
  21225646.923   111541564.58149      2002.304    21225649.401    86915540.40548
      1560.234  
  21616681.801   113596435.48548     -2964.077    21616681.945    88516721.42847
     -2309.675  
  20431614.822   107368900.63249      -561.934    20431617.053    83664104.36448
      -437.875  
 20 09 28 09 33 45.0000000  0  9G11G12G25G 1G21G24G32G20G10
  23903052.394   125611394.13946      -354.586    23903052.147    97879013.82645
      -276.300  
  23029086.316   121018695.64847      2555.913    23029086.778    94300295.67846
      1991.617  
  24076652.234   126523666.76646      3635.359    24076656.520    98589883.99244
      2832.745  
  24315239.956   127777457.46046      2507.651    24315243.705    99566864.97745
      1954.016  
  23052285.660   121140581.87048      -526.055    23052285.634    94395259.36246
      -409.914  
  21857900.087   114864066.78848     -2710.691    21857902.618    89504494.01247
     -2112.229  
  21223742.280   111531555.61349      2001.058    21223744.804    86907741.21348
      1559.261  
  21619502.932   113611260.31248     -2966.031    21619503.096    88528273.22947
     -2311.194  
  20432150.689   107371716.41349      -564.559    20432152.841    83666298.48148
      -439.918  
 20 09 28 09 33 50.0000000  0  9G11G12G25G 1G21G24G32G20G10
  23903391.334   125613175.34246      -357.761    23903391.231    97880401.75744
      -278.777  
  23026655.501   121005921.91047      2553.781    23026656.109    94290342.11946
      1989.957  
  24073193.858   126505492.50546      3634.965    24073198.222    98575722.24745
      2832.437  
  24312855.385   127764926.32746      2505.113    24312859.096    99557100.46445
      1952.034  
  23052787.637   121143219.55648      -528.645    23052787.483    94397314.69546
      -411.933  
  21860480.282   114877625.21248     -2712.645    21860482.714    89515059.01147
     -2113.754  
  21221839.169   111521554.44849      1999.613    21221841.670    86899948.10148
      1558.137  
  21622325.925   113626095.43248     -2967.949    21622326.172    88539833.06446
     -2312.690  
  20432689.403   107374547.31149      -567.570    20432691.557    83668504.37348
      -442.266  
 20 09 28 09 33 55.0000000  0  9G11G12G25G 1G21G24G32G20G10
  23903733.504   125614973.33546      -361.780    23903733.311    97881802.79743
      -281.909  
  23024227.111   120993160.04247      2551.102    23024227.404    94280397.82046
      1987.866  
  24069735.998   126487321.61046      3633.729    24069740.493    98561563.11545
      2831.479  
  24310473.221   127752408.06346      2502.253    24310476.866    99547345.97345
      1949.805  
  23053292.092   121145870.82948      -531.648    23053291.964    94399380.61846
      -414.273  
  21863062.387   114891194.04648     -2714.854    21863064.762    89525632.13047
     -2115.476  
  21219937.553   111511561.04549      1997.726    21219940.011    86892161.03348
      1556.667  
  21625150.842   113640940.78448     -2970.359    21625150.917    88551400.85946
     -2314.569  
  20433230.981   107377393.29349      -570.952    20433233.205    83670722.01648
      -444.902  
 20 09 28 09 34  0.0000000  0  9G11G12G25G 1G21G24G32G20G10
  23904078.846   125616788.52446      -364.749    23904078.926    97883217.25044
      -284.222  
  23021800.812   120980410.53847      2548.730    23021801.379    94270463.15546
      1986.020  
  24066278.925   126469154.65946      3633.202    24066283.416    98547407.05445
      2831.063  
  24308093.623   127739903.22346      2499.813    24308097.341    99537601.93745
      1947.902  
  23053799.410   121148536.18148      -534.401    23053799.186    94401457.51346
      -416.421  
  21865646.345   114904773.86948     -2716.949    21865648.749    89536213.81147
     -2117.105  
  21218037.280   111501575.91749      1996.293    21218039.814    86884380.42148
      1555.550  
  21627977.854   113655796.83248     -2972.273    21627977.867    88562976.99846
     -2316.059  
  20433775.398   107380254.84649      -573.839    20433777.543    83672951.80148
      -447.152  
 20 09 28 09 34  5.0000000  0  9G11G12G25G 1G21G24G32G20G10
  23904427.441   125618620.05746      -368.293    23904427.452    97884644.40645
      -286.984  
  23019376.820   120967672.52847      2546.409    23019377.341    94260537.43746
      1984.210  
  24062822.442   126450990.71746      3632.449    24062826.859    98533253.34345
      2830.476  
  24305716.340   127727410.92646      2496.729    24305720.179    99527867.66544
      1945.499  
  23054308.976   121151214.65248      -537.102    23054308.852    94403544.63646
      -418.522  
  21868232.442   114918363.89748     -2719.063    21868234.943    89546803.43647
     -2118.770  
  21216138.731   111491598.13349      1994.722    21216141.075    86876605.52648
      1554.323  
  21630806.781   113670662.66048     -2974.233    21630806.793    88574560.76046
     -2317.590  
  20434322.872   107383131.06049      -576.862    20434325.074    83675193.00748
      -449.507  
 20 09 28 09 34 10.0000000  0  9G11G12G25G 1G21G24G32G20G10
  23904779.049   125620468.80146      -371.058    23904779.231    97886084.97945
      -289.140  
  23016955.061   120954946.94447      2544.059    23016955.784    94250621.41046
      1982.379  
  24059366.676   126432830.76446      3631.718    24059370.962    98519102.74446
      2829.905  
  24303341.891   127714932.05146      2494.289    24303345.554    99518143.91044
      1943.601  
  23054821.433   121153907.19648      -539.710    23054821.164    94405642.71546
      -420.559  
  21870820.629   114931964.82148     -2721.058    21870823.060    89557401.56247
     -2120.309  
  21214241.517   111481628.64049      1993.199    21214244.052    86868837.09448
      1553.141  
  21633637.764   113685539.17248     -2976.301    21633637.705    88586152.84046
     -2319.198  
  20434872.994   107386022.88149      -579.858    20434875.271    83677446.37648
      -451.839  
 20 09 28 09 34 15.0000000  0  9G11G12G25G 1G21G24G32G20G10
  23905133.927   125622333.04346      -374.340    23905134.086    97887537.64243
      -291.695  
  23014535.643   120942232.13047      2542.038    23014536.126    94240713.78346
      1980.804  
  24055911.508   126414673.04846      3631.199    24055915.585    98504953.89645
      2829.504  
  24300969.239   127702464.86545      2492.410    24300973.209    99508429.21043
      1942.132  
  23055336.185   121156612.10848      -542.168    23055335.915    94407750.44146
      -422.472  
  21873410.517   114945574.86848     -2722.887    21873412.914    89568006.79947
     -2121.648  
  21212345.634   111471665.71049      1992.101    21212348.003    86861073.77948
      1552.285  
  21636470.291   113700424.63648     -2977.871    21636470.291    88597751.90046
     -2320.421  
  20435425.972   107388928.54849      -582.266    20435428.154    83679710.53048
      -453.714  
 20 09 28 09 34 20.0000000  0  9G11G12G25G 1G21G24G32G20G10
  23905491.733   125624213.95146      -378.113    23905492.161    97889003.27644
      -294.636  
  23012118.285   120929529.20147      2539.253    23012118.940    94230815.40346
      1978.637  
  24052456.682   126396518.78046      3630.335    24052460.888    98490807.73645
      2828.831  
  24298599.302   127690010.63846      2489.730    24298603.129    99498724.63244
      1940.047  
  23055853.420   121159330.54448      -545.202    23055853.109    94409868.70246
      -424.836  
  21876002.489   114959195.67648     -2725.332    21876004.973    89578620.41247
     -2123.636  
  21210451.274   111461710.56149      1990.086    21210453.648    86853316.52448
      1550.715  
  21639304.889   113715320.29948     -2980.288    21639304.842    88609358.91046
     -2322.304  
  20435981.815   107391849.30249      -585.729    20435983.979    83681986.44548
      -456.417  
 20 09 28 09 34 25.0000000  0  9G11G12G25G 1G21G24G32G20G10
  23905852.864   125626111.92446      -381.386    23905853.282    97890482.25444
      -297.184  
  23009703.229   120916838.59047      2536.957    23009703.993    94220926.62946
      1976.847  
  24049002.844   126378368.40046      3629.953    24049007.000    98476664.58045
      2828.531  
  24296231.906   127677569.76246      2486.690    24296235.586    99489030.43745
      1937.680  
  23056373.294   121162062.93948      -547.965    23056373.013    94411997.84046
      -426.988  
  21878596.582   114972827.25848     -2727.500    21878598.963    89589242.42847
     -2125.328  
  21208558.433   111451763.52349      1988.651    21208560.768    86845565.58948
      1549.598  
  21642141.405   113730226.44748     -2982.480    21642141.555    88620974.09046
     -2324.015  
  20436540.512   107394785.49349      -588.730    20436542.740    83684274.38348
      -458.753  
 20 09 28 09 34 30.0000000  0  9G11G12G25G 1G21G24G32G20G10
  23906217.248   125628026.34046      -384.562    23906217.517    97891974.01845
      -299.663  
  23007290.470   120904159.55147      2534.624    23007291.179    94211046.87446
      1975.026  
  24045549.551   126360221.15746      3629.112    24045553.657    98462523.87445
      2827.879  
  24293867.022   127665141.49446      2484.495    24293870.687    99479346.07045
      1935.969  
  23056895.860   121164808.51048      -550.434    23056895.614    94414137.24046
      -428.913  
  21881192.385   114986468.73548     -2729.472    21881194.917    89599872.14647
     -2126.862  
  21206666.917   111441823.94649      1986.996    21206669.337    86837820.46648
      1548.304  
  21644979.823   113745142.40448     -2984.355    21644979.737    88632596.90946
     -2325.477  
  20437102.061   107397736.39549      -591.781    20437104.185    83686573.78548
      -461.132  
 20 09 28 09 34 35.0000000  0  9G11G12G25G 1G21G24G32G20G10
  23906584.483   125629956.89145      -387.632    23906584.839    97893478.32945
      -302.054  
  23004879.809   120891491.94147      2532.258    23004880.858    94201176.01346
      1973.183  
  24042096.655   126342076.87846      3628.578    24042100.975    98448385.50045
      2827.464  
  24291504.384   127652725.68846      2481.858    24291507.934    99469671.43044
      1933.913  
  23057420.890   121167567.08948      -552.961    23057420.454    94416286.77946
      -430.882  
  21883790.280   115000120.23448     -2731.304    21883792.582    89610509.68247
     -2128.289  
  21204776.928   111431891.58049      1985.722    21204779.135    86830080.96748
      1547.312  
  21647819.945   113760067.93948     -2985.953    21647820.146    88644227.19146
     -2326.719  
  20437666.290   107400701.84149      -594.460    20437668.561    83688884.52848
      -463.218  
 20 09 28 09 34 40.0000000  0  9G11G12G25G 1G21G24G32G20G10
  23906955.134   125631904.61146      -391.472    23906955.575    97894996.02344
      -305.046  
  23002471.654   120878836.78347      2529.746    23002472.426    94191314.85546
      1971.226  
  24038644.690   126323936.64846      3627.359    24038649.040    98434250.24945
      2826.511  
  24289144.341   127640323.29546      2478.973    24289147.924    99460007.24044
      1931.663  
  23057948.395   121170339.67948      -556.016    23057948.152    94418447.24046
      -433.262  
  21886390.061   115013782.45448     -2733.542    21886392.415    89621155.56147
     -2130.034  
  21202888.455   111421967.49449      1983.890    21202890.644    86822347.91448
      1545.887  
  21650662.360   113775004.02448     -2988.691    21650662.258    88655865.69246
     -2328.854  
  20438233.543   107403682.80749      -597.901    20438235.865    83691207.35448
      -465.902  
 20 09 28 09 34 45.0000000  0  9G11G12G25G 1G21G24G32G20G10
  23907328.876   125633868.98246      -394.194    23907329.356    97896526.71744
      -307.168  
  23000065.819   120866193.65647      2527.660    23000066.666    94181463.07446
      1969.602  
  24035193.307   126305799.91546      3627.047    24035197.673    98420117.75645
      2826.266  
  24286786.607   127627933.94346      2476.965    24286790.335    99450353.21344
      1930.097  
  23058478.559   121173125.77148      -558.292    23058478.334    94420618.21546
      -435.035  
  21888991.935   115027455.05448     -2735.402    21888994.247    89631809.53647
     -2131.473  
  21201001.518   111412051.16849      1982.620    21201003.623    86814620.91048
      1544.894  
  21653506.494   113789950.24148     -2989.925    21653506.563    88667512.08346
     -2329.816  
  20438803.661   107406678.86249      -600.581    20438805.850    83693541.94248
      -467.988  
 20 09 28 09 34 50.0000000  0  9G11G12G25G 1G21G24G32G20G10
  23907705.868   125635849.33846      -397.973    23907706.190    97898069.85344
      -310.113  
  22997662.056   120853561.80047      2524.804    22997662.883    94171620.07746
      1967.378  
  24031742.664   126287666.04046      3626.163    24031746.932    98405987.45745
      2825.577  
  24284431.380   127615556.85946      2473.917    24284434.875    99440708.71744
      1927.726  
  23059011.225   121175924.67048      -561.460    23059010.963    94422799.17946
      -437.504  
  21891595.537   115041137.32348     -2737.566    21891598.027    89642471.04947
     -2133.172  
  21199115.717   111402141.90049      1980.859    21199118.068    86806899.40748
      1543.522  
  21656352.344   113804905.81548     -2992.355    21656352.365    88679165.76246
     -2331.707  
  20439376.636   107409689.24049      -603.757    20439378.775    83695887.69448
      -470.464  
 20 09 28 09 34 55.0000000  0  9G11G12G25G 1G21G24G32G20G10
  23908085.868   125637846.63146      -400.866    23908086.469    97899626.18744
      -312.366  
  22995260.744   120840942.22647      2522.797    22995261.317    94161786.66046
      1965.813  
  24028292.380   126269535.98846      3625.891    24028297.017    98391860.16145
      2825.366  
  24282078.808   127603193.07346      2471.414    24282082.265    99431074.61144
      1925.773  
  23059546.520   121178737.38148      -563.824    23059546.004    94424990.89746
      -439.347  
  21894201.200   115054830.23548     -2739.413    21894203.511    89653140.85047
     -2134.558  
  21197231.623   111392240.70149      1979.702    21197233.987    86799184.19148
      1542.620  
  21659200.304   113819871.75548     -2994.183    21659200.339    88690827.52246
     -2333.132  
  20439952.279   107412714.98449      -606.641    20439954.616    83698245.41548
      -472.711  
 20 09 28 09 35  0.0000000  0  9G11G12G25G 1G21G24G32G20G10
  23908469.160   125639860.15446      -404.254    23908469.631    97901195.17345
      -315.007  
  22992861.521   120828334.25347      2520.406    22992862.224    94151962.27846
      1963.948  
  24024843.109   126251409.06946      3624.891    24024847.603    98377735.29745
      2824.585  
  24279728.264   127590841.85146      2468.870    24279732.052    99421450.28745
      1923.793  
  23060084.313   121181563.15848      -566.448    23060083.701    94427192.79946
      -441.391  
  21896808.622   115068532.99048     -2741.534    21896811.194    89663818.31447
     -2136.265  
  21195348.848   111382346.84149      1977.918    21195351.133    86791474.68948
      1541.229  
  21662050.151   113834847.33448     -2996.207    21662050.018    88702496.79346
     -2334.711  
  20440530.960   107415755.31649      -609.581    20440533.149    83700614.50748
      -475.004  
 20 09 28 09 35  5.0000000  0  9G11G12G25G 1G21G24G32G20G10
  23908855.250   125641889.76046      -407.511    23908855.740    97902776.69345
      -317.542  
  22990464.378   120815737.77947      2517.918    22990465.099    94142146.85647
      1962.012  
  24021394.215   126233285.16946      3624.426    24021398.625    98363612.77646
      2824.226  
  24277380.396   127578503.06546      2466.788    24277383.921    99411835.64545
      1922.171  
  23060624.367   121184401.88148      -568.956    23060623.883    94429404.78646
      -443.348  
  21899418.114   115082245.49448     -2743.207    21899420.613    89674503.38547
     -2137.624  
  21193467.603   111372460.20549      1976.695    21193469.747    86783770.82148
      1540.276  
  21664901.711   113849832.44748     -2997.808    21664901.687    88714173.49346
     -2335.956  
  20441112.313   107418810.16149      -612.250    20441114.360    83702994.90548
      -477.082  
 20 09 28 09 35 10.0000000  0  9G11G12G25G 1G21G24G32G20G10
  23909244.576   125643935.77546      -410.793    23909244.996    97904370.97744
      -320.102  
  22988069.724   120803153.15947      2515.723    22988070.352    94132340.67346
      1960.300  
  24017945.893   126215164.73946      3623.512    24017950.352    98349492.98645
      2823.511  
  24275034.829   127566177.21446      2463.835    24275038.551    99402231.12445
      1919.866  
  23061167.076   121187253.93348      -571.905    23061166.754    94431627.16046
      -445.645  
  21902029.517   115095968.19548     -2745.801    21902031.963    89685196.39647
     -2139.590  
  21191587.707   111362581.16049      1974.800    21191589.815    86776072.87448
      1538.800  
  21667755.157   113864827.40548     -3000.133    21667755.023    88725857.86446
     -2337.770  
  20441696.324   107421879.87749      -615.546    20441698.522    83705386.89048
      -479.648  
 20 09 28 09 35 15.0000000  0  9G11G12G25G 1G21G24G32G20G10
  23909637.349   125645999.21346      -414.636    23909637.795    97905978.86045
      -323.097  
  22985677.367   120790581.36547      2512.969    22985678.048    94122544.49646
      1958.155  
  24014498.541   126197048.56046      3622.565    24014503.112    98335376.49046
      2822.777  
  24272691.932   127553865.05046      2460.906    24272695.595    99392637.20545
      1917.582  
  23061712.605   121190120.14548      -574.688    23061712.070    94433860.57446
      -447.813  
  21904642.836   115109701.78148     -2747.933    21904645.263    89695897.89347
     -2141.289  
  21189709.338   111352710.60749      1973.354    21189711.602    86768381.53348
      1537.676  
  21670610.710   113879833.09348     -3002.308    21670610.576    88737550.59646
     -2339.465  
  20442283.595   107424965.34949      -618.659    20442285.837    83707791.15748
      -482.073  
 20 09 28 09 35 20.0000000  0  9G11G12G25G 1G21G24G32G20G10
  23910033.161   125648079.25146      -417.991    23910033.702    97907599.65845
      -325.711  
  22983287.275   120778021.62647      2510.719    22983287.912    94112757.69645
      1956.402  
  24011051.961   126178936.03646      3621.980    24011056.314    98321262.83546
      2822.319  
  24270351.338   127541565.98945      2458.535    24270355.256    99383053.56145
      1915.742  
  23062260.456   121192999.86948      -577.343    23062260.079    94436104.51646
      -449.882  
  21907258.240   115123445.63548     -2749.683    21907260.762    89706607.39147
     -2142.613  
  21187832.474   111342847.84049      1971.672    21187834.851    86760696.27048
      1536.363  
  21673468.010   113894848.83848     -3004.133    21673468.128    88749251.17146
     -2340.887  
  20442873.500   107428065.88449      -621.641    20442875.849    83710207.16048
      -484.397  
 20 09 28 09 35 25.0000000  0  9G11G12G25G 1G21G24G32G20G10
  23910432.054   125650175.57346      -421.027    23910432.669    97909233.17344
      -328.077  
  22980899.491   120765473.61347      2508.479    22980900.219    94102980.02446
      1954.655  
  24007605.752   126160826.80346      3621.480    24007610.280    98307151.77645
      2821.929  
  24268013.368   127529279.62445      2455.960    24268017.194    99373479.77744
      1913.737  
  23062810.960   121195892.72648      -579.886    23062810.542    94438358.69646
      -451.862  
  21909875.528   115137199.44748     -2751.883    21909877.971    89717324.64247
     -2144.327  
  21185957.123   111332992.52349      1970.207    21185959.294    86753016.80248
      1535.223  
  21676327.365   113909874.25848     -3006.108    21676327.339    88760959.28746
     -2342.426  
  20443466.440   107431181.11749      -624.676    20443468.522    83712634.61648
      -486.762  
 20 09 28 09 35 30.0000000  0  9G11G12G25G 1G21G24G32G20G10
  23910833.977   125652287.88246      -424.113    23910834.531    97910879.13844
      -330.479  
  22978513.968   120752937.07247      2506.179    22978514.489    94093211.29646
      1952.862  
  24004160.321   126142720.66046      3620.921    24004164.988    98293043.10245
      2821.495  
  24265677.735   127517005.76046      2453.952    24265681.588    99363915.70643
      1912.167  
  23063363.929   121198798.47248      -582.566    23063363.469    94440622.90346
      -453.949  
  21912494.532   115150962.87948     -2753.616    21912497.126    89728049.39747
     -2145.679  
  21184083.120   111323144.41549      1968.895    21184085.233    86745342.96048
      1534.198  
  21679188.412   113924909.12948     -3008.034    21679188.267    88772674.77646
     -2343.926  
  20444061.870   107434310.80849      -627.308    20444064.166    83715073.33448
      -488.816  
 20 09 28 09 35 35.0000000  0  9G11G12G25G 1G21G24G32G20G10
  23911239.207   125654416.62946      -427.569    23911239.414    97912537.87845
      -333.176  
  22976130.540   120740412.51147      2503.660    22976130.981    94083451.91546
      1950.901  
  24000715.659   126124618.03046      3620.035    24000720.196    98278937.15946
      2820.808  
  24263344.574   127504744.88646      2450.746    24263348.387    99354361.79344
      1909.667  
  23063919.388   121201717.55248      -585.187    23063919.082    94442897.51246
      -455.991  
  21915115.630   115164736.46648     -2755.737    21915118.244    89738782.06247
     -2147.280  
  21182210.459   111313303.95149      1967.281    21182212.877    86737675.07048
      1532.941  
  21682051.174   113939953.85548     -3009.937    21682051.207    88784397.94246
     -2345.410  
  20444660.341   107437455.42249      -630.348    20444662.473    83717523.67948
      -491.183  
 20 09 28 09 35 40.0000000  0  9G11G12G25G 1G21G24G32G20G10
  23911647.624   125656562.31146      -430.543    23911647.860    97914209.86344
      -335.491  
  22973749.628   120727900.39047      2501.304    22973750.166    94073702.21946
      1949.066  
  23997271.470   126106519.34746      3619.453    23997276.006    98264834.30845
      2820.352  
  24261014.028   127492497.37946      2447.863    24261017.779    99344818.28044
      1907.421  
  23064477.510   121204650.37948      -587.902    23064477.133    94445182.82746
      -458.108  
  21917738.671   115178520.66748     -2757.820    21917741.299    89749523.00047
     -2148.953  
  21180339.493   111303471.58649      1965.784    21180341.718    86730013.48748
      1531.777  
  21684916.012   113955008.84148     -3012.066    21684916.272    88796129.09446
     -2347.066  
  20445261.667   107440615.37949      -633.332    20445263.725    83719985.98448
      -493.507  
 20 09 28 09 35 45.0000000  0  9G11G12G25G 1G21G24G32G20G10
  23912059.074   125658724.40246      -434.030    23912059.369    97915894.61344
      -338.211  
  22971370.964   120715400.17947      2498.973    22971371.249    94063961.79646
      1947.249  
  23993828.062   126088424.21046      3618.890    23993832.705    98250734.19246
      2819.910  
  24258685.787   127480262.76046      2445.483    24258689.336    99335284.82145
      1905.570  
  23065038.104   121207596.47748      -590.266    23065037.825    94447478.48346
      -459.948  
  21920363.583   115192314.73648     -2759.750    21920366.069    89760271.62147
     -2150.503  
  21178469.852   111293646.80449      1964.245    21178472.041    86722357.81648
      1530.577  
  21687782.794   113970073.56548     -3013.933    21687782.843    88807867.84746
     -2348.522  
  20445865.852   107443790.17549      -636.465    20445867.898    83722459.85048
      -495.949  
 20 09 28 09 35 50.0000000  0  9G11G12G25G 1G21G24G32G20G10
  23912473.555   125660902.98746      -437.277    23912473.940    97917592.21345
      -340.738  
  22968994.582   120702912.04847      2496.715    22968994.742    94054230.80446
      1945.487  
  23990385.167   126070332.64646      3618.124    23990389.714    98236636.90645
      2819.320  
  24256360.160   127468041.13646      2443.604    24256363.728    99325761.46944
      1904.105  
  23065601.164   121210555.97048      -592.909    23065600.982    94449784.58146
      -462.011  
  21922990.384   115206118.98148     -2761.598    21922993.060    89771028.17847
     -2151.897  
  21176601.733   111283829.71349      1962.813    21176604.057    86714708.14148
      1529.460  
  21690651.472   113985148.16848     -3015.612    21690651.603    88819614.28446
     -2349.831  
  20446472.687   107446979.92549      -639.229    20446474.994    83724945.36948
      -498.104  
 20 09 28 09 35 55.0000000  0  9G11G12G25G 1G21G24G32G20G10
  23912891.485   125663098.16246      -440.483    23912891.484    97919302.73445
      -343.238  
  22966620.446   120690436.06947      2494.104    22966620.725    94044509.25646
      1943.457  
  23986943.072   126052244.75346      3617.120    23986947.798    98222542.46045
      2818.534  
  24254036.879   127455832.68146      2440.488    24254040.655    99316248.40344
      1901.676  
  23066166.902   121213528.85248      -595.711    23066166.854    94452101.10946
      -464.195  
  21925619.272   115219933.41248     -2763.742    21925621.751    89781792.66747
     -2153.570  
  21174735.140   111274020.41749      1961.089    21174737.312    86707064.53648
      1528.116  
  21693521.878   114000232.68848     -3017.699    21693522.068    88831368.45046
     -2351.456  
  20447082.587   107450184.69049      -642.421    20447084.779    83727442.58648
      -500.590  
 20 09 28 09 36  0.0000000  0  9G11G12G25G 1G21G24G32G20G10
  23913312.415   125665310.28646      -444.340    23913312.522    97921026.46944
      -346.241  
  22964248.623   120677972.65047      2491.659    22964248.896    94034797.51146
      1941.551  
  23983502.063   126034161.00146      3616.315    23983506.701    98208451.21446
      2817.906  
  24251716.222   127443637.67246      2437.651    24251719.870    99306745.80345
      1899.464  
  23066735.334   121216515.54148      -598.554    23066735.095    94454428.39746
      -466.409  
  21928250.076   115233758.35248     -2765.847    21928252.657    89792565.34947
     -2155.211  
  21172870.060   111264219.26349      1959.460    21172872.276    86699427.27748
      1526.848  
  21696394.360   114015327.49648     -3019.804    21696394.506    88843130.63846
     -2353.097  
  20447695.335   107453404.86149      -645.397    20447697.512    83729951.81048
      -502.909  
 20 09 28 09 36  5.0000000  0  9G11G12G25G 1G21G24G32G20G10
  23913736.412   125667538.25046      -447.234    23913736.457    97922762.53945
      -348.496  
  22961879.050   120665520.70747      2489.069    22961879.285    94025094.69746
      1939.531  
  23980061.372   126016080.26546      3615.503    23980066.082    98194362.35945
      2817.273  
  24249398.074   127431455.09445      2435.401    24249401.634    99297252.89144
      1897.714  
  23067306.043   121219514.95348      -601.457    23067305.834    94456765.60346
      -468.672  
  21930882.595   115247592.61348     -2768.038    21930885.251    89803345.28747
     -2156.891  
  21171006.312   111254425.19949      1958.082    21171008.453    86691795.54348
      1525.773  
  21699268.545   114030431.53348     -3021.895    21699268.851    88854900.00346
     -2354.727  
  20448310.941   107456639.36149      -648.339    20448313.168    83732472.19748
      -505.202  
 20 09 28 09 36 10.0000000  0  9G11G12G25G 1G21G24G32G20G10
  23914163.461   125669782.62546      -450.566    23914163.671    97924511.41044
      -351.093  
  22959511.759   120653080.72747      2486.926    22959512.086    94015401.22546
      1937.859  
  23976621.452   125998003.08346      3614.976    23976626.156    98180276.25145
      2816.863  
  24247082.169   127419285.49845      2432.898    24247085.848    99287770.10245
      1895.762  
  23067879.396   121222527.62848      -603.852    23067879.231    94459113.12946
      -470.535  
  21933517.031   115261436.73148     -2769.684    21933519.555    89814132.91447
     -2158.199  
  21169143.901   111244638.75649      1956.608    21169146.111    86684169.75248
      1524.629  
  21702144.621   114045545.29048     -3023.722    21702144.648    88866676.94246
     -2356.152  
  20448929.209   107459888.72349      -651.387    20448931.502    83735004.17048
      -507.578  
 20 09 28 09 36 15.0000000  0  9G11G12G25G 1G21G24G32G20G10
  23914593.700   125672043.33146      -453.972    23914594.107    97926273.00244
      -353.750  
  22957146.725   120640652.73547      2484.351    22957147.058    94005717.08246
      1935.854  
  23973182.124   125979929.48146      3614.102    23973186.697    98166192.92745
      2816.180  
  24244768.781   127407128.84245      2429.757    24244772.360    99278297.37845
      1893.316  
  23068455.242   121225553.53448      -606.604    23068454.844    94461470.97946
      -472.683  
  21936153.361   115275290.77048     -2771.914    21936156.050    89824928.26447
     -2159.945  
  21167283.024   111234859.90749      1954.770    21167285.219    86676549.86748
      1523.195  
  21705022.432   114060668.69748     -3025.648    21705022.656    88878461.40646
     -2357.651  
  20449550.326   107463152.87249      -654.276    20449552.519    83737547.66048
      -509.827  
 20 09 28 09 36 20.0000000  0  9G11G12G25G 1G21G24G32G20G10
  23915027.188   125674321.10346      -457.421    23915027.498    97928047.88845
      -356.437  
  22954784.237   120628237.46547      2481.781    22954784.290    93996042.84546
      1933.851  
  23969743.712   125961860.12846      3613.667    23969748.117    98152112.92246
      2815.843  
  24242458.119   127394985.88446      2427.046    24242461.566    99268835.34645
      1891.202  
  23069033.732   121228593.36248      -609.617    23069033.311    94463839.67446
      -475.031  
  21938791.784   115289155.46048     -2773.886    21938794.229    89835731.92047
     -2161.473  
  21165423.847   111225089.33349      1953.430    21165426.040    86668936.43648
      1522.147  
  21707902.349   114075802.51448     -3027.930    21707902.397    88890253.99546
     -2359.430  
  20450174.489   107466432.59249      -657.472    20450176.728    83740103.28548
      -512.320  
 20 09 28 09 36 25.0000000  0  9G11G12G25G 1G21G24G32G20G10
  23915463.567   125676614.72846      -460.441    23915464.162    97929835.10745
      -358.789  
  22952423.849   120615833.75947      2479.527    22952424.037    93986377.63146
      1932.098  
  23966305.696   125943793.95146      3612.891    23966310.382    98138035.38145
      2815.233  
  24240149.844   127382855.41346      2424.910    24240153.363    99259383.01744
      1889.538  
  23069614.512   121231645.94648      -611.862    23069614.329    94466218.31546
      -476.781  
  21941431.894   115303029.74148     -2775.742    21941434.601    89846543.05247
     -2162.995  
  21163565.835   111215325.91749      1952.074    21163568.071    86661328.58248
      1521.094  
  21710783.990   114090945.57248     -3029.464    21710784.101    88902053.77946
     -2360.624  
  20450801.312   107469726.66349      -660.309    20450803.622    83742670.09548
      -514.530  
 20 09 28 09 36 30.0000000  0  9G11G12G25G 1G21G24G32G20G10
  23915903.167   125678924.68846      -463.585    23915903.833    97931635.08344
      -361.238  
  22950065.915   120603442.07447      2477.151    22950065.981    93976721.78346
      1930.245  
  23962868.612   125925731.36046      3611.831    23962873.089    98123960.64745
      2814.409  
  24237843.885   127370737.95346      2421.913    24237847.443    99249940.87745
      1887.202  
  23070197.952   121234711.75448      -614.522    23070197.737    94468607.24446
      -478.852  
  21944073.921   115316913.81248     -2777.840    21944076.454    89857361.80947
     -2164.660  
  21161709.522   111205570.14349      1950.288    21161711.587    86653726.68548
      1519.702  
  21713667.488   114106098.33248     -3031.690    21713667.728    88913861.12646
     -2362.359  
  20451431.004   107473035.58849      -663.422    20451433.190    83745248.47748
      -516.956  
 20 09 28 09 36 35.0000000  0  9G11G12G25G 1G21G24G32G20G10
  23916346.033   125681251.56046      -467.179    23916346.434    97933448.23844
      -364.038  
  22947710.270   120591063.01647      2474.573    22947710.320    93967075.77845
      1928.237  
  23959432.095   125907672.96746      3611.374    23959436.809    98109889.18446
      2814.054  
  24235540.763   127358634.09346      2419.582    24235544.176    99240509.28845
      1885.387  
  23070784.070   121237791.32548      -617.163    23070783.555    94471006.91546
      -480.909  
  21946718.026   115330808.27048     -2779.910    21946720.511    89868188.65347
     -2166.168  
  21159854.556   111195822.51249      1948.604    21159856.806    86646131.13248
      1518.390  
  21716552.903   114121261.32448     -3033.659    21716553.058    88925676.44246
     -2363.894  
  20452063.540   107476359.90449      -666.355    20452065.702    83747838.85248
      -519.241  
 20 09 28 09 36 40.0000000  0  9G11G12G25G 1G21G24G32G20G10
  23916791.862   125683594.87146      -470.371    23916792.503    97935274.19144
      -366.526  
  22945356.927   120578696.17747      2472.104    22945357.089    93957439.28346
      1926.313  
  23955996.511   125889618.31946      3610.379    23956000.965    98095820.63345
      2813.277  
  24233239.973   127346543.32646      2416.617    24233243.241    99231087.94144
      1883.078  
  23071372.665   121240884.19348      -620.112    23071372.069    94473416.93746
      -483.206  
  21949363.858   115344712.83448     -2781.984    21949366.515    89879023.38047
     -2167.784  
  21158001.087   111186082.62649      1947.211    21158003.223    86638541.61348
      1517.304  
  21719440.208   114136434.08748     -3035.551    21719440.332    88937499.38046
     -2365.367  
  20452699.119   107479699.17449      -669.367    20452701.129    83750440.88048
      -521.589  
 20 09 28 09 36 45.0000000  0  9G11G12G25G 1G21G24G32G20G10
  23917241.016   125685954.75746      -473.612    23917241.597    97937113.06644
      -369.050  
  22943005.845   120566341.65647      2469.645    22943006.074    93947812.39546
      1924.394  
  23952561.476   125871567.62046      3609.445    23952566.070    98081755.15545
      2812.551  
  24230941.607   127334465.83346      2414.055    24230944.823    99221676.89444
      1881.077  
  23071963.703   121243990.49648      -622.660    23071963.287    94475837.43646
      -485.190  
  21952011.788   115358627.45748     -2784.043    21952014.227    89889865.94247
     -2169.386  
  21156149.144   111176350.60149      1945.594    21156151.374    86630958.22648
      1516.043  
  21722329.223   114151616.74648     -3037.370    21722329.532    88949330.01346
     -2366.784  
  20453337.371   107483053.52349      -672.535    20453339.471    83753054.66148
      -524.055  
 20 09 28 09 36 50.0000000  0  9G11G12G25G 1G21G24G32G20G10
  23917693.149   125688330.79146      -476.824    23917693.590    97938964.52545
      -371.555  
  22940657.255   120553999.04747      2467.288    22940657.240    93938194.78346
      1922.559  
  23949127.163   125853520.30846      3609.128    23949131.612    98067692.34445
      2812.304  
  24228645.912   127322401.15245      2411.663    24228649.088    99212275.83845
      1879.215  
  23072557.209   121247109.79648      -625.187    23072556.930    94478268.05746
      -487.163  
  21954661.454   115372551.73448     -2785.836    21954664.173    89900716.02947
     -2170.785  
  21154298.712   111166626.01149      1944.015    21154300.732    86623380.62548
      1514.812  
  21725220.172   114166808.84648     -3039.687    21725220.447    88961168.01446
     -2368.590  
  20453978.477   107486422.49349      -675.269    20453980.519    83755679.83248
      -526.188  
 20 09 28 09 36 55.0000000  0  9G11G12G25G 1G21G24G32G20G10
  23918148.506   125690723.70946      -480.214    23918149.175    97940829.13244
      -374.194  
  22938310.955   120541669.15547      2464.710    22938311.090    93928587.09446
      1920.551  
  23945693.660   125835477.31346      3608.210    23945697.996    98053632.88445
      2811.594  
  24226352.636   127310350.12545      2409.309    24226355.840    99202885.43345
      1877.378  
  23073153.399   121250242.86048      -627.890    23073153.020    94480709.41346
      -489.270  
  21957313.184   115386486.38748     -2787.808    21957315.772    89911574.19847
     -2172.320  
  21152449.621   111156909.60049      1942.585    21152451.815    86615809.40248
      1513.698  
  21728113.234   114182011.11848     -3041.323    21728113.099    88973013.94046
     -2369.867  
  20454622.440   107489806.88649      -678.429    20454624.738    83758317.02148
      -528.648  
 20 09 28 09 37  0.0000000  0  9G11G12G25G 1G21G24G32G20G10
  23918606.956   125693132.69246      -483.601    23918607.483    97942706.26244
      -376.835  
  22935966.914   120529351.17147      2462.112    22935966.887    93918988.66546
      1918.527  
  23942260.700   125817437.73946      3607.477    23942265.393    98039576.07846
      2811.015  
  24224061.579   127298311.88745      2406.550    24224065.006    99193505.00644
      1875.230  
  23073752.068   121253388.88848      -630.637    23073751.581    94483160.85746
      -491.409  
  21959966.619   115400430.63048     -2790.019    21959969.114    89922439.84347
     -2174.043  
  21150602.044   111147200.57749      1940.832    21150604.105    86608243.93148
      1512.332  
  21731007.804   114197222.80848     -3043.391    21731007.947    88984867.20446
     -2371.476  
  20455269.261   107493205.85949      -681.413    20455271.397    83760965.57248
      -530.977  
 20 09 28 09 37  5.0000000  0  9G11G12G25G 1G21G24G32G20G10
  23919068.639   125695558.38746      -486.565    23919069.049    97944596.42645
      -379.144  
  22933625.187   120517045.71947      2459.870    22933625.375    93909400.00246
      1916.781  
  23938828.744   125799402.34546      3606.805    23938833.332    98025522.54846
      2810.491  
  24221773.430   127286287.20545      2403.578    24221776.681    99184135.13644
      1872.913  
  23074353.387   121256548.49548      -633.229    23074352.817    94485622.88246
      -493.430  
  21962622.159   115414385.11748     -2791.813    21962624.656    89933313.47147
     -2175.441  
  21148755.995   111137499.61949      1939.515    21148758.106    86600684.74848
      1511.309  
  21733904.444   114212444.53748     -3045.406    21733904.551    88996728.28146
     -2373.046  
  20455919.117   107496620.09549      -684.312    20455921.233    83763626.01448
      -533.234  
 20 09 28 09 37 10.0000000  0  9G11G12G25G 1G21G24G32G20G10
  23919533.360   125698000.10646      -489.938    23919533.796    97946499.04944
      -381.772  
  22931285.932   120504752.10247      2457.335    22931285.859    93899820.57246
      1914.805  
  23935397.375   125781370.35046      3605.831    23935401.991    98011471.65646
      2809.738  
  24219487.554   127274275.28345      2401.167    24219490.817    99174775.18655
      1871.035  
  23074956.995   121259720.94548      -635.895    23074956.536    94488094.91846
      -495.504  
  21965279.423   115428349.10348     -2793.867    21965281.908    89944194.50347
     -2177.042  
  21146911.474   111127806.00549      1937.738    21146913.588    86593131.28748
      1509.921  
  21736802.769   114227675.52448     -3047.163    21736802.892    89008596.56346
     -2374.417  
  20456571.445   107500048.63349      -687.315    20456573.517    83766297.60248
      -535.573  
 20 09 28 09 37 15.0000000  0  9G11G12G25G 1G21G24G32G20G10
  23920001.106   125700458.09746      -493.073    23920001.429    97948414.39645
      -384.218  
  22928948.767   120492470.65148      2455.073    22928948.763    93890250.61946
      1913.042  
  23931966.774   125763342.10546      3605.351    23931971.343    97997423.69245
      2809.362  
  24217204.203   127262276.41246      2398.453    24217207.462    99165425.45043
      1868.926  
  23075563.252   121262906.56748      -638.409    23075562.924    94490577.22346
      -497.464  
  21967938.400   115442322.74248     -2795.698    21967941.124    89955083.05047
     -2178.426  
  21145068.069   111118120.00049      1936.546    21145070.297    86585583.75548
      1508.996  
  21739703.038   114242916.13248     -3049.124    21739703.133    89020472.34846
     -2375.944  
  20457226.815   107503492.25149      -690.101    20457228.732    83768980.94048
      -537.746  
 20 09 28 09 37 20.0000000  0  9G11G12G25G 1G21G24G32G20G10
  23920471.784   125702932.46346      -496.390    23920472.147    97950342.46944
      -386.800  
  22926614.049   120480201.43947      2452.414    22926614.087    93880690.20045
      1910.969  
  23928536.756   125745317.73746      3604.538    23928541.322    97983378.73845
      2808.729  
  24214923.318   127250290.74945      2395.523    24214926.559    99156085.96844
      1866.636  
  23076172.007   121266105.43848      -641.304    23076171.508    94493069.83746
      -499.722  
  21970599.482   115456306.23048     -2797.738    21970602.024    89965979.27347
     -2180.059  
  21143226.387   111108441.76949      1934.672    21143228.698    86578042.28148
      1507.535  
  21742605.011   114258166.38748     -3051.035    21742605.043    89032355.65546
     -2377.434  
  20457884.852   107506950.78949      -693.273    20457886.870    83771675.90548
      -540.214  
 20 09 28 09 37 25.0000000  0  9G11G12G25G 1G21G24G32G20G10
  23920945.950   125705424.00246      -499.729    23920946.053    97952283.91144
      -389.406  
  22924281.826   120467945.36947      2450.315    22924281.831    93871140.03146
      1909.335  
  23925107.878   125727298.11246      3603.875    23925112.379    97969337.47545
      2808.210  
  24212645.320   127238319.22545      2393.043    24212648.714    99146757.51243
      1864.706  
  23076783.428   121269318.41348      -643.797    23076783.010    94495573.45946
      -501.664  
  21973262.442   115470300.39848     -2799.613    21973264.882    89976883.82347
     -2181.484  
  21141386.422   111098772.12549      1933.417    21141388.574    86570507.49948
      1506.555  
  21745509.092   114273427.21948     -3053.085    21745509.188    89044247.20546
     -2379.030  
  20458546.123   107510425.13749      -696.116    20458548.184    83774383.18848
      -542.433  
 20 09 28 09 37 30.0000000  0  9G11G12G25G 1G21G24G32G20G10
  23921422.933   125707931.22246      -503.027    23921423.243    97954237.57944
      -391.972  
  22921951.707   120455700.91848      2447.800    22921951.523    93861598.90346
      1907.374  
  23921679.436   125709281.65446      3602.874    23921683.852    97955298.66845
      2807.433  
  24210369.511   127226360.14345      2390.581    24210373.085    99137438.75444
      1862.788  
  23077397.126   121272543.95048      -646.343    23077396.785    94498086.86046
      -503.648  
  21975927.152   115484303.73048     -2801.616    21975929.702    89987795.50547
     -2183.081  
  21139547.603   111089109.53749      1931.749    21139549.907    86562978.21648
      1505.258  
  21748414.891   114288697.01048     -3054.883    21748414.827    89056145.74946
     -2380.430  
  20459209.859   107513913.75049      -699.847    20459211.945    83777101.58548
      -545.340  
 20 09 28 09 37 35.0000000  0  9G11G12G25G 1G21G24G32G20G10
  23921903.155   125710455.33846      -506.387    23921903.560    97956204.46045
      -394.589  
  22919624.210   120443469.30448      2445.262    22919623.927    93852067.78746
      1905.394  
  23918251.906   125691269.64147      3601.863    23918256.345    97941263.34945
      2806.644  
  24208096.215   127214414.86245      2387.629    24208100.033    99128130.76944
      1860.492  
  23078013.623   121275783.25948      -649.418    23078013.197    94500610.99746
      -506.043  
  21978593.922   115498317.45148     -2803.628    21978596.487    89998715.29147
     -2184.690  
  21137710.495   111079455.22049      1930.246    21137712.707    86555455.37648
      1504.085  
  21751322.578   114303977.01248     -3057.027    21751322.660    89068052.24546
     -2382.101  
  20459876.647   107517417.86749      -702.137    20459878.879    83779832.06648
      -547.121  
 20 09 28 09 37 40.0000000  0  9G11G12G25G 1G21G24G32G20G10
  23922386.564   125712996.16746      -509.558    23922387.131    97958184.35244
      -397.059  
  22917299.001   120431250.37447      2442.289    22917298.795    93842546.54146
      1903.078  
  23914825.111   125673261.84046      3601.085    23914829.589    97927231.29645
      2806.039  
  24205825.812   127202483.18645      2385.039    24205829.742    99118833.33744
      1858.469  
  23078632.634   121279036.18248      -652.151    23078632.298    94503145.73746
      -508.175  
  21981262.597   115512341.28148     -2805.726    21981264.970    90009642.94147
     -2186.284  
  21135874.719   111069808.99749      1928.394    21135876.978    86547938.84048
      1502.640  
  21754231.923   114319266.97248     -3059.102    21754232.202    89079966.49046
     -2383.719  
  20460546.480   107520937.17749      -705.426    20460548.520    83782574.38748
      -549.688  
 20 09 28 09 37 45.0000000  0  9G11G12G25G 1G21G24G32G20G10
  23922873.025   125715553.25845      -512.644    23922873.701    97960176.90145
      -399.465  
  22914976.099   120419043.63148      2440.234    22914975.932    93833034.80546
      1901.476  
  23911399.040   125655257.87146      3600.469    23911403.531    97913202.22146
      2805.558  
  24203557.717   127190564.61246      2382.683    24203561.643    99109546.16344
      1856.636  
  23079254.112   121282302.22748      -654.405    23079253.835    94505690.69946
      -509.929  
  21983932.995   115526374.65748     -2807.534    21983935.656    90020578.04547
     -2187.691  
  21134040.625   111060170.39149      1927.113    21134042.959    86540428.24648
      1501.644  
  21757143.384   114334566.45748     -3060.934    21757143.666    89091888.16647
     -2385.145  
  20461218.974   107524471.28249      -708.223    20461221.069    83785328.23448
      -551.862  
 20 09 28 09 37 50.0000000  0  9G11G12G25G 1G21G24G32G20G10
  23923362.604   125718126.04546      -515.883    23923363.311    97962181.64844
      -401.988  
  22912655.501   120406848.58748      2437.668    22912655.469    93823532.17946
      1899.477  
  23907973.723   125637257.14546      3599.972    23907978.050    97899175.73345
      2805.175  
  24201292.048   127178658.59746      2379.738    24201295.940    99100268.74044
      1854.339  
  23079877.854   121285580.79648      -657.059    23079877.764    94508245.43046
      -511.996  
  21986605.328   115540417.17548     -2809.602    21986607.773    90031520.26147
     -2189.305  
  21132207.701   111050538.87149      1925.430    21132210.158    86532923.17048
      1500.331  
  21760056.394   114349874.86848     -3062.808    21760056.629    89103816.79446
     -2386.605  
  20461894.131   107528019.63449      -711.336    20461896.305    83788093.18448
      -554.289  
 20 09 28 09 37 55.0000000  0  9G11G12G25G 1G21G24G32G20G10
  23923855.181   125720715.86746      -519.238    23923856.083    97964199.68544
      -404.604  
  22910337.373   120394666.65048      2435.332    22910337.211    93814039.76946
      1897.655  
  23904549.184   125619261.10146      3598.620    23904553.541    97885152.84746
      2804.120  
  24199029.114   127166766.61046      2377.241    24199033.050    99091002.26854
      1852.394  
  23080504.464   121288873.34048      -659.781    23080504.391    94510811.04846
      -514.116  
  21989279.548   115554470.23648     -2811.520    21989281.843    90042470.69547
     -2190.796  
  21130376.501   111040915.81949      1923.972    21130378.824    86525424.69448
      1499.194  
  21762971.533   114365193.59148     -3064.815    21762971.784    89115753.46246
     -2388.171  
  20462572.339   107531583.63749      -714.148    20462574.489    83790870.32648
      -556.484  
 20 09 28 09 38  0.0000000  0  9G11G12G25G 1G21G24G32G20G10
  23924351.194   125723322.15046      -522.464    23924351.959    97966230.55845
      -407.116  
  22908021.699   120382497.19747      2432.797    22908021.595    93804557.08246
      1895.683  
  23901125.411   125601269.11746      3598.000    23901129.964    97871133.11945
      2803.633  
  24196768.625   127154887.94246      2374.796    24196772.600    99081746.16945
      1850.488  
  23081133.558   121292179.16148      -662.215    23081133.490    94513387.01246
      -516.016  
  21991955.665   115568533.26248     -2813.422    21991957.896    90053428.90347
     -2192.281  
  21128546.818   111031300.61749      1922.308    21128549.203    86517932.32848
      1497.897  
  21765888.361   114380521.99948     -3066.570    21765888.670    89127697.68246
     -2389.539  
  20463253.405   107535162.63549      -717.171    20463255.580    83793659.15748
      -558.839  
 20 09 28 09 38  5.0000000  0  9G11G12G25G 1G21G24G32G20G10
  23924849.931   125725943.87346      -526.281    23924850.873    97968273.46345
      -410.094  
  22905708.087   120370339.27647      2430.312    22905707.922    93795083.38746
      1893.745  
  23897702.186   125583280.26046      3597.394    23897706.638    97857115.86045
      2803.160  
  24194510.664   127143021.74546      2371.968    24194514.529    99072499.77755
      1848.285  
  23081764.948   121295497.35148      -664.938    23081764.798    94515972.61046
      -518.137  
  21994633.495   115582605.13448     -2815.430    21994635.631    90064393.99747
     -2193.843  
  21126718.470   111021692.30049      1920.766    21126720.794    86510445.32848
      1496.699  
  21768807.078   114395859.11648     -3068.543    21768807.265    89139648.68546
     -2391.073  
  20463937.133   107538755.71049      -720.113    20463939.121    83796458.95548
      -561.129  
 20 09 28 09 38 10.0000000  0  9G11G12G25G 1G21G24G32G20G10
  23925352.079   125728582.55346      -529.655    23925352.956    97970329.56944
      -412.722  
  22903396.905   120358194.46148      2427.550    22903396.636    93785619.89946
      1891.593  
  23894279.890   125565296.03946      3596.413    23894284.479    97843102.19345
      2802.401  
  24192255.357   127131169.55946      2369.375    24192259.274    99063264.29244
      1846.262  
  23082399.002   121298829.45848      -667.948    23082398.998    94518569.05746
      -520.483  
  21997313.232   115596687.27648     -2817.355    21997315.572    90075367.09947
     -2195.344  
  21124891.658   111012092.43349      1919.117    21124893.864    86502964.92048
      1495.413  
  21771727.503   114411206.48948     -3070.624    21771727.815    89151607.66246
     -2392.699  
  20464623.909   107542364.39849      -723.402    20464625.854    83799270.91948
      -563.690  
 20 09 28 09 38 15.0000000  0  9G11G12G25G 1G21G24G32G20G10
  23925857.328   125731237.49846      -532.211    23925857.926    97972398.36644
      -414.715  
  22901088.072   120346061.93348      2425.477    22901087.872    93776165.99046
      1889.979  
  23890858.220   125547315.76046      3596.027    23890862.733    97829091.58646
      2802.097  
  24190002.452   127119330.55845      2366.590    24190006.435    99054039.13545
      1844.097  
  23083035.573   121302174.65948      -670.102    23083035.422    94521175.69746
      -522.160  
  21999994.865   115610779.04148     -2819.172    21999996.993    90086347.69247
     -2196.733  
  21123066.347   111002500.23549      1917.698    21123068.637    86495490.48048
      1494.308  
  21774649.846   114426563.32148     -3072.222    21774650.266    89163574.01846
     -2393.940  
  20465313.338   107545987.90249      -726.094    20465315.491    83802094.42848
      -565.788  
 20 09 28 09 38 20.0000000  0  9G11G12G25G 1G21G24G32G20G10
  23926365.613   125733908.65146      -536.069    23926366.033    97974479.79144
      -417.718  
  22898781.697   120333941.75647      2422.729    22898781.563    93766721.69846
      1887.840  
  23887437.494   125529339.40846      3594.901    23887442.137    97815084.07145
      2801.219  
  24187751.940   127107504.75645      2364.058    24187755.904    99044824.21143
      1842.120  
  23083674.615   121305532.97448      -673.034    23083674.487    94523792.56546
      -524.445  
  22002678.195   115624880.60048     -2821.253    22002680.361    90097335.91647
     -2198.383  
  21121242.379   110992915.71649      1916.113    21121244.872    86488022.03048
      1493.069  
  21777573.912   114441929.60848     -3073.977    21777574.195    89175547.73646
     -2395.308  
  20466005.812   107549626.22349      -729.101    20466007.833    83804929.48348
      -568.133  
 20 09 28 09 38 25.0000000  0  9G11G12G25G 1G21G24G32G20G10
  23926877.126   125736596.23046      -538.819    23926877.421    97976573.99644
      -419.863  
  22896477.778   120321834.14147      2420.324    22896477.732    93757287.20746
      1885.964  
  23884017.468   125511367.20746      3594.352    23884021.820    97801079.75545
      2800.789  
  24185504.181   127095692.45146      2361.125    24185507.901    99035619.86044
      1839.839  
  23084316.321   121308904.59648      -675.703    23084316.037    94526419.79146
      -526.522  
  22005363.449   115638991.98448     -2823.277    22005365.683    90108331.79947
     -2199.862  
  21119420.125   110983339.08049      1914.565    21119422.325    86480559.72448
      1491.866  
  21780499.877   114457305.56548     -3075.937    21780500.319    89187529.00446
     -2396.835  
  20466700.956   107553279.60349      -732.125    20466703.102    83807776.27648
      -570.487  
 20 09 28 09 38 30.0000000  0  9G11G12G25G 1G21G24G32G20G10
  23927391.707   125739300.30746      -542.266    23927392.223    97978681.08644
      -422.546  
  22894176.136   120309739.11747      2417.901    22894176.119    93747862.51846
      1884.077  
  23880598.251   125493399.22446      3593.164    23880602.613    97787078.73845
      2799.862  
  24183258.854   127083893.64746      2358.651    24183262.436    99026425.96044
      1837.906  
  23084960.467   121312289.57548      -678.559    23084960.270    94529057.44046
      -528.749  
  22008050.785   115653113.09448     -2825.062    22008052.949    90119335.26747
     -2201.418  
  21117599.197   110973770.38749      1913.077    21117601.509    86473103.60248
      1490.706  
  21783427.729   114472691.24848     -3078.382    21783427.894    89199517.84046
     -2398.742  
  20467399.133   107556948.07949      -735.129    20467401.051    83810634.82448
      -572.832  
 20 09 28 09 38 35.0000000  0  9G11G12G25G 1G21G24G32G20G10
  23927909.087   125742019.81845      -545.690    23927909.645    97980800.18944
      -425.218  
  22891876.590   120297655.73747      2415.421    22891876.617    93738446.91046
      1882.144  
  23877179.642   125475434.46846      3592.679    23877184.043    97773080.23446
      2799.488  
  24181016.040   127072107.30146      2355.602    24181019.587    99017241.80845
      1835.531  
  23085606.915   121315686.90248      -681.109    23085606.706    94531704.70946
      -530.738  
  22010739.435   115667242.95448     -2827.121    22010741.726    90130345.54547
     -2202.952  
  21115779.601   110964208.59149      1911.492    21115781.916    86465652.85848
      1489.473  
  21786357.129   114488085.56748     -3080.155    21786357.486    89211513.40646
     -2400.124  
  20468099.794   107560630.57749      -738.030    20468101.937    83813504.30448
      -575.094  
 20 09 28 09 38 40.0000000  0  9G11G12G25G 1G21G24G32G20G10
  23928429.910   125744756.88546      -549.085    23928430.147    97982932.96444
      -427.863  
  22889579.893   120285586.13547      2412.645    22889580.032    93729042.02646
      1879.980  
  23873762.165   125457475.01046      3591.480    23873766.270    97759085.86945
      2798.554  
  24178775.850   127060335.58546      2352.539    24178779.694    99008069.06955
      1833.144  
  23086256.222   121319098.71848      -683.809    23086256.092    94534363.27246
      -532.840  
  22013430.402   115681383.82848     -2829.249    22013432.668    90141364.41247
     -2204.613  
  21113961.721   110954655.81949      1909.769    21113964.269    86458209.14648
      1488.129  
  21789288.598   114503490.66648     -3082.202    21789289.004    89223517.35846
     -2401.718  
  20468803.680   107564329.24649      -741.187    20468805.764    83816386.38648
      -577.550  
 20 09 28 09 38 45.0000000  0  9G11G12G25G 1G21G24G32G20G10
  23928953.798   125747509.34246      -552.362    23928954.003    97985077.75445
      -430.418  
  22887285.309   120273528.17047      2410.640    22887285.411    93719646.22146
      1878.417  
  23870345.065   125439518.77746      3590.977    23870349.475    97745094.00945
      2798.160  
  24176538.212   127048576.37346      2350.667    24176542.102    98998906.03745
      1831.688  
  23086907.789   121322522.79348      -685.965    23086907.639    94537031.37246
      -534.519  
  22016123.051   115695533.38948     -2830.770    22016125.347    90152390.04547
     -2205.796  
  21112145.176   110945109.96549      1908.526    21112147.593    86450770.82048
      1487.159  
  21792221.809   114518904.39148     -3083.647    21792222.227    89235528.04246
     -2402.847  
  20469510.044   107568041.96349      -743.917    20469512.254    83819279.40748
      -579.680  
 20 09 28 09 38 50.0000000  0  9G11G12G25G 1G21G24G32G20G10
  23929480.743   125750278.61146      -555.565    23929480.989    97987235.61144
      -432.910  
  22884993.203   120261483.26247      2407.883    22884993.222    93710260.59046
      1876.270  
  23866929.126   125421567.20746      3590.086    23866933.106    97731105.76645
      2797.465  
  24174303.262   127036831.10346      2347.554    24174306.840    98989753.88654
      1829.262  
  23087562.028   121325960.59348      -688.890    23087561.854    94539710.18046
      -536.801  
  22018817.438   115709692.92648     -2832.734    22018819.703    90163423.44947
     -2207.327  
  21110330.341   110935572.44749      1906.684    21110332.604    86443338.99248
      1485.722  
  21795156.909   114534328.16348     -3085.688    21795157.166    89247546.56346
     -2404.434  
  20470219.647   107571770.16749      -747.063    20470221.692    83822184.50148
      -582.128  
 20 09 28 09 38 55.0000000  0  9G11G12G25G 1G21G24G32G20G10
  23930010.907   125753064.07946      -558.688    23930011.137    97989406.10244
      -435.344  
  22882703.335   120249450.83147      2404.941    22882703.529    93700884.67846
      1873.977  
  23863513.755   125403619.68846      3589.155    23863517.680    97717120.69845
      2796.741  
  24172070.772   127025099.10246      2345.055    24172074.480    98980612.05745
      1827.313  
  23088218.770   121329411.44948      -691.563    23088218.552    94542399.15446
      -538.883  
  22021513.917   115723862.14148     -2834.637    22021516.006    90174464.39347
     -2208.812  
  21108516.845   110926042.61449      1905.194    21108519.335    86435913.14848
      1484.565  
  21798093.701   114549761.29548     -3087.441    21798094.001    89259572.38046
     -2405.800  
  20470931.916   107575513.17049      -750.012    20470934.046    83825101.12848
      -584.429  
 20 09 28 09 39  0.0000000  0  9G11G12G25G 1G21G24G32G20G10
  23930543.897   125755865.27246      -561.402    23930543.860    97991588.85744
      -437.460  
  22880416.012   120237430.36847      2402.729    22880416.297    93691518.09746
      1872.254  
  23860099.180   125385675.75846      3588.715    23860103.032    97703138.41245
      2796.397  
  24169840.507   127013379.94646      2342.926    24169844.402    98971480.26254
      1825.652  
  23088877.790   121332874.90548      -693.672    23088877.450    94545097.95246
      -540.527  
  22024211.892   115738040.50348     -2836.394    22024214.058    90185512.46447
     -2210.180  
  21106704.869   110916520.02449      1903.948    21106707.043    86428492.95748
      1483.594  
  21801032.188   114565203.40048     -3088.972    21801032.540    89271605.17646
     -2406.996  
  20471646.854   107579270.56849      -752.703    20471648.864    83828028.96948
      -586.523  
 20 09 28 09 39  5.0000000  0  9G11G12G25G 1G21G24G32G20G10
  23931080.223   125758683.30946      -565.414    23931080.123    97993784.73444
      -440.586  
  22878130.932   120225422.97147      2399.914    22878131.283    93682161.68946
      1870.059  
  23856685.548   125367736.52846      3587.538    23856689.230    97689159.80546
      2795.479  
  24167613.102   127001674.82345      2339.859    24167616.865    98962359.37044
      1823.266  
  23089539.631   121336352.06048      -696.824    23089539.290    94547807.41846
      -542.983  
  22026911.782   115752228.89648     -2838.601    22026914.043    90196568.35547
     -2211.901  
  21104894.235   110907005.76749      1902.141    21104896.692    86421079.24948
      1482.184  
  21803972.615   114580655.50848     -3091.229    21803972.848    89283645.77446
     -2408.754  
  20472364.842   107583043.40349      -756.050    20472366.842    83830968.84448
      -589.133  
 20 09 28 09 39 10.0000000  0  9G11G12G25G 1G21G24G32G20G10
  23931619.520   125761517.61745      -568.707    23931619.662    97995993.33545
      -443.145  
  22875848.507   120213428.21647      2397.390    22875848.850    93672815.13446
      1868.094  
  23853272.675   125349801.54246      3586.246    23853276.400    97675184.49446
      2794.473  
  24165388.305   126989983.12446      2336.918    24165391.778    98953248.98045
      1820.973  
  23090203.799   121339842.40748      -699.737    23090203.590    94550527.17746
      -545.253  
  22029613.573   115766426.99648     -2840.765    22029615.752    90207631.81147
     -2213.586  
  21103085.293   110897499.39949      1900.308    21103087.562    86413671.69548
      1480.757  
  21806914.980   114596117.14848     -3093.406    21806915.113    89295693.79746
     -2410.448  
  20473085.685   107586831.24149      -759.319    20473087.758    83833920.40448
      -591.679  
 20 09 28 09 39 15.0000000  0  9G11G12G25G 1G21G24G32G20G10
  23932164.288   125764380.67146      -574.690    23932164.497    97998224.25144
      -447.816  
  22873570.686   120201458.49947      2392.550    22873571.084    93663488.09346
      1864.320  
  23849862.964   125331883.17346      3583.167    23849866.796    97661222.14345
      2792.078  
  24163168.328   126978317.44146      2331.766    24163171.873    98944158.83844
      1816.956  
  23090872.883   121343358.40848      -704.645    23090872.468    94553266.90546
      -549.077  
  22032319.748   115780647.13848     -2845.020    22032321.837    90218712.43247
     -2216.902  
  21101280.173   110888013.30449      1896.354    21101282.359    86406279.93848
      1477.676  
  21809861.342   114611600.73248     -3097.694    21809861.524    89307758.91946
     -2413.793  
  20473811.652   107590646.47349      -764.480    20473813.786    83836893.30848
      -595.703  
 20 09 28 09 39 20.0000000  0 10G11G12G25G 1G31G21G24G32G20G10
  23932710.252   125767249.29546      -574.145    23932710.371    98000459.51644
      -447.387  
  22871293.237   120189490.76847      2393.473    22871293.533    93654162.58946
      1865.038  
  23846451.900   125313958.41246      3585.905    23846455.681    97647254.82146
      2794.214  
  24160948.911   126966654.51145      2332.770    24160952.577    98935070.84844
      1817.737  
  24470460.647   128593139.34856      3945.690    24470461.591   100202453.55255
      3074.562  
  23091542.364   121346876.93048      -703.690    23091542.111    94556008.60646
      -548.336  
  22035025.531   115794866.28148     -2843.538    22035027.742    90229792.28647
     -2215.746  
  21099474.495   110878524.40449      1898.319    21099476.658    86398885.99148
      1479.206  
  21812807.675   114627083.09348     -3096.034    21812807.924    89319823.09146
     -2412.500  
  20474538.584   107594466.02249      -764.234    20474540.561    83839869.58048
      -595.511  
 20 09 28 09 39 25.0000000  0 10G11G12G25G 1G31G21G24G32G20G10
  23933257.930   125770127.01846      -577.269    23933257.995    98002701.91244
      -449.828  
  22869016.922   120177528.42947      2390.921    22869017.224    93644841.29746
      1863.055  
  23843040.210   125296030.70246      3585.093    23843044.517    97633285.20645
      2793.581  
  24158730.631   126954997.87146      2329.690    24158734.342    98925987.76655
      1815.339  
  24466707.316   128573412.80946      3944.929    24466709.211   100187082.24645
      3073.972  
  23092213.195   121350401.41948      -706.460    23092212.708    94558754.96246
      -550.492  
  22037731.707   115809087.70748     -2845.473    22037733.843    90240873.90947
     -2217.254  
  21097668.983   110869036.12449      1896.699    21097671.214    86391492.53048
      1477.945  
  21815754.180   114642567.70648     -3097.941    21815754.621    89331889.00846
     -2413.984  
  20475266.834   107598293.28349      -767.090    20475268.796    83842851.86148
      -597.734  
 20 09 28 09 39 30.0000000  0 10G11G12G25G 1G31G21G24G32G20G10
  23933809.070   125773023.12246      -581.210    23933809.239    98004958.60044
      -452.895  
  22866743.354   120165580.84748      2387.848    22866743.614    93635531.49446
      1860.656  
  23839629.839   125278109.39246      3583.522    23839634.135    97619320.57345
      2792.355  
  24156515.380   126943356.89946      2326.241    24156519.119    98916916.86145
      1812.651  
  24462954.553   128553691.27746      3943.973    24462955.511   100171714.81845
      3073.223  
  23092886.830   121353941.20648      -709.323    23092886.507    94561513.24546
      -552.722  
  22040440.169   115823320.83348     -2848.035    22040442.387    90251964.66247
     -2219.249  
  21095865.185   110859557.81749      1894.640    21095867.462    86384106.84148
      1476.339  
  21818702.969   114658063.91848     -3100.594    21818703.184    89343963.97646
     -2416.051  
  20475998.326   107602137.64349      -770.559    20476000.444    83845847.46348
      -600.437  
 20 09 28 09 39 35.0000000  0 10G11G12G25G 1G31G21G24G32G20G10
  23934363.668   125775937.40046      -584.336    23934363.827    98007229.48445
      -455.327  
  22864472.621   120153647.87448      2385.082    22864472.919    93626233.06746
      1858.503  
  23836220.699   125260194.27146      3582.508    23836225.005    97605360.75845
      2791.565  
  24154303.239   126931731.33446      2323.996    24154306.797    98907857.99154
      1810.901  
  24459202.278   128533974.60046      3943.245    24459203.697   100156351.20446
      3072.660  
  23093563.358   121357496.10448      -712.238    23093562.985    94564283.27946
      -554.991  
  22043150.915   115837565.46148     -2849.874    22043153.110    90263064.37047
     -2220.683  
  21094063.485   110850089.28949      1892.937    21094065.684    86376728.76748
      1475.011  
  21821654.062   114673571.48648     -3102.456    21821654.242    89356047.78346
     -2417.504  
  20476733.064   107605998.87649      -773.745    20476735.281    83848856.21748
      -602.922  
 20 09 28 09 39 40.0000000  0 10G11G12G25G 1G31G21G24G32G20G10
  23934921.492   125778868.06846      -587.827    23934921.620    98009513.11745
      -458.051  
  22862204.342   120141727.73747      2382.749    22862204.392    93616944.67046
      1856.683  
  23832812.356   125242283.62246      3581.832    23832816.715    97591404.41145
      2791.035  
  24152093.597   126920119.49346      2320.805    24152097.520    98898809.80944
      1808.417  
  24455450.916   128514261.02646      3942.784    24455452.772   100140990.00945
      3072.301  
  23094242.373   121361064.26048      -714.941    23094241.899    94567063.66146
      -557.102  
  22045863.365   115851819.69948     -2851.762    22045865.564    90274171.57147
     -2222.156  
  21092263.141   110840628.76149      1891.343    21092265.376    86369356.93448
      1473.770  
  21824606.876   114689088.62848     -3104.301    21824607.253    89368139.05946
     -2418.938  
  20477470.859   107609875.20449      -776.745    20477472.800    83851876.73248
      -605.262  
 20 09 28 09 39 45.0000000  0 10G11G12G25G 1G31G21G24G32G20G10
  23935482.310   125781815.02946      -590.781    23935482.253    98011809.47145
      -460.352  
  22859938.520   120129820.32747      2380.223    22859938.634    93607666.17646
      1854.714  
  23829405.000   125224377.31646      3580.621    23829409.165    97577451.43745
      2790.089  
  24149886.536   126908521.18546      2318.230    24149890.583    98889772.17955
      1806.409  
  24451700.063   128494550.47246      3941.770    24451701.864   100125631.16946
      3071.507  
  23094923.837   121364645.65848      -717.433    23094923.493    94569854.36146
      -559.042  
  22048577.696   115866083.44748     -2853.808    22048579.956    90285286.17847
     -2223.749  
  21090464.477   110831176.12649      1889.797    21090466.775    86361991.24548
      1472.565  
  21827561.578   114704615.28448     -3106.370    21827561.724    89380237.74846
     -2420.551  
  20478211.301   107613766.53449      -779.776    20478213.242    83854908.93848
      -607.621  
 20 09 28 09 39 50.0000000  0 10G11G12G25G 1G31G21G24G32G20G10
  23936046.199   125784778.53646      -594.656    23936046.060    98014118.69844
      -463.370  
  22857674.980   120117925.90847      2377.374    22857675.048    93598397.79646
      1852.496  
  23825998.408   125206475.58446      3579.973    23826002.530    97563502.02546
      2789.585  
  24147681.989   126896936.71145      2315.609    24147686.007    98880745.33645
      1804.367  
  24447949.734   128474843.11046      3941.270    24447951.548   100110274.81546
      3071.121  
  23095607.978   121368240.49848      -720.207    23095607.544    94572655.52946
      -561.202  
  22051293.932   115880357.05548     -2855.527    22051296.041    90296408.47047
     -2225.089  
  21088667.152   110821731.61949      1888.272    21088669.409    86354631.89248
      1471.378  
  21830517.952   114720151.60548     -3108.183    21830518.145    89392343.95546
     -2421.965  
  20478954.791   107617673.06849      -782.707    20478956.615    83857952.99048
      -609.906  
 20 09 28 09 39 55.0000000  0 10G11G12G25G 1G31G21G24G32G20G10
  23936613.685   125787760.44246      -597.628    23936613.651    98016442.26145
      -465.688  
  22855414.499   120106046.46447      2374.977    22855414.620    93589141.09846
      1850.628  
  23822593.136   125188580.44846      3578.972    23822596.997    97549557.77845
      2788.809  
  24145480.630   126885368.02345      2312.539    24145484.434    98871730.76345
      1801.976  
  24444200.589   128455141.00446      3940.367    24444202.381   100094922.54046
      3070.414  
  23096294.972   121371850.74048      -723.386    23096294.529    94575468.71246
      -563.680  
  22054012.286   115894642.41448     -2858.055    22054014.378    90307539.91647
     -2227.059  
  21086871.915   110812297.20849      1886.301    21086874.231    86347280.40848
      1469.839  
  21833476.612   114735699.59048     -3110.531    21833477.008    89404459.25446
     -2423.792  
  20479701.315   107621596.79849      -786.104    20479703.414    83861010.44448
      -612.555  
 20 09 28 09 40  0.0000000  0 10G11G12G25G 1G31G21G24G32G20G10
  23937184.060   125790757.43946      -601.137    23937183.945    98018777.55245
      -468.426  
  22853156.110   120094178.55148      2372.144    22853156.194    93579893.37546
      1848.422  
  23819188.404   125170688.42846      3577.792    23819192.252    97535615.95045
      2787.886  
  24143281.381   126873811.70545      2309.793    24143285.309    98862725.87044
      1799.840  
  24440451.762   128435440.65747      3939.460    24440453.466   100079571.64046
      3069.706  
  23096984.213   121375472.88048      -725.401    23096983.964    94578291.14646
      -565.250  
  22056732.363   115908936.07348     -2859.597    22056734.370    90318677.82947
     -2228.261  
  21085077.834   110802869.43849      1884.874    21085080.278    86339934.09448
      1468.730  
  21836436.840   114751255.75548     -3112.301    21836437.107    89416580.92746
     -2425.172  
  20480450.699   107625534.24449      -788.922    20480452.655    83864078.58448
      -614.745  
 20 09 28 09 40  5.0000000  0 10G11G12G25G 1G31G21G24G32G20G10
  23937757.296   125793769.63046      -604.879    23937757.168    98021124.70945
      -471.335  
  22850900.048   120082322.39948      2369.918    22850899.976    93570654.82346
      1846.688  
  23815784.278   125152799.81146      3576.914    23815788.297    97521676.79145
      2787.207  
  24141084.636   126862267.95246      2307.414    24141088.600    98853730.71745
      1797.980  
  24436703.371   128415742.26147      3939.046    24436704.801   100064222.26546
      3069.386  
  23097675.931   121379107.19448      -728.316    23097675.582    94581123.08346
      -567.522  
  22059453.930   115923238.10048     -2861.512    22059456.100    90329822.26447
     -2229.754  
  21083285.076   110793448.55449      1883.121    21083287.530    86332593.15448
      1467.362  
  21839398.806   114766820.30648     -3114.242    21839399.161    89428709.13646
     -2426.683  
  20481202.558   107629485.66349      -792.011    20481204.593    83867157.61248
      -617.156  
 20 09 28 09 40 10.0000000  0 10G11G12G25G 1G31G21G24G32G20G10
  23938333.776   125796798.92646      -607.530    23938333.905    98023485.22644
      -473.398  
  22848646.583   120070480.04847      2366.952    22848646.647    93561427.03546
      1844.375  
  23812381.269   125134916.56746      3576.129    23812385.239    97507741.80846
      2786.589  
  24138890.712   126850738.86546      2303.949    24138894.885    98844747.03753
      1795.285  
  24432955.400   128396047.91747      3938.366    24432956.953   100048876.05046
      3068.858  
  23098370.138   121382755.62448      -731.043    23098369.862    94583966.00946
      -569.648  
  22062177.436   115937550.59448     -2863.769    22062179.516    90340974.85647
     -2231.511  
  21081494.028   110784036.56549      1881.387    21081496.504    86325259.13948
      1466.012  
  21842362.659   114782395.24248     -3116.026    21842362.892    89440845.46246
     -2428.078  
  20481957.655   107633453.03549      -795.035    20481959.703    83870249.06748
      -619.512  
 20 09 28 09 40 15.0000000  0 10G11G12G25G 1G31G21G24G32G20G10
  23938913.476   125799844.39646      -610.832    23938913.500    98025858.32044
      -475.976  
  22846395.418   120058650.31648      2364.354    22846395.546    93552209.05946
      1842.352  
  23808978.969   125117037.57946      3575.171    23808983.155    97493810.15545
      2785.843  
  24136699.504   126839223.14345      2301.984    24136703.331    98835773.73945
      1793.749  
  24429208.480   128376356.40547      3937.750    24429209.860   100033532.01746
      3068.374  
  23099066.988   121386417.00348      -733.609    23099066.624    94586819.04346
      -571.647  
  22064902.806   115951872.45048     -2865.499    22064904.898    90352134.74347
     -2232.858  
  21079704.515   110774632.30249      1879.858    21079706.933    86317931.14848
      1464.824  
  21845328.215   114797979.40748     -3117.809    21845328.313    89452988.96146
     -2429.464  
  20482715.395   107637435.20649      -797.945    20482717.476    83873352.05648
      -621.776  
 20 09 28 09 40 20.0000000  0 10G11G12G25G 1G31G21G24G32G20G10
  23939495.977   125802905.86446      -613.535    23939496.081    98028243.86445
      -478.082  
  22844146.724   120046833.19047      2362.293    22844146.618    93543000.91946
      1840.745  
  23805577.439   125099162.85446      3574.418    23805581.568    97479881.81746
      2785.258  
  24134510.558   126827720.93545      2299.315    24134514.123    98826810.98654
      1791.672  
  24425461.846   128356667.74147      3937.375    24425463.221   100018190.21946
      3068.081  
  23099766.094   121390091.36148      -736.315    23099765.785    94589682.17746
      -573.758  
  22067629.915   115966203.66248     -2867.202    22067631.998    90363301.91747
     -2234.187  
  21077916.342   110765235.73149      1878.578    21077918.834    86310609.14948
      1463.824  
  21848295.471   114813572.78748     -3119.538    21848295.750    89465139.64846
     -2430.812  
  20483475.998   107641432.16949      -800.852    20483477.959    83876466.57348
      -624.042  
 20 09 28 09 40 25.0000000  0 10G11G12G25G 1G31G21G24G32G20G10
  23940081.982   125805984.06046      -617.054    23940081.884    98030642.44244
      -480.824  
  22841900.512   120035029.29747      2359.477    22841900.567    93533803.09046
      1838.551  
  23802176.950   125081292.94746      3573.601    23802181.031    97465957.21745
      2784.620  
  24132324.475   126816232.74145      2295.891    24132328.282    98817859.14745
      1789.004  
  24421715.937   128336982.51747      3936.948    24421717.294   100002851.11946
      3067.753  
  23100467.899   121393779.24648      -738.827    23100467.397    94592555.84846
      -575.714  
  22070358.919   115980544.64248     -2868.941    22070361.057    90374476.70947
     -2235.543  
  21076129.860   110755847.45749      1877.027    21076132.192    86303293.61548
      1462.617  
  21851264.646   114829175.90248     -3121.444    21851264.846    89477297.91546
     -2432.297  
  20484239.455   107645444.47949      -803.847    20484241.597    83879593.04448
      -626.378  
 20 09 28 09 40 30.0000000  0 10G11G12G25G 1G31G21G24G32G20G10
  23940670.553   125809077.89946      -620.413    23940670.622    98033053.25744
      -483.441  
  22839656.574   120023237.69947      2356.973    22839656.527    93524614.83846
      1836.597  
  23798777.359   125063427.03846      3572.448    23798781.141    97452035.73546
      2783.722  
  24130140.786   126804757.69245      2293.667    24130144.445    98808917.54154
      1787.270  
  24417970.338   128317299.88547      3935.871    24417971.869    99987514.01146
      3066.909  
  23101171.952   121397479.78648      -741.566    23101171.693    94595439.38446
      -577.848  
  22073089.645   115994894.58048     -2870.969    22073091.851    90385658.48047
     -2237.121  
  21074344.727   110746466.61249      1875.160    21074347.031    86295983.86848
      1461.159  
  21854235.548   114844787.94348     -3123.512    21854235.891    89489463.12946
     -2433.910  
  20485005.764   107649471.27149      -806.941    20485007.679    83882730.80248
      -628.789  
 20 09 28 09 40 35.0000000  0 10G11G12G25G 1G31G21G24G32G20G10
  23941262.582   125812188.59446      -623.547    23941262.668    98035477.14743
      -485.887  
  22837415.254   120011459.60547      2354.437    22837415.375    93515437.10446
      1834.624  
  23795378.474   125045566.24646      3571.520    23795382.379    97438118.25045
      2782.999  
  24127959.933   126793297.01445      2290.887    24127963.610    98799987.16945
      1785.101  
  24414225.522   128297620.96047      3935.672    24414226.919    99972179.81546
      3066.758  
  23101878.883   121401194.07548      -744.195    23101878.467    94598333.62946
      -579.894  
  22075822.271   116009254.59548     -2873.047    22075824.578    90396848.10347
     -2238.741  
  21072561.299   110737094.32249      1873.667    21072563.568    86288680.79248
      1459.996  
  21857208.331   114860409.92948     -3125.500    21857208.709    89501636.10146
     -2435.457  
  20485774.926   107653513.68249      -810.027    20485776.948    83885880.73648
      -631.190  
 20 09 28 09 40 40.0000000  0 10G11G12G25G 1G31G21G24G32G20G10
  23941857.637   125815315.34546      -627.163    23941857.631    98037913.57844
      -488.703  
  22835176.396   119999694.23547      2351.840    22835176.442    93506269.29746
      1832.597  
  23791980.413   125027709.77946      3570.797    23791984.371    97424204.13345
      2782.437  
  24125781.490   126781849.81345      2288.019    24125785.326    98791067.27154
      1782.870  
  24410481.278   128277944.98647      3935.116    24410482.598    99956847.91546
      3066.324  
  23102588.087   121404921.34448      -746.801    23102587.890    94601238.00446
      -581.925  
  22078556.593   116023623.92748     -2874.641    22078558.742    90408044.98547
     -2239.983  
  21070779.202   110727729.77749      1872.266    21070781.563    86281383.74748
      1458.906  
  21860183.030   114876041.10948     -3127.171    21860183.205    89513816.23046
     -2436.761  
  20486546.948   107657570.90249      -812.922    20486549.141    83889042.20648
      -633.448  
 20 09 28 09 40 45.0000000  0 10G11G12G25G 1G31G21G24G32G20G10
  23942455.536   125818457.92046      -630.144    23942455.658    98040362.33443
      -491.023  
  22832939.863   119987941.36447      2349.347    22832939.970    93497111.22646
      1830.655  
  23788583.289   125009857.49546      3570.065    23788587.151    97410293.27045
      2781.866  
  24123605.683   126770415.99445      2285.429    24123609.324    98782157.81345
      1780.851  
  24406737.655   128258271.76647      3934.499    24406739.087    99941518.14346
      3065.840  
  23103299.774   121408661.41048      -749.133    23103299.523    94604152.33746
      -583.741  
  22081292.845   116038002.24748     -2876.504    22081294.897    90419248.86347
     -2241.434  
  21068998.630   110718372.80949      1870.645    21069001.038    86274092.60648
      1457.641  
  21863159.261   114891681.31148     -3129.039    21863159.429    89526003.39846
     -2438.214  
  20487321.823   107661642.74249      -815.801    20487324.017    83892215.06948
      -635.691  
 20 09 28 09 40 50.0000000  0 10G11G12G25G 1G31G21G24G32G20G10
  23943056.639   125821616.74146      -633.922    23943056.741    98042823.79344
      -493.964  
  22830705.794   119976201.43948      2346.641    22830705.932    93487963.24446
      1828.547  
  23785186.867   124992009.77146      3568.980    23785190.663    97396385.97045
      2781.020  
  24121432.496   126758995.88146      2282.761    24121436.342    98773259.03443
      1778.773  
  24402994.569   128238601.65847      3933.624    24402995.826    99926190.80546
      3065.159  
  23104013.948   121412414.64048      -752.089    23104013.617    94607076.93146
      -586.047  
  22084030.603   116052389.85948     -2878.710    22084032.738    90430459.99047
     -2243.156  
  21067219.585   110709023.80249      1868.804    21067221.974    86266807.66848
      1456.207  
  21866137.173   114907330.84248     -3131.023    21866137.368    89538197.84246
     -2439.762  
  20488099.555   107665729.59649      -819.140    20488101.574    83895399.62948
      -638.292  
 20 09 28 09 40 55.0000000  0 10G11G12G25G 1G31G21G24G32G20G10
  23943661.013   125824792.15146      -636.851    23943661.129    98045298.13244
      -496.249  
  22828474.228   119964474.82347      2344.051    22828474.332    93478825.62146
      1826.531  
  23781791.425   124974166.97446      3568.050    23781795.419    97382482.51545
      2780.300  
  24119262.016   126747589.87246      2279.590    24119265.825    98764371.22454
      1776.301  
  24399252.263   128218935.07947      3932.839    24399253.593    99910866.20646
      3064.547  
  23104730.787   121416181.37248      -754.761    23104730.639    94610012.04846
      -588.129  
  22086770.434   116066787.36148     -2880.394    22086772.538    90441678.82647
     -2244.464  
  21065442.249   110699683.11649      1867.187    21065444.624    86259529.21848
      1454.948  
  21869117.166   114922990.09548     -3132.883    21869117.237    89550399.84646
     -2441.210  
  20488880.132   107669831.80749      -822.094    20488882.306    83898596.15848
      -640.598  
 20 09 28 09 41  0.0000000  0 10G11G12G25G 1G31G21G24G32G20G10
  23944268.196   125827983.70046      -639.824    23944268.520    98047785.04644
      -498.565  
  22826245.294   119952761.01147      2341.335    22826245.215    93469697.97746
      1824.414  
  23778396.960   124956328.69246      3567.354    23778400.922    97368582.55345
      2779.754  
  24117094.170   126736197.54445      2277.309    24117098.122    98755494.09545
      1774.523  
  24395510.332   128199271.53747      3932.339    24395511.561    99895543.99046
      3064.159  
  23105450.107   121419961.14548      -757.366    23105449.852    94612957.32246
      -590.160  
  22089512.022   116081194.09848     -2882.147    22089514.033    90452904.85147
     -2245.832  
  21063666.239   110690350.31149      1865.659    21063668.513    86252256.90248
      1453.757  
  21872098.689   114938658.63448     -3134.719    21872099.057    89562609.08646
     -2442.640  
  20489663.577   107673948.93149      -825.086    20489665.737    83901804.30248
      -642.926  
 20 09 28 09 41  5.0000000  0 10G11G12G25G 1G31G21G24G32G20G10
  23944878.618   125831191.55346      -642.898    23944878.705    98050284.68244
      -500.964  
  22824018.667   119941060.31947      2338.847    22824018.743    93460580.57046
      1822.476  
  23775003.466   124938495.16746      3566.559    23775007.476    97354686.30445
      2779.133  
  24114928.921   126724819.11545      2274.324    24114932.815    98746627.80354
      1772.199  
  24391769.144   128179611.27247      3931.729    24391770.506    99880224.30846
      3063.683  
  23106171.867   121423754.20648      -759.871    23106171.494    94615912.95046
      -592.108  
  22092255.277   116095610.46748     -2884.102    22092257.476    90464138.38447
     -2247.354  
  21061891.752   110681025.59749      1864.401    21061894.087    86244990.89648
      1452.776  
  21875082.147   114954336.59248     -3136.113    21875082.318    89574825.66946
     -2443.726  
  20490450.059   107678081.20149      -827.844    20490452.097    83905024.25248
      -645.078  
 20 09 28 09 41 10.0000000  0 10G11G12G25G 1G31G21G24G32G20G10
  23945492.110   125834415.59846      -646.378    23945492.211    98052796.91844
      -503.675  
  22821794.555   119929372.49748      2336.426    22821794.694    93451473.18446
      1820.589  
  23771610.744   124920666.22946      3565.476    23771614.634    97340793.65045
      2778.289  
  24112766.194   126713454.43946      2271.746    24112770.491    98737772.23045
      1770.188  
  24388028.481   128159954.14447      3931.187    24388029.907    99864907.08746
      3063.261  
  23106896.112   121427560.35548      -762.155    23106895.803    94618878.78146
      -593.890  
  22095000.439   116110036.11348     -2885.957    22095002.661    90475379.14847
     -2248.800  
  21060118.783   110671708.83649      1862.729    21060121.359    86237731.08748
      1451.476  
  21878067.294   114970023.89348     -3138.340    21878067.564    89587049.53146
     -2445.461  
  20491239.203   107682228.43149      -830.805    20491241.143    83908255.85848
      -647.382  
 20 09 28 09 41 15.0000000  0 10G11G12G25G 1G31G21G24G32G20G10
  23946108.611   125837655.43046      -649.742    23946108.876    98055321.46544
      -506.297  
  22819572.919   119917697.25448      2333.655    22819572.900    93442375.58746
      1818.429  
  23768218.767   124902841.52246      3564.395    23768222.798    97326904.27545
      2777.445  
  24110606.135   126702103.19046      2268.726    24110610.351    98728927.09955
      1767.836  
  24384288.239   128140299.79047      3930.539    24384289.761    99849592.03346
      3062.757  
  23107622.824   121431379.25548      -765.128    23107622.614    94621854.54646
      -596.207  
  22097747.148   116124470.79048     -2887.843    22097749.321    90486626.94647
     -2250.270  
  21058347.343   110662399.63549      1861.116    21058349.862    86230477.16848
      1450.219  
  21881054.379   114985720.07148     -3140.104    21881054.490    89599280.30946
     -2446.839  
  20492031.203   107686390.26449      -833.882    20492033.121    83911498.84448
      -649.780  
 20 09 28 09 41 20.0000000  0 10G11G12G25G 1G31G21G24G32G20G10
  23946728.173   125840911.03046      -652.813    23946728.467    98057858.30744
      -508.688  
  22817353.539   119906034.64647      2331.034    22817353.549    93433287.84446
      1816.387  
  23764827.703   124885021.04846      3563.351    23764831.640    97313018.20845
      2776.633  
  24108448.597   126690765.25345      2265.750    24108452.756    98720092.32745
      1765.516  
  24380548.708   128120648.20647      3929.730    24380550.172    99834279.13345
      3062.129  
  23108351.827   121435210.84648      -767.770    23108351.862    94624840.19646
      -598.265  
  22100495.755   116138914.34648     -2889.663    22100497.922    90497881.66647
     -2251.691  
  21056577.235   110653097.96949      1859.456    21056579.823    86223229.12048
      1448.925  
  21884042.976   115001425.12948     -3142.168    21884043.156    89611518.02146
     -2448.445  
  20492825.852   107690566.67249      -836.938    20492828.010    83914753.18748
      -652.163  
 20 09 28 09 41 25.0000000  0 10G11G12G25G 1G31G21G24G32G20G10
  23947350.845   125844183.82046      -656.215    23947351.205    98060408.53144
      -511.340  
  22815137.004   119894386.02247      2328.637    22815137.069    93424211.00746
      1814.520  
  23761437.591   124867206.19746      3562.593    23761441.619    97299136.51146
      2776.043  
  24106293.986   126679442.16245      2262.948    24106297.941    98711269.15655
      1763.331  
  24376809.803   128101000.78247      3929.284    24376811.265    99818969.46745
      3061.776  
  23109083.675   121439056.51448      -770.281    23109083.538    94627836.81846
      -600.223  
  22103246.285   116153368.25948     -2891.804    22103248.471    90509144.45247
     -2253.359  
  21054809.039   110643805.28349      1857.809    21054811.507    86215988.06948
      1447.640  
  21887033.436   115017140.44648     -3143.918    21887033.497    89623763.71746
     -2449.808  
  20493623.761   107694759.05549      -839.944    20493625.595    83918019.97748
      -654.508  
 20 09 28 09 41 30.0000000  0 10G11G12G25G 1G31G21G24G32G20G10
  23947976.496   125847471.69946      -659.378    23947976.936    98062970.51345
      -513.804  
  22812922.557   119882749.40047      2325.882    22812922.595    93415143.51346
      1812.370  
  23758048.076   124849394.96146      3561.522    23758052.299    97285257.65845
      2775.214  
  24104141.592   126668131.75746      2260.663    24104145.526    98702455.84545
      1761.554  
  24373071.471   128081355.52847      3928.523    24373072.948    99803661.49645
      3061.184  
  23109817.792   121442914.23148      -773.206    23109817.661    94630842.83546
      -602.503  
  22105998.321   116167830.40248     -2893.652    22106000.449    90520413.65547
     -2254.796  
  21053041.984   110634519.50149      1856.152    21053044.398    86208752.39748
      1446.347  
  21890025.420   115032863.99148     -3145.870    21890025.595    89636015.82546
     -2451.332  
  20494424.140   107698965.35749      -843.066    20494426.105    83921297.61948
      -656.938  
 20 09 28 09 41 35.0000000  0 10G11G12G25G 1G31G21G24G32G20G10
  23948605.366   125850776.02846      -662.237    23948605.784    98065545.32344
      -516.031  
  22810710.777   119871126.10447      2323.519    22810710.802    93406086.40446
      1810.531  
  23754659.671   124831588.67846      3560.727    23754663.781    97271382.64645
      2774.593  
  24101992.023   126656835.47646      2257.852    24101996.038    98693653.58645
      1759.366  
  24369333.725   128061713.75747      3928.051    24369335.249    99788356.24545
      3060.819  
  23110554.394   121446785.32248      -775.551    23110554.426    94633859.26446
      -604.327  
  22108752.267   116182302.14348     -2895.371    22108754.405    90531690.33347
     -2256.136  
  21051276.444   110625241.96849      1854.714    21051278.997    86201523.15548
      1445.229  
  21893019.491   115048597.06348     -3147.655    21893019.604    89648275.35646
     -2452.722  
  20495227.359   107703186.92549      -845.788    20495229.564    83924587.15248
      -659.058  
 20 09 28 09 41 40.0000000  0 10G11G12G25G 1G31G21G24G32G20G10
  23949237.125   125854096.38345      -666.008    23949237.539    98068132.59844
      -518.969  
  22808501.246   119859515.72047      2320.745    22808501.439    93397039.36846
      1808.370  
  23751272.050   124813786.98246      3559.487    23751276.363    97257511.20445
      2773.629  
  24099844.981   126645552.88146      2254.960    24099849.028    98684861.93854
      1757.109  
  24365596.743   128042075.09847      3927.073    24365597.939    99773053.39745
      3060.055  
  23111293.500   121450669.34648      -778.378    23111293.418    94636885.78146
      -606.530  
  22111507.874   116196783.01548     -2897.347    22111510.086    90542974.13747
     -2257.675  
  21049512.626   110615972.25849      1852.866    21049515.053    86194300.00848
      1443.789  
  21896015.058   115064339.25248     -3149.382    21896015.066    89660541.99246
     -2454.066  
  20496033.630   107707423.34549      -848.995    20496035.704    83927888.25448
      -661.559  
 20 09 28 09 41 45.0000000  0 10G11G12G25G 1G31G21G24G32G20G10
  23949872.055   125857433.24446      -668.792    23949872.571    98070732.76245
      -521.140  
  22806294.351   119847918.81447      2318.176    22806294.509    93388002.82746
      1806.367  
  23747885.615   124795990.43047      3558.683    23747889.607    97243643.75645
      2772.996  
  24097700.785   126634284.55446      2252.218    24097704.894    98676081.44044
      1754.972  
  24361860.311   128022440.04747      3926.520    24361861.359    99757753.38445
      3059.624  
  23112035.062   121454566.90748      -780.867    23112035.076    94639922.83846
      -608.472  
  22114265.207   116211273.52548     -2898.914    22114267.447    90554265.44247
     -2258.897  
  21047750.134   110606710.95449      1851.488    21047752.581    86187083.41448
      1442.715  
  21899012.571   115080091.09848     -3151.297    21899012.756    89672816.15646
     -2455.558  
  20496842.752   107711675.15449      -851.898    20496844.781    83931201.35248
      -663.819  
 20 09 28 09 41 50.0000000  0 10G11G12G25G 1G31G21G24G32G20G10
  23950510.053   125860786.57146      -672.140    23950510.725    98073345.77144
      -523.745  
  22804090.153   119836335.24147      2315.472    22804090.224    93378976.67946
      1804.262  
  23744499.865   124778198.84846      3557.844    23744504.037    97229780.19345
      2772.344  
  24095559.203   126623030.34146      2249.668    24095563.214    98667311.90354
      1752.983  
  24358124.413   128002808.55147      3926.164    24358125.604    99742456.12045
      3059.343  
  23112779.272   121458477.85448      -783.534    23112779.396    94642970.33146
      -610.551  
  22117024.483   116225773.65148     -2900.956    22117026.772    90565564.23247
     -2260.487  
  21045989.355   110597457.90849      1849.922    21045991.823    86179873.24948
      1441.496  
  21902011.805   115095852.40248     -3153.176    21902011.872    89685097.69046
     -2457.022  
  20497654.738   107715942.23149      -854.894    20497656.787    83934526.34848
      -666.155  
 20 09 28 09 41 55.0000000  0 10G11G12G25G 1G31G21G24G32G20G10
  23951151.051   125864155.66045      -675.391    23951152.070    98075971.03244
      -526.280  
  22801888.241   119824764.39448      2312.780    22801888.397    93369960.44346
      1802.164  
  23741115.087   124760411.62846      3556.988    23741119.182    97215920.02845
      2771.675  
  24093420.101   126611789.62946      2246.445    24093424.175    98658552.92745
      1750.473  
  24354389.116   127983179.93247      3925.340    24354390.282    99727161.10345
      3058.703  
  23113525.959   121462401.46748      -785.750    23113525.919    94646027.68846
      -612.277  
  22119785.443   116240282.68348     -2902.820    22119787.567    90576869.97447
     -2261.941  
  21044230.086   110588212.48149      1848.395    21044232.531    86172669.02348
      1440.305  
  21905012.741   115111622.58248     -3154.879    21905012.968    89697386.14446
     -2458.351  
  20498469.373   107720223.91749      -857.815    20498471.473    83937862.72548
      -668.429  
 20 09 28 09 42  0.0000000  0 10G11G12G25G 1G31G21G24G32G20G10
  23951795.127   125867540.89746      -678.438    23951796.024    98078608.85245
      -528.659  
  22799688.811   119813206.71747      2310.151    22799689.036    93360954.45647
      1800.116  
  23737731.204   124742629.29746      3555.733    23737735.036    97202063.67545
      2770.699  
  24091283.650   126600562.84446      2243.866    24091287.710    98649804.80154
      1748.465  
  24350654.563   127963554.59747      3924.832    24350655.556    99711868.64845
      3058.308  
  23114275.149   121466338.23948      -788.523    23114275.123    94649095.30146
      -614.437  
  22122548.338   116254801.01448     -2904.558    22122550.336    90588182.95747
     -2263.297  
  21042472.350   110578975.10949      1846.645    21042474.717    86165471.07248
      1438.940  
  21908015.571   115127402.05848     -3157.000    21908015.555    89709681.82946
     -2460.003  
  20499287.075   107724520.66149      -860.901    20499289.094    83941210.84048
      -670.835  
 20 09 28 09 42  5.0000000  0 10G11G12G25G 1G31G21G24G32G20G10
  23952442.148   125870941.92245      -682.030    23952443.418    98081259.01245
      -531.456  
  22797491.882   119801661.74848      2307.688    22797492.135    93351958.38947
      1798.195  
  23734348.137   124724851.28146      3555.026    23734352.055    97188210.68345
      2770.147  
  24089149.934   126589349.49646      2241.589    24089153.873    98641067.12945
      1746.690  
  24346920.592   127943932.13647      3923.991    24346921.566    99696578.42845
      3057.652  
  23115026.609   121470287.65848      -791.042    23115026.561    94652172.78146
      -616.397  
  22125312.703   116269328.25948     -2906.188    22125314.824    90599502.88747
     -2264.566  
  21040715.928   110569745.32849      1845.215    21040718.343    86158279.04248
      1437.828  
  21911019.901   115143190.29648     -3158.398    21911020.107    89721984.34546
     -2461.094  
  20500107.419   107728831.97149      -863.746    20500109.638    83944570.30048
      -673.051  
 20 09 28 09 42 10.0000000  0 10G11G12G25G 1G31G21G24G32G20G10
  23953092.381   125874359.26546      -685.007    23953093.367    98083921.88045
      -533.777  
  22795297.627   119790130.23347      2304.937    22795297.705    93342972.78646
      1796.051  
  23730965.990   124707078.38746      3554.022    23730969.956    97174361.70846
      2769.371  
  24087018.836   126578150.44246      2238.499    24087022.551    98632340.59555
      1744.280  
  24343187.230   127924313.28147      3923.348    24343188.361    99681291.01545
      3057.152  
  23115780.733   121474250.47748      -794.063    23115780.673    94655260.68546
      -618.753  
  22128078.814   116283864.95448     -2908.266    22128081.217    90610830.17847
     -2266.183  
  21038961.027   110560523.85649      1843.460    21038963.450    86151093.48748
      1436.460  
  21914026.129   115158988.03848     -3160.434    21914026.328    89734294.25446
     -2462.680  
  20500930.817   107733158.58249      -866.820    20500932.872    83947941.68048
      -675.449  
 20 09 28 09 42 15.0000000  0 10G11G12G25G 1G31G21G24G32G20G10
  23953745.587   125877792.69446      -688.222    23953746.910    98086597.28145
      -536.281  
  22793105.619   119778611.71647      2302.332    22793105.969    93333997.33646
      1794.022  
  23727584.877   124689310.17346      3552.859    23727588.977    97160516.35345
      2768.457  
  24084890.357   126566965.14345      2235.656    24084894.050    98623624.80244
      1742.066  
  24339454.434   127904697.58847      3922.769    24339455.652    99666006.07145
      3056.699  
  23116537.307   121478226.24048      -796.604    23116537.218    94658358.67246
      -620.734  
  22130846.851   116298410.77948     -2910.022    22130849.104    90622164.59047
     -2267.554  
  21037207.853   110551310.26949      1841.921    21037210.262    86143914.07048
      1435.262  
  21917033.926   115174794.86848     -3162.289    21917034.238    89746611.26646
     -2464.124  
  20501757.073   107737500.05749      -869.730    20501759.043    83951324.64848
      -677.714  
 20 09 28 09 42 20.0000000  0 10G11G12G25G 1G31G21G24G32G20G10
  23954402.087   125881242.03246      -691.522    23954403.258    98089285.07444
      -538.851  
  22790916.280   119767106.19247      2299.729    22790916.389    93325031.99946
      1791.996  
  23724204.542   124671546.55046      3552.538    23724208.626    97146674.56846
      2768.211  
  24082764.348   126555793.51845      2232.520    24082768.241    98614919.65645
      1739.625  
  24335722.387   127885085.01647      3922.065    24335723.368    99650723.58545
      3056.155  
  23117296.226   121482214.85748      -798.836    23117296.241    94661466.67946
      -622.472  
  22133616.559   116312965.59948     -2911.828    22133618.940    90633506.01047
     -2268.961  
  21035455.998   110542104.49349      1840.272    21035458.288    86136740.74648
      1433.976  
  21920043.647   115190610.68248     -3163.870    21920043.853    89758935.26246
     -2465.355  
  20502586.001   107741856.32149      -872.691    20502588.135    83954719.14348
      -680.022  
 20 09 28 09 42 25.0000000  0 10G11G12G25G 1G31G21G24G32G20G10
  23955061.313   125884706.88546      -694.538    23955062.345    98091984.95544
      -541.202  
  22788729.215   119755613.34147      2297.335    22788729.466    93316076.53946
      1790.128  
  23720825.144   124653787.35246      3551.269    23720829.228    97132836.24845
      2767.218  
  24080641.008   126544635.35245      2230.246    24080644.818    98606224.96945
      1737.851  
  24331990.687   127865475.23947      3921.668    24331991.796    99635443.23345
      3055.843  
  23118057.759   121486216.05248      -801.617    23118057.670    94664584.51246
      -624.641  
  22136388.011   116327529.01848     -2913.565    22136390.236    90644854.12947
     -2270.315  
  21033705.676   110532906.23649      1838.684    21033708.017    86129573.27548
      1432.737  
  21923055.084   115206435.17148     -3165.766    21923055.221    89771266.02846
     -2466.832  
  20503417.780   107746227.06949      -875.632    20503419.676    83958124.91648
      -682.315  
 20 09 28 09 42 30.0000000  0 10G11G12G25G 1G31G21G24G32G20G10
  23955723.930   125888188.48946      -697.801    23955724.781    98094697.92445
      -543.742  
  22786544.831   119744134.26147      2294.281    22786544.982    93307131.81746
      1787.750  
  23717446.639   124636033.59346      3549.969    23717450.791    97119002.17445
      2766.207  
  24078520.319   126533491.77845      2227.004    24078524.340    98597541.65544
      1735.324  
  24328259.768   127845869.37347      3920.823    24328260.632    99620165.95945
      3055.187  
  23118821.594   121490230.93648      -804.339    23118821.566    94667712.97546
      -626.762  
  22139161.158   116342102.28848     -2915.530    22139163.261    90656209.92247
     -2271.848  
  21031956.880   110523716.59749      1836.992    21031959.219    86122412.51848
      1431.418  
  21926068.190   115222269.42948     -3167.773    21926068.287    89783604.40746
     -2468.397  
  20504252.405   107750613.42649      -878.788    20504254.402    83961542.85448
      -684.773  
 20 09 28 09 42 35.0000000  0 10G11G12G25G 1G31G21G24G32G20G10
  23956389.565   125891686.51846      -701.479    23956390.375    98097423.67345
      -546.612  
  22784362.910   119732668.66048      2292.003    22784363.168    93298197.59146
      1785.973  
  23714069.089   124618284.94746      3549.198    23714073.428    97105172.06345
      2765.604  
  24076402.544   126522362.41945      2224.438    24076406.618    98588869.43755
      1733.323  
  24324529.608   127826267.15847      3920.190    24324530.528    99604891.52445
      3054.690  
  23119588.294   121494259.13048      -806.875    23119588.132    94670851.84046
      -628.738  
  22141936.001   116356684.99948     -2917.418    22141938.458    90667573.07647
     -2273.316  
  21030209.793   110514535.28249      1835.522    21030212.134    86115258.25048
      1430.273  
  21929083.191   115238113.11648     -3169.516    21929083.305    89795950.12046
     -2469.753  
  20505090.079   107755015.05849      -881.940    20505092.051    83964972.69948
      -687.230  
 20 09 28 09 42 40.0000000  0 10G11G12G25G 1G31G21G24G32G20G10
  23957058.041   125895199.82346      -703.897    23957058.948    98100161.30244
      -548.496  
  22782183.471   119721215.59748      2289.097    22782183.801    93289273.13646
      1783.711  
  23710692.497   124600540.52246      3548.581    23710696.597    97091345.25545
      2765.125  
  24074287.237   126511246.31246      2221.753    24074291.344    98580207.52545
      1731.229  
  24320799.852   127806667.56747      3919.566    24320800.891    99589619.12845
      3054.203  
  23120357.084   121498299.64948      -809.465    23120357.120    94674000.28146
      -630.753  
  22144712.752   116371276.26548     -2919.288    22144714.832    90678942.89347
     -2274.772  
  21028464.037   110505361.27149      1833.965    21028466.265    86108109.67548
      1429.058  
  21932099.727   115253965.27948     -3171.398    21932099.776    89808302.44046
     -2471.222  
  20505930.223   107759430.95249      -884.585    20505932.383    83968413.65448
      -689.289  
 20 09 28 09 42 45.0000000  0 10G11G12G25G 1G31G21G24G32G20G10
  23957729.554   125898728.95946      -707.348    23957730.601    98102911.29945
      -551.180  
  22780006.506   119709775.37948      2286.772    22780006.628    93280358.69246
      1781.898  
  23707316.665   124582800.65846      3547.319    23707320.787    97077522.00445
      2764.141  
  24072174.458   126500143.80346      2219.265    24072178.640    98571556.26055
      1729.296  
  24317070.673   127787070.91147      3918.905    24317071.707    99574349.02845
      3053.690  
  23121128.382   121502352.81348      -811.983    23121128.358    94677158.59246
      -632.719  
  22147491.039   116385876.23248     -2921.043    22147493.196    90690319.48647
     -2276.141  
  21026719.625   110496194.91849      1832.483    21026722.096    86100967.06448
      1427.905  
  21935118.005   115269826.18448     -3173.026    21935117.988    89820661.57446
     -2472.413  
  20506773.410   107763861.46049      -887.604    20506775.641    83971866.00148
      -691.645  
 20 09 28 09 42 50.0000000  0 10G11G12G25G 1G31G21G24G32G20G10
  23958404.338   125902274.59646      -710.714    23958405.392    98105674.11344
      -553.808  
  22777832.029   119698348.92948      2283.769    22777832.178    93271454.96546
      1779.559  
  23703941.931   124565066.15746      3546.320    23703945.706    97063702.92345
      2763.363  
  24070064.529   126489055.80046      2216.340    24070068.715    98562916.25445
      1727.015  
  24313342.390   127767478.11747      3918.120    24313343.053    99559081.93545
      3053.077  
  23121902.341   121506419.52648      -814.851    23121902.274    94680327.46046
      -634.953  
  22150271.027   116400485.94748     -2922.707    22150273.279    90701703.68347
     -2277.438  
  21024977.092   110487037.09549      1830.616    21024979.414    86093831.10448
      1426.453  
  21938137.979   115285696.69648     -3175.004    21938138.144    89833028.20446
     -2474.031  
  20507619.441   107768307.44749      -890.729    20507621.584    83975330.40248
      -694.077  
 20 09 28 09 42 55.0000000  0 10G11G12G25G 1G31G21G24G32G20G10
  23959082.141   125905836.60146      -714.440    23959083.164    98108449.72544
      -556.711  
  22775660.255   119686935.95848      2281.426    22775660.446    93262561.74346
      1777.729  
  23700567.974   124547336.82946      3545.437    23700571.848    97049887.85045
      2762.676  
  24067957.249   126477981.96846      2213.417    24067961.425    98554287.28255
      1724.737  
  24309614.512   127747888.92447      3917.449    24309615.423    99543817.63545
      3052.554  
  23122678.744   121510499.48948      -817.258    23122678.611    94683506.65046
      -636.827  
  22153052.921   116415104.86848     -2924.753    22153055.328    90713095.05247
     -2279.030  
  21023235.897   110477887.52349      1829.270    21023238.187    86086701.57048
      1425.401  
  21941159.823   115301576.59048     -3177.039    21941159.986    89845402.14246
     -2475.616  
  20508468.348   107772768.63949      -893.761    20508470.452    83978806.65548
      -696.441  
 20 09 28 09 43  0.0000000  0 10G11G12G25G 1G31G21G24G32G20G10
  23959762.957   125909414.18946      -717.335    23959764.041    98111237.45744
      -558.965  
  22773490.908   119675535.77848      2278.636    22773491.166    93253678.49746
      1775.559  
  23697195.161   124529612.01746      3544.336    23697198.913    97036076.30945
      2761.815  
  24065852.602   126466921.69446      2210.641    24065856.473    98545668.92145
      1722.578  
  24305887.426   127728302.61347      3916.863    24305888.230    99528555.59045
      3052.097  
  23123457.628   121514592.02248      -819.836    23123457.408    94686695.63046
      -638.835  
  22155836.535   116429732.42148     -2926.656    22155838.834    90724493.13747
     -2280.516  
  21021496.217   110468745.53649      1827.675    21021498.425    86079577.94448
      1424.160  
  21944183.402   115317465.13648     -3178.766    21944183.338    89857782.82346
     -2476.964  
  20509320.108   107777244.35449      -896.621    20509322.258    83982294.22248
      -698.668  
 20 09 28 09 43  5.0000000  0 10G11G12G25G 1G31G21G24G32G20G10
  23960446.713   125913007.31946      -720.163    23960447.841    98114037.28445
      -561.171  
  22771324.029   119664148.34448      2276.112    22771324.257    93244805.18046
      1773.589  
  23693822.963   124511891.65046      3543.538    23693826.779    97022268.26445
      2761.194  
  24063750.449   126455874.96146      2207.749    24063754.405    98537061.08444
      1720.319  
  24302160.887   127708719.20847      3916.413    24302161.640    99513295.82445
      3051.749  
  23124238.800   121518697.08048      -822.444    23124238.613    94689894.38046
      -640.870  
  22158621.692   116444368.55048     -2928.030    22158623.808    90735897.92247
     -2281.585  
  21019758.067   110459611.08749      1826.023    21019760.368    86072460.20248
      1422.870  
  21947208.495   115333362.26648     -3180.266    21947208.650    89870170.19046
     -2478.133  
  20510174.519   107781734.56449      -899.589    20510176.748    83985793.09148
      -700.979  
 20 09 28 09 43 10.0000000  0 10G11G12G25G 1G31G21G24G32G20G10
  23961133.556   125916616.95246      -723.233    23961134.460    98116849.99944
      -563.562  
  22769159.621   119652774.67748      2273.456    22769159.799    93235942.58646
      1771.522  
  23690451.843   124494176.73446      3542.680    23690455.626    97008464.42445
      2760.527  
  24061651.172   126444842.71746      2204.964    24061654.903    98528464.50545
      1718.152  
  24298434.933   127689139.71847      3915.468    24298435.986    99498039.08445
      3051.011  
  23125022.438   121522815.62348      -824.938    23125022.258    94693103.61846
      -642.813  
  22161408.763   116459014.20948     -2930.190    22161411.005    90747310.12047
     -2283.269  
  21018021.428   110450485.17749      1824.559    21018023.772    86065349.10248
      1421.730  
  21950235.295   115349268.98648     -3182.188    21950235.649    89882565.02846
     -2479.629  
  20511031.990   107786240.23249      -902.605    20511033.926    83989303.99748
      -703.331  
 20 09 28 09 43 15.0000000  0 10G11G12G25G 1G31G21G24G32G20G10
  23961823.585   125920242.64146      -726.957    23961824.612    98119675.21544
      -566.465  
  22766997.869   119641414.28547      2270.769    22766997.996    93227090.33446
      1769.425  
  23687081.739   124476466.81346      3541.586    23687085.554    96994664.48145
      2759.676  
  24059554.499   126433824.49946      2202.305    24059558.241    98519878.89945
      1716.077  
  24294709.723   127669563.57447      3914.663    24294710.667    99482784.96245
      3050.382  
  23125808.749   121526947.15348      -827.703    23125808.342    94696322.99946
      -644.965  
  22164197.326   116473668.92248     -2931.945    22164199.682    90758729.37947
     -2284.637  
  21016286.315   110441367.28249      1822.687    21016288.658    86058244.25348
      1420.272  
  21953264.005   115365184.74648     -3184.086    21953264.087    89894966.91246
     -2481.108  
  20511892.098   107790760.84849      -905.566    20511894.278    83992826.55548
      -705.640  
 20 09 28 09 43 20.0000000  0 10G11G12G25G 1G31G21G24G32G20G10
  23962516.692   125923884.47746      -729.621    23962517.420    98122512.99044
      -568.539  
  22764838.603   119630067.35948      2267.762    22764838.683    93218248.58946
      1767.082  
  23683712.731   124458762.02146      3540.383    23683716.383    96980868.56945
      2758.737  
  24057460.481   126422820.45346      2199.304    24057464.324    98511304.34855
      1713.746  
  24290985.252   127649991.00547      3914.258    24290986.206    99467533.63346
      3050.070  
  23126597.350   121531091.80948      -830.285    23126597.068    94699552.60646
      -646.979  
  22166987.798   116488332.82748     -2933.582    22166990.039    90770155.79947
     -2285.910  
  21014552.722   110432257.59949      1821.020    21014554.991    86051145.80348
      1418.973  
  21956294.435   115381109.73548     -3185.745    21956294.493    89907375.97946
     -2482.402  
  20512755.276   107795296.59849      -908.648    20512757.327    83996360.90948
      -708.038  
 20 09 28 09 43 25.0000000  0 10G11G12G25G 1G31G21G24G32G20G10
  23963212.820   125927542.37346      -733.117    23963213.562    98125363.32644
      -571.262  
  22762681.819   119618733.75848      2265.293    22762682.035    93209417.22446
      1765.159  
  23680344.460   124441062.23446      3539.214    23680348.197    96967076.53746
      2757.828  
  24055369.174   126411830.47146      2196.487    24055372.972    98502740.73544
      1711.547  
  24287261.126   127630421.83747      3913.702    24287262.255    99452284.95846
      3049.641  
  23127388.592   121535249.44148      -832.952    23127388.313    94702792.30946
      -649.059  
  22169779.962   116503005.77848     -2935.574    22169782.346    90781589.27047
     -2287.464  
  21012820.671   110423155.92249      1819.500    21012823.039    86044053.59148
      1417.788  
  21959326.604   115397043.76248     -3187.789    21959326.859    89919792.10746
     -2483.995  
  20513621.310   107799847.29449      -911.602    20513623.287    83999906.90448
      -710.344  
 20 09 28 09 43 30.0000000  0 10G11G12G25G 1G31G21G24G32G20G10
  23963911.799   125931215.65646      -736.397    23963912.406    98128225.60044
      -573.820  
  22760527.504   119607412.84848      2262.917    22760527.593    93200595.73846
      1763.309  
  23676976.942   124423366.83746      3538.737    23676980.845    96953287.94846
      2757.461  
  24053280.424   126400853.91846      2193.944    24053284.204    98494187.54854
      1709.566  
  24283537.748   127610855.48247      3912.804    24283538.962    99437038.48045
      3048.937  
  23128182.133   121539419.43048      -835.378    23128181.737    94706041.65746
      -650.948  
  22172573.848   116517687.22048     -2937.254    22172576.131    90793029.34947
     -2288.772  
  21011090.132   110414061.69249      1817.999    21011092.549    86036967.18348
      1416.620  
  21962360.463   115412986.20648     -3189.230    21962360.476    89932214.79246
     -2485.116  
  20514489.992   107804412.34249      -914.515    20514492.193    84003464.08248
      -712.612  
 20 09 28 09 43 35.0000000  0 10G11G12G25G 1G31G21G24G32G20G10
  23964613.979   125934905.60846      -739.351    23964614.477    98131100.90245
      -576.121  
  22758375.848   119596105.97347      2260.125    22758376.082    93191785.19346
      1761.132  
  23673610.834   124405677.22646      3537.440    23673614.719    96939503.84945
      2756.445  
  24051194.668   126389892.13746      2190.867    24051198.172    98485645.90945
      1707.168  
  24279815.117   127591293.20347      3912.190    24279816.420    99421795.16645
      3048.460  
  23128978.320   121543603.08148      -838.035    23128977.829    94709301.64346
      -653.020  
  22175369.424   116532378.41348     -2939.362    22175371.877    90804477.02847
     -2290.417  
  21009361.303   110404976.19449      1816.292    21009363.522    86029887.57548
      1415.289  
  21965396.046   115428938.36448     -3191.444    21965396.283    89944645.03746
     -2486.843  
  20515361.720   107808993.04949      -917.582    20515363.796    84007033.46548
      -715.003  
 20 09 28 09 43 40.0000000  0 10G11G12G25G 1G31G21G24G32G20G10
  23965319.237   125938611.07446      -742.679    23965319.793    98133988.30444
      -578.715  
  22756226.661   119584811.95148      2257.386    22756226.790    93182984.67046
      1758.999  
  23670245.504   124387992.14146      3536.304    23670249.541    96925723.29146
      2755.563  
  24049111.131   126378943.88646      2188.477    24049114.839    98477114.82255
      1705.304  
  24276092.944   127571733.86846      3911.405    24276094.407    99406554.14445
      3047.851  
  23129776.801   121547799.22048      -840.629    23129776.386    94712571.35146
      -655.038  
  22178166.736   116547078.10648     -2940.773    22178169.066    90815931.33047
     -2291.515  
  21007633.811   110395898.25449      1814.784    21007635.972    86022813.85948
      1414.113  
  21968433.127   115444898.99048     -3193.034    21968433.291    89957081.89146
     -2488.082  
  20516236.121   107813588.21449      -920.477    20516238.310    84010614.11148
      -717.257  
 20 09 28 09 43 45.0000000  0 10G11G12G25G 1G31G21G24G32G20G10
  23966027.510   125942333.13546      -746.425    23966028.084    98136888.57444
      -581.636  
  22754080.106   119573531.94748      2254.612    22754080.440    93174195.06846
      1756.840  
  23666881.149   124370312.77446      3535.422    23666885.312    96911947.14645
      2754.870  
  24047030.568   126368010.39246      2185.273    24047034.347    98468595.24245
      1702.809  
  24272371.696   127552178.63647      3910.484    24272373.155    99391316.33345
      3047.132  
  23130577.765   121552008.96948      -843.324    23130577.345    94715851.67646
      -657.141  
  22180965.742   116561787.42348     -2942.719    22180968.210    90827393.13547
     -2293.030  
  21005908.027   110386829.01549      1812.926    21005910.108    86015746.92048
      1412.667  
  21971472.319   115460869.30448     -3195.281    21971472.493    89969526.29046
     -2489.832  
  20517113.556   107818199.01349      -923.854    20517115.517    84014206.94048
      -719.890  
 20 09 28 09 43 50.0000000  0 10G11G12G25G 1G31G21G24G32G20G10
  23966738.641   125946070.50146      -749.258    23966739.065    98139800.82845
      -583.839  
  22751936.073   119562264.66848      2252.210    22751936.311    93165415.37446
      1754.965  
  23663517.752   124352637.84646      3535.094    23663521.879    96898174.48245
      2754.616  
  24044952.568   126357090.33246      2182.938    24044956.395    98460086.09345
      1700.988  
  24268651.060   127532626.15847      3910.362    24268652.339    99376080.65245
      3047.030  
  23131381.190   121556230.99848      -845.542    23131380.839    94719141.56746
      -658.867  
  22183766.309   116576504.87248     -2944.167    22183768.832    90838861.27947
     -2294.159  
  21004183.560   110377767.15949      1811.796    21004185.719    86008685.74248
      1411.785  
  21974512.839   115476847.90448     -3196.527    21974513.125    89981977.14046
     -2490.805  
  20517993.665   107822824.08149      -926.480    20517995.668    84017810.88548
      -721.937  
 20 09 28 09 43 55.0000000  0 10G11G12G25G 1G31G21G24G32G20G10
  23967452.829   125949823.29946      -752.180    23967453.316    98142725.09944
      -586.116  
  22749794.515   119551010.26448      2249.629    22749794.579    93156645.71446
      1752.952  
  23660155.330   124334967.48246      3533.472    23660159.298    96884405.36945
      2753.351  
  24042877.088   126346183.89546      2179.894    24042880.813    98451587.59045
      1698.617  
  24264930.828   127513076.61447      3909.672    24264932.253    99360847.27344
      3046.499  
  23132187.090   121560465.49948      -848.184    23132186.714    94722441.17746
      -660.926  
  22186568.584   116591230.77548     -2946.249    22186571.154    90850336.00447
     -2295.781  
  21002460.424   110368712.86049      1810.026    21002462.797    86001630.44648
      1410.405  
  21977555.058   115492834.99748     -3198.355    21977555.244    89994434.60746
     -2492.227  
  20518876.446   107827463.56249      -929.339    20518878.731    84021426.06948
      -724.164  
 20 09 28 09 44  0.0000000  0 10G11G12G25G 1G31G21G24G32G20G10
  23968170.137   125953592.71846      -754.956    23968170.528    98145662.27345
      -588.281  
  22747655.436   119539769.92548      2246.875    22747655.752    93147887.01646
      1750.808  
  23656793.844   124317302.90846      3533.063    23656797.759    96870640.77145
      2753.031  
  24040804.611   126335292.20746      2177.113    24040808.162    98443100.55645
      1696.448  
  24261211.496   127493531.23247      3909.022    24261212.811    99345617.12345
      3045.992  
  23132995.473   121564713.57948      -850.785    23132995.004    94725751.36546
      -662.952  
  22189372.770   116605966.46448     -2947.855    22189375.178    90861818.35747
     -2297.035  
  21000739.189   110359667.30249      1808.440    21000741.341    85994581.96648
      1409.171  
  21980599.177   115508831.73348     -3200.054    21980599.348    90006899.57846
     -2493.550  
  20519762.264   107832118.72549      -932.430    20519764.495    84025053.46648
      -726.570  
 20 09 28 09 44  5.0000000  0 10G11G12G25G 1G31G21G24G32G20G10
  23968890.486   125957377.61646      -758.620    23968890.623    98148611.56744
      -591.133  
  22745519.022   119528542.49248      2244.136    22745519.129    93139138.37046
      1748.676  
  23653433.250   124299642.99446      3531.551    23653437.089    96856879.79845
      2751.854  
  24038734.646   126324414.15446      2174.112    24038738.158    98434624.14045
      1694.108  
  24257492.597   127473988.81847      3908.188    24257493.995    99330389.28844
      3045.339  
  23133806.336   121568974.06648      -853.292    23133805.794    94729071.22646
      -664.905  
  22192178.492   116620710.50548     -2949.621    22192180.906    90873307.22347
     -2298.409  
  20999019.318   110350629.29149      1806.840    20999021.603    85987539.36348
      1407.926  
  21983644.830   115524836.93648     -3201.832    21983645.178    90019371.15146
     -2494.938  
  20520650.942   107836788.32049      -935.499    20520653.189    84028692.11448
      -728.965  
 20 09 28 09 44 10.0000000  0 10G11G12G25G 1G31G21G24G32G20G10
  23969613.824   125961178.59446      -761.672    23969614.144    98151573.39044
      -593.516  
  22743385.101   119517328.60248      2241.690    22743385.183    93130400.28046
      1746.769  
  23650073.741   124281988.34146      3530.382    23650077.388    96843122.94445
      2750.945  
  24036667.391   126313550.34346      2171.402    24036670.516    98426158.83645
      1691.999  
  24253774.654   127454450.05647      3907.538    24253775.650    99315164.28744
      3044.832  
  23134619.476   121573247.61848      -855.805    23134618.993    94732401.26746
      -666.863  
  22194985.911   116635463.62548     -2951.527    22194988.385    90884803.15947
     -2299.894  
  20997300.938   110341599.48649      1805.241    20997303.335    85980503.15648
      1406.679  
  21986692.405   115540851.23748     -3203.672    21986692.451    90031849.81646
     -2496.371  
  20521542.280   107841472.99049      -938.410    20521544.567    84032342.50248
      -731.229  
 20 09 28 09 44 15.0000000  0 10G11G12G25G 1G31G21G24G32G20G10
  23970340.238   125964995.52246      -765.011    23970340.584    98154547.60244
      -596.117  
  22741253.820   119506128.20448      2238.565    22741253.689    93121672.70146
      1744.335  
  23646714.995   124264338.82646      3529.262    23646718.913    96829370.08446
      2750.070  
  24034602.713   126302700.69946      2168.651    24034605.969    98417704.58155
      1689.854  
  24250057.086   127434914.81847      3906.441    24250058.176    99299942.04044
      3043.977  
  23135435.259   121577534.15048      -858.651    23135434.639    94735741.42146
      -669.082  
  22197795.010   116650225.60048     -2953.375    22197797.535    90896306.00247
     -2301.336  
  20995584.092   110332577.77649      1803.387    20995586.523    85973473.25348
      1405.233  
  21989741.480   115556874.48248     -3205.468    21989741.700    90044335.45346
     -2497.784  
  20522436.659   107846172.63849      -941.523    20522438.857    84036004.56448
      -733.656  
 20 09 28 09 44 20.0000000  0 10G11G12G25G 1G31G21G24G32G20G10
  23971069.714   125968828.84946      -768.238    23971070.023    98157534.62544
      -598.629  
  22739125.040   119494941.67048      2235.992    22739124.875    93112955.93747
      1742.328  
  23643357.343   124246694.93346      3527.812    23643361.257    96815621.60445
      2748.944  
  24032540.812   126291865.64646      2165.078    24032544.147    98409261.70245
      1687.069  
  24246340.468   127415383.51747      3905.723    24246341.217    99284722.83744
      3043.418  
  23136253.524   121581834.00648      -861.387    23136252.758    94739091.95146
      -671.215  
  22200606.049   116664997.02548     -2955.281    22200608.352    90907816.20347
     -2302.820  
  20993868.956   110323564.54849      1801.819    20993871.181    85966449.96648
      1404.011  
  21992792.454   115572907.08448     -3207.632    21992792.615    90056828.37546
     -2499.457  
  20523333.886   107850887.66149      -944.538    20523336.089    84039678.60948
      -736.008  
 20 09 28 09 44 25.0000000  0 10G11G12G25G 1G31G21G24G32G20G10
  23971802.232   125972677.44446      -771.555    23971802.353    98160533.49144
      -601.214  
  22736998.711   119483767.95848      2233.390    22736998.764    93104249.14746
      1740.301  
  23640000.681   124229055.52746      3527.222    23640004.582    96801876.61245
      2748.480  
  24030481.664   126281044.06446      2162.929    24030484.901    98400829.30955
      1685.398  
  24242624.441   127395855.06947      3905.159    24242625.000    99269505.89545
      3042.984  
  23137074.063   121586146.12248      -863.832    23137073.571    94742452.04246
      -673.117  
  22203418.392   116679776.58148     -2957.121    22203420.662    90919332.73747
     -2304.254  
  20992155.149   110314558.74649      1800.136    20992157.541    85959432.45848
      1402.698  
  21995844.792   115588947.94948     -3209.328    21995845.013    90069327.74946
     -2500.777  
  20524233.789   107855616.96649      -947.328    20524236.007    84043363.77948
      -738.180  
