     2.11           OBSERVATION DATA    G                   RINEX VERSION / TYPE
LEICA GEO OFFICE 8.4                    29-9-20 09:58       PGM / RUN BY / DATE
                                                            OBSERVER / AGENCY
TARY                                                        MARKER NAME
TARY                                                        MARKER NUMBER
457569              LEICA GX1220        2.14                REC # / TYPE / VERS
                    LEIAX1202                               ANT # / TYPE
 -1173808.7423  3860805.5125  4923766.2475                  APPROX POSITION XYZ
        1.9430        0.0000        0.0000                  ANTENNA: DELTA H/E/N
L1PhaOff:   0.0648  L2PhaOff:   0.0622                      COMMENT
     1     1                                                WAVELENGTH FACT L1/2
     6    C1    L1    D1    P2    L2    D2                  # / TYPES OF OBSERV
  2020     9    28     5    15   25.0000000     GPS         TIME OF FIRST OBS
  2020     9    28     9    11   25.0000000     GPS         TIME OF LAST OBS
    18                                                      LEAP SECONDS
    16                                                      # OF SATELLITES
          C1    L1    D1    P2    L2    D2                  COMMENT
   G 1     0     0     0     0     0     0                  PRN / # OF OBS
   G 2    79    79    79    79    79    79                  PRN / # OF OBS
   G 3     0     0     0     0     0     0                  PRN / # OF OBS
   G 4     0     0     0     0     0     0                  PRN / # OF OBS
   G 5  1019  1019  1019  1019  1019  1019                  PRN / # OF OBS
   G 6     0     0     0     0     0     0                  PRN / # OF OBS
   G 7     0     0     0     0     0     0                  PRN / # OF OBS
   G 8   638   638   638   637   637   637                  PRN / # OF OBS
   G 9     0     0     0     0     0     0                  PRN / # OF OBS
   G10  2167  2167  2167  2166  2166  2166                  PRN / # OF OBS
   G11   376   376   376   376   376   376                  PRN / # OF OBS
   G12   272   272   272   272   272   272                  PRN / # OF OBS
   G13  1904  1904  1904  1904  1904  1904                  PRN / # OF OBS
   G14     0     0     0     0     0     0                  PRN / # OF OBS
   G15  2833  2833  2833  2833  2833  2833                  PRN / # OF OBS
   G16     0     0     0     0     0     0                  PRN / # OF OBS
   G17     0     0     0     0     0     0                  PRN / # OF OBS
   G18  2668  2668  2668  2668  2668  2668                  PRN / # OF OBS
   G19     0     0     0     0     0     0                  PRN / # OF OBS
   G20  2833  2833  2833  2833  2833  2833                  PRN / # OF OBS
   G21  1311  1311  1311  1310  1310  1310                  PRN / # OF OBS
   G22     0     0     0     0     0     0                  PRN / # OF OBS
   G23     0     0     0     0     0     0                  PRN / # OF OBS
   G24  2338  2338  2338  2338  2338  2338                  PRN / # OF OBS
   G25     0     0     0     0     0     0                  PRN / # OF OBS
   G26     0     0     0     0     0     0                  PRN / # OF OBS
   G27  1600  1600  1600  1599  1599  1599                  PRN / # OF OBS
   G28     0     0     0     0     0     0                  PRN / # OF OBS
   G29   768   768   768   768   768   768                  PRN / # OF OBS
   G30   792   792   792   792   792   792                  PRN / # OF OBS
   G31     0     0     0     0     0     0                  PRN / # OF OBS
   G32  1039  1039  1039  1038  1038  1038                  PRN / # OF OBS
                                                            END OF HEADER
 20 09 28 05 15 25.0000000  0  8G13G 2G15G18G 5G29G30G20
  20509613.154   107778745.13348       279.390    20509612.617    83983436.69047
       217.702  
  24472996.493   128606454.34147     -3287.175    24472996.558   100212817.00746
     -2561.437  
  20782089.969   109210622.80349      2261.179    20782090.256    85099188.79248
      1761.953  
  21310733.781   111988662.97349      2270.116    21310734.527    87263895.08347
      1768.917  
  21807561.150   114599504.07548     -2595.077    21807560.959    89298315.24147
     -2022.140  
  22258058.936   116966885.66848     -2783.301    22258059.920    91143029.83347
     -2168.808  
  23850287.452   125334115.77645      -124.793    23850290.194    97662953.69844
       -97.242  
  23656628.086   124316420.53346      3194.233    23656629.364    96869954.69244
      2489.012  
 20 09 28 05 15 30.0000000  0  8G13G 2G15G18G 5G29G30G20
  20509348.648   107777355.51848       276.121    20509348.149    83982353.86647
       215.156  
  24476124.306   128622891.92546     -3287.844    24476124.479   100225625.47746
     -2561.964  
  20779940.013   109199324.46049      2258.332    20779940.201    85090384.89748
      1759.734  
  21308574.712   111977316.83348      2268.195    21308575.219    87255053.92547
      1767.421  
  21810030.801   114612482.86748     -2596.495    21810030.669    89308428.57246
     -2023.245  
  22260708.214   116980807.47248     -2785.434    22260709.143    91153877.98847
     -2170.472  
  23850407.899   125334748.04446      -128.069    23850410.569    97663446.36246
       -99.796  
  23653588.818   124300449.41847      3193.922    23653589.795    96857509.66345
      2488.765  
 20 09 28 05 15 35.0000000  0  8G13G 2G15G18G 5G29G30G20
  20509087.561   107775983.59548       272.566    20509087.100    83981284.84947
       212.386  
  24479253.273   128639334.06846     -3288.832    24479253.243   100238437.49345
     -2562.733  
  20777792.734   109188040.49549      2255.262    20777793.110    85081592.19848
      1757.343  
  21306417.719   111965981.00948      2266.145    21306418.111    87246220.83147
      1765.823  
  21812501.977   114625468.36148     -2597.819    21812501.849    89318547.14146
     -2024.277  
  22263359.754   116994741.24948     -2788.164    22263360.824    91164735.46247
     -2172.598  
  23850531.175   125335396.11345      -131.137    23850533.936    97663951.34345
      -102.187  
  23650550.170   124284481.33647      3193.128    23650551.368    96845067.00145
      2488.148  
 20 09 28 05 15 40.0000000  0  8G13G 2G15G18G 5G29G30G20
  20508829.721   107774628.85348       269.363    20508829.459    83980229.19547
       209.891  
  24482382.811   128655780.24647     -3289.577    24482382.850   100251252.67745
     -2563.315  
  20775648.091   109176770.41549      2252.785    20775648.441    85072810.32448
      1755.413  
  21304262.241   111954654.96048      2264.406    21304262.955    87237395.32947
      1764.468  
  21814974.282   114638460.03848     -2598.843    21814974.015    89328670.52647
     -2025.078  
  22266013.416   117008686.37248     -2790.011    22266014.448    91175601.79547
     -2174.039  
  23850657.355   125336059.44245      -133.976    23850660.119    97664468.23046
      -104.401  
  23647511.985   124268515.63346      3193.250    23647513.189    96832626.19944
      2488.242  
 20 09 28 05 15 45.0000000  0  8G13G 2G15G18G 5G29G30G20
  20508575.099   107773290.61748       265.773    20508574.758    83979186.42747
       207.094  
  24485512.951   128672229.74246     -3290.266    24485513.148   100264070.44645
     -2563.848  
  20773505.935   109165513.59149      2249.684    20773506.219    85064038.78548
      1752.995  
  21302108.894   111943338.04448      2262.050    21302109.281    87228576.95847
      1762.633  
  21817447.512   114651457.22948     -2600.343    21817447.382    89338798.20747
     -2026.245  
  22268669.158   117022642.20048     -2792.597    22268670.265    91186476.45547
     -2176.055  
  23850786.359   125336737.39746      -137.565    23850789.070    97664996.51345
      -107.198  
  23644474.138   124252551.63746      3192.352    23644475.158    96820186.72145
      2487.542  
 20 09 28 05 15 50.0000000  0  8G13G 2G15G18G 5G29G30G20
  20508323.909   107771970.72948       262.276    20508323.478    83978157.94447
       204.366  
  24488644.172   128688684.42146     -3291.218    24488644.355   100276892.24445
     -2564.594  
  20771366.638   109154271.75649      2246.973    20771366.962    85055278.91548
      1750.883  
  21299957.418   111932032.05548      2260.254    21299958.029    87219767.09747
      1761.233  
  21819922.066   114664461.75148     -2601.516    21819921.960    89348931.59847
     -2027.160  
  22271327.187   117036610.51848     -2794.772    22271328.263    91197360.85347
     -2177.750  
  23850918.407   125337431.80946      -140.500    23850921.159    97665537.61444
      -109.483  
  23641437.067   124236591.22146      3191.921    23641438.138    96807750.03544
      2487.207  
 20 09 28 05 15 55.0000000  0  8G13G 2G15G18G 5G29G30G20
  20508075.944   107770667.79048       259.022    20508075.606    83977142.67147
       201.832  
  24491775.952   128705142.84846     -3291.871    24491776.197   100289716.95844
     -2565.102  
  20769230.022   109143043.61149      2244.401    20769230.356    85046529.71548
      1748.882  
  21297807.654   111920735.65548      2258.465    21297808.237    87210964.71647
      1759.804  
  21822397.972   114677472.19548     -2602.402    21822397.735    89359069.60847
     -2027.847  
  22273987.357   117050589.93248     -2796.781    22273988.441    91208253.90047
     -2179.313  
  23851053.502   125338141.21246      -143.015    23851056.315    97666090.40045
      -111.444  
  23638400.211   124220632.96746      3191.496    23638401.324    96795315.04245
      2486.874  
 20 09 28 05 16  0.0000000  0  8G13G 2G15G18G 5G29G30G20
  20507831.415   107769382.09348       255.327    20507830.907    83976140.82447
       198.952  
  24494908.787   128721605.31946     -3292.925    24494908.921   100302544.84445
     -2565.917  
  20767096.064   109131829.45749      2241.319    20767096.459    85037791.41948
      1746.479  
  21295659.998   111909449.18148      2256.301    21295660.652    87202170.05447
      1758.152  
  21824874.844   114690488.93448     -2604.144    21824874.782    89369212.51247
     -2029.206  
  22276649.780   117064580.84048     -2799.289    22276650.807    91219155.90647
     -2181.265  
  23851191.457   125338866.01045      -146.370    23851194.222    97666655.16644
      -114.058  
  23635364.082   124204677.25346      3190.937    23635365.280    96782882.04345
      2486.441  
 20 09 28 05 16  5.0000000  0  8G13G 2G15G18G 5G29G30G20
  20507589.940   107768113.66648       251.761    20507589.639    83975152.43647
       196.176  
  24498042.098   128738071.88346     -3294.273    24498042.526   100315375.90444
     -2566.977  
  20764964.772   109120629.25649      2238.516    20764965.012    85029064.00048
      1744.292  
  21293514.049   111898172.60748      2254.172    21293514.783    87193383.11147
      1756.495  
  21827353.030   114703511.86048     -2605.418    21827353.014    89379360.23946
     -2030.198  
  22279314.461   117078583.14648     -2801.719    22279315.387    91230066.79247
     -2183.160  
  23851332.228   125339606.23946      -149.835    23851334.892    97667231.96945
      -116.758  
  23632328.298   124188724.03846      3190.136    23632329.088    96770450.97045
      2485.816  
 20 09 28 05 16 10.0000000  0  8G13G 2G15G18G 5G29G30G20
  20507351.900   107766862.81748       248.520    20507351.544    83974177.75647
       193.648  
  24501176.397   128754542.74046     -3294.409    24501177.001   100328210.33545
     -2567.074  
  20762836.134   109109443.37749      2235.887    20762836.487    85020347.73148
      1742.246  
  21291370.197   111886906.27948      2252.343    21291370.889    87184604.16147
      1755.070  
  21829832.560   114716541.37748     -2606.453    21829832.535    89389513.12247
     -2031.003  
  22281981.269   117092597.12848     -2803.988    22281982.166    91240986.77447
     -2184.930  
  23851476.129   125340362.12846      -152.780    23851478.741    97667820.97645
      -119.055  
  23629292.956   124172773.61047      3189.879    23629294.169    96758022.07645
      2485.617  
 20 09 28 05 16 15.0000000  0  8G13G 2G15G18G 5G29G30G20
  20507117.273   107765629.03248       244.855    20507116.855    83973216.36847
       190.792  
  24504311.554   128771017.59846     -3295.531    24504311.955   100341047.85445
     -2567.952  
  20760710.169   109098271.35349      2232.879    20760710.628    85011642.26048
      1739.901  
  21289228.062   111875649.75048      2250.063    21289228.684    87175832.84647
      1753.293  
  21832313.224   114729577.04048     -2607.976    21832313.011    89399670.78647
     -2032.190  
  22284650.169   117106622.29548     -2806.421    22284651.141    91251915.46947
     -2186.823  
  23851622.769   125341133.22646      -156.051    23851625.535    97668421.82245
      -121.602  
  23626258.095   124156825.62446      3189.184    23626259.390    96745595.06745
      2485.073  
 20 09 28 05 16 20.0000000  0  8G13G 2G15G18G 5G29G30G20
  20506885.699   107764412.95148       241.530    20506885.359    83972268.77547
       188.202  
  24507447.392   128787496.84946     -3296.324    24507447.926   100353888.82045
     -2568.565  
  20758586.855   109087113.76349      2230.129    20758587.463    85002948.03548
      1737.757  
  21287088.010   111864403.57748      2248.495    21287088.669    87167069.59447
      1752.070  
  21834795.028   114742619.38248     -2608.948    21834794.930    89409833.64347
     -2032.948  
  22287321.308   117120659.18948     -2808.495    22287322.288    91262853.30747
     -2188.441  
  23851772.487   125341920.09445      -158.883    23851775.205    97669034.97846
      -123.808  
  23623223.869   124140880.59547      3189.022    23623225.165    96733170.39345
      2484.953  
 20 09 28 05 16 25.0000000  0  8G13G 2G15G18G 5G29G30G20
  20506657.533   107763213.77148       238.136    20506657.278    83971334.32347
       185.555  
  24510583.961   128803979.78746     -3297.026    24510584.450   100366732.64345
     -2569.117  
  20756466.217   109075969.83049      2227.418    20756466.730    84994264.45848
      1735.647  
  21284949.859   111853167.01848      2246.152    21284950.354    87158313.83247
      1750.246  
  21837277.925   114755667.59647     -2610.358    21837278.082    89420001.07747
     -2034.050  
  22289994.557   117134707.05548     -2810.839    22289995.415    91273799.68847
     -2190.269  
  23851925.064   125342722.01646      -161.664    23851927.806    97669659.88145
      -125.976  
  23620190.011   124124937.71947      3188.246    23620191.449    96720747.36645
      2484.343  
 20 09 28 05 16 30.0000000  0  8G13G 2G15G18G 5G29G30G20
  20506432.815   107762032.40148       234.460    20506432.354    83970413.76747
       182.695  
  24513721.542   128820467.35646     -3297.729    24513722.185   100379580.04645
     -2569.671  
  20754348.425   109064840.47549      2224.604    20754348.930    84985592.23348
      1733.456  
  21282813.448   111841940.97748      2243.995    21282814.237    87149566.26047
      1748.565  
  21839762.176   114768722.58047     -2611.535    21839762.209    89430173.78847
     -2034.964  
  22292669.913   117148766.80148     -2813.027    22292670.964    91284755.33647
     -2191.973  
  23852080.510   125343539.89146      -165.187    23852083.681    97670297.16444
      -128.722  
  23617156.746   124108997.93047      3187.554    23617158.167    96708326.77044
      2483.805  
 20 09 28 05 16 35.0000000  0  8G13G 2G15G18G 5G29G30G20
  20506211.311   107760868.29848       231.301    20506210.860    83969506.69147
       180.230  
  24516859.838   128836959.02546     -3298.534    24516860.077   100392430.69145
     -2570.289  
  20752233.299   109053725.25749      2221.770    20752233.815    84976931.03348
      1731.245  
  21280679.133   111830724.98149      2242.207    21280679.845    87140826.52947
      1747.171  
  21842247.592   114781783.84148     -2612.766    21842247.759    89440351.38847
     -2035.926  
  22295347.753   117162838.04148     -2815.249    22295348.455    91295719.93247
     -2193.703  
  23852239.274   125344373.20546      -168.152    23852242.151    97670946.51345
      -131.031  
  23614124.058   124093060.76746      3187.163    23614125.519    96695908.20845
      2483.500  
 20 09 28 05 16 40.0000000  0  8G13G 2G15G18G 5G29G30G20
  20505993.037   107759721.60448       227.539    20505992.775    83968613.16947
       177.300  
  24519998.696   128853454.77645     -3299.363    24519999.257   100405284.48244
     -2570.941  
  20750120.842   109042624.15949      2218.628    20750121.148    84968280.82848
      1728.796  
  21278546.899   111819519.05048      2240.050    21278547.420    87132094.63947
      1745.492  
  21844734.338   114794851.34348     -2614.266    21844734.272    89450533.86846
     -2037.093  
  22298027.465   117176920.67548     -2817.757    22298028.420    91306693.41147
     -2195.660  
  23852400.676   125345221.94046      -171.265    23852403.466    97671607.84946
      -133.457  
  23611091.896   124077126.24247      3186.593    23611093.136    96683491.70245
      2483.058  
 20 09 28 05 16 45.0000000  0  8G13G 2G15G18G 5G29G30G20
  20505778.203   107758592.26548       224.218    20505777.854    83967733.16547
       174.710  
  24523138.476   128869954.61744     -3300.065    24523139.167   100418141.51645
     -2571.483  
  20748011.071   109031537.23949      2216.062    20748011.402    84959641.67648
      1726.797  
  21276416.359   111808323.20648      2238.261    21276416.922    87123370.60747
      1744.097  
  21847222.237   114807925.18448     -2615.387    21847222.254    89460721.27147
     -2037.968  
  22300709.444   117191014.66348     -2820.066    22300710.349    91317675.74147
     -2197.457  
  23852565.285   125346086.18246      -174.320    23852568.139    97672281.28344
      -135.836  
  23608060.122   124061194.41046      3186.093    23608061.396    96671077.29345
      2482.667  
 20 09 28 05 16 50.0000000  0  8G13G 2G15G18G 5G29G30G20
  20505566.564   107757480.28748       220.508    20505566.140    83966866.69947
       171.819  
  24526279.104   128886458.63545     -3301.011    24526279.752   100431001.74944
     -2572.222  
  20745903.973   109020464.48449      2213.058    20745904.372    84951013.55548
      1724.456  
  21274287.756   111797137.50748      2236.116    21274288.363    87114654.47847
      1742.425  
  21849711.283   114821005.36248     -2616.507    21849711.282    89470913.61147
     -2038.840  
  22303393.731   117205120.03148     -2822.449    22303394.464    91328666.93347
     -2199.313  
  23852732.557   125346965.89246      -177.488    23852735.347    97672966.78545
      -138.305  
  23605028.931   124045265.26947      3185.546    23605029.926    96658664.99345
      2482.242  
 20 09 28 05 16 55.0000000  0  8G13G 2G15G18G 5G29G30G20
  20505358.172   107756385.45648       217.512    20505357.809    83966013.58847
       169.488  
  24529420.407   128902966.54544     -3301.644    24529421.279   100443865.05744
     -2572.715  
  20743799.524   109009405.71849      2210.468    20743800.006    84942396.33948
      1722.441  
  21272161.033   111785961.72348      2234.344    21272161.767    87105946.08247
      1741.043  
  21852201.467   114834091.55648     -2617.594    21852201.496    89481110.65246
     -2039.687  
  22306079.890   117219236.58248     -2824.309    22306080.748    91339666.84647
     -2200.761  
  23852902.875   125347860.95046      -180.194    23852905.710    97673664.23546
      -140.413  
  23601998.102   124029338.56246      3185.004    23601999.326    96646254.57145
      2481.815  
 20 09 28 05 17  0.0000000  0  8G13G 2G15G18G 5G29G30G20
  20505153.009   107755307.79048       213.547    20505152.681    83965173.84247
       166.397  
  24532562.525   128919478.35945     -3303.055    24532563.287   100456731.36545
     -2573.815  
  20741697.740   108998360.86349      2207.640    20741698.088    84933789.96248
      1720.234  
  21270036.210   111774795.85648      2232.086    21270036.890    87097245.40947
      1739.284  
  21854692.813   114847183.85848     -2619.301    21854692.937    89491312.43446
     -2041.015  
  22308768.350   117233364.25248     -2826.617    22308769.229    91350675.41447
     -2202.562  
  23853076.266   125348771.24946      -183.780    23853078.805    97674373.56245
      -143.210  
  23598967.899   124013414.36347      3184.558    23598969.170    96633846.11745
      2481.473  
 20 09 28 05 17  5.0000000  0  8G13G 2G15G18G 5G29G30G20
  20504951.284   107754247.96448       210.315    20504951.202    83964348.00947
       163.879  
  24535705.231   128935994.79845     -3303.503    24535706.301   100469601.26745
     -2574.171  
  20739598.802   108987330.71649      2204.581    20739599.351    84925195.04648
      1717.852  
  21267913.473   111763640.64548      2229.934    21267914.208    87088553.03647
      1737.605  
  21857185.461   114860282.93648     -2620.581    21857185.571    89501519.51347
     -2042.015  
  22311458.907   117247503.75748     -2829.129    22311459.931    91361693.20347
     -2204.522  
  23853252.536   125349697.52246      -187.074    23853255.096    97675095.35145
      -145.772  
  23595938.269   123997493.36447      3184.094    23595939.504    96621440.14245
      2481.108  
 20 09 28 05 17 10.0000000  0  8G13G 2G15G18G 5G29G30G20
  20504752.985   107753205.33448       206.730    20504752.659    83963535.56847
       161.086  
  24538848.935   128952515.16745     -3304.460    24538849.788   100482474.28743
     -2574.906  
  20737502.548   108976314.57449      2201.753    20737503.073    84916611.04648
      1715.648  
  21265792.636   111752495.41548      2227.937    21265793.257    87079868.44247
      1736.051  
  21859679.426   114873388.15148     -2621.858    21859679.417    89511731.36346
     -2043.011  
  22314151.750   117261654.39948     -2831.320    22314152.614    91372719.66447
     -2206.227  
  23853431.797   125350639.14146      -189.762    23853434.247    97675829.07045
      -147.870  
  23592909.062   123981574.92847      3183.063    23592910.371    96609036.16045
      2480.305  
 20 09 28 05 17 15.0000000  0  8G13G 2G15G18G 5G29G30G20
  20504557.932   107752180.29548       203.698    20504557.537    83962736.82847
       158.722  
  24541993.360   128969039.82645     -3305.050    24541994.223   100495350.56844
     -2575.379  
  20735408.923   108965312.90649      2199.163    20735409.442    84908038.32048
      1713.632  
  21263673.715   111741360.59748      2226.265    21263674.234    87071191.96047
      1734.750  
  21862174.364   114886499.88948     -2622.733    21862174.507    89521948.30747
     -2043.690  
  22316846.696   117275816.59248     -2833.269    22316847.712    91383755.13947
     -2207.746  
  23853613.915   125351596.48846      -193.160    23853616.376    97676575.04444
      -150.520  
  23589880.590   123965659.32647      3183.405    23589881.703    96596634.39745
      2480.573  
 20 09 28 05 17 20.0000000  0  8G13G 2G15G18G 5G29G30G20
  20504365.731   107751170.05248       201.352    20504365.335    83961949.63647
       156.894  
  24545138.265   128985572.01055     -3304.722    24545135.651   100508227.09655
     -2575.112  
  20733317.610   108954322.82649      2197.667    20733318.018    84899474.63148
      1712.465  
  21261556.311   111730233.34448      2225.582    21261556.919    87062521.37747
      1734.133  
  21864670.236   114899615.31848     -2622.616    21864670.350    89532168.11647
     -2043.601  
  22319543.354   117289987.53048     -2834.313    22319544.281    91394797.41947
     -2208.558  
  23853798.514   125352566.72146      -194.749    23853801.170    97677331.08844
      -151.757  
  23586851.939   123949743.90647      3183.789    23586853.008    96584232.77445
      2480.871  
 20 09 28 05 17 25.0000000  0  8G13G 2G15G18G 5G29G30G20
  20504176.183   107750174.78148       195.852    20504176.070    83961174.09747
       152.609  
  24548283.599   129002099.78544     -3307.604    24548287.263   100521105.85744
     -2577.366  
  20731228.573   108943344.61349      2192.956    20731229.032    84890920.17748
      1708.792  
  21259440.234   111719113.91148      2221.441    21259440.847    87053856.88347
      1730.987  
  21867166.679   114912734.59048     -2625.801    21867166.687    89542390.92147
     -2046.082  
  22322241.705   117304167.36948     -2838.500    22322242.553    91405846.64247
     -2211.819  
  23853985.744   125353550.05946      -199.563    23853988.256    97678097.33344
      -155.508  
  23583823.459   123933828.76147      3181.059    23583824.559    96571831.37245
      2478.742  
 20 09 28 05 17 30.0000000  0  8G13G 2G15G18G 5G29G30G20
  20503991.781   107749205.93248       192.784    20503991.667    83960419.15447
       150.218  
  24551432.113   129018640.71745     -3307.581    24551431.978   100533994.84444
     -2577.352  
  20729143.900   108932389.64849      2190.254    20729144.197    84882383.84548
      1706.688  
  21257327.972   111708013.67848      2219.796    21257328.681    87045207.35447
      1729.706  
  21869666.205   114925869.15548     -2626.866    21869666.197    89552625.65247
     -2046.913  
  22324943.850   117318367.48548     -2840.390    22324944.757    91416911.65447
     -2213.292  
  23854177.354   125354557.91446      -202.473    23854179.855    97678882.67844
      -157.772  
  23580797.198   123917925.37346      3180.651    23580798.336    96559439.12245
      2478.426  
 20 09 28 05 17 35.0000000  0  8G13G 2G15G18G 5G29G30G20
  20503809.483   107748247.82548       190.023    20503809.249    83959672.59047
       148.065  
  24554579.353   129035179.07344     -3308.370    24554578.093   100546881.94344
     -2577.941  
  20727060.765   108921442.32549      2188.085    20727061.083    84873853.46748
      1705.000  
  21255216.470   111696917.06648      2218.304    21255216.997    87036560.64347
      1728.547  
  21872165.538   114939003.39748     -2627.480    21872165.696    89562860.12146
     -2047.391  
  22327646.959   117332572.29248     -2841.984    22327647.910    91427980.33447
     -2214.534  
  23854370.894   125355574.69046      -204.855    23854373.330    97679674.95945
      -159.629  
  23577770.210   123902018.15947      3180.621    23577771.076    96547043.90545
      2478.401  
 20 09 28 05 17 40.0000000  0  7G13G15G18G 5G29G30G20
  20503630.776   107747308.02348       186.214    20503630.494    83958940.27447
       145.098  
  20724980.471   108910510.18249      2184.871    20724980.660    84865334.91948
      1702.492  
  21253106.885   111685831.59048      2216.023    21253107.502    87027922.61247
      1726.770  
  21874666.185   114952144.91748     -2628.965    21874666.402    89573100.25147
     -2048.546  
  22330352.340   117346789.28948     -2844.648    22330353.252    91439058.50447
     -2216.612  
  23854567.470   125356607.89446      -208.340    23854570.137    97680480.03545
      -162.352  
  23574743.752   123886114.54647      3180.637    23574744.861    96534651.49645
      2478.414  
 20 09 28 05 17 45.0000000  0  7G13G15G18G 5G29G30G20
  20503455.322   107746386.50848       182.535    20503455.167    83958222.21447
       142.230  
  20722903.034   108899593.23849      2181.875    20722903.402    84856828.20748
      1700.159  
  21250999.587   111674757.32548      2213.726    21251000.224    87019293.31847
      1724.979  
  21877168.358   114965293.73648     -2630.339    21877168.579    89583346.08746
     -2049.616  
  22333060.035   117361018.38648     -2846.898    22333061.039    91450146.09647
     -2218.367  
  23854767.316   125357657.55746      -211.315    23854769.580    97681297.97145
      -164.664  
  23571718.045   123870214.60147      3180.160    23571719.135    96522261.93544
      2478.042  
 20 09 28 05 17 50.0000000  0  7G13G15G18G 5G29G30G20
  20503283.290   107745482.90948       178.784    20503283.219    83957518.11647
       139.308  
  20720828.448   108888691.12049      2178.730    20720828.837    84848333.05648
      1697.706  
  21248894.183   111663693.85148      2211.464    21248894.905    87010672.42247
      1723.214  
  21879671.859   114978449.28648     -2631.875    21879671.981    89593597.16247
     -2050.816  
  22335769.991   117375259.24148     -2849.391    22335770.816    91461242.86847
     -2220.309  
  23854970.172   125358723.29146      -214.922    23854972.544    97682128.41844
      -167.476  
  23568692.879   123854317.90446      3179.187    23568694.040    96509874.89846
      2477.284  
 20 09 28 05 17 55.0000000  0  7G13G15G18G 5G29G30G20
  20503114.677   107744596.94048       175.598    20503114.450    83956827.75547
       136.824  
  20718756.534   108877803.57649      2176.050    20718756.955    84839849.26148
      1695.620  
  21246790.861   111652640.90948      2209.604    21246791.547    87002059.74047
      1721.765  
  21882176.507   114991611.36048     -2632.898    21882176.639    89603853.32046
     -2051.612  
  22338482.053   117389511.66148     -2851.504    22338483.040    91472348.63047
     -2221.953  
  23855175.888   125359804.77446      -217.594    23855178.421    97682971.14045
      -169.558  
  23565668.474   123838424.20547      3178.819    23565669.680    96497490.20845
      2476.999  
 20 09 28 05 18  0.0000000  0  7G13G15G18G 5G29G30G20
  20502949.303   107743727.39348       172.312    20502949.117    83956150.17847
       134.265  
  20716687.266   108866929.40349      2173.241    20716687.509    84831375.88448
      1693.433  
  21244689.437   111641597.32248      2207.680    21244690.107    86993454.35247
      1720.266  
  21884682.095   115004778.75448     -2634.113    21884682.242    89614113.62847
     -2052.558  
  22341196.207   117403774.38748     -2853.492    22341197.229    91483462.43447
     -2223.504  
  23855384.481   125360900.87646      -220.851    23855387.010    97683825.24745
      -172.093  
  23562644.293   123822532.33646      3178.152    23562645.435    96485106.93546
      2476.479  
 20 09 28 05 18  5.0000000  0  7G13G15G18G 5G29G30G20
  20502787.188   107742875.62848       168.300    20502786.957    83955486.47447
       131.140  
  20714620.681   108856069.93049      2170.375    20714620.975    84822913.96048
      1691.198  
  21242589.905   111630564.42748      2205.375    21242590.632    86984857.29147
      1718.473  
  21887189.006   115017952.78548     -2635.405    21887189.313    89624379.10046
     -2053.566  
  22343912.469   117418048.74948     -2856.163    22343913.583    91494585.29347
     -2225.590  
  23855596.109   125362012.92746      -224.300    23855598.482    97684691.78345
      -174.780  
  23559620.698   123806643.61447      3177.555    23559622.126    96472726.11544
      2476.012  
 20 09 28 05 18 10.0000000  0  7G13G15G18G 5G29G30G20
  20502628.487   107742041.05448       165.382    20502628.203    83954836.15247
       128.867  
  20712556.971   108845224.59149      2167.694    20712557.391    84814463.05348
      1689.109  
  21240492.297   111619541.63948      2203.484    21240493.104    86976268.10647
      1716.996  
  21889697.048   115031132.85448     -2636.620    21889697.329    89634649.28746
     -2054.512  
  22346631.000   117432334.10048     -2858.159    22346631.862    91505716.72247
     -2227.141  
  23855810.808   125363140.26946      -227.063    23855813.170    97685570.23545
      -176.934  
  23556597.663   123790757.48847      3177.370    23556599.060    96460347.32045
      2475.870  
 20 09 28 05 18 15.0000000  0  7G13G15G18G 5G29G30G20
  20502473.018   107741224.34248       161.660    20502472.642    83954199.75148
       125.965  
  20710496.110   108834394.06749      2164.776    20710496.258    84806023.68448
      1686.836  
  21238396.766   111608529.61248      2201.620    21238397.548    86967687.31047
      1715.547  
  21892206.426   115044319.62648     -2637.765    21892206.586    89644924.68446
     -2055.406  
  22349351.624   117446631.07748     -2860.242    22349352.599    91516857.21847
     -2228.762  
  23856028.327   125364283.62246      -229.972    23856030.736    97686461.16444
      -179.202  
  23553575.208   123774874.60047      3176.398    23553576.669    96447971.04145
      2475.112  
 20 09 28 05 18 20.0000000  0  7G13G15G18G 5G29G30G20
  20502320.777   107740424.71748       158.229    20502320.480    83953576.67347
       123.292  
  20708437.704   108823577.60249      2161.941    20708438.031    84797595.27448
      1684.624  
  21236303.144   111597527.65148      2199.387    21236303.945    86959114.35747
      1713.804  
  21894716.980   115057512.36548     -2638.991    21894717.096    89655204.73746
     -2056.358  
  22352074.151   117460938.96248     -2862.464    22352075.305    91528006.21347
     -2230.495  
  23856248.860   125365442.25246      -233.315    23856251.125    97687363.99545
      -181.809  
  23550553.310   123758994.22847      3176.542    23550554.471    96435596.73645
      2475.226  
 20 09 28 05 18 25.0000000  0  7G13G15G18G 5G29G30G20
  20502171.963   107739642.03448       154.465    20502171.519    83952966.79447
       120.358  
  20706382.153   108812775.04549      2158.874    20706382.282    84789177.70248
      1682.237  
  21234211.439   111586535.60548      2197.070    21234212.289    86950549.12547
      1712.000  
  21897228.475   115070710.89548     -2640.550    21897228.806    89665489.30146
     -2057.574  
  22354798.972   117475257.61548     -2864.828    22354799.961    91539163.59747
     -2232.336  
  23856472.046   125366615.94546      -236.582    23856474.675    97688278.55344
      -184.352  
  23547531.821   123743116.25847      3175.339    23547533.126    96423224.30545
      2474.288  
 20 09 28 05 18 30.0000000  0  7G13G15G18G 5G29G30G20
  20502026.366   107738877.19848       151.737    20502025.949    83952370.80447
       118.234  
  20704329.274   108801987.31449      2156.476    20704329.438    84780771.68148
      1680.366  
  21232121.823   111575554.34848      2195.479    21232122.574    86941992.31147
      1710.762  
  21899741.476   115083916.11548     -2641.390    21899741.738    89675779.09046
     -2058.229  
  22357525.905   117489587.90248     -2866.992    22357527.056    91550330.03447
     -2234.023  
  23856698.467   125367805.64146      -239.164    23856701.090    97689205.58945
      -186.363  
  23544510.924   123727241.55947      3174.895    23544512.269    96410854.43145
      2473.945  
 20 09 28 05 18 35.0000000  0  7G13G15G18G 5G29G30G20
  20501883.847   107738128.94448       147.723    20501883.593    83951787.75647
       115.105  
  20702279.073   108791213.15049      2153.441    20702279.299    84772376.23448
      1678.004  
  21230033.916   111564582.66648      2193.129    21230034.608    86933442.94047
      1708.929  
  21902255.197   115097126.77748     -2642.797    21902255.634    89686073.10446
     -2059.324  
  22360254.933   117503928.47948     -2869.194    22360255.884    91561504.50447
     -2235.737  
  23856927.801   125369010.07846      -242.542    23856930.488    97690144.12245
      -188.996  
  23541490.400   123711368.81846      3174.155    23541491.884    96398486.05345
      2473.367  
 20 09 28 05 18 40.0000000  0  7G13G15G18G 5G29G30G20
  20501744.939   107737398.19548       144.390    20501744.627    83951218.33647
       112.508  
  20700231.518   108780453.45849      2150.734    20700231.829    84763992.06148
      1675.895  
  21227948.129   111553621.46648      2191.233    21227948.786    86924901.75447
      1707.452  
  21904770.255   115110343.77948     -2643.870    21904770.744    89696372.05947
     -2060.163  
  22362986.062   117518280.34448     -2871.284    22362986.914    91572687.77147
     -2237.367  
  23857159.960   125370230.17446      -245.582    23857162.498    97691094.85345
      -191.367  
  23538470.697   123695499.01547      3174.152    23538471.712    96386119.98545
      2473.362  
 20 09 28 05 18 45.0000000  0  8G13G 2G15G18G 5G29G30G20
  20501609.090   107736684.58748       140.847    20501608.830    83950662.27147
       109.749  
  24598726.494   129267184.74055     -3319.020    24598725.599   100727676.69155
     -2586.241  
  20698186.633   108769707.95749      2147.546    20698186.799    84755618.94448
      1673.409  
  21225864.254   111542670.44448      2189.164    21225864.921    86916368.48847
      1705.840  
  21907286.473   115123566.80848     -2645.266    21907286.825    89706675.70746
     -2061.249  
  22365719.268   117532643.15848     -2873.707    22365720.141    91583879.56647
     -2239.254  
  23857395.015   125371465.61646      -248.723    23857397.693    97692057.53345
      -193.813  
  23535451.119   123679631.77446      3173.378    23535452.321    96373755.92946
      2472.761  
 20 09 28 05 18 50.0000000  0  8G13G 2G15G18G 5G29G30G20
  20501477.043   107735990.26848       137.320    20501476.707    83950121.22047
       107.000  
  24601884.643   129283786.98745     -3320.819    24601885.717   100740613.56845
     -2587.647  
  20696144.997   108758978.67849      2144.612    20696145.185    84747258.46948
      1671.125  
  21223782.675   111531731.73349      2186.867    21223783.273    86907844.79947
      1704.051  
  21909804.212   115136797.93148     -2646.558    21909804.680    89716985.65447
     -2062.257  
  22368454.753   117547018.94948     -2876.206    22368455.817    91595081.48147
     -2241.203  
  23857633.510   125372718.47946      -252.277    23857636.059    97693033.78745
      -196.581  
  23532432.679   123663769.26547      3172.804    23532433.847    96361395.56245
      2472.315  
 20 09 28 05 18 55.0000000  0  8G13G 2G15G18G 5G29G30G20
  20501347.665   107735310.07248       134.797    20501347.293    83949591.22747
       105.034  
  24605045.741   129300389.85845     -3320.008    24605045.842   100753550.77944
     -2587.027  
  20694105.446   108748260.57849      2142.801    20694105.500    84738906.70748
      1669.711  
  21221702.606   111520800.14548      2185.913    21221703.095    86899326.69447
      1703.269  
  21912322.535   115150031.99448     -2646.800    21912322.981    89727297.92446
     -2062.444  
  22371191.953   117561402.59248     -2877.229    22371192.918    91606289.51547
     -2241.999  
  23857874.252   125373983.65046      -253.808    23857876.850    97694019.63145
      -197.777  
  23529414.063   123647906.42446      3172.840    23529415.175    96349034.88745
      2472.339  
 20 09 28 05 19  0.0000000  0  8G13G 2G15G18G 5G29G30G20
  20501221.318   107734646.77048       130.449    20501221.008    83949074.36247
       101.644  
  24608205.579   129316996.29145     -3322.374    24608204.662   100766490.87144
     -2588.866  
  20692068.563   108737556.30949      2138.895    20692068.516    84730565.72348
      1666.667  
  21219624.246   111509878.45048      2182.757    21219624.843    86890816.28647
      1700.805  
  21914842.029   115163271.74448     -2649.069    21914842.483    89737614.61447
     -2064.215  
  22373931.071   117575796.72648     -2880.530    22373931.982    91617505.71347
     -2244.574  
  23858117.833   125375263.83046      -258.296    23858120.577    97695017.18345
      -201.273  
  23526395.793   123632045.78046      3171.382    23526396.967    96336675.95145
      2471.202  
 20 09 28 05 19  5.0000000  0  8G13G 2G15G18G 5G29G30G20
  20501098.981   107734003.19448       126.762    20501098.401    83948572.87047
        98.773  
  24611366.744   129333608.95245     -3322.729    24611365.892   100779435.73743
     -2589.151  
  20690034.731   108726868.82649      2136.108    20690034.710    84722237.81348
      1664.495  
  21217548.361   111498969.53549      2180.719    21217548.815    86882315.83047
      1699.257  
  21917363.238   115176520.09948     -2650.265    21917363.475    89747937.99947
     -2065.144  
  22376672.856   117590204.30948     -2882.737    22376673.773    91628732.39047
     -2246.293  
  23858364.864   125376561.89346      -260.593    23858367.501    97696028.63745
      -203.062  
  23523378.668   123616190.36547      3171.266    23523380.094    96324321.11245
      2471.116  
 20 09 28 05 19 10.0000000  0  8G13G 2G15G18G 5G29G30G20
  20500979.852   107733377.70048       123.397    20500979.457    83948085.47147
        96.151  
  24614528.729   129350226.44945     -3323.629    24614527.038   100792384.44344
     -2589.847  
  20688003.931   108716196.49449      2132.980    20688003.818    84713921.71548
      1662.059  
  21215474.597   111488071.80248      2178.426    21215475.213    86873824.08747
      1697.473  
  21919885.566   115189775.36748     -2651.761    21919885.927    89758266.76847
     -2066.313  
  22379416.731   117604623.68948     -2885.242    22379417.757    91639968.26247
     -2248.241  
  23858615.154   125377876.27446      -264.222    23858617.495    97697052.85245
      -205.891  
  23520362.148   123600338.54146      3170.219    23520363.567    96311969.03246
      2470.297  
 20 09 28 05 19 15.0000000  0  8G13G 2G15G18G 5G29G30G20
  20500863.800   107732767.90448       120.241    20500863.461    83947610.32947
        93.690  
  24617691.713   129366846.13745     -3324.038    24617690.223   100805334.84544
     -2590.163  
  20685975.394   108705536.89549      2130.761    20685975.388    84705615.53948
      1660.331  
  21213402.514   111477182.77748      2176.930    21213403.065    86865339.14647
      1696.305  
  21922408.848   115203035.11348     -2652.500    21922409.363    89768599.03846
     -2066.887  
  22382162.513   117619052.33648     -2886.762    22382163.448    91651211.34847
     -2249.429  
  23858867.857   125379204.45446      -267.136    23858870.183    97698087.78744
      -208.159  
  23517345.748   123584487.75146      3170.785    23517347.138    96299617.76246
      2470.737  
 20 09 28 05 19 20.0000000  0  8G13G 2G15G18G 5G29G30G20
  20500751.154   107732175.63248       116.617    20500750.601    83947148.81047
        90.866  
  24620855.045   129383470.02945     -3325.351    24620853.832   100818288.51645
     -2591.187  
  20683949.715   108694891.91649      2127.460    20683949.649    84697320.75648
      1657.758  
  21211332.506   111466304.37248      2174.401    21211332.882    86856862.46747
      1694.335  
  21924933.291   115216301.24748     -2654.077    21924933.751    89778936.29446
     -2068.116  
  22384910.382   117633492.14348     -2889.258    22384911.326    91662463.13547
     -2251.370  
  23859123.639   125380548.34846      -270.530    23859125.808    97699134.96545
      -210.809  
  23514330.176   123568640.09746      3168.878    23514331.372    96287268.92345
      2469.249  
 20 09 28 05 19 25.0000000  0  8G13G 2G15G18G 5G29G30G20
  20500641.936   107731601.63048       113.059    20500641.445    83946701.52547
        88.093  
  24624019.081   129400098.71145     -3325.969    24624017.514   100831245.91944
     -2591.668  
  20681927.092   108684262.27149      2124.464    20681926.857    84689037.91948
      1655.425  
  21209264.608   111455437.37248      2172.285    21209264.930    86848394.67147
      1692.688  
  21927459.053   115229574.49548     -2655.312    21927459.634    89789279.08546
     -2069.077  
  22387660.319   117647943.91048     -2891.495    22387661.373    91673724.24247
     -2253.117  
  23859382.435   125381908.70346      -273.395    23859384.889    97700195.01844
      -213.034  
  23511315.132   123552796.15046      3168.125    23511316.595    96274923.00545
      2468.664  
 20 09 28 05 19 30.0000000  0  8G13G 2G15G18G 5G29G30G20
  20500536.153   107731045.45348       109.472    20500535.701    83946268.11147
        85.296  
  24627184.155   129416731.75646     -3326.378    24627183.317   100844206.66545
     -2591.996  
  20679907.120   108673647.43349      2121.604    20679906.988    84680766.61248
      1653.194  
  21207198.796   111444581.23548      2170.191    21207199.125    86839935.32947
      1691.055  
  21929986.130   115242854.34348     -2656.570    21929986.479    89799626.99647
     -2070.058  
  22390412.741   117662407.11048     -2893.632    22390413.641    91684994.25847
     -2254.781  
  23859644.210   125383284.96846      -276.938    23859646.758    97701267.41945
      -215.797  
  23508300.664   123536955.42147      3168.254    23508301.980    96262579.63045
      2468.770  
 20 09 28 05 19 35.0000000  0  8G13G 2G15G18G 5G29G30G20
  20500433.563   107730506.30848       106.273    20500432.921    83945847.99547
        82.808  
  24630350.076   129433368.43946     -3327.832    24630349.089   100857170.34744
     -2593.116  
  20677889.814   108663046.73149      2118.554    20677889.805    84672506.33448
      1650.820  
  21205134.895   111433735.24148      2168.011    21205135.034    86831483.90747
      1689.355  
  21932514.186   115256139.96248     -2657.695    21932514.852    89809979.41747
     -2070.933  
  22393166.868   117676880.98748     -2895.979    22393167.874    91696272.60047
     -2256.613  
  23859909.064   125384676.46946      -279.773    23859911.432    97702351.71746
      -218.008  
  23505286.791   123521117.22347      3167.383    23505288.212    96250238.16345
      2468.086  
 20 09 28 05 19 40.0000000  0  8G13G 2G15G18G 5G29G30G20
  20500334.238   107729984.38148       102.582    20500333.791    83945441.29447
        79.929  
  24633516.383   129450008.87146     -3328.444    24633515.893   100870136.88045
     -2593.601  
  20675875.377   108652460.32449      2115.901    20675875.317    84664257.18748
      1648.750  
  21203072.895   111422899.57548      2166.145    21203073.148    86823040.51747
      1687.902  
  21935043.590   115269431.57147     -2658.804    21935044.166    89820336.50747
     -2071.801  
  22395923.275   117691365.66248     -2898.265    22395924.290    91707559.35247
     -2258.390  
  23860176.751   125386083.36346      -282.688    23860178.968    97703447.98245
      -220.276  
  23502273.334   123505281.71446      3166.671    23502274.668    96237898.82645
      2467.535  
 20 09 28 05 19 45.0000000  0  8G13G 2G15G18G 5G29G30G20
  20500238.161   107729479.49248        99.058    20500237.585    83945047.87947
        77.184  
  24636683.518   129466652.90445     -3329.055    24636683.503   100883106.21545
     -2594.073  
  20673863.581   108641888.07649      2113.128    20673863.524    84656019.07548
      1646.589  
  21201012.983   111412074.10248      2164.144    21201013.206    86814605.08847
      1686.343  
  21937574.124   115282729.05248     -2660.145    21937574.697    89830698.16947
     -2072.844  
  22398681.563   117705860.99948     -2900.065    22398682.681    91718854.40547
     -2259.797  
  23860447.350   125387505.49846      -286.020    23860449.686    97704556.15245
      -222.875  
  23499260.423   123489448.75947      3166.292    23499261.903    96225561.46545
      2467.237  
 20 09 28 05 19 50.0000000  0  8G13G 2G15G18G 5G29G30G20
  20500145.478   107728992.18948        95.645    20500145.014    83944668.15747
        74.523  
  24639851.750   129483301.13546     -3330.191    24639851.068   100896078.86445
     -2594.957  
  20671854.440   108631330.50549      2110.147    20671854.402    84647792.39848
      1644.270  
  21198954.985   111401259.34449      2162.070    21198954.980    86806177.99447
      1684.726  
  21940105.657   115296032.88248     -2661.417    21940106.178    89841064.78547
     -2073.835  
  22401442.151   117720367.49048     -2902.434    22401443.263    91730158.15347
     -2261.640  
  23860720.989   125388943.38346      -289.175    23860723.271    97705676.59446
      -225.336  
  23496248.073   123473618.94247      3165.125    23496249.546    96213226.55645
      2466.327  
 20 09 28 05 19 55.0000000  0  8G13G 2G15G18G 5G29G30G20
  20500055.861   107728521.68748        92.382    20500055.402    83944301.52347
        71.983  
  24643020.281   129499952.72146     -3330.863    24643020.227   100909054.07345
     -2595.487  
  20669847.954   108620786.88049      2107.444    20669847.973    84639576.59548
      1642.160  
  21196898.871   111390454.58048      2159.905    21196898.977    86797758.69447
      1683.038  
  21942638.527   115309342.29448     -2662.452    21942638.866    89851435.74947
     -2074.641  
  22404204.646   117734884.40248     -2904.456    22404205.783    91741470.02547
     -2263.215  
  23860997.452   125390396.27246      -292.020    23860999.704    97706808.69544
      -227.550  
  23493236.317   123457791.39847      3165.605    23493237.738    96200893.39144
      2466.703  
 20 09 28 05 20  0.0000000  0  8G13G 2G15G18G 5G29G30G20
  20499969.647   107728068.35048        88.742    20499969.187    83943948.30047
        69.148  
  24646189.552   129516607.98146     -3331.539    24646189.550   100922032.20044
     -2596.007  
  20667844.338   108610257.55649      2104.366    20667844.211    84631371.92948
      1639.762  
  21194844.845   111379660.13148      2157.601    21194844.917    86789347.47647
      1681.250  
  21945172.311   115322657.63948     -2663.882    21945172.792    89861811.37847
     -2075.758  
  22406969.243   117749412.05148     -2906.749    22406970.262    91752790.25847
     -2265.003  
  23861276.772   125391864.48046      -295.137    23861279.166    97707952.73545
      -229.983  
  23490224.909   123441966.59447      3164.112    23490226.375    96188562.39644
      2465.538  
 20 09 28 05 20  5.0000000  0  8G13G 2G15G18G 5G29G30G20
  20499886.667   107727632.91348        85.574    20499886.174    83943608.97147
        66.680  
  24649359.817   129533267.71146     -3332.520    24649359.664   100935013.78845
     -2596.776  
  20665843.573   108599743.24549      2101.222    20665843.396    84623178.95848
      1637.313  
  21192792.730   111368876.75548      2155.625    21192792.794    86780944.81347
      1679.702  
  21947707.425   115335979.66148     -2665.008    21947707.971    89872192.14047
     -2076.633  
  22409735.927   117763951.13648     -2908.961    22409736.933    91764119.40747
     -2266.727  
  23861559.182   125393348.74546      -298.250    23861561.743    97709109.33845
      -232.402  
  23487214.323   123426145.16847      3164.078    23487215.789    96176234.01645
      2465.512  
 20 09 28 05 20 10.0000000  0  8G13G 2G15G18G 5G29G30G20
  20499807.093   107727214.52948        82.148    20499806.568    83943282.96747
        64.008  
  24652530.717   129549930.99346     -3332.929    24652530.629   100947998.11144
     -2597.098  
  20663845.460   108589243.09349      2098.758    20663845.506    84614997.02848
      1635.390  
  21190742.706   111358103.58548      2153.565    21190742.879    86772550.15947
      1678.101  
  21950243.643   115349307.45148     -2666.074    21950244.100    89882577.44547
     -2077.465  
  22412504.479   117778500.78748     -2910.969    22412505.531    91775456.79347
     -2268.288  
  23861844.607   125394848.25646      -301.199    23861847.014    97710277.78744
      -234.702  
  23484204.127   123410326.29447      3163.589    23484205.431    96163907.63445
      2465.133  
 20 09 28 05 20 15.0000000  0  8G13G 2G15G18G 5G29G30G20
  20499730.586   107726812.91748        78.539    20499730.389    83942970.02847
        61.194  
  24655702.331   129566597.59646     -3333.684    24655702.072   100960985.10545
     -2597.679  
  20661849.823   108578756.91549      2095.602    20661849.816    84606825.97848
      1632.933  
  21188694.588   111347340.40449      2151.488    21188694.675    86764163.26247
      1676.480  
  21952780.806   115362640.83447     -2667.352    21952781.425    89892967.08647
     -2078.457  
  22415275.153   117793060.74648     -2913.077    22415276.342    91786802.20747
     -2269.933  
  23862132.712   125396362.72546      -304.371    23862135.239    97711457.86745
      -237.176  
  23481194.290   123394509.74347      3163.351    23481195.749    96151583.05145
      2464.945  
 20 09 28 05 20 20.0000000  0  8G13G 2G15G18G 5G29G30G20
  20499657.693   107726429.11648        75.034    20499657.125    83942670.96147
        58.464  
  24658874.812   129583268.56547     -3334.812    24658874.565   100973975.43445
     -2598.558  
  20659857.228   108568285.76049      2092.773    20659857.292    84598666.64348
      1630.729  
  21186648.549   111336588.30548      2149.308    21186648.442    86755784.99647
      1674.781  
  21955319.313   115375980.90248     -2668.573    21955319.733    89903361.93846
     -2079.410  
  22418048.115   117807632.07748     -2915.269    22418049.126    91798156.47847
     -2271.640  
  23862424.017   125397893.23446      -307.659    23862426.702    97712650.48345
      -239.737  
  23478185.190   123378696.60147      3162.313    23478186.623    96139261.15545
      2464.141  
 20 09 28 05 20 25.0000000  0  8G13G 2G15G18G 5G29G30G20
  20499587.648   107726061.90148        71.831    20499587.265    83942384.83447
        55.969  
  24662047.771   129599942.61046     -3335.191    24662047.485   100986968.23044
     -2598.851  
  20657867.301   108557828.34249      2090.094    20657867.449    84590518.01048
      1628.641  
  21184604.228   111325845.97948      2147.397    21184604.401    86747414.36547
      1673.292  
  21957858.955   115389326.28048     -2669.644    21957859.269    89913760.94546
     -2080.245  
  22420822.780   117822213.44448     -2917.375    22420823.837    91809518.58247
     -2273.281  
  23862718.005   125399438.52446      -310.844    23862720.778    97713854.61145
      -242.219  
  23475176.436   123362885.61647      3161.855    23475177.736    96126940.89046
      2463.780  
 20 09 28 05 20 30.0000000  0  8G13G 2G15G18G 5G29G30G20
  20499521.211   107725712.55448        68.085    20499520.843    83942112.62647
        53.050  
  24665221.741   129616621.06046     -3336.082    24665221.486   100999964.39245
     -2599.551  
  20655880.238   108547386.00649      2086.890    20655880.310    84582381.13148
      1626.144  
  21182562.190   111315114.77948      2145.144    21182562.323    86739052.39847
      1671.526  
  21960399.773   115402678.33648     -2671.019    21960400.227    89924165.14847
     -2081.315  
  22423599.754   117836806.19448     -2919.487    22423600.786    91820889.53747
     -2274.929  
  23863015.082   125400999.86246      -313.663    23863017.976    97715071.21245
      -244.418  
  23472168.456   123347078.04247      3161.358    23472169.829    96114623.29645
      2463.395  
 20 09 28 05 20 35.0000000  0  8G13G 2G15G18G 5G29G30G20
  20499458.077   107725380.22048        64.819    20499457.587    83941853.66847
        50.507  
  24668396.266   129633303.02046     -3336.633    24668395.998   101012963.30045
     -2599.977  
  20653895.641   108536957.81649      2084.285    20653895.846    84574255.26948
      1624.113  
  21180522.051   111304393.83848      2143.093    21180522.188    86730698.41747
      1669.940  
  21962941.723   115416036.12248     -2672.261    21962941.945    89934573.80946
     -2082.284  
  22426378.619   117851409.42148     -2921.938    22426379.663    91832268.66647
     -2276.836  
  23863315.228   125402576.38946      -316.711    23863317.835    97716299.67944
      -246.789  
  23469160.879   123331273.05647      3160.316    23469162.139    96102307.71345
      2462.582  
 20 09 28 05 20 40.0000000  0  8G13G 2G15G18G 5G29G30G20
  20499397.925   107725064.99348        61.438    20499397.761    83941608.03247
        47.870  
  24671571.303   129649988.63546     -3337.499    24671571.339   101025965.07245
     -2600.651  
  20651913.910   108526543.96749      2081.296    20651914.081    84566140.58748
      1621.784  
  21178484.003   111293683.26448      2141.081    21178483.995    86722352.51347
      1668.370  
  21965484.599   115429399.74748     -2673.395    21965485.149    89944987.02346
     -2083.168  
  22429159.569   117866023.18848     -2923.897    22429160.721    91843656.01047
     -2278.366  
  23863618.201   125404168.24146      -320.003    23863620.884    97717540.11445
      -249.355  
  23466153.655   123315470.70647      3160.198    23466155.127    96089994.19045
      2462.488  
 20 09 28 05 20 45.0000000  0  8G13G 2G15G18G 5G29G30G20
  20499341.629   107724768.28248        57.562    20499341.121    83941376.82147
        44.852  
  24674747.485   129666679.24146     -3338.508    24674747.469   101038970.69945
     -2601.441  
  20649935.209   108516145.79349      2078.398    20649935.513    84558038.11848
      1619.527  
  21176448.023   111282984.43048      2138.909    21176447.997    86714015.75547
      1666.680  
  21968029.012   115442770.57248     -2674.687    21968029.380    89955405.84846
     -2084.176  
  22431942.599   117880648.89148     -2925.909    22431943.720    91855052.64647
     -2279.934  
  23863924.191   125405776.76346      -323.339    23863926.777    97718793.47545
      -251.956  
  23463147.382   123299672.41347      3159.565    23463148.684    96077683.83745
      2461.995  
 20 09 28 05 20 50.0000000  0  8G13G 2G15G18G 5G29G30G20
  20499288.160   107724487.92348        54.323    20499287.870    83941158.36147
        42.328  
  24677924.024   129683372.69146     -3339.191    24677924.146   101051978.56445
     -2601.969  
  20647959.174   108505761.15749      2075.457    20647959.375    84549946.19748
      1617.234  
  21174413.979   111272295.23648      2136.629    21174413.965    86705686.51747
      1664.901  
  21970574.371   115456146.45748     -2675.780    21970574.771    89965828.61246
     -2085.026  
  22434727.752   117895284.40648     -2928.254    22434728.695    91866456.93547
     -2281.758  
  23864233.089   125407399.78346      -326.051    23864235.701    97720058.18845
      -254.070  
  23460141.465   123283876.02747      3159.078    23460142.648    96065375.00045
      2461.621  
 20 09 28 05 20 55.0000000  0  8G13G 2G15G18G 5G29G30G20
  20499238.107   107724224.74048        50.738    20499237.830    83940953.29747
        39.531  
  24681101.338   129700069.81146     -3340.007    24681101.685   101064989.30544
     -2602.604  
  20645985.627   108495390.93949      2072.418    20645985.921    84541865.51048
      1614.867  
  21172381.818   111261616.49948      2134.679    21172381.899    86697365.42147
      1663.382  
  21973120.871   115469528.25148     -2677.159    21973121.171    89976255.97447
     -2086.101  
  22437514.813   117909930.51448     -2930.491    22437515.839    91877869.48047
     -2283.503  
  23864545.035   125409038.19546      -329.129    23864547.306    97721334.87545
      -256.469  
  23457135.972   123268082.46247      3158.160    23457137.411    96053068.30445
      2460.901  
 20 09 28 05 21  0.0000000  0  8G13G 2G15G18G 5G29G30G20
  20499191.482   107723979.78448        47.214    20499191.192    83940762.41747
        36.788  
  24684279.583   129716771.63146     -3340.679    24684279.756   101078003.69444
     -2603.129  
  20644015.330   108485036.11848      2069.565    20644015.402    84533796.81848
      1612.645  
  21170351.932   111250949.28348      2132.391    21170352.028    86689053.31247
      1661.601  
  21975668.713   115482917.03048     -2678.304    21975669.015    89986688.78546
     -2086.991  
  22440304.109   117924588.26748     -2932.492    22440305.222    91889291.09747
     -2285.062  
  23864859.992   125410693.05446      -332.757    23864862.289    97722624.36645
      -259.296  
  23454131.264   123252292.67447      3157.929    23454132.616    96040764.57745
      2460.722  
 20 09 28 05 21  5.0000000  0  8G13G 2G15G18G 5G29G30G20
  20499147.891   107723750.95948        44.195    20499147.678    83940584.10847
        34.434  
  24687458.465   129733476.05246     -3341.113    24687458.600   101091020.09444
     -2603.473  
  20642047.297   108474694.69149      2066.926    20642047.564    84525738.56548
      1610.589  
  21168323.774   111240291.52348      2130.559    21168323.846    86680748.55947
      1660.172  
  21978217.331   115496310.67148     -2679.089    21978217.848    89997125.39046
     -2087.604  
  22443095.167   117939255.59848     -2934.566    22443096.290    91900720.18147
     -2286.680  
  23865177.613   125412362.22546      -335.215    23865180.021    97723925.01944
      -261.210  
  23451126.941   123236504.63647      3157.245    23451128.331    96028462.22045
      2460.188  
 20 09 28 05 21 10.0000000  0  8G13G 2G15G18G 5G29G30G20
  20499107.932   107723540.25748        40.210    20499107.390    83940419.88747
        31.323  
  24690638.046   129750185.01546     -3342.313    24690638.297   101104040.01445
     -2604.409  
  20640082.298   108464368.51949      2063.694    20640082.649    84517692.19448
      1608.069  
  21166297.909   111229645.12448      2127.988    21166297.873    86672452.66247
      1658.168  
  21980767.473   115509711.07448     -2680.694    21980767.863    90007567.24546
     -2088.855  
  22445888.487   117953934.31248     -2936.859    22445889.576    91912158.12747
     -2288.465  
  23865498.254   125414047.61346      -338.578    23865500.696    97725238.31845
      -263.831  
  23448123.320   123220720.18647      3156.722    23448124.499    96016162.68645
      2459.784  
 20 09 28 05 21 15.0000000  0  8G13G 2G15G18G 5G29G30G20
  20499071.204   107723347.03148        36.742    20499070.747    83940269.33847
        28.628  
  24693818.225   129766897.87546     -3343.094    24693818.548   101117063.04744
     -2605.012  
  20638120.153   108454057.06448      2060.812    20638120.422    84509657.29448
      1605.823  
  21164273.951   111219009.49548      2126.016    21164274.103    86664165.16247
      1656.632  
  21983318.582   115523117.67948     -2681.886    21983318.866    90018013.95946
     -2089.785  
  22448683.707   117968623.85448     -2939.077    22448684.833    91923604.51747
     -2290.194  
  23865821.956   125415748.67646      -341.801    23865824.284    97726563.82446
      -266.339  
  23445120.036   123204938.82146      3155.906    23445121.442    96003865.51445
      2459.145  
 20 09 28 05 21 20.0000000  0  8G13G 2G15G18G 5G29G30G20
  20499037.722   107723171.20948        33.418    20499037.276    83940132.34447
        26.035  
  24696999.402   129783614.66946     -3343.831    24696999.727   101130089.13344
     -2605.585  
  20636160.679   108443760.27549      2057.824    20636160.863    84501633.82448
      1603.495  
  21162252.080   111208384.68048      2123.878    21162252.276    86655886.08847
      1654.969  
  21985871.024   115536530.41548     -2683.120    21985871.377    90028465.43646
     -2090.745  
  22451481.202   117983324.19448     -2941.155    22451482.271    91935059.30747
     -2291.813  
  23866148.715   125417465.36846      -344.917    23866151.140    97727901.49544
      -268.769  
  23442117.558   123189160.50547      3155.433    23442118.835    95991570.71745
      2458.777  
 20 09 28 05 21 25.0000000  0  8G13G 2G15G18G 5G29G30G20
  20499007.450   107723012.50048        30.313    20499006.999    83940008.67947
        23.617  
  24700181.354   129800335.03046     -3344.175    24700181.290   101143117.97545
     -2605.855  
  20634203.889   108433477.86449      2055.241    20634204.240    84493621.56248
      1601.484  
  21160232.306   111197770.35448      2122.090    21160232.435    86647615.17947
      1653.573  
  21988424.413   115549948.96848     -2684.007    21988424.856    90038921.44546
     -2091.437  
  22454280.432   117998035.00048     -2943.008    22454281.681    91946522.26747
     -2293.258  
  23866478.303   125419197.42946      -347.797    23866480.971    97729251.16144
      -271.016  
  23439115.485   123173384.94246      3155.241    23439117.012    95979278.06445
      2458.629  
 20 09 28 05 21 30.0000000  0  8G13G 2G15G18G 5G29G30G20
  20498980.445   107722870.62248        26.534    20498980.148    83939898.13447
        20.672  
  24703363.626   129817058.73347     -3344.910    24703363.871   101156149.39345
     -2606.429  
  20632249.951   108423209.63349      2052.258    20632250.331    84485620.34748
      1599.160  
  21158214.408   111187166.26248      2119.719    21158214.541    86639352.24047
      1651.727  
  21990979.102   115563373.07648     -2685.382    21990979.299    90049381.77646
     -2092.508  
  22457081.945   118012756.01448     -2945.488    22457083.010    91957993.17947
     -2295.188  
  23866810.714   125420944.54346      -351.405    23866813.350    97730612.54045
      -273.828  
  23436113.987   123157611.90547      3154.383    23436115.375    95966987.39545
      2457.957  
 20 09 28 05 21 35.0000000  0  8G13G 2G15G18G 5G29G30G20
  20498956.856   107722746.00548        22.905    20498956.450    83939801.00047
        17.848  
  24706546.857   129833786.10046     -3345.663    24706547.000   101169183.71445
     -2607.016  
  20630298.686   108412955.97949      2049.078    20630299.094    84477630.48448
      1596.679  
  21156198.410   111176572.77548      2117.602    21156198.608    86631097.58247
      1650.073  
  21993534.754   115576803.11948     -2686.656    21993534.945    90059846.74846
     -2093.500  
  22459885.183   118027487.56748     -2947.640    22459886.329    91969472.30047
     -2296.866  
  23867146.144   125422707.08146      -354.210    23867148.555    97731985.96245
      -276.012  
  23433113.035   123141841.70247      3153.511    23433114.237    95954698.92346
      2457.276  
 20 09 28 05 21 40.0000000  0  8G13G 2G15G18G 5G29G30G20
  20498936.312   107722638.91948        19.878    20498935.926    83939717.55047
        15.488  
  24709730.660   129850517.56646     -3346.690    24709731.099   101182221.16145
     -2607.823  
  20628350.460   108402717.19849      2046.281    20628350.803    84469652.21448
      1594.500  
  21154184.718   111165990.28248      2115.476    21154184.838    86622851.49847
      1648.422  
  21996091.560   115590239.47448     -2687.644    21996091.824    90070316.64746
     -2094.272  
  22462690.685   118042230.01848     -2949.715    22462691.584    91980959.91347
     -2298.479  
  23867484.441   125424485.43846      -357.222    23867486.990    97733371.70544
      -278.359  
  23430112.650   123126074.69847      3153.167    23430113.909    95942412.99045
      2457.016  
 20 09 28 05 21 45.0000000  0  8G13G 2G15G18G 5G29G30G20
  20498919.382   107722549.23048        16.233    20498918.847    83939647.67747
        12.648  
  24712915.218   129867252.78546     -3347.214    24712915.551   101195261.61445
     -2608.222  
  20626404.903   108392493.13549      2043.456    20626405.198    84461685.41248
      1592.300  
  21152172.919   111155418.58148      2113.206    21152173.011    86614613.80847
      1646.652  
  21998649.506   115603681.91748     -2688.980    21998649.895    90080791.26846
     -2095.313  
  22465498.093   118056983.13948     -2951.566    22465499.022    91992455.84247
     -2299.925  
  23867825.798   125426279.37546      -360.265    23867828.439    97734769.56745
      -280.730  
  23427112.829   123110310.78047      3152.308    23427114.301    95930129.43745
      2456.340  
 20 09 28 05 21 50.0000000  0  8G13G 2G15G18G 5G29G30G20
  20498905.485   107722476.64148        13.184    20498905.152    83939591.10247
        10.269  
  24716100.575   129883991.57246     -3348.012    24716100.879   101208304.78245
     -2608.847  
  20624462.002   108382283.49749      2040.671    20624462.269    84453729.85048
      1590.128  
  21150163.232   111144857.38648      2111.370    21150163.397    86606384.30547
      1645.151  
  22001208.785   115617130.14048     -2690.129    22001208.937    90091270.40146
     -2096.206  
  22468307.401   118071746.68848     -2953.750    22468308.423    92003959.89947
     -2301.624  
  23868170.031   125428088.64446      -363.574    23868172.876    97736179.38745
      -283.308  
  23424113.680   123094549.58347      3151.953    23424114.836    95917847.97346
      2456.062  
 20 09 28 05 21 55.0000000  0  8G13G 2G15G18G 5G29G30G20
  20498895.032   107722421.55548         9.277    20498894.646    83939548.17547
         7.227  
  24719286.689   129900734.24746     -3348.957    24719287.236   101221351.00745
     -2609.581  
  20622521.966   108372088.66449      2037.284    20622522.280    84445785.82548
      1587.491  
  21148155.621   111134307.13448      2108.949    21148155.759    86598163.33147
      1643.401  
  22003769.025   115630584.51248     -2691.608    22003769.213    90101754.33346
     -2097.359  
  22471118.983   118086521.02648     -2955.957    22471120.044    92015472.36047
     -2303.348  
  23868517.263   125429913.58146      -366.680    23868520.152    97737601.42245
      -285.726  
  23421115.045   123078791.52346      3151.234    23421116.187    95905568.97746
      2455.503  
 20 09 28 05 22  0.0000000  0  8G13G 2G15G18G 5G29G30G20
  20498887.817   107722383.16848         6.012    20498887.318    83939518.25947
         4.680  
  24722473.292   129917480.04946     -3349.277    24722473.729   101234399.65945
     -2609.832  
  20620584.587   108361907.82449      2034.706    20620584.968    84437852.69948
      1585.483  
  21146149.748   111123766.98348      2106.938    21146150.057    86589950.22547
      1641.766  
  22006330.408   115644044.26248     -2692.573    22006330.494    90112242.44546
     -2098.112  
  22473932.293   118101305.28748     -2957.823    22473933.382    92026992.54247
     -2304.801  
  23868867.430   125431753.44246      -369.535    23868870.407    97739035.06645
      -287.952  
  23418116.723   123063035.79747      3151.074    23418118.023    95893291.80945
      2455.378  
 20 09 28 05 22  5.0000000  0  8G13G 2G15G18G 5G29G30G20
  20498883.815   107722362.91848         2.445    20498883.403    83939502.47947
         1.902  
  24725660.757   129934230.41746     -3350.444    24725661.219   101247451.86945
     -2610.741  
  20618650.251   108351742.47849      2031.647    20618650.599    84429931.65548
      1583.097  
  21144146.306   111113238.45048      2104.737    21144146.551    86581746.17347
      1640.050  
  22008892.913   115657510.84948     -2694.081    22008892.978    90122735.89046
     -2099.289  
  22476747.666   118116100.98348     -2960.276    22476748.909    92038521.65247
     -2306.711  
  23869220.620   125433609.68246      -372.835    23869223.596    97740481.50045
      -290.523  
  23415119.174   123047283.91447      3149.999    23415120.576    95881017.64145
      2454.546  
 20 09 28 05 22 10.0000000  0  8G13G 2G15G18G 5G29G30G20
  20498883.214   107722359.60648        -1.206    20498882.673    83939499.89747
        -0.945  
  24728848.923   129950984.12446     -3350.995    24728849.401   101260506.69245
     -2611.168  
  20616718.575   108341591.45049      2028.804    20616718.915    84422021.76348
      1580.882  
  21142144.790   111102720.31448      2102.527    21142145.017    86573550.22447
      1638.391  
  22011456.728   115670983.06848     -2694.952    22011456.685    90133233.71746
     -2099.965  
  22479565.156   118130906.87048     -2962.246    22479566.365    92050058.69747
     -2308.245  
  23869576.841   125435481.04646      -375.714    23869579.649    97741939.69945
      -292.769  
  23412122.206   123031534.65247      3149.555    23412123.611    95868745.47745
      2454.194  
 20 09 28 05 22 15.0000000  0  8G13G 2G15G18G 5G29G30G20
  20498885.858   107722373.53348        -4.711    20498885.362    83939510.75147
        -3.675  
  24732037.620   129967741.55946     -3352.164    24732038.390   101273564.41245
     -2612.081  
  20614789.748   108331455.05149      2025.640    20614790.137    84414123.27248
      1578.418  
  21140145.171   111092212.93248      2100.289    21140145.416    86565362.66047
      1636.585  
  22014021.511   115684461.25348     -2696.312    22014021.626    90143736.18846
     -2101.027  
  22482384.756   118145723.27948     -2964.395    22482385.809    92061603.94147
     -2309.921  
  23869935.677   125437367.96146      -379.280    23869938.735    97743410.03144
      -295.547  
  23409125.878   123015788.37047      3148.957    23409127.138    95856475.64046
      2453.729  
 20 09 28 05 22 20.0000000  0  8G13G 2G15G18G 5G29G30G20
  20498891.783   107722404.69948        -8.085    20498891.461    83939535.03747
        -6.304  
  24735227.122   129984502.62946     -3352.464    24735227.834   101286624.93345
     -2612.315  
  20612863.584   108321333.24349      2022.952    20612864.059    84406236.15148
      1576.323  
  21138147.823   111081716.26848      2098.272    21138148.027    86557183.43847
      1635.015  
  22016587.423   115697945.30748     -2697.371    22016587.518    90154243.24446
     -2101.852  
  22485206.244   118160550.17248     -2966.327    22485207.461    92073157.35347
     -2311.425  
  23870297.834   125439270.26546      -381.898    23870300.706    97744892.33744
      -297.585  
  23406130.099   123000045.00847      3148.386    23406131.460    95844208.08845
      2453.285  
 20 09 28 05 22 25.0000000  0  8G13G 2G15G18G 5G29G30G20
  20498900.921   107722452.56248       -11.448    20498900.500    83939572.33447
        -8.925  
  24738417.134   130001266.87946     -3353.530    24738417.997   101299687.99345
     -2613.144  
  20610940.100   108311225.48748      2020.074    20610940.427    84398359.97848
      1574.082  
  21136152.207   111071229.80048      2096.042    21136152.603    86549012.16547
      1633.276  
  22019154.286   115711434.69948     -2698.727    22019154.411    90164754.46146
     -2102.906  
  22488029.461   118175386.96648     -2968.577    22488030.799    92084718.48347
     -2313.179  
  23870662.651   125441187.51746      -385.102    23870665.488    97746386.31045
      -300.081  
  23403134.690   122984304.02647      3147.500    23403135.987    95831942.40745
      2452.593  
 20 09 28 05 22 30.0000000  0  8G13G 2G15G18G 5G29G30G20
  20498913.507   107722518.32748       -14.914    20498912.983    83939623.57247
       -11.624  
  24741608.191   130018035.43946     -3354.242    24741609.095   101312754.38045
     -2613.699  
  20609019.657   108301133.02249      2017.108    20609019.972    84390495.72348
      1571.769  
  21134158.869   111060754.73848      2093.937    21134159.127    86540849.77647
      1631.636  
  22021722.476   115724930.72248     -2699.926    22021722.520    90175270.84546
     -2103.839  
  22490854.967   118190234.88048     -2970.675    22490856.320    92096288.26847
     -2314.816  
  23871030.547   125443120.88346      -388.347    23871033.302    97747892.82045
      -302.612  
  23400139.779   122968566.60147      3147.378    23400141.184    95819679.50545
      2452.504  
 20 09 28 05 22 35.0000000  0  8G13G 2G15G18G 5G29G30G20
  20498929.286   107722601.62148       -18.484    20498928.870    83939688.47147
       -14.406  
  24744799.814   130034807.83946     -3354.815    24744800.688   101325823.76545
     -2614.145  
  20607101.872   108291055.45849      2014.133    20607102.443    84382643.07648
      1569.449  
  21132167.621   111050290.68648      2091.718    21132167.830    86532695.96647
      1629.906  
  22024291.803   115738432.94148     -2700.940    22024292.131    90185792.03646
     -2104.633  
  22493682.566   118205093.45248     -2972.852    22493683.795    92107866.36847
     -2316.511  
  23871401.448   125445069.95046      -391.296    23871404.217    97749411.56446
      -304.909  
  23397145.658   122952832.42047      3146.559    23397147.081    95807419.12046
      2451.859  
 20 09 28 05 22 40.0000000  0  8G13G 2G15G18G 5G29G30G20
  20498948.320   107722701.95948       -21.835    20498947.918    83939766.65647
       -17.020  
  24747992.162   130051583.65046     -3355.229    24747992.994   101338895.78645
     -2614.472  
  20605186.953   108280992.30449      2011.215    20605187.367    84374801.66048
      1567.176  
  21130178.470   111039837.19548      2089.637    21130178.728    86524550.39847
      1628.284  
  22026862.322   115751940.79248     -2702.190    22026862.434    90196317.62146
     -2105.605  
  22496512.050   118219962.24448     -2974.933    22496513.230    92119452.43147
     -2318.132  
  23871775.351   125447034.29146      -394.339    23871778.063    97750942.24345
      -307.281  
  23394151.935   122937100.98847      3146.059    23394153.308    95795160.84046
      2451.473  
 20 09 28 05 22 45.0000000  0  8G13G 2G15G18G 5G29G30G20
  20498970.796   107722819.19748       -25.425    20498970.386    83939858.00347
       -19.816  
  24751185.076   130068362.74445     -3356.359    24751186.010   101351970.40346
     -2615.347  
  20603274.705   108270943.47049      2008.121    20603275.197    84366971.39448
      1564.765  
  21128191.204   111029394.16248      2087.292    21128191.332    86516412.96847
      1626.456  
  22029434.012   115765454.24148     -2703.495    22029433.959    90206847.58346
     -2106.625  
  22499343.428   118234841.13948     -2977.172    22499344.610    92131046.36547
     -2319.879  
  23872151.934   125449013.78246      -397.831    23872154.717    97752484.70344
      -310.004  
  23391158.983   122921372.20047      3145.070    23391160.273    95782904.64246
      2450.698  
 20 09 28 05 22 50.0000000  0  8G13G 2G15G18G 5G29G30G20
  20498996.475   107722954.14048       -28.378    20498996.036    83939963.15947
       -22.117  
  24754378.720   130085145.89446     -3356.565    24754379.899   101365048.15745
     -2615.512  
  20601365.296   108260909.77049      2005.483    20601365.727    84359152.93248
      1562.711  
  21126206.045   111018962.42948      2085.430    21126206.399    86508284.34147
      1625.008  
  22032006.805   115778974.05048     -2704.304    22032006.707    90217382.49446
     -2107.253  
  22502176.717   118249730.89248     -2978.644    22502177.948    92142648.75447
     -2321.022  
  23872531.727   125451009.20246      -400.180    23872534.460    97754039.56345
      -311.831  
  23388166.400   122905646.82247      3145.008    23388167.928    95770651.11646
      2450.651  
 20 09 28 05 22 55.0000000  0  8G13G 2G15G18G 5G29G30G20
  20499025.193   107723105.58648       -31.972    20499024.840    83940081.17047
       -24.917  
  24757573.032   130101931.90146     -3357.741    24757574.218   101378128.17044
     -2616.425  
  20599458.736   108250890.01049      2002.574    20599459.175    84351345.32948
      1560.445  
  21124222.807   111008540.75548      2083.281    21124223.175    86500163.56147
      1623.332  
  22034580.560   115792499.00048     -2705.530    22034580.444    90227921.42346
     -2108.210  
  22505012.086   118264630.26648     -2980.831    22505013.255    92154258.64547
     -2322.729  
  23872914.207   125453019.36346      -403.597    23872916.857    97755605.94445
      -314.496  
  23385174.412   122889923.72247      3144.339    23385175.830    95758399.38045
      2450.136  
 20 09 28 05 23  0.0000000  0  8G13G 2G15G18G 5G29G30G20
  20499057.544   107723275.24548       -35.491    20499057.063    83940213.36947
       -27.660  
  24760768.200   130118722.52746     -3358.672    24760769.245   101391211.74045
     -2617.151  
  20597554.845   108240885.90049      1999.383    20597555.326    84343549.91348
      1557.957  
  21122241.856   110998130.87748      2080.984    21122242.142    86492051.96547
      1621.542  
  22037155.411   115806030.81448     -2706.976    22037155.376    90238465.68446
     -2109.336  
  22507849.359   118279540.98548     -2983.031    22507850.767    92165877.37547
     -2324.441  
  23873299.761   125455045.99546      -406.852    23873302.700    97757185.12744
      -317.031  
  23382183.190   122874204.55747      3143.749    23382184.548    95746150.67346
      2449.671  
 20 09 28 05 23  5.0000000  0  7G13G15G18G 5G29G30G20
  20499091.629   107723454.80048       -38.589    20499091.267    83940353.27047
       -30.074  
  20595652.684   108230889.07449      1997.007    20595653.161    84335760.18048
      1556.104  
  21120261.649   110987724.44448      2079.460    21120262.083    86483943.05147
      1620.355  
  22039730.275   115819561.09648     -2707.523    22039730.116    90249008.75346
     -2109.761  
  22510687.409   118294454.66248     -2984.737    22510688.786    92177498.40047
     -2325.772  
  23873686.984   125457080.68146      -409.550    23873689.834    97758770.59644
      -319.133  
  23379191.005   122858480.98947      3143.457    23379192.483    95733898.54246
      2449.445  
 20 09 28 05 23 10.0000000  0  7G13G15G18G 5G29G30G20
  20499130.623   107723659.03048       -42.972    20499130.116    83940512.41447
       -33.488  
  20593754.521   108220914.40949      1993.301    20593754.924    84327987.71748
      1553.219  
  21118284.865   110977336.31248      2076.406    21118285.196    86475848.40447
      1617.977  
  22042307.464   115833104.71848     -2709.672    22042307.487    90259562.21946
     -2111.437  
  22513528.904   118309386.16548     -2987.574    22513530.191    92189133.32447
     -2327.984  
  23874078.608   125459138.30446      -413.258    23874081.230    97760373.95244
      -322.022  
  23376200.944   122842767.86547      3142.198    23376202.338    95721654.55446
      2448.465  
 20 09 28 05 23 15.0000000  0  7G13G15G18G 5G29G30G20
  20499173.046   107723882.15248       -46.090    20499172.620    83940686.27347
       -35.918  
  20591859.582   108210956.15249      1990.335    20591860.099    84320228.03948
      1550.905  
  21116310.366   110966960.72148      2074.171    21116310.752    86467763.54247
      1616.245  
  22044886.154   115846655.89248     -2710.695    22044886.087    90270121.59346
     -2112.234  
  22516372.495   118324329.67948     -2989.546    22516373.761    92200777.61147
     -2329.519  
  23874473.484   125461213.10746      -416.249    23874476.096    97761990.67445
      -324.354  
  23373211.789   122827059.43247      3141.542    23373213.196    95709414.26746
      2447.956  
 20 09 28 05 23 20.0000000  0  7G13G15G18G 5G29G30G20
  20499218.528   107724121.19548       -49.469    20499218.044    83940872.52847
       -38.550  
  20589967.119   108201011.22749      1987.405    20589967.466    84312478.74148
      1548.624  
  21114337.774   110956594.61548      2072.211    21114338.277    86459686.05447
      1614.706  
  22047465.821   115860211.54048     -2711.694    22047465.679    90280684.43446
     -2113.012  
  22519217.981   118339282.15348     -2991.523    22519219.072    92212428.87247
     -2331.058  
  23874870.777   125463301.99146      -419.237    23874873.726    97763618.34244
      -326.688  
  23370222.849   122811352.63547      3141.038    23370224.275    95697175.20046
      2447.559  
 20 09 28 05 23 25.0000000  0  7G13G15G18G 5G29G30G20
  20499267.215   107724377.67048       -53.081    20499266.889    83941072.38547
       -41.367  
  20588077.497   108191081.19649      1984.672    20588078.021    84304741.06048
      1546.495  
  21112367.262   110946239.56948      2070.132    21112367.739    86451617.18847
      1613.086  
  22050046.586   115873773.20748     -2712.827    22050046.218    90291251.96446
     -2113.894  
  22522065.368   118354245.08748     -2993.413    22522066.584    92224088.30047
     -2332.534  
  23875271.317   125465406.50046      -422.167    23875274.240    97765258.25445
      -328.965  
  23367234.626   122795649.01347      3140.472    23367235.871    95684938.62246
      2447.117  
 20 09 28 05 23 30.0000000  0  7G13G15G18G 5G29G30G20
  20499319.344   107724651.14048       -56.570    20499318.911    83941285.46847
       -44.082  
  20586190.575   108181165.66849      1981.519    20586191.022    84297014.67848
      1544.038  
  21110398.862   110935895.18048      2067.562    21110399.152    86443556.62247
      1611.085  
  22052628.313   115887340.49348     -2714.046    22052627.984    90301823.86746
     -2114.843  
  22524914.664   118369218.11248     -2995.523    22524915.844    92235755.57647
     -2334.175  
  23875674.671   125467526.29746      -425.648    23875677.587    97766910.01545
      -331.675  
  23364246.815   122779948.18047      3139.534    23364248.227    95672704.21846
      2446.391  
 20 09 28 05 23 35.0000000  0  7G13G15G18G 5G29G30G20
  20499374.516   107724941.22848       -59.676    20499374.098    83941511.51147
       -46.503  
  20584306.473   108171264.29949      1978.914    20584306.961    84289299.32448
      1542.008  
  21108432.363   110925561.12748      2065.746    21108432.769    86435504.11247
      1609.667  
  22055211.181   115900913.11448     -2714.987    22055210.768    90312399.93646
     -2115.578  
  22527765.663   118384200.86848     -2997.390    22527767.034    92247430.44047
     -2335.632  
  23876080.811   125469660.97946      -428.246    23876083.571    97768573.45345
      -333.699  
  23361259.423   122764249.79447      3139.305    23361260.826    95660471.71745
      2446.206  
 20 09 28 05 23 40.0000000  0  7G13G15G18G 5G29G30G20
  20499432.918   107725248.25848       -63.304    20499432.470    83941750.75447
       -49.332  
  20582425.059   108161377.33849      1975.703    20582425.574    84281595.20348
      1539.504  
  21106467.751   110915237.67948      2063.394    21106468.107    86427459.86547
      1607.836  
  22057794.993   115914491.26748     -2716.409    22057794.810    90322980.31046
     -2116.687  
  22530618.743   118399193.62348     -2999.749    22530620.156    92259113.09347
     -2337.473  
  23876489.924   125471810.85546      -431.507    23876492.634    97770248.65545
      -336.242  
  23358272.751   122748554.16647      3138.464    23358274.120    95648241.37445
      2445.554  
 20 09 28 05 23 45.0000000  0  7G13G15G18G 5G29G30G20
  20499494.562   107725572.26148       -66.473    20499494.230    83942003.21547
       -51.801  
  20580546.276   108151504.89549      1973.059    20580546.850    84273902.39448
      1537.444  
  21104505.244   110904924.88748      2061.601    21104505.617    86419423.92647
      1606.440  
  22060379.971   115928075.07248     -2717.327    22060379.769    90333565.09846
     -2117.402  
  22533473.723   118414196.36148     -3001.449    22533474.980    92270803.52647
     -2338.792  
  23876901.913   125473975.93446      -434.434    23876904.612    97771935.72846
      -338.523  
  23355286.490   122732861.32147      3138.492    23355287.846    95636013.17645
      2445.573  
 20 09 28 05 23 50.0000000  0  7G13G15G18G 5G29G30G20
  20499559.645   107725914.05548       -70.313    20499559.163    83942269.54247
       -54.792  
  20578670.553   108141647.77949      1969.796    20578671.071    84266221.51748
      1534.902  
  21102545.033   110894623.59548      2058.956    21102545.316    86411396.94547
      1604.379  
  22062966.063   115941665.29948     -2718.844    22062965.733    90344154.87546
     -2118.582  
  22536330.604   118429209.93548     -3003.887    22536331.998    92282502.38247
     -2340.699  
  23877317.160   125476157.06946      -437.718    23877319.720    97773635.31043
      -341.081  
  23352300.934   122717172.08547      3137.452    23352302.127    95623787.84345
      2444.769  
 20 09 28 05 23 55.0000000  0  7G13G15G18G 5G29G30G20
  20499627.968   107726273.34648       -73.461    20499627.534    83942549.50947
       -57.245  
  20576797.687   108131805.70849      1967.156    20576798.205    84258552.37948
      1532.848  
  21100586.897   110884333.52248      2056.953    21100587.235    86403378.70947
      1602.815  
  22065553.300   115955261.63248     -2719.862    22065553.144    90354749.42246
     -2119.378  
  22539189.786   118444234.01048     -3005.804    22539190.975    92294209.44647
     -2342.187  
  23877735.001   125478353.96546      -441.305    23877737.861    97775347.18345
      -343.879  
  23349315.964   122701486.21447      3136.870    23349317.375    95611565.06346
      2444.313  
 20 09 28 05 24  0.0000000  0  7G13G15G18G 5G29G30G20
  20499699.506   107726649.43948       -77.074    20499699.087    83942842.56847
       -60.063  
  20574927.477   108121977.96549      1964.007    20574928.027    84250894.40748
      1530.391  
  21098630.667   110874053.96048      2054.675    21098631.105    86395368.65547
      1601.043  
  22068141.692   115968863.34848     -2720.999    22068141.545    90365348.14946
     -2120.261  
  22542050.484   118459267.85748     -3007.772    22542051.926    92305924.12447
     -2343.723  
  23878155.915   125480565.88046      -443.832    23878158.699    97777070.75445
      -345.848  
  23346331.349   122685802.95447      3136.405    23346332.843    95599344.34145
      2443.948  
 20 09 28 05 24  5.0000000  0  7G13G15G18G 5G29G30G20
  20499774.285   107727042.71548       -80.581    20499774.076    83943149.01347
       -62.793  
  20573060.126   108112164.97249      1961.011    20573060.539    84243247.92048
      1528.058  
  21096676.738   110863785.33848      2052.479    21096677.198    86387367.13847
      1599.331  
  22070731.036   115982470.84948     -2722.327    22070730.922    90375951.40246
     -2121.296  
  22544913.277   118474311.90548     -3009.909    22544914.520    92317646.74747
     -2345.387  
  23878579.901   125482793.25846      -447.199    23878582.663    97778806.38145
      -348.468  
  23343347.540   122670122.68247      3135.742    23343348.789    95587125.95245
      2443.433  
 20 09 28 05 24 10.0000000  0  7G13G15G18G 5G29G30G20
  20499852.503   107727453.03448       -83.659    20499851.983    83943468.74647
       -65.191  
  20571195.640   108102366.53449      1958.339    20571195.990    84235612.77848
      1525.976  
  21094724.701   110853527.50548      2050.534    21094725.217    86379374.00847
      1597.816  
  22073321.496   115996083.96548     -2723.136    22073321.506    90386559.00346
     -2121.929  
  22547777.986   118489365.95848     -3011.636    22547779.337    92329377.16247
     -2346.733  
  23879006.521   125485035.91046      -449.913    23879009.217    97780553.89145
      -350.586  
  23340364.340   122654445.30147      3135.262    23340365.399    95574909.81145
      2443.059  
 20 09 28 05 24 15.0000000  0  7G13G15G18G 5G29G30G20
  20499933.757   107727880.34348       -87.199    20499933.328    83943801.71347
       -67.948  
  20569333.812   108092582.65349      1955.390    20569334.120    84227988.98248
      1523.680  
  21092774.751   110843280.41848      2048.370    21092775.186    86371389.26948
      1596.129  
  22075913.075   116009702.68048     -2724.382    22075912.787    90397170.99146
     -2122.891  
  22550644.588   118504429.96148     -3013.988    22550645.894    92341115.32847
     -2348.565  
  23879436.218   125487293.82446      -453.128    23879439.146    97782313.31345
      -353.090  
  23337381.551   122638770.76447      3134.687    23337382.621    95562695.89645
      2442.608  
 20 09 28 05 24 20.0000000  0  7G13G15G18G 5G29G30G20
  20500018.233   107728324.07548       -90.483    20500017.829    83944147.48147
       -70.512  
  20567474.650   108082812.75349      1952.398    20567475.190    84220376.06948
      1521.347  
  21090826.713   110833043.50248      2046.284    21090827.124    86363412.46747
      1594.503  
  22078505.612   116023326.36448     -2725.266    22078505.342    90407786.85246
     -2123.617  
  22553513.096   118519503.25848     -3015.664    22553514.182    92352860.73947
     -2349.871  
  23879868.749   125489566.38846      -456.246    23879871.661    97784084.14445
      -355.520  
  23334399.298   122623098.44647      3134.105    23334400.270    95550483.73146
      2442.159  
 20 09 28 05 24 25.0000000  0  7G13G15G18G 5G29G30G20
  20500106.157   107728786.55748       -94.395    20500105.759    83944507.85347
       -73.559  
  20565618.720   108073059.14849      1949.121    20565618.928    84212775.86048
      1518.792  
  21088881.134   110822819.10148      2043.723    21088881.489    86355445.38747
      1592.508  
  22081099.533   116036957.38548     -2726.788    22081099.310    90418408.40646
     -2124.772  
  22556383.700   118534588.26048     -3018.034    22556384.884    92364615.28247
     -2351.718  
  23880304.335   125491855.93746      -459.559    23880307.297    97785868.18545
      -358.101  
  23331417.786   122607430.71847      3133.230    23331418.903    95538275.09445
      2441.477  
 20 09 28 05 24 30.0000000  0  7G13G15G18G 5G29G30G20
  20500197.324   107729265.73548       -97.655    20500197.111    83944881.23747
       -76.097  
  20563765.270   108063319.83149      1946.421    20563765.628    84205186.78248
      1516.687  
  21086937.463   110812605.16648      2041.741    21086937.811    86347486.47547
      1590.965  
  22083694.395   116050593.66748     -2727.745    22083694.278    90429034.08346
     -2125.504  
  22559256.013   118549682.89748     -3019.827    22559257.272    92376377.32447
     -2353.117  
  23880742.958   125494160.41446      -462.448    23880745.738    97787663.90244
      -360.352  
  23328436.820   122591765.54047      3133.003    23328437.760    95526068.47045
      2441.297  
 20 09 28 05 24 35.0000000  0  7G13G15G18G 5G29G30G20
  20500291.705   107729761.80848      -100.937    20500291.367    83945267.79447
       -78.656  
  20561914.864   108053595.03749      1943.448    20561915.231    84197609.02648
      1514.371  
  21084995.691   110802401.95848      2039.589    21084996.113    86339535.92147
      1589.289  
  22086290.412   116064235.45148     -2728.948    22086290.228    90439664.03546
     -2126.457  
  22562130.408   118564787.38248     -3022.054    22562131.633    92388147.04147
     -2354.851  
  23881184.455   125496480.05946      -465.374    23881187.203    97789471.41244
      -362.633  
  23325456.434   122576103.13247      3132.246    23325457.474    95513864.00945
      2440.707  
 20 09 28 05 24 40.0000000  0  7G13G15G18G 5G29G30G20
  20500389.531   107730275.79448      -104.577    20500389.305    83945668.30347
       -81.491  
  20560067.097   108043885.73748      1940.190    20560067.529    84190043.34048
      1511.836  
  21083056.429   110792210.47748      2037.105    21083056.836    86331594.50247
      1587.351  
  22088887.518   116077883.71048     -2730.578    22088887.442    90450299.03446
     -2127.726  
  22565006.684   118579902.66048     -3024.211    22565007.911    92399925.16847
     -2356.531  
  23881628.755   125498815.87646      -468.948    23881631.694    97791291.52845
      -365.417  
  23322476.646   122560444.51947      3131.030    23322477.625    95501662.49445
      2439.762  
 20 09 28 05 24 45.0000000  0  7G13G15G18G 5G29G30G20
  20500490.601   107730806.82748      -107.840    20500490.425    83946082.08947
       -84.035  
  20558222.381   108034191.12749      1937.331    20558222.754    84182489.10748
      1509.604  
  21081119.043   110782029.88248      2035.034    21081119.518    86323661.57147
      1585.746  
  22091485.780   116091537.61148     -2731.426    22091485.591    90460938.42746
     -2128.387  
  22567884.888   118595027.88348     -3026.133    22567886.181    92411711.04747
     -2358.027  
  23882076.348   125501167.02246      -471.902    23882079.055    97793123.61344
      -367.719  
  23319497.410   122544788.84447      3130.702    23319498.530    95489463.28346
      2439.504  
 20 09 28 05 24 50.0000000  0  7G13G15G18G 5G29G30G20
  20500594.876   107731354.57448      -111.414    20500594.467    83946508.90647
       -86.820  
  20556380.135   108024510.84049      1934.390    20556380.657    84174946.02748
      1507.312  
  21079183.756   110771859.81948      2032.851    21079184.158    86315736.84547
      1584.034  
  22094085.020   116105196.74048     -2732.444    22094084.699    90471581.90246
     -2129.179  
  22570764.980   118610162.64648     -3028.051    22570766.174    92423504.35847
     -2359.523  
  23882526.571   125503533.11546      -474.898    23882529.260    97794967.28445
      -370.054  
  23316518.731   122529135.75047      3130.023    23316519.914    95477266.06945
      2438.976  
 20 09 28 05 24 55.0000000  0  7G13G15G18G 5G29G30G20
  20500702.387   107731919.89448      -114.625    20500702.167    83946949.41847
       -89.320  
  20554540.956   108014845.79449      1931.554    20554541.269    84167414.82348
      1505.105  
  21077250.747   110761701.19448      2030.781    21077251.244    86307821.04247
      1582.421  
  22096685.607   116118862.04248     -2733.598    22096685.281    90482230.19546
     -2130.077  
  22573646.991   118625307.90648     -3029.871    22573648.113    92435305.85147
     -2360.940  
  23882979.901   125505915.03846      -477.793    23882982.561    97796823.35144
      -372.305  
  23313540.861   122513486.15547      3129.844    23313541.748    95465071.60246
      2438.835  
 20 09 28 05 25  0.0000000  0  7G13G15G18G 5G29G30G20
  20500813.152   107732501.78048      -118.066    20500812.788    83947402.83047
       -92.004  
  20552704.421   108005194.92649      1928.612    20552704.806    84159894.65948
      1502.813  
  21075319.441   110751552.98948      2028.461    21075320.038    86299913.35647
      1580.617  
  22099286.913   116132532.46448     -2734.757    22099286.600    90492882.47346
     -2130.983  
  22576530.890   118640462.55148     -3032.008    22576531.974    92447114.65447
     -2362.605  
  23883435.881   125508311.79146      -480.773    23883438.461    97798690.96645
      -374.632  
  23310563.398   122497839.04247      3129.031    23310564.294    95452879.05045
      2438.202  
 20 09 28 05 25  5.0000000  0  7G13G15G18G 5G29G30G20
  20500927.310   107733101.12448      -121.983    20500926.831    83947869.85147
       -95.054  
  20550870.972   107995559.15049      1925.441    20550871.286    84152386.26248
      1500.340  
  21073390.635   110741416.10548      2025.933    21073391.029    86292014.47947
      1578.645  
  22101889.361   116146208.89048     -2736.179    22101889.136    90503539.42346
     -2132.089  
  22579416.724   118655627.49248     -3034.281    22579417.788    92458931.48647
     -2364.378  
  23883895.094   125510724.25246      -484.086    23883897.661    97800570.78144
      -377.215  
  23307586.497   122482195.29047      3128.366    23307587.371    95440689.11146
      2437.684  
 20 09 28 05 25 10.0000000  0  7G13G15G18G 5G29G30G20
  20501044.553   107733717.51648      -125.160    20501044.324    83948350.15047
       -97.530  
  20549040.165   107985938.06949      1922.858    20549040.447    84144889.31448
      1498.328  
  21071463.726   110731290.16248      2024.187    21071464.217    86284124.13447
      1577.285  
  22104492.933   116159890.90748     -2736.929    22104492.705    90514200.72746
     -2132.676  
  22582304.454   118670802.33548     -3035.969    22582305.561    92470756.03047
     -2365.691  
  23884357.139   125513152.03446      -486.741    23884359.731    97802462.56844
      -379.280  
  23304610.120   122466554.51347      3127.859    23304610.926    95428501.50545
      2437.288  
 20 09 28 05 25 15.0000000  0  7G13G15G18G 5G29G30G20
  20501165.199   107734351.76848      -128.421    20501164.958    83948844.37747
      -100.069  
  20547212.208   107976332.56049      1919.762    20547212.541    84137404.50248
      1495.914  
  21069539.087   110721176.02248      2021.777    21069539.355    86276242.98747
      1575.405  
  22107097.837   116173579.39948     -2738.151    22107097.750    90524867.07846
     -2133.628  
  22585194.070   118685987.90348     -3037.934    22585195.054    92482588.92847
     -2367.223  
  23884822.216   125515596.00146      -490.362    23884824.673    97804366.92844
      -382.108  
  23301634.503   122450917.57047      3127.117    23301635.189    95416316.88945
      2436.711  
 20 09 28 05 25 20.0000000  0  7G13G15G18G 5G29G30G20
  20501289.076   107735002.84248      -131.866    20501288.775    83949351.70147
      -102.757  
  20545387.122   107966741.57549      1916.671    20545387.545    84129931.00948
      1493.507  
  21067616.357   110711072.60248      2019.628    21067616.959    86268370.19347
      1573.734  
  22109703.723   116187273.23348     -2739.336    22109703.555    90535537.59946
     -2134.551  
  22588085.807   118701183.08548     -3040.137    22588086.760    92494429.32347
     -2368.941  
  23885290.103   125518055.01146      -493.379    23885292.832    97806283.05745
      -384.453  
  23298659.450   122435283.34347      3126.637    23298660.171    95404134.37445
      2436.336  
 20 09 28 05 25 25.0000000  0  7G13G15G18G 5G29G30G20
  20501416.381   107735671.70548      -135.520    20501415.972    83949872.89447
      -105.602  
  20543565.056   107957166.04949      1913.707    20543565.238    84122469.56148
      1491.195  
  21065695.897   110700980.89148      2017.297    21065696.511    86260506.52948
      1571.917  
  22112310.724   116200973.42548     -2740.473    22112310.752    90546213.07246
     -2135.438  
  22590979.260   118716388.84248     -3041.969    22590980.162    92506277.94647
     -2370.366  
  23885760.974   125520530.11046      -496.612    23885763.658    97808211.72744
      -386.969  
  23295685.007   122419652.82247      3125.820    23295685.701    95391954.75945
      2435.699  
 20 09 28 05 25 30.0000000  0  7G13G15G18G 5G29G30G20
  20501546.926   107736357.22448      -138.801    20501546.627    83950407.05947
      -108.159  
  20541745.466   107947604.88449      1910.710    20541745.854    84115019.30048
      1488.862  
  21063777.552   110690899.79448      2015.108    21063778.265    86252651.13347
      1570.210  
  22114918.711   116214678.86948     -2741.703    22114918.636    90556892.64045
     -2136.395  
  22593874.794   118731604.04148     -3043.948    22593875.494    92518133.93847
     -2371.910  
  23886234.776   125523020.11546      -499.628    23886237.510    97810151.97944
      -389.323  
  23292711.099   122404024.92247      3125.265    23292711.884    95379777.16645
      2435.270  
 20 09 28 05 25 35.0000000  0  7G13G15G18G 5G29G30G20
  20501680.518   107737059.87948      -142.309    20501680.223    83950954.58347
      -110.895  
  20539928.928   107938058.54049      1907.925    20539929.176    84107580.59148
      1486.690  
  21061861.296   110680829.77148      2012.913    21061861.964    86244804.35847
      1568.500  
  22117528.031   116228390.03148     -2742.784    22117527.788    90567576.65246
     -2137.238  
  22596772.033   118746829.13148     -3045.926    22596772.775    92529997.63447
     -2373.453  
  23886711.445   125525525.55646      -502.495    23886714.333    97812104.27144
      -391.558  
  23289737.962   122388400.10847      3124.559    23289738.361    95367601.99345
      2434.719  
 20 09 28 05 25 40.0000000  0  7G13G15G18G 5G29G30G20
  20501817.524   107737779.66648      -145.585    20501817.231    83951515.45247
      -113.445  
  20538115.256   107928527.06449      1904.805    20538115.427    84100153.46648
      1484.261  
  21059947.129   110670770.87748      2010.577    21059947.873    86236966.25347
      1566.680  
  22120138.108   116242106.86048     -2743.949    22120138.113    90578265.08846
     -2138.145  
  22599671.192   118762064.09848     -3048.015    22599672.064    92541869.02047
     -2375.081  
  23887191.200   125528046.40846      -505.835    23887193.963    97814068.55744
      -394.159  
  23286765.204   122372778.40947      3123.913    23286765.847    95355429.26245
      2434.215  
 20 09 28 05 25 45.0000000  0  7G13G15G18G 5G29G30G20
  20501957.800   107738516.07148      -149.156    20501957.402    83952089.27147
      -116.230  
  20536304.065   107919009.88049      1901.870    20536304.360    84092737.48048
      1481.973  
  21058035.055   110660722.52048      2008.438    21058035.723    86229136.38348
      1565.011  
  22122749.315   116255828.81448     -2745.069    22122749.247    90588957.53047
     -2139.020  
  22602572.044   118777308.39948     -3049.836    22602572.832    92553747.68047
     -2376.500  
  23887673.818   125530582.14546      -508.801    23887676.488    97816044.47844
      -396.472  
  23283793.014   122357159.25947      3123.574    23283793.539    95343258.50146
      2433.949  
 20 09 28 05 25 50.0000000  0  7G13G15G18G 5G29G30G20
  20502101.477   107739271.09948      -152.535    20502101.026    83952677.60647
      -118.863  
  20534496.285   107909509.05749      1898.809    20534496.467    84085334.24048
      1479.590  
  21056125.270   110650686.78248      2006.297    21056126.024    86221316.32747
      1563.344  
  22125361.860   116269557.95248     -2746.253    22125361.807    90599655.55446
     -2139.887  
  22605475.178   118792564.06448     -3051.891    22605476.018    92565635.20747
     -2378.102  
  23888159.471   125533134.73446      -511.742    23888162.196    97818033.49945
      -398.761  
  23280821.568   122341544.70247      3122.699    23280822.257    95331091.31945
      2433.269  
 20 09 28 05 25 55.0000000  0  7G13G15G18G 5G29G30G20
  20502248.162   107740042.06048      -155.694    20502247.804    83953278.35947
      -121.323  
  20532690.786   107900021.91049      1896.141    20532691.016    84077941.65748
      1477.508  
  21054217.389   110640660.98548      2004.062    21054218.252    86213504.00747
      1561.605  
  22127975.327   116283291.53248     -2747.132    22127975.394    90610357.03746
     -2140.625  
  22608379.837   118807828.43148     -3053.730    22608380.630    92577529.51447
     -2379.535  
  23888647.988   125535701.56646      -514.727    23888650.546    97820033.61744
      -401.089  
  23277850.707   122325932.06847      3122.457    23277851.185    95318925.64846
      2433.081  
 20 09 28 05 26  0.0000000  0  7G13G15G18G 5G29G30G20
  20502398.121   107740830.15848      -159.425    20502397.743    83953892.45747
      -124.229  
  20530888.322   107890549.64849      1892.718    20530888.489    84070560.67648
      1474.843  
  21052311.785   110630646.31148      2001.645    21052312.457    86205700.37948
      1559.719  
  22130589.755   116297030.75848     -2748.612    22130589.673    90621062.91746
     -2141.781  
  22611286.418   118823102.64848     -3056.136    22611287.199    92589431.49247
     -2381.410  
  23889139.297   125538283.81846      -518.195    23889141.914    97822045.77944
      -403.792  
  23274880.219   122310322.57547      3121.397    23274880.777    95306762.41845
      2432.254  
 20 09 28 05 26  5.0000000  0  7G13G15G18G 5G29G30G20
  20502551.496   107741636.33848      -163.066    20502551.102    83954520.65647
      -127.066  
  20529088.904   107881093.23749      1889.800    20529089.170    84063192.04548
      1472.569  
  21050408.271   110620643.78248      1999.316    21050409.087    86197906.20948
      1557.905  
  22133205.523   116310776.62048     -2749.672    22133205.416    90631773.98146
     -2142.605  
  22614195.063   118838387.65148     -3058.008    22614195.737    92601341.87447
     -2382.867  
  23889633.873   125540882.45746      -521.296    23889636.443    97824070.66545
      -406.210  
  23271910.641   122294717.15547      3120.979    23271911.224    95294602.34845
      2431.929  
 20 09 28 05 26 10.0000000  0  7G13G15G18G 5G29G30G20
  20502708.103   107742459.18848      -166.559    20502707.653    83955161.83047
      -129.788  
  20527292.149   107871651.31949      1886.729    20527292.265    84055834.70848
      1470.176  
  21048506.855   110610651.96048      1997.073    21048507.678    86190120.38248
      1556.160  
  22135822.239   116324527.71048     -2750.879    22135822.361    90642489.11846
     -2143.546  
  22617105.606   118853682.06248     -3059.968    22617106.233    92613259.59147
     -2384.395  
  23890131.268   125543496.03546      -524.362    23890133.898    97826107.22344
      -408.598  
  23268941.424   122279114.43647      3120.016    23268942.125    95282444.41345
      2431.183  
 20 09 28 05 26 15.0000000  0  7G13G15G18G 5G29G30G20
  20502867.948   107743299.77548      -169.808    20502867.596    83955816.83247
      -132.320  
  20525498.250   107862224.93749      1883.882    20525498.554    84048489.47948
      1467.957  
  21046607.702   110600671.93748      1995.085    21046608.480    86182343.73147
      1554.534  
  22138440.301   116338285.06548     -2751.972    22138440.280    90653209.12446
     -2144.398  
  22620017.871   118868986.93348     -3061.823    22620018.705    92625185.45647
     -2385.840  
  23890631.562   125546125.63146      -527.398    23890634.312    97828156.27445
      -410.964  
  23265973.014   122263515.49547      3119.441    23265973.706    95270289.39145
      2430.729  
 20 09 28 05 26 20.0000000  0  7G13G15G18G 5G29G30G20
  20503031.034   107744156.86148      -173.215    20503030.746    83956484.68747
      -134.976  
  20523707.208   107852812.82749      1880.917    20523707.512    84041155.36748
      1465.648  
  21044710.640   110590702.46348      1992.863    21044711.441    86174575.30047
      1552.878  
  22141059.159   116352047.40948     -2753.116    22141059.210    90663933.01746
     -2145.288  
  22622932.017   118884300.96448     -3063.840    22622932.866    92637118.46047
     -2387.410  
  23891134.873   125548770.01546      -530.574    23891137.404    97830216.82144
      -413.437  
  23263005.198   122247919.04447      3118.925    23263005.753    95258136.30745
      2430.327  
 20 09 28 05 26 25.0000000  0  7G13G15G18G 5G29G30G20
  20503197.531   107745031.74348      -176.469    20503197.322    83957166.41447
      -137.512  
  20521919.210   107843416.36349      1878.144    20521919.403    84033833.45248
      1463.483  
  21042815.697   110580744.90648      1990.745    21042816.636    86166816.17148
      1551.227  
  22143679.326   116365816.07448     -2753.991    22143679.091    90674661.83646
     -2145.972  
  22625848.273   118899625.52648     -3065.410    22625848.978    92649059.66647
     -2388.633  
  23891641.066   125551430.51546      -532.940    23891643.613    97832289.94244
      -415.281  
  23260037.939   122232326.43347      3118.391    23260038.627    95245986.23345
      2429.909  
 20 09 28 05 26 30.0000000  0  7G13G15G18G 5G29G30G20
  20503367.060   107745922.68648      -180.094    20503366.825    83957860.65647
      -140.335  
  20520133.692   107834033.71349      1874.847    20520133.997    84026522.29548
      1460.917  
  21040922.857   110570797.46848      1988.147    21040923.547    86159064.91348
      1549.203  
  22146300.252   116379589.29248     -2755.257    22146300.261    90685394.21346
     -2146.957  
  22628766.051   118914958.77348     -3067.604    22628766.750    92661007.64347
     -2390.343  
  23892150.063   125554105.34646      -536.581    23892152.893    97834374.23544
      -418.117  
  23257071.049   122216735.85047      3117.753    23257071.704    95233837.74145
      2429.413  
 20 09 28 05 26 35.0000000  0  7G13G15G18G 5G29G30G20
  20503540.033   107746831.57248      -183.722    20503539.726    83958568.87447
      -143.164  
  20518351.233   107824666.79749      1871.722    20518351.494    84019223.40248
      1458.479  
  21039032.280   110560862.04148      1985.655    21039033.110    86151323.01747
      1547.262  
  22148922.287   116393368.99048     -2756.737    22148922.372    90696131.62946
     -2148.109  
  22631685.905   118930302.61548     -3070.090    22631686.552    92672963.86947
     -2392.281  
  23892662.104   125556796.45146      -539.737    23892665.053    97836471.19444
      -420.577  
  23254105.111   122201149.27447      3116.987    23254105.693    95221692.35945
      2428.819  
 20 09 28 05 26 40.0000000  0  7G13G15G18G 5G29G30G20
  20503716.251   107747757.51348      -187.026    20503716.056    83959290.38547
      -145.738  
  20516571.609   107815314.77949      1868.862    20516571.926    84011936.11548
      1456.254  
  21037143.609   110550937.79348      1983.656    21037144.416    86143589.84948
      1545.703  
  22151545.688   116407154.27448     -2757.738    22151545.731    90706873.40946
     -2148.891  
  22634607.648   118945656.16248     -3071.777    22634608.308    92684927.66247
     -2393.598  
  23893177.054   125559502.87446      -542.656    23893180.045    97838580.09445
      -422.852  
  23251139.514   122185565.86147      3116.391    23251140.209    95209549.44945
      2428.352  
 20 09 28 05 26 45.0000000  0  7G13G15G18G 5G29G30G20
  20503895.692   107748700.41948      -190.308    20503895.561    83960025.11447
      -148.296  
  20514794.829   107805977.54849      1865.964    20514795.049    84004660.35548
      1453.995  
  21035257.212   110541024.64748      1981.440    21035258.116    86135865.32748
      1543.976  
  22154169.850   116420944.99448     -2758.839    22154170.064    90717619.42646
     -2149.749  
  22637531.104   118961019.27848     -3073.729    22637531.746    92696898.90247
     -2395.117  
  23893695.035   125562224.57046      -546.011    23893697.791    97840700.89744
      -425.469  
  23248174.657   122169985.46447      3115.765    23248175.200    95197408.89145
      2427.867  
 20 09 28 05 26 50.0000000  0  7G13G15G18G 5G29G30G20
  20504078.582   107749661.07448      -193.719    20504078.236    83960773.67147
      -150.953  
  20513020.931   107796655.87349      1863.000    20513021.094    83997396.71248
      1451.684  
  21033373.127   110531123.37048      1979.366    21033374.022    86128150.02948
      1542.358  
  22156795.326   116434741.96448     -2759.729    22156795.581    90728370.29346
     -2150.440  
  22640456.476   118976392.71048     -3075.519    22640457.380    92708878.19347
     -2396.511  
  23894216.111   125564962.28446      -548.891    23894218.923    97842834.15744
      -427.710  
  23245210.444   122154408.82747      3115.160    23245211.182    95185271.26445
      2427.395  
 20 09 28 05 26 55.0000000  0  7G13G15G18G 5G29G30G20
  20504264.474   107750638.03648      -196.788    20504264.078    83961534.94347
      -153.343  
  20511249.870   107787348.38249      1860.129    20511250.069    83990144.12648
      1449.449  
  21031490.939   110521232.56248      1977.136    21031491.689    86120442.90847
      1540.621  
  22159421.731   116448543.78648     -2760.714    22159421.820    90739124.95846
     -2151.210  
  22643383.775   118991775.08648     -3077.125    22643384.470    92720864.45147
     -2397.762  
  23894739.850   125567714.61446      -551.570    23894742.537    97844978.83245
      -429.796  
  23242246.822   122138834.60847      3114.617    23242247.389    95173135.52545
      2426.973  
 20 09 28 05 27  0.0000000  0  7G13G15G18G 5G29G30G20
  20504453.412   107751631.63348      -200.444    20504453.329    83962309.17547
      -156.194  
  20509481.470   107778055.38149      1857.062    20509481.487    83982902.83248
      1447.058  
  21029610.830   110511352.55348      1974.538    21029611.746    86112744.19647
      1538.598  
  22162049.108   116462350.71348     -2761.996    22162049.275    90749883.60246
     -2152.207  
  22646312.561   119007166.71148     -3079.343    22646313.313    92732857.91747
     -2399.491  
  23895266.413   125570481.87546      -555.121    23895269.318    97847135.16044
      -432.565  
  23239283.747   122123263.07447      3114.253    23239284.079    95161001.85945
      2426.688  
 20 09 28 05 27  5.0000000  0  7G13G15G18G 5G29G30G20
  20504645.978   107752643.32248      -203.734    20504645.771    83963097.50747
      -158.757  
  20507716.119   107768778.39949      1854.086    20507716.336    83975674.01848
      1444.738  
  21027733.010   110501484.82348      1972.562    21027734.026    86105055.06248
      1537.059  
  22164677.809   116476164.25348     -2762.961    22164677.979    90760647.39646
     -2152.960  
  22649243.635   119022569.04648     -3081.320    22649244.383    92744859.72147
     -2401.031  
  23895796.202   125573265.52946      -558.141    23895799.001    97849304.21945
      -434.918  
  23236321.219   122107695.79247      3113.441    23236321.772    95148871.52045
      2426.055  
 20 09 28 05 27 10.0000000  0  7G13G15G18G 5G29G30G20
  20504841.773   107753672.29648      -207.328    20504841.608    83963899.30047
      -161.558  
  20505953.618   107759516.58249      1851.008    20505953.863    83968457.01748
      1442.340  
  21025857.466   110491628.55348      1970.397    21025858.267    86097374.85948
      1535.371  
  22167307.478   116489983.56948     -2764.233    22167307.670    90771415.69446
     -2153.952  
  22652176.429   119037981.20048     -3083.214    22652177.403    92756869.16947
     -2402.511  
  23896328.798   125576064.80946      -561.375    23896331.618    97851485.47644
      -437.438  
  23233359.477   122092131.88847      3112.640    23233359.965    95136743.82245
      2425.429  
 20 09 28 05 27 15.0000000  0  7G13G15G18G 5G29G30G20
  20505040.640   107754717.60048      -210.859    20505040.408    83964713.82347
      -164.308  
  20504193.784   107750268.99749      1847.879    20504194.068    83961251.10948
      1439.901  
  21023983.850   110481782.85448      1967.718    21023984.686    86089702.89248
      1533.285  
  22169938.112   116503807.70848     -2765.402    22169938.360    90782187.74446
     -2154.863  
  22655110.916   119053402.28548     -3085.304    22655111.860    92768885.58947
     -2404.137  
  23896864.258   125578878.70346      -564.469    23896867.132    97853678.16045
      -439.844  
  23230398.306   122076570.42047      3111.711    23230398.946    95124618.00845
      2424.707  
 20 09 28 05 27 20.0000000  0  7G13G15G18G 5G29G30G20
  20505242.941   107755780.54248      -214.269    20505242.841    83965542.09447
      -166.965  
  20502436.993   107741036.90449      1844.882    20502437.206    83954057.27248
      1437.565  
  21022112.494   110471948.96948      1965.664    21022113.543    86082040.12248
      1531.683  
  22172569.864   116517637.97048     -2766.645    22172570.252    90792964.56046
     -2155.808  
  22658047.312   119068833.48948     -3086.977    22658048.256    92780909.89147
     -2405.440  
  23897402.794   125581708.53746      -567.273    23897405.584    97855883.18644
      -442.035  
  23227437.697   122061012.69347      3111.409    23227438.391    95112495.12245
      2424.473  
 20 09 28 05 27 25.0000000  0  7G13G15G18G 5G29G30G20
  20505448.458   107756860.56848      -217.613    20505448.217    83966383.67047
      -169.569  
  20500683.047   107731819.76149      1841.941    20500683.282    83946875.09048
      1435.277  
  21020243.423   110462126.37348      1963.469    21020244.356    86074386.14648
      1529.972  
  22175202.769   116531473.79248     -2767.676    22175203.099    90803745.71946
     -2156.632  
  22660985.612   119084274.29748     -3089.065    22660986.575    92792941.69047
     -2407.065  
  23897944.152   125584553.74146      -570.348    23897947.027    97858100.24545
      -444.430  
  23224477.864   122045458.19847      3110.647    23224478.330    95100374.73245
      2423.878  
 20 09 28 05 27 30.0000000  0  7G13G15G18G 5G29G30G20
  20505657.217   107757957.67048      -221.190    20505656.995    83967238.54947
      -172.358  
  20498931.954   107722617.54849      1838.733    20498932.045    83939704.53448
      1432.777  
  21018376.444   110452315.04848      1960.960    21018377.149    86066740.96448
      1528.020  
  22177836.808   116545315.16648     -2768.979    22177837.120    90814531.19046
     -2157.648  
  22663925.639   119099724.65148     -3091.176    22663926.614    92804980.90847
     -2408.710  
  23898488.551   125587414.29246      -573.973    23898491.506    97860329.23244
      -447.253  
  23221518.414   122029906.83948      3109.793    23221518.979    95088256.80845
      2423.211  
 20 09 28 05 27 35.0000000  0  7G13G15G18G 5G29G30G20
  20505869.409   107759072.18148      -224.625    20505869.218    83968107.00547
      -175.034  
  20497183.737   107713430.70149      1835.835    20497183.731    83932545.95248
      1430.519  
  21016511.582   110442515.41348      1958.831    21016512.342    86059104.89148
      1526.359  
  22180471.788   116559162.45748     -2770.069    22180472.150    90825321.29046
     -2158.500  
  22666867.583   119115184.95648     -3092.988    22666868.670    92817027.88947
     -2410.125  
  23899035.805   125590290.53846      -576.688    23899038.849    97862570.48145
      -449.371  
  23218559.922   122014359.04348      3109.547    23218560.392    95076141.64045
      2423.020  
 20 09 28 05 27 40.0000000  0  7G13G15G18G 5G29G30G20
  20506084.657   107760203.82148      -228.120    20506084.379    83968988.80547
      -177.762  
  20495438.343   107704258.90649      1832.863    20495438.603    83925399.09848
      1428.203  
  21014648.991   110432727.18248      1956.641    21014649.749    86051477.69848
      1524.651  
  22183107.919   116573015.35448     -2771.132    22183108.129    90836115.74846
     -2159.327  
  22669811.437   119130654.88848     -3094.824    22669812.653    92829082.38047
     -2411.554  
  23899586.119   125593182.30246      -579.929    23899589.066    97864823.77744
      -451.898  
  23215601.809   121998814.52547      3108.695    23215602.510    95064029.04545
      2422.355  
 20 09 28 05 27 45.0000000  0  7G13G15G18G 5G29G30G20
  20506303.300   107761352.17348      -231.496    20506302.941    83969883.62247
      -180.391  
  20493695.798   107695101.76849      1829.789    20493695.913    83918263.67048
      1425.805  
  21012788.308   110422949.94748      1954.129    21012789.348    86043859.07248
      1522.695  
  22185744.984   116586873.47648     -2772.484    22185745.370    90846914.27846
     -2160.379  
  22672757.172   119146134.04448     -3096.999    22672758.373    92841144.04847
     -2413.249  
  23900139.261   125596089.08146      -582.840    23900142.343    97867088.78944
      -454.163  
  23212644.229   121983272.86848      3107.926    23212644.856    95051918.66245
      2421.757  
 20 09 28 05 27 50.0000000  0  7G13G15G18G 5G29G30G20
  20506525.002   107762517.84748      -234.805    20506524.685    83970791.93947
      -182.969  
  20491956.131   107685959.91649      1826.875    20491956.390    83911140.14548
      1423.534  
  21010930.109   110413184.32748      1952.082    21010930.891    86036249.50048
      1521.101  
  22188383.195   116600737.39948     -2773.395    22188383.620    90857717.34446
     -2161.089  
  22675704.624   119161623.01348     -3098.636    22675705.762    92853213.36547
     -2414.523  
  23900695.277   125599011.49846      -585.792    23900698.532    97869366.01044
      -456.464  
  23209687.412   121967734.69047      3107.141    23209687.972    95039810.99845
      2421.145  
 20 09 28 05 27 55.0000000  0  7G13G15G18G 5G29G30G20
  20506750.151   107763700.76348      -238.113    20506749.856    83971713.69647
      -185.547  
  20490219.511   107676833.22649      1824.042    20490219.570    83904028.43948
      1421.327  
  21009073.970   110403430.25148      1949.766    21009074.630    86028648.92348
      1519.292  
  22191022.568   116614607.02048     -2774.585    22191022.797    90868524.83446
     -2162.019  
  22678653.811   119177121.68648     -3100.520    22678655.090    92865290.24547
     -2415.991  
  23901254.411   125601949.45446      -588.944    23901257.544    97871655.32145
      -458.922  
  23206731.192   121952199.86847      3106.956    23206731.836    95027705.96145
      2421.004  
 20 09 28 05 28  0.0000000  0  7G13G15G18G 5G29G30G20
  20506978.523   107764900.08548      -241.554    20506978.193    83972648.23047
      -188.227  
  20488485.344   107667720.90149      1820.796    20488485.438    83896927.92648
      1418.801  
  21007219.735   110393686.86448      1947.511    21007220.593    86021056.67047
      1517.539  
  22193662.720   116628481.49248     -2775.477    22193663.226    90879336.10646
     -2162.711  
  22681604.898   119192629.22148     -3102.495    22681606.150    92877374.02747
     -2417.530  
  23901816.375   125604902.15947      -592.441    23901819.466    97873956.13945
      -461.645  
  23203775.518   121936667.60447      3106.065    23203776.122    95015602.89945
      2420.309  
 20 09 28 05 28  5.0000000  0  7G13G15G18G 5G29G30G20
  20507210.113   107766117.25348      -245.023    20507209.706    83973596.67247
      -190.930  
  20486754.422   107658624.40549      1817.921    20486754.479    83889839.75048
      1416.559  
  21005367.995   110383955.68748      1945.211    21005368.728    86013473.93447
      1515.745  
  22196304.211   116642362.33848     -2776.620    22196304.579    90890152.34646
     -2163.605  
  22684557.870   119208147.10248     -3104.374    22684558.920    92889465.87747
     -2418.995  
  23902381.405   125607871.00646      -595.410    23902384.380    97876269.52444
      -463.961  
  23200820.613   121921139.43847      3105.409    23200821.427    95003503.04245
      2419.796  
 20 09 28 05 28 10.0000000  0  7G13G15G18G 5G29G30G20
  20507444.761   107767350.33748      -248.335    20507444.408    83974557.52147
      -193.511  
  20485025.973   107649541.87649      1814.972    20485026.200    83882762.45748
      1414.262  
  21003518.160   110374234.80448      1943.054    21003519.076    86005899.23147
      1514.066  
  22198946.445   116656247.65248     -2777.633    22198946.942    90900972.06846
     -2164.390  
  22687512.337   119223673.37048     -3106.394    22687513.651    92901564.25847
     -2420.569  
  23902949.072   125610854.14646      -598.058    23902952.159    97878594.04846
      -466.023  
  23197866.076   121905613.42947      3104.882    23197866.804    94991404.85545
      2419.386  
 20 09 28 05 28 15.0000000  0  7G13G15G18G 5G29G30G20
  20507682.811   107768601.36148      -251.956    20507682.503    83975532.35247
      -196.332  
  20483300.754   107640475.28749      1811.746    20483300.841    83875697.58848
      1411.746  
  21001670.798   110364526.22648      1940.430    21001671.598    85998334.11947
      1512.019  
  22201590.026   116670139.38948     -2779.102    22201590.344    90911796.82746
     -2165.535  
  22690468.941   119239210.02048     -3108.351    22690470.114    92913670.73247
     -2422.094  
  23903519.752   125613853.55646      -601.276    23903522.863    97880931.23544
      -468.531  
  23194912.325   121890091.52347      3104.105    23194913.115    94979309.86645
      2418.781  
 20 09 28 05 28 20.0000000  0  7G13G15G18G 5G29G30G20
  20507924.112   107769869.56648      -255.340    20507923.764    83976520.55947
      -198.969  
  20481578.198   107631423.85149      1808.714    20481578.418    83868644.52348
      1409.387  
  20999825.545   110354829.13548      1938.183    20999826.105    85990777.94648
      1510.269  
  22204234.524   116684036.72848     -2779.917    22204234.923    90922625.90546
     -2166.171  
  22693427.223   119254756.21348     -3110.227    22693428.508    92925784.63947
     -2423.555  
  23904093.515   125616868.45246      -604.523    23904096.447    97883280.49944
      -471.059  
  23191959.352   121874573.01247      3103.218    23191960.127    94967217.53145
      2418.089  
 20 09 28 05 28 25.0000000  0  7G13G15G18G 5G29G30G20
  20508168.652   107771154.28848      -258.687    20508168.231    83977521.64047
      -201.577  
  20479858.492   107622386.92249      1805.902    20479858.680    83861602.76248
      1407.194  
  20997982.169   110345142.94248      1936.065    20997983.034    85983230.25348
      1508.621  
  22206880.195   116697939.13248     -2781.034    22206880.488    90933458.92746
     -2167.046  
  22696387.229   119270311.33248     -3111.897    22696388.575    92937905.49547
     -2424.858  
  23904670.096   125619898.15646      -607.425    23904673.003    97885641.30444
      -473.319  
  23189006.778   121859057.22547      3102.698    23189007.619    94955127.31645
      2417.684  
 20 09 28 05 28 30.0000000  0  7G13G15G18G 5G29G30G20
  20508416.433   107772456.32248      -262.297    20508416.099    83978536.21347
      -204.391  
  20478141.842   107613365.30249      1802.815    20478141.855    83854572.93248
      1404.789  
  20996141.277   110335468.45648      1933.671    20996141.925    85975691.68948
      1506.753  
  22209526.797   116711847.27848     -2782.144    22209527.212    90944296.44546
     -2167.906  
  22699349.164   119285876.15548     -3113.987    22699350.361    92950033.91847
     -2426.488  
  23905249.504   125622943.50046      -610.772    23905252.541    97888014.32044
      -475.930  
  23186054.752   121843544.97248      3102.059    23186055.614    94943039.85145
      2417.183  
 20 09 28 05 28 35.0000000  0  7G13G15G18G 5G29G30G20
  20508667.451   107773775.71148      -265.578    20508667.126    83979564.31347
      -206.944  
  20476428.044   107604359.11149      1799.641    20476428.217    83847555.12148
      1402.313  
  20994302.488   110325805.71448      1931.352    20994303.273    85968162.28048
      1504.944  
  22212174.530   116725761.24148     -2783.359    22212174.923    90955138.50246
     -2168.855  
  22702312.829   119301450.72948     -3115.913    22702314.155    92962169.94347
     -2427.987  
  23905831.970   125626004.53546      -613.793    23905834.976    97890399.51644
      -478.289  
  23183103.696   121828036.31947      3101.465    23183104.555    94930955.19345
      2416.722  
 20 09 28 05 28 40.0000000  0  7G13G15G18G 5G29G30G20
  20508921.882   107775112.00648      -268.921    20508921.347    83980605.58947
      -209.551  
  20474716.925   107595367.83949      1796.832    20474717.027    83840548.92648
      1400.125  
  20992465.968   110316154.29748      1929.159    20992466.554    85960641.72047
      1503.241  
  22214823.260   116739680.50448     -2784.277    22214823.613    90965984.69446
     -2169.570  
  22705278.348   119317034.57448     -3117.776    22705279.900    92974313.20447
     -2429.441  
  23906417.285   125629080.78946      -616.671    23906420.413    97892796.62644
      -480.527  
  23180153.037   121812530.81147      3100.828    23180153.812    94918872.98746
      2416.226  
 20 09 28 05 28 45.0000000  0  7G13G15G18G 5G29G30G20
  20509179.352   107776465.61248      -272.641    20509178.982    83981660.34147
      -212.449  
  20473008.856   107586391.87449      1793.706    20473009.042    83833554.67348
      1397.690  
  20990631.570   110306514.59448      1926.647    20990632.285    85953130.26048
      1501.280  
  22217473.102   116753605.48748     -2785.667    22217473.509    90976835.32946
     -2170.651  
  22708245.741   119332628.04747     -3119.797    22708247.038    92986463.94947
     -2431.015  
  23907005.663   125632172.67446      -620.187    23907008.660    97895205.86845
      -483.266  
  23177203.107   121797028.79547      3099.812    23177204.007    94906793.49845
      2415.433  
 20 09 28 05 28 50.0000000  0  7G13G15G18G 5G29G30G20
  20509440.261   107777836.54548      -275.758    20509439.801    83982728.60047
      -214.879  
  20471303.812   107577431.30749      1790.727    20471303.964    83826572.41248
      1395.366  
  20988799.443   110296886.63848      1924.621    20988799.968    85945627.94748
      1499.703  
  22220124.068   116767536.28048     -2786.637    22220124.446    90987690.47346
     -2171.409  
  22711214.859   119348231.24448     -3121.374    22711216.375    92998622.26147
     -2432.245  
  23907597.120   125635280.17746      -622.808    23907600.091    97897627.30144
      -485.309  
  23174253.935   121781530.35547      3099.453    23174254.723    94894716.80045
      2415.156  
 20 09 28 05 28 55.0000000  0  7G13G15G18G 5G29G30G20
  20509704.403   107779224.05648      -279.304    20509703.793    83983809.79147
      -217.644  
  20469601.454   107568485.41649      1787.637    20469601.586    83819601.58548
      1392.961  
  20986969.386   110287269.78448      1922.172    20986970.106    85938134.31048
      1497.792  
  22222776.004   116781472.14348     -2787.870    22222776.370    90998549.59346
     -2172.370  
  22714185.674   119363843.32448     -3123.617    22714187.211    93010787.52947
     -2433.992  
  23908191.246   125638402.67746      -626.132    23908194.245    97900060.42044
      -487.897  
  23171305.125   121766034.81747      3098.824    23171306.142    94882642.38446
      2414.668  
 20 09 28 05 29  0.0000000  0  7G13G15G18G 5G29G30G20
  20509971.577   107780628.97348      -282.715    20509971.170    83984904.53347
      -220.301  
  20467901.927   107559554.96649      1784.550    20467902.134    83812642.79948
      1390.554  
  20985141.642   110277664.76748      1919.733    20985142.188    85930649.88647
      1495.894  
  22225428.915   116795413.87948     -2789.058    22225429.471    91009413.28546
     -2173.296  
  22717158.408   119379465.11548     -3125.543    22717159.992    93022960.35247
     -2435.492  
  23908788.431   125641540.87346      -629.277    23908791.274    97902505.74644
      -490.348  
  23168357.069   121750542.96147      3097.711    23168357.964    94870570.80645
      2413.797  
 20 09 28 05 29  5.0000000  0  7G13G15G18G 5G29G30G20
  20510242.190   107782050.61348      -285.921    20510241.776    83986012.30647
      -222.800  
  20466205.445   107550639.33449      1781.765    20466205.606    83805695.55248
      1388.387  
  20983315.975   110268070.94448      1917.785    20983316.704    85923174.17648
      1494.375  
  22228082.976   116809360.78148     -2789.800    22228083.322    91020280.98946
     -2173.875  
  22720132.645   119395095.99248     -3126.921    22720134.487    93035140.25447
     -2436.566  
  23909388.651   125644694.17546      -631.953    23909391.235    97904962.86143
      -492.434  
  23165409.795   121735054.05248      3097.555    23165410.610    94858501.54045
      2413.675  
 20 09 28 05 29 10.0000000  0  7G13G15G18G 5G29G30G20
  20510515.836   107783488.85548      -289.441    20510515.293    83987132.99847
      -225.542  
  20464511.642   107541738.40049      1778.542    20464511.771    83798759.76648
      1385.874  
  20981492.585   110258488.21748      1915.203    20981493.199    85915707.10448
      1492.362  
  22230737.938   116823312.70248     -2790.827    22230738.374    91031152.60646
     -2174.676  
  22723108.850   119410735.74448     -3128.870    22723110.723    93047327.03747
     -2438.089  
  23909991.516   125647862.34347      -635.176    23909994.071    97907431.56544
      -494.944  
  23162462.914   121719568.02948      3096.594    23162463.723    94846434.50045
      2412.925  
 20 09 28 05 29 15.0000000  0  7G13G15G18G 5G29G30G20
  20510792.875   107784944.01848      -292.851    20510792.241    83988266.90047
      -228.199  
  20462820.696   107532852.48449      1775.550    20462820.875    83791835.67548
      1383.543  
  20979671.103   110248916.92248      1913.121    20979671.622    85908248.95948
      1490.742  
  22233394.036   116837270.02848     -2792.063    22233394.403    91042028.44746
     -2175.636  
  22726086.763   119426384.71948     -3130.844    22726088.638    93059521.03847
     -2439.621  
  23910597.240   125651045.82046      -638.448    23910599.855    97909912.17945
      -497.496  
  23159516.616   121704085.21948      3096.147    23159517.347    94834369.99145
      2412.577  
 20 09 28 05 29 20.0000000  0  7G13G15G18G 5G29G30G20
  20511073.182   107786417.07048      -296.316    20511072.599    83989414.72947
      -230.897  
  20461132.782   107523982.52949      1772.551    20461133.140    83784924.02348
      1381.207  
  20977852.269   110239358.03948      1910.539    20977852.748    85900800.47047
      1488.729  
  22236051.105   116851233.73848     -2793.234    22236051.650    91052909.23946
     -2176.554  
  22729066.571   119442043.90548     -3132.624    22729068.251    93071722.99147
     -2441.007  
  23911206.140   125654245.51746      -641.684    23911208.571    97912405.45544
      -500.016  
  23156571.069   121688606.57948      3095.371    23156571.886    94822308.72546
      2411.973  
 20 09 28 05 29 25.0000000  0  7G13G15G18G 5G29G30G20
  20511356.527   107787906.74748      -299.718    20511356.131    83990575.52647
      -233.550  
  20459447.735   107515127.33049      1769.542    20459447.846    83778023.87348
      1378.862  
  20976035.363   110229810.32348      1908.465    20976035.818    85893360.69648
      1487.112  
  22238709.302   116865202.46948     -2794.124    22238709.646    91063793.97846
     -2177.241  
  22732048.323   119457712.02148     -3134.354    22732049.821    93083931.90047
     -2442.358  
  23911817.913   125657460.18646      -644.645    23911820.289    97914910.36945
      -502.324  
  23153626.119   121673130.92048      3094.563    23153626.838    94810249.77745
      2411.343  
 20 09 28 05 29 30.0000000  0  7G13G15G18G 5G29G30G20
  20511643.112   107789412.69848      -302.988    20511642.582    83991748.99847
      -236.098  
  20457765.340   107506286.53449      1766.520    20457765.484    83771134.94548
      1376.503  
  20974220.510   110220273.42348      1906.016    20974221.084    85885929.35148
      1485.203  
  22241368.261   116879175.92647     -2795.383    22241368.782    91074682.38246
     -2178.222  
  22735031.378   119473388.67448     -3136.565    22735033.118    93096147.46747
     -2444.082  
  23912432.383   125660689.46846      -647.671    23912434.680    97917426.70044
      -504.683  
  23150681.707   121657657.86747      3094.128    23150682.369    94798192.85645
      2411.007  
 20 09 28 05 29 35.0000000  0  7G13G15G18G 5G29G30G20
  20511933.107   107790936.60148      -306.574    20511932.701    83992936.45347
      -238.891  
  20456085.987   107497461.84649      1763.406    20456086.293    83764258.56348
      1374.077  
  20972408.140   110210749.04248      1903.729    20972408.570    85878507.75348
      1483.422  
  22244028.545   116893155.78147     -2796.426    22244028.947    91085575.78146
     -2179.034  
  22738016.531   119489075.54148     -3138.277    22738018.135    93108370.98947
     -2445.413  
  23913050.070   125663935.06346      -650.437    23913052.267    97919955.74045
      -506.836  
  23147738.207   121642189.10847      3093.492    23147738.910    94786139.28845
      2410.511  
 20 09 28 05 29 40.0000000  0  7G13G15G18G 5G29G30G20
  20512226.338   107792477.06848      -309.828    20512225.757    83994136.81447
      -241.425  
  20454409.499   107488651.84449      1760.461    20454409.784    83757393.63048
      1371.784  
  20970597.679   110201235.78648      1901.444    20970598.242    85871094.82847
      1481.641  
  22246689.794   116907140.64648     -2797.526    22246690.368    91096473.07446
     -2179.895  
  22741003.357   119504771.23348     -3139.858    22741005.111    93120601.37547
     -2446.652  
  23913670.447   125667195.57147      -653.609    23913672.821    97922496.39845
      -509.308  
  23144795.098   121626723.24648      3092.793    23144795.666    94774087.98145
      2409.964  
 20 09 28 05 29 45.0000000  0  7G13G15G18G 5G29G30G20
  20512522.808   107794035.03349      -313.539    20512522.228    83995350.81247
      -244.320  
  20452736.058   107479857.47749      1757.129    20452736.197    83750540.88448
      1369.187  
  20968789.677   110191734.61148      1898.925    20968790.336    85863691.31748
      1479.680  
  22249352.182   116921131.46148     -2798.965    22249352.470    91107374.99846
     -2181.015  
  22743991.925   119520476.63748     -3142.227    22743993.784    93132839.33847
     -2448.491  
  23914293.847   125670471.90246      -657.218    23914296.415    97925049.38244
      -512.120  
  23141852.770   121611261.20748      3091.980    23141853.362    94762039.64345
      2409.331  
 20 09 28 05 29 50.0000000  0  7G13G15G18G 5G29G30G20
  20512822.527   107795610.37948      -316.680    20512822.128    83996578.35347
      -246.766  
  20451065.474   107471078.65349      1754.300    20451065.802    83743700.24048
      1366.983  
  20966983.967   110182245.41548      1896.749    20966984.625    85856297.13648
      1477.983  
  22252015.711   116935128.06148     -2799.690    22252016.107    91118281.43046
     -2181.581  
  22746982.401   119536191.63348     -3143.938    22746984.149    93145084.78847
     -2449.823  
  23914920.291   125673763.98447      -659.809    23914922.907    97927614.63544
      -514.141  
  23138911.007   121595802.92247      3091.484    23138911.805    94749994.23845
      2408.945  
 20 09 28 05 29 55.0000000  0  7G13G15G18G 5G29G30G20
  20513125.287   107797201.26948      -319.953    20513124.947    83997818.00447
      -249.315  
  20449397.558   107462313.57249      1751.472    20449397.841    83736870.31148
      1364.780  
  20965180.130   110172766.37648      1894.761    20965180.625    85848910.87247
      1476.433  
  22254679.833   116949128.64348     -2800.641    22254680.174    91129190.96346
     -2182.319  
  22749974.395   119551914.38848     -3145.300    22749976.210    93157336.27747
     -2450.886  
  23915549.421   125677069.95747      -662.726    23915551.940    97930190.70344
      -516.413  
  23135969.851   121580346.57147      3091.011    23135970.486    94737950.34345
      2408.578  
 20 09 28 05 30  0.0000000  0  7G13G15G18G 5G29G30G20
  20513431.473   107798810.06548      -323.438    20513430.932    83999071.61447
      -252.031  
  20447732.679   107453564.57649      1748.254    20447732.801    83730052.90948
      1362.273  
  20963378.625   110163299.87148      1892.171    20963379.330    85841534.37148
      1474.418  
  22257345.302   116963135.55948     -2802.112    22257345.733    91140105.44946
     -2183.468  
  22752968.298   119567647.23148     -3147.284    22752969.991    93169595.62047
     -2452.433  
  23916181.743   125680392.17546      -665.938    23916184.288    97932779.43644
      -518.913  
  23133029.440   121564894.45248      3090.121    23133029.954    94725909.73045
      2407.883  
 20 09 28 05 30  5.0000000  0  7G13G15G18G 5G29G30G20
  20513740.695   107800435.19448      -326.784    20513740.129    84000337.94647
      -254.640  
  20446070.656   107444830.14749      1745.237    20446070.696    83723246.86448
      1359.922  
  20961579.382   110153844.31548      1889.730    20961580.012    85834166.40048
      1472.516  
  22260011.706   116977147.23648     -2802.948    22260011.920    91151023.63246
     -2184.121  
  22755963.705   119583388.60748     -3149.237    22755965.495    93181861.61847
     -2453.957  
  23916816.767   125683729.12446      -669.218    23916819.147    97935379.66945
      -521.472  
  23130089.582   121549445.08548      3089.261    23130090.155    94713871.27745
      2407.215  
 20 09 28 05 30 10.0000000  0  7G13G15G18G 5G29G30G20
  20514053.327   107802078.52548      -330.258    20514052.960    84001618.46847
      -257.348  
  20444411.672   107436112.06649      1742.094    20444411.776    83716453.55448
      1357.473  
  20959782.440   110144401.60648      1887.457    20959783.121    85826808.46348
      1470.741  
  22262679.235   116991165.59948     -2804.218    22262679.605    91161947.04746
     -2185.109  
  22758961.235   119599140.36448     -3151.426    22758963.009    93194135.71647
     -2455.659  
  23917454.789   125687082.57946      -672.265    23917457.288    97937992.75344
      -523.847  
  23127150.482   121534000.25648      3088.512    23127151.060    94701836.33245
      2406.629  
 20 09 28 05 30 15.0000000  0  7G13G15G18G 5G29G30G20
  20514369.211   107803738.00748      -333.641    20514368.742    84002911.57447
      -259.984  
  20442755.360   107427408.33349      1739.206    20442755.543    83709671.43048
      1355.223  
  20957987.592   110134969.71148      1885.323    20957988.175    85819458.93048
      1469.081  
  22265347.715   117005188.49348     -2805.159    22265347.811    91172873.96546
     -2185.843  
  22761960.291   119614900.41248     -3152.706    22761962.225    93206416.25447
     -2456.656  
  23918095.696   125690450.56546      -675.151    23918098.359    97940617.14144
      -526.101  
  23124211.768   121518557.92948      3087.922    23124212.442    94689803.36645
      2406.167  
 20 09 28 05 30 20.0000000  0  7G13G15G18G 5G29G30G20
  20514688.136   107805414.74848      -337.101    20514687.930    84004218.12647
      -262.680  
  20441102.093   107418720.04649      1736.159    20441102.240    83702901.33948
      1352.847  
  20956195.027   110125549.71548      1882.843    20956195.687    85812118.67648
      1467.148  
  22268017.167   117019216.99548     -2806.358    22268017.527    91183805.25646
     -2186.804  
  22764961.032   119630669.88147     -3154.879    22764963.093    93218704.15046
     -2458.351  
  23918739.649   125693834.12846      -678.374    23918742.017    97943253.69045
      -528.604  
  23121274.013   121503119.26947      3087.434    23121274.542    94677773.25145
      2405.788  
 20 09 28 05 30 25.0000000  0  7G13G15G18G 5G29G30G20
  20515010.488   107807108.03548      -340.445    20515010.039    84005537.57647
      -265.285  
  20439451.482   107410046.56149      1733.187    20439451.633    83696142.78348
      1350.531  
  20954404.541   110116140.96248      1880.569    20954405.383    85804787.18248
      1465.374  
  22270687.769   117033250.47748     -2807.296    22270688.018    91194740.44046
     -2187.507  
  22767963.690   119646448.08148     -3156.828    22767965.412    93230998.83347
     -2459.871  
  23919386.276   125697232.58146      -681.176    23919388.769    97945901.81445
      -530.792  
  23118336.661   121487683.63047      3086.425    23118337.130    94665745.48045
      2405.004  
 20 09 28 05 30 30.0000000  0  7G13G15G18G 5G29G30G20
  20515335.882   107808818.64549      -343.777    20515335.587    84006870.51447
      -267.882  
  20437803.920   107401388.68649      1730.128    20437804.179    83689396.39348
      1348.148  
  20952616.538   110106744.25148      1878.124    20952617.261    85797465.05848
      1463.472  
  22273359.302   117047289.79348     -2808.413    22273359.698    91205680.14746
     -2188.379  
  22770967.853   119662235.71948     -3158.141    22770969.689    93243300.87547
     -2460.890  
  23920035.936   125700646.75446      -683.937    23920038.695    97948562.21344
      -532.940  
  23115400.044   121472251.66348      3086.039    23115400.412    94653720.57845
      2404.702  
 20 09 28 05 30 35.0000000  0  7G13G15G18G 5G29G30G20
  20515664.698   107810546.80849      -347.398    20515664.537    84008217.13547
      -270.702  
  20436159.394   107392746.61549      1726.855    20436159.679    83682662.31548
      1345.598  
  20950830.631   110097359.84548      1875.637    20950831.347    85790152.53848
      1461.531  
  22276032.149   117061335.13348     -2809.605    22276032.362    91216624.57246
     -2189.305  
  22773974.108   119678033.10348     -3160.586    22773975.927    93255610.51447
     -2462.796  
  23920688.681   125704076.91947      -687.714    23920691.493    97951235.06144
      -535.886  
  23112464.193   121456823.69648      3085.284    23112464.495    94641698.80345
      2404.112  
 20 09 28 05 30 40.0000000  0  7G13G15G18G 5G29G30G20
  20515996.747   107812291.01448      -350.594    20515996.409    84009576.25547
      -273.191  
  20434517.557   107384118.79649      1723.976    20434517.845    83675939.34248
      1343.355  
  20949047.004   110087986.19748      1873.417    20949047.623    85782848.39448
      1459.804  
  22278705.581   117075384.95948     -2810.612    22278705.961    91227572.48146
     -2190.089  
  22776981.686   119693838.65748     -3162.176    22776983.665    93267926.54147
     -2464.035  
  23921344.287   125707521.43346      -690.531    23921347.001    97953919.10244
      -538.078  
  23109528.891   121441398.26748      3084.949    23109528.998    94629678.99545
      2403.852  
 20 09 28 05 30 45.0000000  0  7G13G15G18G 5G29G30G20
  20516331.854   107814052.10749      -353.980    20516331.481    84010948.53747
      -275.832  
  20432878.735   107375506.16449      1720.905    20432878.939    83669228.20248
      1340.960  
  20947265.483   110078624.17748      1871.315    20947266.123    85775553.32548
      1458.164  
  22281380.364   117089440.10048     -2811.637    22281380.519    91238524.53646
     -2190.890  
  22779991.179   119709653.21348     -3164.022    22779993.081    93280249.56447
     -2465.476  
  23922002.710   125710981.22146      -693.371    23922005.521    97956615.06745
      -540.293  
  23106594.184   121425976.21348      3084.094    23106594.186    94617661.80345
      2403.188  
 20 09 28 05 30 50.0000000  0  7G13G15G18G 5G29G30G20
  20516670.194   107815830.84749      -357.539    20516669.949    84012334.56647
      -278.604  
  20431242.791   107366909.43949      1717.691    20431242.962    83662529.46048
      1338.456  
  20945486.247   110069274.54348      1868.801    20945486.815    85768267.88748
      1456.207  
  22284056.085   117103501.23748     -2812.890    22284056.286    91249481.26346
     -2191.867  
  22783002.384   119725477.51348     -3165.734    22783004.476    93292580.16347
     -2466.809  
  23922664.157   125714457.02546      -696.703    23922666.877    97959323.46244
      -542.891  
  23103660.236   121410558.21447      3083.116    23103660.182    94605647.79945
      2402.425  
 20 09 28 05 30 55.0000000  0  7G13G15G18G 5G29G30G20
  20517011.950   107817626.44649      -360.628    20517011.594    84013733.73347
      -281.011  
  20429609.693   107358327.82549      1714.820    20429609.912    83655842.49048
      1336.219  
  20943709.272   110059936.50548      1866.687    20943709.959    85760991.49047
      1454.559  
  22286732.752   117117567.68648     -2813.495    22286733.068    91260442.11346
     -2192.335  
  22786015.334   119741310.76948     -3167.422    22786017.305    93304917.75447
     -2468.124  
  23923328.481   125717948.00746      -699.710    23923331.149    97962043.69945
      -545.234  
  23100726.834   121395143.51747      3082.563    23100726.959    94593636.36645
      2401.991  
 20 09 28 05 31  0.0000000  0  7G13G15G18G 5G29G30G20
  20517356.755   107819438.69049      -364.132    20517356.409    84015145.88047
      -283.741  
  20427979.631   107349761.16949      1711.827    20427979.801    83649167.17548
      1333.891  
  20941934.416   110050609.91948      1864.108    20941935.278    85753724.03148
      1452.550  
  22289410.556   117131639.20448     -2814.683    22289410.618    91271406.94846
     -2193.261  
  22789029.987   119757152.75048     -3169.315    22789032.114    93317262.14447
     -2469.602  
  23923995.625   125721454.06247      -702.844    23923998.323    97964775.66444
      -547.675  
  23097793.969   121379731.95847      3081.940    23097794.112    94581627.35045
      2401.507  
 20 09 28 05 31  5.0000000  0  7G13G15G18G 5G29G30G20
  20517704.991   107821268.58648      -367.641    20517704.642    84016571.77547
      -286.477  
  20426352.425   107341210.45749      1708.628    20426352.617    83642504.28648
      1331.394  
  20940162.012   110041295.77748      1861.769    20940162.819    85746466.26547
      1450.727  
  22292089.358   117145716.74448     -2816.000    22292089.646    91282376.46646
     -2194.288  
  22792046.517   119773004.41348     -3171.336    22792048.630    93329614.08347
     -2471.176  
  23924665.861   125724976.11046      -705.964    23924668.657    97967520.13543
      -550.104  
  23094862.073   121364324.52247      3080.870    23094862.064    94569621.57245
      2400.675  
 20 09 28 05 31 10.0000000  0  7G13G15G18G 5G29G30G20
  20518056.274   107823114.93748      -371.051    20518056.058    84018010.48547
      -289.132  
  20424728.087   107332674.50249      1705.750    20424728.134    83635852.89448
      1329.152  
  20938391.717   110031992.84948      1859.433    20938392.557    85739217.21348
      1448.906  
  22294769.270   117159799.06048     -2816.847    22294769.393    91293349.67546
     -2194.948  
  22795064.579   119788864.61848     -3173.082    22795066.633    93341972.67747
     -2472.535  
  23925338.741   125728512.96347      -709.120    23925341.569    97970276.12644
      -552.566  
  23091930.564   121348919.99847      3080.668    23091930.745    94557618.06145
      2400.515  
 20 09 28 05 31 15.0000000  0  7G13G15G18G 5G29G30G20
  20518410.987   107824978.68449      -374.477    20518410.633    84019462.75547
      -291.805  
  20423106.799   107324154.26549      1702.473    20423106.825    83629213.74948
      1326.597  
  20936623.881   110022702.18348      1857.078    20936624.499    85731977.74648
      1447.069  
  22297450.103   117173887.21448     -2818.297    22297450.343    91304327.46747
     -2196.077  
  22798084.514   119804734.26848     -3174.918    22798086.564    93354338.63447
     -2473.964  
  23926014.870   125732065.60946      -711.972    23926017.507    97973044.41644
      -554.785  
  23089000.045   121333519.35847      3079.905    23089000.041    94545617.56545
      2399.922  
 20 09 28 05 31 20.0000000  0  7G13G15G18G 5G29G30G20
  20518768.721   107826858.71149      -377.734    20518768.406    84020927.71047
      -294.340  
  20421488.164   107315648.65449      1699.633    20421488.453    83622586.00148
      1324.387  
  20934857.956   110013422.64948      1854.702    20934858.629    85724746.93148
      1445.218  
  22300131.919   117187980.02948     -2819.086    22300132.012    91315308.85946
     -2196.695  
  22801106.038   119820612.23548     -3176.581    22801108.152    93366711.06247
     -2475.261  
  23926693.636   125735632.91947      -714.882    23926696.294    97975824.15444
      -557.054  
  23086069.896   121318121.54247      3079.382    23086069.957    94533619.30045
      2399.520  
 20 09 28 05 31 25.0000000  0  7G13G15G18G 5G29G30G20
  20519129.712   107828755.23449      -381.097    20519129.356    84022405.52047
      -296.961  
  20419872.378   107307157.86249      1696.659    20419872.510    83615969.79748
      1322.069  
  20933094.316   110004154.41048      1852.570    20933094.938    85717524.94048
      1443.558  
  22302814.487   117202077.73848     -2820.039    22302814.856    91326294.09546
     -2197.437  
  22804129.088   119836498.75148     -3178.148    22804131.178    93379090.16047
     -2476.483  
  23927375.468   125739215.09847      -717.934    23927377.865    97978615.45045
      -559.434  
  23083140.321   121302726.73648      3078.523    23083140.419    94521623.33245
      2398.848  
 20 09 28 05 31 30.0000000  0  7G13G15G18G 5G29G30G20
  20519493.950   107830669.53449      -384.641    20519493.711    84023897.18247
      -299.723  
  20418259.840   107298683.19449      1693.344    20418260.002    83609366.15948
      1319.484  
  20931332.967   109994898.83548      1849.938    20931333.706    85710312.80548
      1441.508  
  22305498.403   117216181.68748     -2821.409    22305498.672    91337284.18646
     -2198.503  
  22807154.142   119852395.08148     -3180.184    22807155.944    93391476.91847
     -2478.066  
  23928060.162   125742813.44146      -721.102    23928062.575    97981419.37944
      -561.898  
  23080211.717   121287336.19748      3077.625    23080211.651    94509630.70445
      2398.144  
 20 09 28 05 31 35.0000000  0  7G13G15G18G 5G29G30G20
  20519861.420   107832600.97749      -387.839    20519861.244    84025402.20147
      -302.215  
  20416650.138   107290224.02949      1690.452    20416650.177    83602774.60248
      1317.234  
  20929574.097   109985655.28548      1847.667    20929574.895    85703110.04748
      1439.737  
  22308183.459   117230291.13248     -2822.327    22308183.518    91348278.55846
     -2199.218  
  22810180.747   119868300.52847     -3181.945    22810182.691    93403870.78247
     -2479.441  
  23928747.900   125746427.30846      -723.887    23928750.249    97984235.35344
      -564.069  
  23077283.693   121271949.35548      3077.030    23077283.599    94497640.94645
      2397.683  
 20 09 28 05 31 40.0000000  0  7G13G15G18G 5G29G30G20
  20520232.124   107834548.82349      -391.313    20520231.962    84026920.00847
      -304.921  
  20415043.113   107281779.59049      1687.496    20415043.269    83596194.52048
      1314.930  
  20927817.121   109976422.96848      1845.336    20927818.048    85695916.02248
      1437.922  
  22310869.281   117244405.34548     -2823.483    22310869.302    91359276.64447
     -2200.121  
  22813209.102   119884214.32548     -3183.461    22813211.162    93416271.11647
     -2480.621  
  23929438.335   125750055.94147      -727.270    23929440.631    97987062.84944
      -566.707  
  23074356.201   121256565.37448      3076.363    23074356.231    94485653.45745
      2397.168  
 20 09 28 05 31 45.0000000  0  7G13G15G18G 5G29G30G20
  20520606.063   107836513.66749      -394.555    20520605.852    84028451.05847
      -307.448  
  20413439.129   107273350.53249      1684.468    20413439.297    83589626.43048
      1312.570  
  20926062.622   109967202.54848      1843.051    20926063.398    85688731.27248
      1436.141  
  22313556.029   117258524.92548     -2824.281    22313556.082    91370278.90146
     -2200.742  
  22816239.154   119900137.11048     -3185.351    22816241.070    93428678.45947
     -2482.094  
  23930131.815   125753699.92547      -730.050    23930134.186    97989902.31044
      -568.874  
  23071429.283   121241184.94147      3075.707    23071429.385    94473668.72845
      2396.656  
 20 09 28 05 31 50.0000000  0  7G13G15G18G 5G29G30G20
  20520983.041   107838494.69948      -398.085    20520982.660    84029994.71147
      -310.198  
  20411837.999   107264936.03949      1681.144    20411838.011    83583069.68148
      1309.980  
  20924310.218   109957993.22748      1840.473    20924310.947    85681555.18448
      1434.133  
  22316243.951   117272649.08048     -2825.608    22316243.830    91381284.71946
     -2201.777  
  22819270.768   119916068.00248     -3187.168    22819272.724    93441092.13847
     -2483.511  
  23930828.170   125757358.48147      -733.293    23930830.383    97992753.15244
      -571.398  
  23068503.177   121225807.27747      3075.031    23068503.191    94461686.14245
      2396.125  
 20 09 28 05 31 55.0000000  0  7G13G15G18G 5G29G30G20
  20521363.441   107840493.65049      -401.551    20521363.140    84031552.33747
      -312.898  
  20410239.726   107256537.90049      1678.102    20410239.905    83576525.67148
      1307.609  
  20922560.101   109948796.76748      1838.148    20922560.949    85674389.11348
      1432.320  
  22318932.815   117286779.56148     -2826.519    22318932.850    91392295.49246
     -2202.484  
  22822304.056   119932008.88348     -3189.081    22822306.103    93453513.59946
     -2485.004  
  23931527.478   125761033.40347      -736.641    23931529.636    97995616.72545
      -574.008  
  23065577.792   121210434.14747      3074.543    23065577.828    94449707.08145
      2395.746  
 20 09 28 05 32  0.0000000  0  7G13G15G18G 5G29G30G20
  20521747.089   107842509.95648      -404.820    20521746.800    84033123.48547
      -315.448  
  20408644.693   107248155.44849      1674.988    20408644.702    83569993.89548
      1305.184  
  20920812.465   109939612.59748      1835.651    20920813.153    85667232.61748
      1430.375  
  22321622.825   117300915.81748     -2827.668    22321622.843    91403310.75346
     -2203.379  
  22825339.438   119947959.08148     -3190.827    22825341.360    93465942.31247
     -2486.363  
  23932229.666   125764723.98747      -739.308    23932232.019    97998492.49144
      -576.085  
  23062652.983   121195064.89347      3073.652    23062653.167    94437731.05245
      2395.051  
 20 09 28 05 32  5.0000000  0  7G13G15G18G 5G29G30G20
  20522133.968   107844542.39448      -407.996    20522133.614    84034707.20647
      -317.922  
  20407052.300   107239787.52349      1672.198    20407052.453    83563473.43348
      1303.008  
  20919066.930   109930439.47048      1833.628    20919067.535    85660084.72648
      1428.796  
  22324313.792   117315056.56848     -2828.397    22324313.805    91414329.51046
     -2203.949  
  22828376.178   119963917.32048     -3192.441    22828378.102    93478377.29347
     -2487.621  
  23932934.926   125768429.12247      -742.398    23932937.114    98001379.61244
      -578.496  
  23059728.911   121179698.35447      3073.120    23059729.000    94425757.14045
      2394.636  
 20 09 28 05 32 10.0000000  0  7G13G15G18G 5G29G30G20
  20522523.895   107846591.22549      -411.386    20522523.378    84036303.69447
      -320.563  
  20405462.765   107231434.42949      1669.168    20405462.890    83556964.53048
      1300.647  
  20917323.479   109921277.76048      1831.102    20917324.119    85652945.73048
      1426.828  
  22327005.711   117329202.16748     -2829.780    22327005.751    91425352.04846
     -2205.026  
  22831414.456   119979883.89048     -3194.284    22831416.309    93490818.77447
     -2489.055  
  23933642.862   125772149.06947      -745.464    23933645.101    98004278.26644
      -580.887  
  23056805.221   121164334.82347      3072.218    23056805.327    94413785.56445
      2393.934  
 20 09 28 05 32 15.0000000  0  7G13G15G18G 5G29G30G20
  20522917.061   107848657.94848      -414.960    20522916.792    84037914.12847
      -323.347  
  20403876.283   107223097.65649      1665.808    20403876.494    83550468.35048
      1298.031  
  20915582.504   109912128.90248      1828.495    20915583.126    85645816.75048
      1424.800  
  22329698.745   117343354.15548     -2831.038    22329698.661    91436379.56446
     -2206.007  
  22834454.791   119995860.30348     -3196.168    22834456.509    93503267.91647
     -2490.522  
  23934353.822   125775885.28447      -748.726    23934355.983    98007189.58245
      -583.430  
  23053882.465   121148975.76147      3071.508    23053882.659    94401817.47745
      2393.378  
 20 09 28 05 32 20.0000000  0  7G13G15G18G 5G29G30G20
  20523313.642   107850741.12149      -418.339    20523313.138    84039537.37847
      -325.979  
  20402292.652   107214775.77749      1662.804    20402292.785    83543983.76548
      1295.688  
  20913843.822   109902991.47448      1826.316    20913844.332    85638696.68048
      1423.102  
  22332392.549   117357510.94648     -2831.894    22332392.520    91447410.84146
     -2206.675  
  22837496.636   120011845.05548     -3198.015    22837498.372    93515723.55547
     -2491.965  
  23935067.630   125779636.33647      -751.897    23935069.917    98010112.49144
      -585.897  
  23050960.265   121133619.74747      3070.793    23050960.407    94389851.74945
      2392.823  
 20 09 28 05 32 25.0000000  0  7G13G15G18G 5G29G30G20
  20523713.265   107852841.46449      -421.898    20523712.904    84041174.01047
      -328.754  
  20400712.065   107206469.51549      1659.604    20400712.256    83537511.35748
      1293.194  
  20912107.411   109893866.25948      1823.563    20912107.998    85631586.11748
      1420.952  
  22335087.674   117371673.29448     -2833.219    22335087.593    91458446.43146
     -2207.706  
  22840540.008   120027838.92548     -3199.848    22840541.960    93528186.29147
     -2493.390  
  23935784.457   125783403.00847      -755.074    23935786.605    98013047.55444
      -588.371  
  23048038.844   121118267.54547      3070.081    23048039.170    94377889.02045
      2392.272  
 20 09 28 05 32 30.0000000  0  7G13G15G18G 5G29G30G20
  20524116.144   107854958.92049      -425.179    20524115.615    84042823.98347
      -331.313  
  20399134.329   107198178.80049      1656.698    20399134.655    83531051.06248
      1290.929  
  20910373.266   109884753.14448      1821.414    20910373.610    85624484.99648
      1419.280  
  22337783.763   117385841.09048     -2833.941    22337783.640    91469486.26346
     -2208.270  
  22843585.319   120043841.76648     -3201.276    22843587.244    93540656.03247
     -2494.504  
  23936504.150   125787185.14547      -758.081    23936506.328    98015994.66745
      -590.714  
  23045118.179   121102919.03347      3069.320    23045118.407    94365929.14044
      2391.676  
 20 09 28 05 32 35.0000000  0  7G13G15G18G 5G29G30G20
  20524522.226   107857092.83649      -428.488    20524521.709    84044486.77347
      -333.890  
  20397559.648   107189903.04849      1653.523    20397559.740    83524602.42448
      1288.456  
  20908641.231   109875651.55248      1819.132    20908641.665    85617392.84548
      1417.504  
  22340480.601   117400013.78648     -2835.055    22340480.431    91480529.92346
     -2209.137  
  22846632.116   120059852.98448     -3203.026    22846634.016    93553132.30247
     -2495.866  
  23937226.723   125790982.16947      -761.128    23937228.986    98018953.36144
      -593.094  
  23042197.910   121087573.60147      3068.772    23042198.097    94353971.67745
      2391.249  
 20 09 28 05 32 40.0000000  0  7G13G15G18G 5G29G30G20
  20524931.550   107859243.66349      -431.949    20524930.997    84046162.74047
      -336.585  
  20395987.659   107181642.62649      1650.558    20395987.766    83518165.73348
      1286.144  
  20906911.468   109866561.89448      1816.707    20906911.908    85610309.99748
      1415.612  
  22343178.595   117414191.77748     -2836.168    22343178.505    91491577.70846
     -2210.003  
  22849680.623   120075872.96248     -3204.852    22849682.535    93565615.38447
     -2497.289  
  23937952.138   125794794.49847      -764.148    23937954.547    98021924.00845
      -595.445  
  23039278.406   121072231.75647      3068.250    23039278.586    94342016.98845
      2390.839  
 20 09 28 05 32 45.0000000  0  7G13G15G18G 5G29G30G20
  20525344.100   107861411.37349      -435.300    20525343.451    84047851.86047
      -339.199  
  20394418.693   107173397.59349      1647.398    20394418.964    83511741.03448
      1283.684  
  20905184.189   109857484.20448      1814.382    20905184.602    85603236.46848
      1413.800  
  22345877.726   117428375.08748     -2837.262    22345877.550    91502629.62947
     -2210.855  
  22852730.885   120091901.72848     -3206.875    22852732.726    93578105.31347
     -2498.867  
  23938680.543   125798622.13547      -767.022    23938682.743    98024906.59644
      -597.683  
  23036359.680   121056893.49547      3067.277    23036360.011    94330065.10045
      2390.081  
 20 09 28 05 32 50.0000000  0  7G13G15G18G 5G29G30G20
  20525759.693   107863595.95649      -438.487    20525759.348    84049554.13647
      -341.684  
  20392852.595   107165167.91149      1644.472    20392852.847    83505328.29448
      1281.402  
  20903459.006   109848418.39948      1812.105    20903459.509    85596172.21948
      1412.027  
  22348577.616   117442563.57748     -2838.081    22348577.560    91513685.59346
     -2211.496  
  22855782.825   120107939.15748     -3208.183    22855784.625    93590602.01646
     -2499.886  
  23939411.584   125802464.97047      -770.097    23939414.126    98027901.02045
      -600.078  
  23033441.551   121041558.75147      3066.741    23033441.692    94318115.94645
      2389.667  
 20 09 28 05 32 55.0000000  0  7G13G15G18G 5G29G30G20
  20526178.719   107865797.26549      -442.054    20526178.152    84051269.44347
      -344.461  
  20391289.519   107156953.45349      1641.301    20391289.658    83498927.42248
      1278.933  
  20901736.094   109839364.40248      1809.551    20901736.582    85589117.15248
      1410.035  
  22351278.607   117456757.19348     -2839.516    22351278.516    91524745.55546
     -2212.613  
  22858836.286   120123985.17448     -3210.238    22858837.992    93603105.39047
     -2501.487  
  23940145.730   125806322.93646      -773.085    23940148.315    98030907.21444
      -602.405  
  23030524.160   121026227.35147      3066.101    23030524.328    94306169.42345
      2389.171  
 20 09 28 05 33  0.0000000  0  7G13G15G18G 5G29G30G20
  20526600.789   107868015.97449      -445.473    20526600.374    84052998.30947
      -347.124  
  20389729.296   107148754.92849      1638.219    20389729.386    83492538.96248
      1276.531  
  20900015.476   109830322.93348      1807.082    20900015.908    85582071.84248
      1408.112  
  22353980.577   117470956.61148     -2840.503    22353980.707    91535810.01546
     -2213.383  
  22861891.459   120140040.49348     -3211.945    22861893.290    93615616.01147
     -2502.815  
  23940882.912   125810196.75746      -776.098    23940885.315    98033925.76144
      -604.754  
  23027607.500   121010900.07347      3065.082    23027607.673    94294226.11145
      2388.374  
 20 09 28 05 33  5.0000000  0  7G13G15G18G 5G29G30G20
  20527026.275   107870251.48149      -448.706    20527025.783    84054740.25947
      -349.644  
  20388172.129   107140571.74249      1635.222    20388172.300    83486162.45548
      1274.194  
  20898297.329   109821293.38348      1804.792    20898297.642    85575035.83148
      1406.328  
  22356683.664   117485161.23848     -2841.206    22356683.568    91546878.55946
     -2213.930  
  22864948.372   120156104.40048     -3213.410    22864950.059    93628133.34546
     -2503.961  
  23941622.948   125814085.76646      -779.382    23941625.476    98036956.16144
      -607.315  
  23024691.376   120995576.30447      3064.625    23024691.507    94282285.52545
      2388.015  
 20 09 28 05 33 10.0000000  0  7G13G15G18G 5G29G30G20
  20527454.801   107872503.40249      -452.207    20527454.110    84056494.99947
      -352.370  
  20386617.811   107132403.49449      1632.022    20386617.911    83479797.58848
      1271.703  
  20896581.260   109812275.38048      1802.245    20896581.558    85568008.81648
      1404.343  
  22359387.572   117499370.65248     -2842.395    22359387.443    91557950.82146
     -2214.854  
  22868006.799   120172176.57448     -3215.461    22868008.544    93640657.11047
     -2505.558  
  23942365.852   125817989.66047      -782.507    23942368.404    98039998.13944
      -609.750  
  23021775.843   120980255.66447      3063.582    23021776.142    94270347.37545
      2387.202  
 20 09 28 05 33 15.0000000  0  7G13G15G18G 5G29G30G20
  20527886.761   107874773.02349      -455.390    20527886.105    84058263.53847
      -354.852  
  20385066.538   107124251.46649      1629.026    20385066.679    83473445.36548
      1269.366  
  20894867.681   109803270.21048      1799.957    20894867.932    85560991.80648
      1402.562  
  22362092.796   117513586.13847     -2843.323    22362092.538    91569027.82746
     -2215.581  
  22871067.104   120188258.24248     -3216.859    22871068.765    93653188.26447
     -2506.648  
  23943111.808   125821909.62247      -785.270    23943114.324    98043052.65144
      -611.901  
  23018861.263   120964939.41747      3063.175    23018861.466    94258412.63845
      2386.886  
 20 09 28 05 33 20.0000000  0  7G13G15G18G 5G29G30G20
  20528321.577   107877058.99749      -458.745    20528321.020    84060044.81947
      -357.469  
  20383518.087   107116114.33549      1626.039    20383518.135    83467104.74148
      1267.039  
  20893156.182   109794276.53948      1797.702    20893156.509    85553983.75348
      1400.805  
  22364798.743   117527806.35848     -2844.426    22364798.627    91580108.52746
     -2216.437  
  22874128.939   120204348.01147     -3218.554    22874130.424    93665725.74747
     -2507.968  
  23943860.640   125825844.32346      -788.402    23943863.044    98046118.65845
      -614.344  
  23015947.266   120949626.25647      3062.316    23015947.532    94246480.28545
      2386.219  
 20 09 28 05 33 25.0000000  0  7G13G15G18G 5G29G30G20
  20528759.814   107879361.22849      -462.069    20528759.126    84061838.75847
      -360.058  
  20381972.314   107107991.99449      1622.976    20381972.514    83460775.65048
      1264.652  
  20891446.947   109785294.28848      1795.312    20891447.283    85546984.59948
      1398.940  
  22367505.665   117542031.17748     -2845.348    22367505.477    91591192.78246
     -2217.156  
  22877192.116   120220445.80348     -3220.383    22877193.804    93678269.46446
     -2509.391  
  23944612.113   125829793.68347      -791.097    23944614.657    98049196.10843
      -616.437  
  23013033.855   120934316.02547      3061.847    23013034.063    94234550.27345
      2385.851  
 20 09 28 05 33 30.0000000  0  7G13G15G18G 5G29G30G20
  20529201.108   107881680.27749      -465.516    20529200.403    84063645.80747
      -362.742  
  20380429.776   107099885.02349      1619.741    20380429.839    83454458.53048
      1262.133  
  20889740.015   109776324.02048      1792.813    20889740.258    85539994.77448
      1396.991  
  22370213.539   117556261.24448     -2846.609    22370213.537    91602281.14446
     -2218.140  
  22880257.175   120236552.17248     -3222.229    22880258.670    93690819.89146
     -2510.832  
  23945366.610   125833758.31147      -794.652    23945368.962    98052285.42044
      -619.211  
  23010121.046   120919009.38847      3060.809    23010121.413    94222623.01945
      2385.042  
 20 09 28 05 33 35.0000000  0  7G13G15G18G 5G29G30G20
  20529645.637   107884016.63549      -469.000    20529645.106    84065466.35347
      -365.456  
  20378889.914   107091793.96249      1616.585    20378890.087    83448153.81348
      1259.676  
  20888035.370   109767366.27048      1790.270    20888035.687    85533014.71648
      1395.012  
  22372922.388   117570496.96648     -2847.703    22372922.337    91613373.91746
     -2218.992  
  22883323.755   120252667.62547     -3224.062    22883325.501    93703377.36247
     -2512.261  
  23946123.951   125837738.69847      -797.742    23946126.239    98055386.97044
      -621.628  
  23007208.995   120903706.80147      3060.026    23007209.206    94210698.92745
      2384.434  
 20 09 28 05 33 40.0000000  0  7G13G15G18G 5G29G30G20
  20530093.594   107886370.22949      -472.288    20530092.978    84067300.31347
      -368.020  
  20377353.281   107083718.71749      1613.562    20377353.503    83441861.41548
      1257.315  
  20886333.013   109758420.97748      1788.008    20886333.547    85526044.36248
      1393.250  
  22375632.576   117584738.28948     -2848.727    22375632.568    91624471.04646
     -2219.788  
  22886392.230   120268792.10247     -3225.784    22886393.731    93715941.87946
     -2513.601  
  23946884.374   125841734.68347      -800.578    23946886.785    98058500.74544
      -623.832  
  23004297.840   120888408.20347      3059.026    23004297.919    94198777.94145
      2383.656  
 20 09 28 05 33 45.0000000  0  7G13G15G18G 5G29G30G20
  20530544.391   107888739.61949      -475.511    20530543.797    84069146.59347
      -370.531  
  20375819.292   107075657.86049      1610.660    20375819.604    83435580.23248
      1255.059  
  20884632.925   109749486.67748      1785.777    20884633.360    85519082.56748
      1391.512  
  22378343.339   117598983.78548     -2849.565    22378343.319    91635571.43346
     -2220.445  
  22889462.086   120284924.11848     -3227.410    22889463.681    93728512.27947
     -2514.866  
  23947647.409   125845744.90147      -803.479    23947649.938    98061625.60644
      -626.093  
  23001387.071   120873112.13647      3058.831    23001387.151    94186858.95945
      2383.508  
 20 09 28 05 33 50.0000000  0  7G13G15G18G 5G29G30G20
  20530998.620   107891126.54649      -479.226    20530998.000    84071006.54247
      -373.425  
  20374288.550   107067613.16749      1607.397    20374288.628    83429311.64248
      1252.515  
  20882935.317   109740565.21448      1782.901    20882935.602    85512130.78548
      1389.269  
  22381055.405   117613235.19848     -2851.023    22381055.322    91646676.44446
     -2221.577  
  22892533.666   120301065.44147     -3229.300    22892535.163    93741089.92247
     -2516.339  
  23948413.699   125849771.12447      -806.766    23948415.920    98064762.89244
      -628.651  
  22998477.087   120857820.40947      3057.976    22998477.405    94174943.31645
      2382.836  
 20 09 28 05 33 55.0000000  0  7G13G15G18G 5G29G30G20
  20531456.089   107893530.25049      -482.190    20531455.415    84072879.54847
      -375.737  
  20372760.453   107059583.86649      1604.479    20372760.835    83423055.05248
      1250.241  
  20881239.792   109731655.76848      1780.801    20881240.295    85505188.34848
      1387.633  
  22383768.248   117627491.78548     -2851.495    22383768.248    91657785.45446
     -2221.948  
  22895606.940   120317215.26247     -3230.413    22895608.600    93753674.19547
     -2517.206  
  23949182.710   125853812.55347      -809.441    23949185.250    98067912.07744
      -630.737  
  22995567.852   120842532.24647      3057.542    22995568.069    94163030.47945
      2382.496  
 20 09 28 05 34  0.0000000  0  7G13G15G18G 5G29G30G20
  20531916.416   107895949.75149      -485.983    20531915.740    84074764.87847
      -378.690  
  20371235.226   107051568.93449      1601.085    20371235.507    83416809.65348
      1247.597  
  20879546.549   109722757.33748      1778.202    20879546.944    85498254.51248
      1385.609  
  22386482.060   117641752.49348     -2852.937    22386481.955    91668897.69346
     -2223.070  
  22898681.539   120333372.54548     -3232.292    22898683.210    93766264.27147
     -2518.671  
  23949954.555   125857868.15847      -812.929    23949956.944    98071072.25444
      -633.453  
  22992658.993   120827246.64947      3056.391    22992659.210    94151119.62345
      2381.602  
 20 09 28 05 34  5.0000000  0  7G13G15G18G 5G29G30G20
  20532380.363   107898387.37549      -489.223    20532379.731    84076664.31247
      -381.214  
  20369713.240   107043570.78049      1598.050    20369713.579    83410577.33248
      1245.229  
  20877855.773   109713872.31448      1775.750    20877856.240    85491331.11248
      1383.699  
  22389196.992   117656019.74447     -2853.897    22389197.094    91680015.01146
     -2223.820  
  22901758.026   120349539.69148     -3234.288    22901759.775    93778862.04047
     -2520.227  
  23950729.374   125861940.29447      -815.805    23950731.893    98074245.38344
      -635.691  
  22989751.078   120811965.98447      3056.050    22989751.427    94139212.64545
      2381.339  
 20 09 28 05 34 10.0000000  0  7G13G15G18G 5G29G30G20
  20532847.347   107900841.08148      -492.394    20532846.657    84078576.29347
      -383.688  
  20368194.108   107035587.31249      1595.234    20368194.369    83404356.45048
      1243.035  
  20876167.098   109704998.67448      1773.604    20876167.523    85484416.59748
      1382.026  
  22391912.837   117670291.48147     -2854.777    22391912.694    91691135.84746
     -2224.504  
  22904836.024   120365714.61348     -3235.769    22904837.524    93791465.87546
     -2521.383  
  23951506.951   125866026.99247      -819.063    23951509.435    98077429.79044
      -638.234  
  22986843.947   120796688.25147      3055.460    22986844.119    94127307.92445
      2380.875  
 20 09 28 05 34 15.0000000  0  7G13G15G18G 5G29G30G20
  20533317.369   107903311.78049      -495.730    20533316.763    84080501.51947
      -386.284  
  20366677.818   107027619.46549      1592.124    20366678.071    83398147.74348
      1240.612  
  20874480.896   109696137.33848      1771.112    20874481.233    85477511.65148
      1380.085  
  22394629.622   117684568.56547     -2855.858    22394629.564    91702260.85147
     -2225.348  
  22907915.728   120381898.22347     -3237.413    22907917.281    93804076.46447
     -2522.663  
  23952287.730   125870129.10347      -821.636    23952290.210    98080626.24344
      -640.237  
  22983937.406   120781414.30547      3054.469    22983937.710    94115406.16644
      2380.102  
 20 09 28 05 34 20.0000000  0  7G13G15G18G 5G29G30G20
  20533790.826   107905799.09349      -499.227    20533790.036    84082439.67947
      -389.011  
  20365164.394   107019666.93449      1588.937    20365164.685    83391950.96248
      1238.129  
  20872796.804   109687287.93948      1768.563    20872797.394    85470616.01548
      1378.098  
  22397347.396   117698850.62647     -2856.875    22397347.401    91713389.72146
     -2226.141  
  22910996.955   120398090.15147     -3239.230    22910998.515    93816693.54147
     -2524.077  
  23953071.160   125874246.27647      -824.862    23953073.580    98083834.45043
      -642.754  
  22981031.444   120766143.81147      3053.617    22981031.880    94103507.08945
      2379.441  
 20 09 28 05 34 25.0000000  0  7G13G15G18G 5G29G30G20
  20534267.317   107908303.57149      -502.503    20534266.736    84084391.22047
      -391.566  
  20363654.202   107011730.25849      1585.890    20363654.470    83385766.54348
      1235.753  
  20871115.340   109678451.03748      1766.172    20871115.743    85463730.12348
      1376.233  
  22400066.323   117713138.21447     -2857.969    22400066.232    91724522.91146
     -2226.992  
  22914079.716   120414290.92147     -3241.070    22914081.468    93829317.50046
     -2525.511  
  23953857.681   125878379.03347      -827.980    23953859.885    98087054.76844
      -645.184  
  22978126.433   120750877.34347      3053.090    22978126.736    94091611.13645
      2379.027  
 20 09 28 05 34 30.0000000  0  7G13G15G18G 5G29G30G20
  20534747.037   107910824.14448      -505.983    20534746.380    84086355.31247
      -394.276  
  20362146.698   107003808.33449      1582.773    20362146.947    83379593.61348
      1233.327  
  20869435.792   109669625.57548      1763.723    20869436.307    85456853.14548
      1374.324  
  22402785.979   117727430.25747     -2859.093    22402786.019    91735659.57846
     -2227.867  
  22917164.222   120430499.42047     -3242.495    22917165.834    93841947.49547
     -2526.625  
  23954646.824   125882526.35447      -831.183    23954649.175    98090286.40544
      -647.683  
  22975221.827   120735613.81947      3052.233    22975222.125    94079717.45844
      2378.358  
 20 09 28 05 34 35.0000000  0  7G13G15G18G 5G29G30G20
  20535229.810   107913361.78948      -509.117    20535229.170    84088332.69247
      -396.719  
  20360642.240   106995902.16449      1579.847    20360642.362    83373432.96548
      1231.046  
  20867758.716   109660812.54648      1761.382    20867759.061    85449985.85248
      1372.504  
  22405506.613   117741727.75448     -2860.027    22405506.784    91746800.46946
     -2228.598  
  22920250.281   120446716.61448     -3243.906    22920251.952    93854584.25647
     -2527.723  
  23955439.048   125886689.14247      -833.788    23955441.437    98093530.14944
      -649.707  
  22972318.159   120720354.19247      3051.820    22972318.235    94067826.85645
      2378.039  
 20 09 28 05 34 40.0000000  0  7G13G15G18G 5G29G30G20
  20535716.017   107915916.04049      -512.479    20535715.395    84090323.01847
      -399.339  
  20359140.631   106988011.28449      1576.676    20359140.945    83367284.22648
      1228.573  
  20866083.935   109652011.48048      1758.973    20866084.265    85443127.87348
      1370.624  
  22408228.368   117756030.23847     -2861.074    22408228.511    91757945.26546
     -2229.409  
  22923338.038   120462942.10447     -3245.882    22923339.476    93867227.49446
     -2529.262  
  23956233.936   125890866.96347      -837.022    23956236.383    98096785.60144
      -652.229  
  22969415.075   120705098.06847      3050.973    22969414.986    94055938.97745
      2377.378  
 20 09 28 05 34 45.0000000  0  7G13G15G18G 5G29G30G20
  20536205.255   107918487.19149      -515.898    20536204.531    84092326.50947
      -402.004  
  20357641.866   106980135.99949      1573.430    20357642.216    83361147.64648
      1226.047  
  20864411.428   109643222.71148      1756.444    20864411.919    85436279.49048
      1368.656  
  22410950.864   117770337.99047     -2862.085    22410951.196    91769094.17446
     -2230.199  
  22926427.300   120479176.10048     -3247.374    22926428.761    93879877.34946
     -2530.425  
  23957031.998   125895060.15547      -840.167    23957034.259    98100053.01944
      -654.680  
  22966512.536   120689845.71847      3050.102    22966512.708    94044054.03644
      2376.699  
 20 09 28 05 34 50.0000000  0  7G13G15G18G 5G29G30G20
  20536697.742   107921075.19848      -519.094    20536697.105    84094343.14147
      -404.491  
  20356146.356   106972276.26249      1570.452    20356146.672    83355023.17548
      1223.727  
  20862741.396   109634446.16348      1754.273    20862741.766    85429440.61748
      1366.965  
  22413674.526   117784650.92647     -2863.011    22413674.869    91780247.09746
     -2230.921  
  22929518.092   120495418.53847     -3248.938    22929519.493    93892533.79047
     -2531.645  
  23957832.776   125899268.58447      -843.019    23957835.124    98103332.30444
      -656.901  
  22963610.947   120674597.10847      3049.503    22963610.950    94032172.01444
      2376.234  
 20 09 28 05 34 55.0000000  0  7G13G15G18G 5G29G30G20
  20537193.439   107923680.00749      -522.824    20537192.585    84096372.86447
      -407.398  
  20354653.684   106964432.02849      1567.108    20354653.804    83348910.78748
      1221.120  
  20861073.457   109625681.80548      1751.495    20861074.041    85422611.25148
      1364.800  
  22416399.310   117798969.13947     -2864.262    22416399.586    91791404.13847
     -2231.895  
  22932610.603   120511669.35847     -3251.179    22932611.962    93905196.74446
     -2533.395  
  23958636.563   125903492.26147      -846.405    23958638.809    98106623.47844
      -659.539  
  22960709.948   120659352.16147      3048.488    22960709.663    94020292.82144
      2375.441  
 20 09 28 05 35  0.0000000  0  7G13G15G18G 5G29G30G20
  20537692.196   107926301.65349      -526.007    20537691.496    84098415.69347
      -409.879  
  20353163.855   106956603.36149      1564.211    20353164.112    83342810.52948
      1218.863  
  20859408.007   109616929.71048      1749.227    20859408.534    85415791.43448
      1363.030  
  22419124.890   117813292.53647     -2865.090    22419125.235    91802565.21846
     -2232.539  
  22935704.618   120527928.60648     -3252.695    22935706.115    93917866.28447
     -2534.569  
  23959443.244   125907731.17947      -849.195    23959445.416    98109926.52244
      -661.714  
  22957809.524   120644110.95547      3047.977    22957809.353    94008416.56945
      2375.043  
 20 09 28 05 35  5.0000000  0  7G13G15G18G 5G29G30G20
  20538194.187   107928939.41149      -529.409    20538193.567    84100471.09047
      -412.531  
  20351676.901   106948789.52149      1561.136    20351677.113    83336721.83048
      1216.469  
  20857744.828   109608189.14848      1746.793    20857745.199    85408980.60448
      1361.132  
  22421851.437   117827620.35247     -2866.464    22421851.648    91813729.73646
     -2233.613  
  22938800.156   120544195.52048     -3254.343    22938801.462    93930541.80646
     -2535.854  
  23960252.545   125911984.68147      -852.105    23960254.681    98113240.95445
      -663.980  
  22954909.862   120628872.78447      3047.034    22954909.531    93996542.68845
      2374.308  
 20 09 28 05 35 10.0000000  0  7G13G15G18G 5G29G30G20
  20538699.411   107931594.88149      -532.891    20538698.840    84102540.28747
      -415.241  
  20350193.175   106940992.14649      1557.835    20350193.307    83330645.95448
      1213.894  
  20856083.941   109599461.75148      1744.105    20856084.546    85402180.03948
      1359.038  
  22424579.095   117841954.23247     -2867.410    22424579.535    91824899.00546
     -2234.347  
  22941897.397   120560471.75748     -3255.956    22941898.792    93943224.57247
     -2537.113  
  23961065.104   125916254.30147      -855.444    23961067.145    98116567.91844
      -666.581  
  22952011.135   120613639.18547      3046.312    22952010.768    93984672.36345
      2373.746  
 20 09 28 05 35 15.0000000  0  7G13G15G18G 5G29G30G20
  20539208.078   107934267.10449      -535.996    20539207.294    84104622.54047
      -417.664  
  20348712.317   106933210.27949      1555.023    20348712.665    83324582.16148
      1211.702  
  20854425.525   109590746.59448      1741.941    20854426.105    85395389.00148
      1357.355  
  22427307.688   117856293.27247     -2868.269    22427308.133    91836072.25246
     -2235.019  
  22944996.319   120576756.38947     -3257.410    22944997.599    93955913.88847
     -2538.245  
  23961880.499   125920539.16446      -858.223    23961882.613    98119906.78044
      -668.750  
  22949112.976   120598409.35147      3045.542    22949112.478    93972804.97245
      2373.147  
 20 09 28 05 35 20.0000000  0  7G13G15G18G 5G29G30G20
  20539719.590   107936955.74249      -539.620    20539718.910    84106717.58447
      -420.487  
  20347234.308   106925443.63349      1551.586    20347234.713    83318530.22748
      1209.022  
  20852769.396   109582043.32648      1739.229    20852769.868    85388607.23748
      1355.242  
  22430037.235   117870637.07447     -2869.445    22430037.651    91847249.23546
     -2235.934  
  22948096.786   120593049.04548     -3259.499    22948098.100    93968609.45246
     -2539.875  
  23962698.572   125924838.88746      -861.703    23962700.974    98123257.20645
      -671.460  
  22946215.358   120583182.85647      3044.766    22946215.118    93960940.17644
      2372.543  
 20 09 28 05 35 25.0000000  0  7G13G15G18G 5G29G30G20
  20540234.540   107939661.19949      -542.637    20540233.702    84108825.73047
      -422.836  
  20345759.359   106917692.56749      1548.996    20345759.682    83312490.43848
      1207.008  
  20851115.534   109573352.37848      1737.151    20851116.080    85381835.06648
      1353.620  
  22432767.745   117884986.03447     -2870.128    22432768.123    91858430.25047
     -2236.469  
  22951198.765   120609350.02348     -3260.758    22951200.095    93981311.51247
     -2540.851  
  23963519.668   125929153.83847      -864.008    23963521.880    98126619.49143
      -673.257  
  22943318.704   120567960.12047      3044.508    22943318.335    93949078.30345
      2372.339  
 20 09 28 05 35 30.0000000  0  7G13G15G18G 5G29G30G20
  20540752.519   107942383.16249      -546.038    20540751.666    84110946.73447
      -425.488  
  20344287.260   106909956.78849      1545.707    20344287.582    83306462.56048
      1204.445  
  20849463.962   109564673.46448      1734.676    20849464.477    85375072.27748
      1351.690  
  22435499.060   117899339.91047     -2871.308    22435499.617    91869615.07246
     -2237.387  
  22954302.283   120625659.06148     -3262.609    22954303.568    93994019.83947
     -2542.296  
  23964343.624   125933483.78846      -867.374    23964345.786    98129993.49944
      -675.879  
  22940422.453   120552740.84147      3043.378    22940422.308    93937219.14845
      2371.461  
 20 09 28 05 35 35.0000000  0  7G13G15G18G 5G29G30G20
  20541273.548   107945121.90749      -549.620    20541272.838    84113080.81847
      -428.280  
  20342818.186   106902236.60049      1542.159    20342818.410    83300446.82948
      1201.680  
  20847814.683   109556006.85148      1731.929    20847815.337    85368319.07548
      1349.551  
  22438231.484   117913698.95747     -2872.785    22438231.816    91880803.94146
     -2238.535  
  22957407.334   120641976.39848     -3264.512    22957408.750    94006734.63547
     -2543.777  
  23965170.394   125937828.99547      -870.402    23965172.716    98133379.36044
      -678.238  
  22937527.112   120537525.31547      3042.430    22937526.774    93925362.88945
      2370.723  
 20 09 28 05 35 40.0000000  0  7G13G15G18G 5G29G30G20
  20541798.180   107947878.02249      -552.628    20541797.408    84115228.43747
      -430.625  
  20341352.157   106894532.59349      1539.352    20341352.426    83294443.71248
      1199.492  
  20846168.050   109547353.14548      1729.647    20846168.379    85361575.93148
      1347.773  
  22440965.052   117928063.70447     -2873.257    22440965.518    91891997.24246
     -2238.906  
  22960514.112   120658302.62748     -3265.820    22960515.588    94019456.36747
     -2544.797  
  23966000.457   125942190.03447      -873.601    23966002.647    98136777.56844
      -680.729  
  22934632.538   120522314.13547      3041.987    22934632.457    93913510.05245
      2370.378  
 20 09 28 05 35 45.0000000  0  7G13G15G18G 5G29G30G20
  20542325.510   107950649.82149      -556.175    20542324.926    84117388.28547
      -433.387  
  20339889.002   106886843.06949      1536.229    20339889.128    83288451.87548
      1197.058  
  20844523.347   109538710.66848      1727.112    20844523.861    85354841.52948
      1345.800  
  22443699.367   117942432.50247     -2874.390    22443699.688    91903193.71246
     -2239.789  
  22963622.413   120674636.01648     -3267.617    22963623.607    94032183.68447
     -2546.199  
  23966832.997   125946565.18947      -876.526    23966835.251    98140186.78744
      -683.011  
  22931738.386   120507105.63947      3040.917    22931738.292    93901659.27345
      2369.542  
 20 09 28 05 35 50.0000000  0  7G13G15G18G 5G29G30G20
  20542856.237   107953438.65349      -559.359    20542855.615    84119561.40047
      -435.867  
  20338428.692   106879169.40349      1533.188    20338429.000    83282472.39848
      1194.687  
  20842881.096   109530080.80448      1724.796    20842881.540    85348116.96948
      1343.995  
  22446434.613   117956806.69147     -2875.359    22446435.137    91914394.35546
     -2240.542  
  22966732.024   120690977.94848     -3269.069    22966733.356    94044917.65047
     -2547.331  
  23967668.400   125950955.85247      -879.624    23967670.973    98143608.08544
      -685.425  
  22928845.138   120491901.17447      3040.479    22928844.934    93889811.64545
      2369.203  
 20 09 28 05 35 55.0000000  0  7G13G15G18G 5G29G30G20
  20543390.202   107956244.27949      -562.898    20543389.469    84121747.59847
      -438.625  
  20336971.425   106871511.35149      1530.012    20336971.805    83276505.08148
      1192.214  
  20841241.345   109521463.29148      1722.168    20841241.901    85341402.01748
      1341.945  
  22449170.832   117971185.96247     -2876.301    22449171.290    91925598.97846
     -2241.277  
  22969843.536   120707328.17748     -3271.007    22969844.835    94057658.07447
     -2548.839  
  23968506.864   125955361.73047      -882.824    23968509.280    98147041.21844
      -687.918  
  22925952.472   120476700.51847      3039.714    22925952.271    93877966.98745
      2368.604  
 20 09 28 05 36  0.0000000  0  7G13G15G18G 5G29G30G20
  20543927.215   107959066.64649      -565.897    20543926.487    84123946.84747
      -440.964  
  20335517.005   106863868.82049      1527.151    20335517.297    83270549.86548
      1189.983  
  20839603.855   109512858.06748      1720.082    20839604.229    85334696.64948
      1340.320  
  22451908.220   117985570.34747     -2877.070    22451908.642    91936807.57146
     -2241.874  
  22972956.342   120723686.58248     -3272.479    22972957.600    94070404.88646
     -2549.987  
  23969348.212   125959782.79347      -885.363    23969350.591    98150486.21444
      -689.897  
  22923060.569   120461503.55747      3039.491    22923060.524    93866125.20245
      2368.434  
 20 09 28 05 36  5.0000000  0  7G13G15G18G 5G29G30G20
  20544467.459   107961905.24449      -569.586    20544466.676    84126158.73647
      -443.835  
  20334065.646   106856241.38049      1523.917    20334065.965    83264606.40448
      1187.464  
  20837968.476   109504264.71348      1717.430    20837969.005    85328000.52448
      1338.254  
  22454646.388   117999959.32647     -2878.479    22454646.718    91948019.78546
     -2242.977  
  22976070.706   120740052.70548     -3274.315    22976072.049    94083157.69347
     -2551.418  
  23970192.379   125964218.57547      -888.718    23970194.648    98153942.64245
      -692.512  
  22920169.244   120446309.91547      3038.155    22920169.302    93854286.00745
      2367.391  
 20 09 28 05 36 10.0000000  0  7G13G15G18G 5G29G30G20
  20545010.743   107964760.96849      -572.871    20545010.064    84128383.97647
      -446.395  
  20332617.146   106848629.95749      1520.680    20332617.552    83258675.42848
      1184.940  
  20836335.748   109495684.10848      1714.858    20836336.225    85321314.34448
      1336.249  
  22457385.495   118014353.80747     -2879.437    22457386.003    91959236.25846
     -2243.723  
  22979186.793   120756427.44748     -3275.769    22979188.242    94095917.23147
     -2552.550  
  23971039.399   125968669.91547      -891.968    23971041.802    98157411.22344
      -695.042  
  22917278.890   120431120.41147      3037.359    22917278.947    93842450.05044
      2366.770  
 20 09 28 05 36 15.0000000  0  7G13G15G18G 5G29G30G20
  20545557.455   107967633.18149      -576.237    20545556.842    84130622.06547
      -449.020  
  20331171.686   106841033.88849      1517.633    20331172.084    83252756.41348
      1182.566  
  20834705.117   109487115.61748      1712.414    20834705.634    85314637.59448
      1334.344  
  22460125.743   118028753.16047     -2880.473    22460126.033    91970456.53846
     -2244.526  
  22982304.370   120772810.14748     -3277.430    22982305.612    94108682.96547
     -2553.844  
  23971889.456   125973136.24847      -894.879    23971891.677    98160891.47443
      -697.312  
  22914389.110   120415934.45047      3036.866    22914388.995    93830616.83345
      2366.387  
 20 09 28 05 36 20.0000000  0  7G13G15G18G 5G29G30G20
  20546107.225   107970522.36748      -579.715    20546106.566    84132873.37547
      -451.729  
  20329729.253   106833453.72749      1514.270    20329729.536    83246849.79348
      1179.944  
  20833076.974   109478559.79348      1709.715    20833077.498    85307970.71248
      1332.241  
  22462866.708   118043157.87147     -2881.375    22462867.046    91981680.96546
     -2245.230  
  22985423.489   120789201.31748     -3279.272    22985424.920    94121455.29046
     -2555.280  
  23972742.326   125977618.04547      -898.102    23972744.376    98164383.79244
      -699.823  
  22911500.053   120400752.60347      3035.750    22911499.969    93818786.82045
      2365.516  
 20 09 28 05 36 25.0000000  0  7G13G15G18G 5G29G30G20
  20546660.229   107973428.32949      -582.745    20546659.439    84135137.76447
      -454.090  
  20328289.897   106825889.23449      1511.397    20328290.167    83240955.38148
      1177.710  
  20831451.310   109470016.40148      1707.495    20831451.777    85301313.53148
      1330.512  
  22465608.833   118057567.70747     -2882.491    22465609.257    91992909.42446
     -2246.101  
  22988544.094   120805600.71248     -3280.694    22988545.684    94134234.04647
     -2556.390  
  23973598.037   125982115.09047      -900.882    23973600.182    98167887.98544
      -701.988  
  22908611.770   120385574.57547      3035.590    22908611.677    93806959.80644
      2365.390  
 20 09 28 05 36 30.0000000  0  7G13G15G18G 5G29G30G20
  20547216.285   107976350.70349      -586.188    20547215.501    84137414.93447
      -456.772  
  20326853.376   106818340.02049      1508.148    20326853.486    83235072.88448
      1175.176  
  20829827.908   109461485.08448      1704.988    20829828.261    85294665.75348
      1328.558  
  22468351.919   118071982.31547     -2883.379    22468352.213    92004141.58646
     -2246.793  
  22991666.253   120822007.89348     -3282.370    22991667.673    94147018.85347
     -2557.694  
  23974456.608   125986627.00447      -903.961    23974458.921    98171403.75244
      -704.387  
  22905724.246   120370400.00347      3034.554    22905724.114    93795135.47145
      2364.586  
 20 09 28 05 36 35.0000000  0  7G13G15G18G 5G29G30G20
  20547775.751   107979290.58949      -589.355    20547774.995    84139705.75147
      -459.242  
  20325419.911   106810807.23449      1505.323    20325420.204    83229203.17648
      1172.976  
  20828206.796   109452966.99348      1702.605    20828207.421    85288028.28248
      1326.702  
  22471095.955   118086402.82447     -2884.245    22471096.412    92015378.34347
     -2247.468  
  22994790.298   120838424.04448     -3283.914    22994791.576    94159810.64947
     -2558.897  
  23975318.056   125991154.91347      -906.831    23975320.563    98174931.97244
      -706.628  
  22902837.490   120355230.03147      3034.020    22902837.302    93783314.70845
      2364.167  
 20 09 28 05 36 40.0000000  0  7G13G15G18G 5G29G30G20
  20548338.256   107982246.16549      -592.745    20548337.392    84142008.79747
      -461.883  
  20323989.303   106803289.05649      1502.188    20323989.375    83223344.85848
      1170.530  
  20826588.153   109444460.27848      1700.249    20826588.525    85281399.67348
      1324.867  
  22473840.963   118100827.34347     -2885.301    22473841.344    92026618.22447
     -2248.289  
  22997915.505   120854847.27648     -3285.289    22997916.750    94172607.96547
     -2559.969  
  23976182.405   125995696.97047      -909.737    23976184.874    98178471.24144
      -708.891  
  22899951.091   120340062.83747      3033.102    22899951.156    93771496.14044
      2363.452  
 20 09 28 05 36 45.0000000  0  7G13G15G18G 5G29G30G20
  20548903.803   107985218.13949      -596.269    20548902.978    84144324.62247
      -464.629  
  20322561.540   106795786.17549      1498.890    20322561.731    83217498.45748
      1167.964  
  20824971.615   109435965.68648      1697.507    20824972.104    85274780.50948
      1322.730  
  22476586.728   118115256.62347     -2886.601    22476587.005    92037861.81146
     -2249.304  
  23001042.204   120871278.28148     -3287.172    23001043.595    94185411.34247
     -2561.437  
  23977049.586   126000253.91347      -912.727    23977052.034    98182022.11644
      -711.219  
  22897065.685   120324899.14547      3032.012    22897065.601    93759680.27445
      2362.602  
 20 09 28 05 36 50.0000000  0  7G13G15G18G 5G29G30G20
  20549472.608   107988207.38549      -599.504    20549471.735    84146653.89747
      -467.148  
  20321136.816   106788299.48049      1495.933    20321137.000    83211664.67248
      1165.659  
  20823357.743   109427484.07848      1695.059    20823358.123    85268171.46648
      1320.819  
  22479333.616   118129691.52747     -2887.519    22479333.899    92049109.78746
     -2250.019  
  23004170.424   120887717.97247     -3288.828    23004171.908    94198221.48047
     -2562.726  
  23977919.844   126004826.58747      -915.809    23977922.154    98185585.23943
      -713.620  
  22894180.872   120309739.87947      3031.508    22894180.738    93747867.86745
      2362.211  
 20 09 28 05 36 55.0000000  0  7G13G15G18G 5G29G30G20
  20550044.454   107991212.83149      -602.762    20550043.661    84148995.80947
      -469.687  
  20319714.943   106780827.95649      1492.753    20319715.210    83205842.71248
      1163.183  
  20821745.951   109419014.42848      1692.800    20821746.347    85261571.73248
      1319.063  
  22482081.459   118144131.03947     -2888.531    22482081.764    92060361.33547
     -2250.809  
  23007300.373   120904165.24448     -3290.289    23007301.708    94211037.51847
     -2563.862  
  23978792.736   126009413.94747      -919.011    23978794.988    98189159.78444
      -716.117  
  22891296.820   120294583.89747      3030.898    22891296.871    93736058.00845
      2361.733  
 20 09 28 05 37  0.0000000  0  7G13G15G18G 5G29G30G20
  20550619.727   107994235.40949      -606.285    20550619.013    84151351.05847
      -472.433  
  20318296.326   106773372.48149      1489.519    20318296.597    83200033.25848
      1160.660  
  20820136.630   109410557.63848      1690.081    20820137.252    85254982.03548
      1316.944  
  22484830.050   118158575.97847     -2889.659    22484830.665    92071617.12746
     -2251.687  
  23010431.688   120920620.94948     -3291.921    23010433.223    94223860.14146
     -2565.136  
  23979668.669   126014016.88047      -922.309    23979671.084    98192746.50144
      -718.683  
  22888413.663   120279432.17947      3030.023    22888413.452    93724251.48445
      2361.055  
 20 09 28 05 37  5.0000000  0  7G13G15G18G 5G29G30G20
  20551198.034   107997274.59249      -609.570    20551197.282    84153719.25447
      -474.991  
  20316880.545   106765932.59549      1486.191    20316880.672    83194235.93848
      1158.066  
  20818529.783   109402113.22648      1687.648    20818530.127    85248401.97348
      1315.047  
  22487579.801   118173025.86247     -2890.367    22487580.242    92082876.77646
     -2252.238  
  23013564.748   120937084.63548     -3293.624    23013565.975    94236688.98746
     -2566.464  
  23980547.388   126018634.89447      -925.386    23980549.684    98196344.94244
      -721.081  
  22885531.107   120264284.24947      3029.254    22885530.839    93712447.91645
      2360.453  
 20 09 28 05 37 10.0000000  0  7G13G15G18G 5G29G30G20
  20551779.558   108000330.08249      -612.766    20551778.752    84156100.15147
      -477.483  
  20315467.618   106758507.98549      1483.453    20315467.915    83188450.52848
      1155.934  
  20816925.032   109393680.95248      1685.265    20816925.671    85241831.36848
      1313.191  
  22490330.571   118187480.50547     -2891.395    22490331.012    92094140.12847
     -2253.038  
  23016699.269   120953556.02647     -3294.949    23016700.441    94249523.82047
     -2567.496  
  23981428.985   126023267.71647      -927.809    23981431.261    98199954.94543
      -722.973  
  22882649.061   120249139.77247      3028.801    22882649.116    93700647.02245
      2360.101  
 20 09 28 05 37 15.0000000  0  7G13G15G18G 5G29G30G20
  20552363.956   108003401.86549      -616.098    20552363.142    84158493.75947
      -480.078  
  20314057.740   106751098.68449      1480.257    20314058.087    83182677.04948
      1153.445  
  20815322.764   109385260.79248      1682.620    20815323.412    85235270.19948
      1311.129  
  22493082.032   118201939.78447     -2892.280    22493082.499    92105407.10046
     -2253.729  
  23019835.081   120970035.08148     -3296.526    23019836.387    94262364.62147
     -2568.727  
  23982313.494   126027915.37147      -931.250    23982315.823    98203576.48544
      -725.652  
  22879767.815   120233998.81647      3027.784    22879767.727    93688848.87545
      2359.308  
 20 09 28 05 37 20.0000000  0  7G13G15G18G 5G29G30G20
  20552951.957   108006491.32849      -619.542    20552951.171    84160901.13747
      -482.765  
  20312651.102   106743706.06749      1476.948    20312651.204    83176916.56948
      1150.867  
  20813723.162   109376854.10648      1680.116    20813723.583    85228719.53948
      1309.180  
  22495834.867   118216405.08847     -2893.469    22495835.034    92116678.77046
     -2254.652  
  23022972.641   120986523.13448     -3298.499    23022974.083    94275212.43247
     -2570.266  
  23983201.026   126032579.16546      -934.456    23983203.356    98207210.59544
      -728.151  
  22876887.464   120218862.66047      3027.250    22876887.517    93677054.48744
      2358.895  
 20 09 28 05 37 25.0000000  0  7G13G15G18G 5G29G30G20
  20553542.822   108009596.93949      -622.519    20553542.146    84163321.08447
      -485.081  
  20311247.124   106736328.58149      1474.202    20311247.248    83171167.88348
      1148.727  
  20812125.638   109368459.40548      1677.815    20812126.208    85222178.21448
      1307.387  
  22498588.229   118230874.88847     -2894.077    22498588.511    92127953.92546
     -2255.129  
  23026111.538   121003018.61848     -3299.641    23026113.185    94288066.05847
     -2571.152  
  23984091.254   126037257.56747      -937.000    23984093.785    98210856.13044
      -730.128  
  22874007.750   120203729.84547      3026.425    22874007.724    93665262.68445
      2358.250  
 20 09 28 05 37 30.0000000  0  7G13G15G18G 5G29G30G20
  20554136.915   108012718.54649      -626.030    20554136.054    84165753.50647
      -487.819  
  20309846.185   106728966.09549      1470.805    20309846.205    83165430.87848
      1146.077  
  20810530.419   109360076.53648      1675.276    20810531.031    85215646.10648
      1305.406  
  22501342.711   118245349.00647     -2895.628    22501343.034    92139232.45246
     -2256.335  
  23029251.991   121019521.43548     -3301.523    23029253.488    94300925.38947
     -2572.617  
  23984984.313   126041950.49447      -940.512    23984986.775    98214512.92944
      -732.874  
  22871128.792   120188600.22547      3025.378    22871128.692    93653473.37545
      2357.433  
 20 09 28 05 37 35.0000000  0  7G13G15G18G 5G29G30G20
  20554734.247   108015857.66949      -629.477    20554733.379    84168199.57547
      -490.504  
  20308448.297   106721620.14249      1467.640    20308448.357    83159706.76748
      1143.612  
  20808937.849   109351707.02148      1672.765    20808938.289    85209124.40648
      1303.449  
  22504097.962   118259828.97747     -2896.484    22504098.493    92150515.53546
     -2257.004  
  23032394.161   121036033.02548     -3303.065    23032395.493    94313791.56047
     -2573.820  
  23985880.417   126046659.37047      -943.379    23985882.861    98218182.19344
      -735.105  
  22868250.580   120173475.30847      3024.625    22868250.297    93641687.73445
      2356.848  
 20 09 28 05 37 40.0000000  0  7G13G15G18G 5G29G30G20
  20555334.791   108019013.14649      -632.836    20555333.891    84170658.38347
      -493.121  
  20307053.259   106714289.57749      1464.398    20307053.443    83153994.64148
      1141.085  
  20807347.368   109343349.73748      1670.089    20807347.981    85202612.23548
      1301.367  
  22506854.370   118274313.71847     -2897.573    22506854.921    92161802.33247
     -2257.852  
  23035537.663   121052552.26848     -3304.679    23035538.989    94326663.68247
     -2575.077  
  23986779.374   126051383.10647      -946.336    23986781.857    98221863.02544
      -737.406  
  22865372.906   120158353.93847      3024.039    22865372.738    93629904.86445
      2356.390  
 20 09 28 05 37 45.0000000  0  7G13G15G18G 5G29G30G20
  20555938.231   108022184.80549      -636.000    20555937.339    84173129.80947
      -495.585  
  20305661.259   106706974.19149      1461.675    20305661.456    83148294.34248
      1138.965  
  20805759.361   109335004.48948      1667.957    20805759.889    85196109.45148
      1299.703  
  22509611.764   118288803.08047     -2898.198    22509612.083    92173092.73246
     -2258.339  
  23038682.643   121069079.00048     -3306.152    23038683.926    94339541.64147
     -2576.227  
  23987680.971   126056121.49847      -949.144    23987683.401    98225555.25845
      -739.597  
  22862496.227   120143236.01147      3023.347    22862495.991    93618124.65745
      2355.851  
 20 09 28 05 37 50.0000000  0  7G13G15G18G 5G29G30G20
  20556544.894   108025372.56049      -639.207    20556543.941    84175613.77547
      -498.085  
  20304271.924   106699673.96649      1458.426    20304272.155    83142605.85948
      1136.433  
  20804173.634   109326671.27848      1665.253    20804174.224    85189616.04348
      1297.597  
  22512369.719   118303296.82647     -2899.133    22512370.205    92184386.56147
     -2259.065  
  23041828.960   121085613.13248     -3307.718    23041830.326    94352425.37547
     -2577.445  
  23988585.395   126060874.49947      -952.280    23988587.753    98229258.89744
      -742.038  
  22859619.892   120128121.42247      3022.566    22859619.980    93606347.06145
      2355.241  
 20 09 28 05 37 55.0000000  0  7G13G15G18G 5G29G30G20
  20557154.970   108028578.09648      -642.784    20557153.949    84178111.59347
      -500.875  
  20302886.017   106692390.57349      1455.027    20302886.264    83136930.49148
      1133.785  
  20802590.383   109318351.73748      1662.688    20802591.005    85183133.27648
      1295.598  
  22515128.953   118317796.72547     -2900.570    22515129.504    92195685.18046
     -2260.188  
  23044976.971   121102156.29347     -3309.477    23044978.412    94365316.13647
     -2578.816  
  23989492.895   126065643.75347      -955.379    23989495.401    98232975.18644
      -744.452  
  22856744.521   120113011.84347      3021.418    22856744.692    93594573.36345
      2354.348  
 20 09 28 05 38  0.0000000  0  7G13G15G18G 5G29G30G20
  20557768.099   108031800.07849      -645.961    20557767.140    84180622.22747
      -503.347  
  20301502.943   106685122.65849      1452.171    20301503.302    83131267.18048
      1131.558  
  20801009.609   109310044.59048      1660.320    20801010.223    85176660.17548
      1293.753  
  22517889.157   118332301.38447     -2901.257    22517889.571    92206987.50447
     -2260.722  
  23048126.482   121118707.17848     -3310.852    23048127.726    94378212.92647
     -2579.886  
  23990403.220   126070427.95247      -958.258    23990405.746    98236703.11844
      -746.699  
  22853869.898   120097905.97247      3020.609    22853870.151    93582802.56545
      2353.719  
 20 09 28 05 38  5.0000000  0  7G13G15G18G 5G29G30G20
  20558384.284   108035038.62249      -649.128    20558383.254    84183145.76747
      -505.816  
  20300122.931   106677870.36449      1449.081    20300123.275    83125616.04448
      1129.152  
  20799431.127   109301749.92548      1657.847    20799431.632    85170196.79548
      1291.823  
  22520650.197   118346810.96947     -2902.132    22520650.615    92218293.67747
     -2261.405  
  23051277.345   121135265.85948     -3312.194    23051278.787    94391115.77347
     -2580.934  
  23991316.645   126075227.22047      -961.476    23991318.878    98240442.80144
      -749.206  
  22850996.077   120082803.91047      3020.155    22850996.283    93571034.74345
      2353.367  
 20 09 28 05 38 10.0000000  0  7G13G15G18G 5G29G30G20
  20559003.517   108038292.77649      -652.526    20559002.575    84185681.47147
      -508.465  
  20298745.573   106670632.73549      1446.004    20298745.941    83119976.33948
      1126.754  
  20797854.925   109293466.83148      1655.352    20797855.489    85163742.44248
      1289.883  
  22523412.178   118361324.55747     -2903.272    22523412.378    92229602.94747
     -2262.292  
  23054429.754   121151831.40847     -3313.906    23054431.050    94404023.98346
     -2582.269  
  23992232.514   126080040.58347      -964.050    23992235.018    98244193.49244
      -751.211  
  22848122.801   120067704.71147      3019.257    22848123.173    93559269.12045
      2352.664  
 20 09 28 05 38 15.0000000  0  7G13G15G18G 5G29G30G20
  20559626.148   108041564.56549      -655.827    20559625.045    84188230.91247
      -511.038  
  20297371.453   106663411.84049      1442.647    20297371.789    83114349.66948
      1124.136  
  20796281.415   109285197.32648      1652.765    20796281.823    85157298.66748
      1287.866  
  22526175.250   118375844.12947     -2904.300    22526175.362    92240916.90247
     -2263.093  
  23057583.691   121168405.80348     -3315.386    23057585.278    94416939.08346
     -2583.422  
  23993151.649   126084870.04647      -966.996    23993154.042    98247956.71043
      -753.507  
  22845250.461   120052610.40147      3018.800    22845250.826    93547507.34145
      2352.308  
 20 09 28 05 38 20.0000000  0  7G13G15G18G 5G29G30G20
  20560251.835   108044852.75948      -659.281    20560250.951    84190793.14047
      -513.730  
  20296000.373   106656206.45749      1439.563    20296000.780    83108735.08348
      1121.734  
  20794710.155   109276940.23748      1650.258    20794710.559    85150864.57348
      1285.909  
  22528939.078   118390368.48847     -2905.214    22528939.346    92252234.58346
     -2263.808  
  23060739.146   121184987.86148     -3317.155    23060740.742    94429860.14746
     -2584.800  
  23994073.440   126089714.46247      -970.538    23994076.008    98251731.57144
      -756.266  
  22842378.704   120037519.83747      3017.776    22842379.233    93535748.46145
      2351.512  
 20 09 28 05 38 25.0000000  0  7G13G15G18G 5G29G30G20
  20560880.570   108048156.75549      -662.605    20560879.543    84193367.68547
      -516.319  
  20294632.148   106649016.01049      1436.383    20294632.476    83103132.14048
      1119.258  
  20793140.997   109268694.94148      1647.570    20793141.509    85144439.67248
      1283.816  
  22531703.885   118404897.05147     -2906.164    22531704.052    92263555.52747
     -2264.546  
  23063895.956   121201576.91548     -3318.772    23063897.419    94442786.68346
     -2586.059  
  23994998.046   126094573.17357      -973.512    23995000.675    98255517.58454
      -758.581  
  22839507.697   120022432.37847      3017.000    22839508.350    93523992.01845
      2350.905  
 20 09 28 05 38 30.0000000  0  7G13G15G18G 5G29G30G20
  20561512.538   108051477.73949      -665.980    20561511.574    84195955.46247
      -518.948  
  20293266.774   106641841.61049      1433.128    20293267.112    83097541.70148
      1116.718  
  20791574.516   109260462.62248      1644.999    20791574.876    85138024.88148
      1281.815  
  22534469.468   118419430.94347     -2907.155    22534469.704    92274880.63146
     -2265.319  
  23067054.415   121218174.10448     -3320.246    23067055.725    94455719.54046
     -2587.207  
  23995925.532   126099447.36847      -976.421    23995928.253    98259315.64444
      -760.852  
  22836637.426   120007349.21947      3016.159    22836637.955    93512238.91745
      2350.250  
 20 09 28 05 38 35.0000000  0  7G13G15G18G 5G29G30G20
  20562147.743   108054815.57349      -669.277    20562146.780    84198556.37147
      -521.520  
  20291904.636   106634683.21449      1430.136    20291904.906    83091963.72748
      1114.390  
  20790010.483   109252243.19948      1642.664    20790010.945    85131620.12848
      1279.995  
  22537236.360   118433970.02847     -2908.375    22537236.387    92286209.79747
     -2266.270  
  23070214.252   121234779.31748     -3321.867    23070215.536    94468658.65946
     -2588.473  
  23996855.867   126104336.90447      -979.331    23996858.716    98263125.66844
      -763.116  
  22833767.924   119992270.26147      3015.003    22833768.783    93500489.07445
      2349.352  
 20 09 28 05 38 40.0000000  0  7G13G15G18G 5G29G30G20
  20562785.975   108058169.35148      -672.429    20562784.923    84201169.70847
      -523.972  
  20290545.171   106627539.92749      1427.000    20290545.638    83086397.53548
      1111.944  
  20788448.553   109244035.82848      1640.250    20788449.005    85125224.77748
      1278.113  
  22540003.846   118448513.48647     -2909.144    22540004.038    92297542.36247
     -2266.866  
  23073375.396   121251391.70848     -3323.375    23073376.838    94481603.37946
     -2589.645  
  23997789.087   126109240.97747      -982.285    23997791.738    98266946.98744
      -765.422  
  22830899.007   119977194.62347      3014.913    22830899.781    93488741.83545
      2349.281  
 20 09 28 05 38 45.0000000  0  7G13G15G18G 5G29G30G20
  20563427.265   108061539.35149      -675.808    20563426.220    84203795.68247
      -526.604  
  20289188.952   106620412.00749      1423.828    20289189.302    83080843.31448
      1109.472  
  20786889.084   109235840.72848      1637.550    20786889.484    85118838.98648
      1276.011  
  22542772.225   118463061.50847     -2909.969    22542772.416    92308878.47446
     -2267.511  
  23076538.089   121268011.52548     -3324.832    23076539.359    94494553.87546
     -2590.781  
  23998725.197   126114159.76647      -985.472    23998727.840    98270779.82644
      -767.902  
  22828030.864   119962122.58847      3013.836    22828031.760    93476997.39345
      2348.440  
 20 09 28 05 38 50.0000000  0  7G13G15G18G 5G29G30G20
  20564071.795   108064926.84649      -679.030    20564070.953    84206435.28847
      -529.116  
  20287835.580   106613300.71149      1420.824    20287836.143    83075302.04348
      1107.132  
  20785332.284   109227659.19048      1635.077    20785332.651    85112463.76348
      1274.082  
  22545541.723   118477615.38047     -2911.159    22545542.024    92320219.14946
     -2268.441  
  23079702.476   121284640.02348     -3326.250    23079703.838    94507511.13746
     -2591.887  
  23999664.318   126119094.56847      -988.359    23999666.999    98274625.11844
      -770.152  
  22825163.692   119947055.34047      3013.281    22825164.501    93465256.69745
      2348.012  
 20 09 28 05 38 55.0000000  0  7G13G15G18G 5G29G30G20
  20564719.564   108068330.61849      -682.378    20564718.609    84209087.57947
      -531.727  
  20286485.260   106606204.92049      1417.671    20286485.660    83069772.85348
      1104.675  
  20783777.767   109219490.05348      1632.710    20783778.269    85106098.20448
      1272.237  
  22548312.030   118492173.91447     -2912.190    22548312.349    92331563.44546
     -2269.242  
  23082868.192   121301276.03447     -3327.824    23082869.523    94520474.24446
     -2593.113  
  24000606.286   126124044.20547      -991.586    24000608.759    98278481.96844
      -772.667  
  22822297.048   119931991.83847      3012.663    22822297.913    93453518.90345
      2347.527  
 20 09 28 05 39  0.0000000  0  7G13G15G18G 5G29G30G20
  20565370.370   108071750.71649      -685.453    20565369.470    84211752.58847
      -534.120  
  20285137.978   106599124.55949      1414.733    20285138.351    83064255.69248
      1102.386  
  20782225.552   109211333.32948      1630.284    20782226.080    85099742.31448
      1270.348  
  22551083.500   118506737.08547     -2912.832    22551083.668    92342911.37946
     -2269.742  
  23086035.248   121317919.49448     -3329.167    23086036.668    94533443.17546
     -2594.159  
  24001550.859   126129008.65947      -994.367    24001553.514    98282350.39544
      -774.836  
  22819431.208   119916931.99847      3012.020    22819432.076    93441783.96745
      2347.023  
 20 09 28 05 39  5.0000000  0  7G13G15G18G 5G29G30G20
  20566024.212   108075186.64948      -689.066    20566023.231    84214429.94447
      -536.938  
  20283793.559   106592059.21349      1411.203    20283793.983    83058750.22948
      1099.636  
  20780675.612   109203188.52948      1627.340    20780676.067    85093395.70648
      1268.054  
  22553855.517   118521304.47447     -2913.992    22553855.707    92354262.60446
     -2270.645  
  23089203.634   121334569.91348     -3331.050    23089205.050    94546417.51047
     -2595.629  
  24002498.343   126133987.44047      -997.628    24002500.899    98286229.93644
      -777.374  
  22816566.117   119901875.40347      3010.647    22816566.958    93430051.56945
      2345.957  
 20 09 28 05 39 10.0000000  0  7G13G15G18G 5G29G30G20
  20566681.485   108078640.45648      -692.438    20566680.657    84217121.21347
      -539.565  
  20282452.174   106585010.94049      1408.133    20282452.780    83053258.06948
      1097.242  
  20779128.320   109195057.73648      1624.797    20779129.013    85087060.02848
      1266.074  
  22556628.876   118535878.10847     -2915.254    22556628.967    92365618.66747
     -2271.629  
  23092373.943   121351229.34348     -3332.714    23092375.132    94559398.87647
     -2596.926  
  24003448.838   126138982.57457     -1000.430    24003451.615    98290122.23954
      -779.559  
  22813701.989   119886824.02947      3010.081    22813702.784    93418323.22445
      2345.516  
 20 09 28 05 39 15.0000000  0  7G13G15G18G 5G29G30G20
  20567341.798   108082110.17248      -695.761    20567340.794    84219824.89447
      -542.156  
  20281113.838   106577977.77949      1404.882    20281114.254    83047777.68848
      1094.711  
  20777583.327   109186938.98848      1622.273    20777583.907    85080733.73448
      1264.104  
  22559402.993   118550456.00547     -2916.288    22559403.162    92376978.06447
     -2272.438  
  23095545.370   121367895.80447     -3334.270    23095546.666    94572385.71547
     -2598.136  
  24004402.219   126143992.22047     -1003.762    24004404.758    98294025.85444
      -782.155  
  22810838.414   119871776.02947      3008.965    22810839.180    93406597.52645
      2344.644  
 20 09 28 05 39 20.0000000  0  7G13G15G18G 5G29G30G20
  20568005.169   108085596.15048      -698.519    20568004.304    84222541.23447
      -544.304  
  20279778.550   106570960.07649      1402.358    20279778.906    83042309.34948
      1092.746  
  20776040.813   109178832.62148      1620.366    20776041.462    85074417.08548
      1262.621  
  22562177.843   118565038.47247     -2916.609    22562178.089    92388341.02246
     -2272.687  
  23098718.342   121384569.60548     -3335.202    23098719.667    94585378.28046
     -2598.862  
  24005358.267   126149016.56547     -1006.082    24005360.876    98297940.93744
      -783.965  
  22807975.386   119856731.68547      3008.609    22807976.375    93394874.66245
      2344.367  
 20 09 28 05 39 25.0000000  0  7G13G15G18G 5G29G30G20
  20568671.587   108089098.20148      -702.210    20568670.762    84225270.11147
      -547.179  
  20278445.908   106563957.65149      1398.684    20278446.252    83036852.91648
      1089.878  
  20774500.569   109170738.48648      1617.223    20774500.986    85068109.97048
      1260.172  
  22564953.683   118579625.35547     -2918.035    22564953.796    92399707.41946
     -2273.797  
  23101892.663   121401250.55248     -3337.160    23101893.916    94598376.42146
     -2600.387  
  24006317.149   126154055.46147     -1009.648    24006319.869    98301867.35344
      -786.742  
  22805113.162   119841690.84647      3007.715    22805114.275    93383154.52945
      2343.672  
 20 09 28 05 39 30.0000000  0  7G13G15G18G 5G29G30G20
  20569341.235   108092617.63148      -705.520    20569340.418    84228012.52047
      -549.757  
  20277116.536   106556971.81449      1395.726    20277117.024    83031409.41548
      1087.574  
  20772962.816   109162657.91648      1614.847    20772963.442    85061813.42248
      1258.320  
  22567730.465   118594217.97747     -2919.065    22567730.778    92411078.29447
     -2274.602  
  23105068.462   121417939.99247     -3338.765    23105069.862    94611381.17346
     -2601.641  
  24007279.117   126159110.29447     -1012.516    24007281.717    98305806.18044
      -788.976  
  22802251.880   119826654.82847      3006.715    22802253.108    93371438.15345
      2342.891  
 20 09 28 05 39 35.0000000  0  7G13G15G18G 5G29G30G20
  20570014.137   108096153.06848      -708.672    20570013.218    84230767.39947
      -552.215  
  20275790.180   106550001.26949      1392.472    20275790.474    83025977.82148
      1085.039  
  20771427.521   109154589.57248      1612.358    20771428.087    85055526.40048
      1256.378  
  22570508.208   118608814.98948     -2919.691    22570508.428    92422452.58746
     -2275.086  
  23108245.778   121434636.55347     -3340.245    23108247.035    94624391.47746
     -2602.792  
  24008243.703   126164179.66647     -1015.347    24008246.344    98309756.32244
      -791.184  
  22799391.370   119811622.24747      3006.550    22799392.439    93359724.47345
      2342.762  
 20 09 28 05 39 40.0000000  0  7G13G15G18G 5G29G30G20
  20570689.867   108099704.98948      -712.112    20570689.210    84233535.13047
      -554.898  
  20274466.691   106543046.41149      1389.352    20274467.093    83020558.45648
      1082.609  
  20769894.515   109146533.94748      1609.766    20769895.182    85049249.28548
      1254.358  
  22573286.885   118623416.90947     -2920.852    22573287.113    92433830.71146
     -2275.992  
  23111424.428   121451340.65947     -3341.644    23111425.665    94637407.65446
     -2603.882  
  24009211.359   126169264.04647     -1018.523    24009213.899    98313718.17443
      -793.656  
  22796531.415   119796593.67847      3005.383    22796532.553    93348013.90545
      2341.855  
 20 09 28 05 39 45.0000000  0  7G13G15G18G 5G29G30G20
  20571369.022   108103273.25649      -715.371    20571368.101    84236315.60547
      -557.434  
  20273146.236   106536107.15749      1386.331    20273146.659    83015151.24948
      1080.254  
  20768363.979   109138490.86448      1607.383    20768364.483    85042981.95348
      1252.503  
  22576066.511   118638023.53547     -2921.746    22576066.719    92445212.48446
     -2276.688  
  23114604.617   121468052.16847     -3343.074    23114605.803    94650429.60146
     -2604.995  
  24010181.662   126174363.30247     -1021.308    24010184.223    98317691.61144
      -795.827  
  22793672.249   119781568.90747      3004.434    22793673.645    93336306.28245
      2341.112  
 20 09 28 05 39 50.0000000  0  7G13G15G18G 5G29G30G20
  20572051.222   108106858.26948      -718.608    20572050.420    84239109.12047
      -559.956  
  20271828.634   106529183.95549      1383.003    20271829.120    83009756.55348
      1077.664  
  20766835.929   109130460.78348      1604.750    20766836.479    85036724.75148
      1250.452  
  22578847.108   118652635.29647     -2922.866    22578847.327    92456598.26347
     -2277.563  
  23117786.084   121484771.48447     -3344.640    23117787.399    94663457.63946
     -2606.215  
  24011154.843   126179477.84247     -1024.464    24011157.365    98321676.96744
      -798.289  
  22790814.006   119766548.39747      3003.285    22790815.457    93324602.00946
      2340.218  
 20 09 28 05 39 55.0000000  0  7G13G15G18G 5G29G30G20
  20572736.464   108110459.80248      -721.965    20572735.678    84241915.51047
      -562.573  
  20270514.311   106522276.54649      1380.090    20270514.775    83004374.15448
      1075.390  
  20765310.357   109122443.44448      1602.281    20765310.869    85030477.47748
      1248.527  
  22581628.458   118667251.92047     -2923.937    22581628.616    92467987.83447
     -2278.395  
  23120969.117   121501498.33947     -3345.984    23120970.453    94676491.52746
     -2607.270  
  24012131.026   126184607.40357     -1027.370    24012133.697    98325674.04054
      -800.550  
  22787956.389   119751531.86347      3002.874    22787957.709    93312900.82145
      2339.898  
 20 09 28 05 40  0.0000000  0  7G13G15G18G 5G29G30G20
  20573424.952   108114077.58548      -725.285    20573424.127    84244734.56447
      -565.160  
  20269202.813   106515384.63849      1376.874    20269203.114    82999003.84048
      1072.886  
  20763787.054   109114438.62049      1599.698    20763787.493    85024239.94648
      1246.515  
  22584410.939   118681873.11647     -2924.691    22584410.877    92479380.97846
     -2278.984  
  23124153.460   121518232.51747     -3347.651    23124154.951    94689531.13847
     -2608.562  
  24013109.890   126189751.74347     -1030.253    24013112.632    98329682.61244
      -802.796  
  22785099.733   119736519.09847      3001.979    22785100.971    93301202.55245
      2339.203  
 20 09 28 05 40  5.0000000  0  7G13G15G18G 5G29G30G20
  20574116.476   108117711.72348      -728.469    20574115.734    84247566.36047
      -567.641  
  20267894.361   106508508.39849      1373.648    20267894.632    82993645.73348
      1070.370  
  20762266.220   109106446.45949      1597.151    20762266.803    85018012.28748
      1244.531  
  22587194.166   118696499.10247     -2925.719    22587194.147    92490777.84646
     -2279.785  
  23127339.342   121534974.06547     -3349.144    23127340.675    94702576.49146
     -2609.727  
  24014091.604   126194910.97047     -1033.229    24014094.237    98333702.78044
      -805.117  
  22782243.664   119721510.19647      3001.418    22782244.909    93289507.29945
      2338.765  
 20 09 28 05 40 10.0000000  0  7G13G15G18G 5G29G30G20
  20574811.229   108121362.51648      -731.551    20574810.547    84250411.13047
      -570.042  
  20266588.949   106501648.12749      1370.710    20266589.327    82988300.06848
      1068.082  
  20760747.885   109098467.26948      1594.820    20760748.308    85011794.73848
      1242.714  
  22589978.380   118711130.12147     -2926.499    22589978.390    92502178.63647
     -2280.394  
  23130526.528   121551723.34047     -3350.401    23130527.841    94715627.87146
     -2610.707  
  24015076.399   126200085.41546     -1036.124    24015078.960    98337734.80444
      -807.374  
  22779388.319   119706505.47547      3000.898    22779389.579    93277815.32545
      2338.359  
 20 09 28 05 40 15.0000000  0  7G13G15G18G 5G29G30G20
  20575509.037   108125029.77348      -735.184    20575508.265    84253268.73047
      -572.875  
  20265286.414   106494803.63749      1367.382    20265286.689    82982966.70348
      1065.488  
  20759231.809   109090500.86448      1592.073    20759232.505    85005587.15348
      1240.574  
  22592763.392   118725765.95847     -2927.659    22592763.633    92513583.18146
     -2281.296  
  23133715.290   121568480.09047     -3352.327    23133716.675    94728685.08146
     -2612.206  
  24016063.812   126205274.86447     -1039.199    24016066.567    98341778.51344
      -809.769  
  22776533.788   119691504.81347      2999.762    22776534.989    93266126.50445
      2337.473  
 20 09 28 05 40 20.0000000  0  7G13G15G18G 5G29G30G20
  20576209.879   108128712.66248      -738.133    20576209.165    84256138.51547
      -575.171  
  20263986.902   106487974.15349      1364.354    20263987.227    82977645.02948
      1063.133  
  20757718.211   109082546.50648      1589.558    20757718.657    84999388.95148
      1238.613  
  22595549.303   118740405.86247     -2928.473    22595549.370    92524990.90247
     -2281.929  
  23136905.168   121585243.54247     -3353.241    23136906.567    94741747.50246
     -2612.918  
  24017054.082   126210478.55247     -1042.258    24017056.882    98345833.34444
      -812.151  
  22773680.003   119676507.38547      2999.480    22773681.136    93254440.20545
      2337.253  
 20 09 28 05 40 25.0000000  0  7G13G15G18G 5G29G30G20
  20576913.954   108132412.34848      -741.672    20576913.230    84259021.38947
      -577.930  
  20262690.253   106481160.81049      1361.058    20262690.447    82972335.93348
      1060.562  
  20756207.095   109074605.26148      1586.781    20756207.483    84993200.97448
      1236.448  
  22598336.152   118755050.94847     -2929.616    22598336.305    92536402.65146
     -2282.820  
  23140096.570   121602014.81747     -3355.023    23140098.176    94754816.01146
     -2614.308  
  24018047.249   126215697.55447     -1045.414    24018050.186    98349900.10344
      -814.613  
  22770826.976   119661514.31647      2997.937    22770828.033    93242757.28845
      2336.051  
 20 09 28 05 40 30.0000000  0  7G13G15G18G 5G29G30G20
  20577621.067   108136128.47048      -744.895    20577620.469    84261917.06947
      -580.441  
  20261396.838   106474363.18149      1357.886    20261397.093    82967039.08248
      1058.089  
  20754698.246   109066676.76849      1584.422    20754698.732    84987022.92348
      1234.608  
  22601123.950   118769700.83247     -2930.328    22601124.146    92547818.14546
     -2283.374  
  23143289.464   121618793.45947     -3356.508    23143290.960    94767890.27446
     -2615.464  
  24019043.238   126220931.54247     -1048.527    24019046.006    98353978.53944
      -817.038  
  22767974.731   119646525.19547      2997.409    22767975.720    93231077.47845
      2335.640  
 20 09 28 05 40 35.0000000  0  7G13G15G18G 5G29G30G20
  20578331.446   108139861.69348      -748.379    20578330.886    84264826.07747
      -583.156  
  20260106.282   106467581.98349      1354.663    20260106.674    82961755.03148
      1055.577  
  20753192.080   109058761.74648      1581.706    20753192.697    84980855.37148
      1232.495  
  22603912.876   118784356.20647     -2931.617    22603912.726    92559237.91647
     -2284.378  
  23146483.878   121635580.12847     -3358.023    23146485.136    94780970.79446
     -2616.644  
  24020042.240   126226181.11847     -1051.613    24020045.163    98358069.10744
      -819.441  
  22765123.189   119631540.74347      2996.104    22765124.336    93219401.28845
      2334.625  
 20 09 28 05 40 40.0000000  0  7G13G15G18G 5G29G30G20
  20579044.851   108143610.60248      -751.323    20579044.234    84267747.30547
      -585.448  
  20258818.751   106460815.87049      1351.688    20258818.934    82956482.73648
      1053.261  
  20751688.210   109050858.79549      1579.406    20751688.855    84974697.23348
      1230.702  
  22606702.416   118799015.64947     -2932.413    22606702.307    92570660.84347
     -2284.999  
  23149679.455   121652373.49947     -3359.358    23149680.858    94794056.52346
     -2617.688  
  24021043.774   126231444.96057     -1054.383    24021046.623    98362170.79252
      -821.602  
  22762272.442   119616559.59347      2995.843    22762273.446    93207727.65346
      2334.421  
 20 09 28 05 40 45.0000000  0  7G13G15G18G 5G29G30G20
  20579761.467   108147376.35248      -754.785    20579760.794    84270681.65647
      -588.147  
  20257534.295   106454065.91349      1348.391    20257534.629    82951223.03248
      1050.690  
  20750186.985   109042969.08348      1576.711    20750187.448    84968549.40848
      1228.601  
  22609493.088   118813680.29047     -2933.539    22609492.934    92582087.84147
     -2285.879  
  23152876.597   121669174.65247     -3360.894    23152878.075    94807148.31046
     -2618.882  
  24022048.544   126236724.15947     -1057.366    24022051.330    98366284.46244
      -823.925  
  22759422.485   119601582.87047      2994.996    22759423.491    93196057.50046
      2333.762  
 20 09 28 05 40 50.0000000  0  7G13G15G18G 5G29G30G20
  20580480.958   108151157.79848      -758.081    20580480.486    84273628.23647
      -590.714  
  20256252.671   106447330.99549      1345.320    20256253.002    82945975.04748
      1048.296  
  20748687.848   109035091.44049      1574.159    20748688.246    84962410.98848
      1226.612  
  22612284.357   118828348.91547     -2934.124    22612284.266    92593517.94047
     -2286.335  
  23156075.024   121685982.41047     -3362.292    23156076.536    94820245.25846
     -2619.973  
  24023055.786   126242017.52947     -1059.999    24023058.548    98370409.13244
      -825.977  
  22756573.286   119586609.41847      2994.281    22756574.006    93184389.86946
      2333.203  
 20 09 28 05 40 55.0000000  0  7G13G15G18G 5G29G30G20
  20581203.881   108154956.53548      -761.301    20581203.345    84276588.28747
      -593.223  
  20254974.279   106440612.78249      1342.124    20254974.562    82940740.07848
      1045.809  
  20747191.381   109027227.54849      1571.441    20747191.970    84956283.27148
      1224.496  
  22615076.962   118843023.28147     -2935.289    22615076.873    92604952.51147
     -2287.242  
  23159274.973   121702798.41147     -3363.855    23159276.455    94833348.63846
     -2621.188  
  24024066.078   126247326.83847     -1063.429    24024068.934    98374546.24644
      -828.647  
  22753724.844   119571640.87947      2993.702    22753725.773    93172726.07946
      2332.753  
 20 09 28 05 41  0.0000000  0  7G13G15G18G 5G29G30G20
  20581929.640   108158770.67748      -764.621    20581929.122    84279560.34947
      -595.812  
  20253698.740   106433909.31349      1339.112    20253698.805    82935516.60148
      1043.461  
  20745697.189   109019375.45348      1569.063    20745697.650    84950164.75048
      1222.644  
  22617870.090   118857701.42447     -2936.117    22617870.128    92616390.01947
     -2287.886  
  23162476.087   121719620.75147     -3365.160    23162477.545    94846456.94446
     -2622.207  
  24025079.239   126252650.00747     -1066.116    24025081.982    98378694.16444
      -830.742  
  22750877.115   119556675.39947      2992.581    22750877.764    93161064.67745
      2331.878  
 20 09 28 05 41  5.0000000  0  7G13G15G18G 5G29G30G20
  20582658.632   108162601.33748      -767.858    20582658.080    84282545.27847
      -598.336  
  20252426.059   106427221.76749      1335.925    20252426.215    82930305.52648
      1040.976  
  20744205.492   109011536.31848      1566.418    20744206.022    84944056.34548
      1220.582  
  22620664.150   118872384.46247     -2937.222    22620664.092    92627831.33447
     -2288.749  
  23165678.695   121736450.50947     -3366.672    23165680.394    94859571.01346
     -2623.382  
  24026095.031   126257988.21447     -1068.780    24026097.616    98382853.82944
      -832.819  
  22748030.199   119541714.03347      2991.766    22748030.763    93149406.46746
      2331.242  
 20 09 28 05 41 10.0000000  0  7G13G15G18G 5G29G30G20
  20583390.695   108166448.41548      -771.242    20583389.971    84285543.00047
      -600.972  
  20251156.622   106420550.07649      1332.633    20251156.567    82925106.80948
      1038.409  
  20742716.246   109003710.08548      1563.835    20742716.602    84937957.98148
      1218.569  
  22623459.150   118887072.25847     -2938.167    22623459.101    92639276.36747
     -2289.484  
  23168882.690   121753287.61547     -3368.355    23168884.257    94872690.82446
     -2624.695  
  24027113.668   126263341.43847     -1072.270    24027116.469    98387025.17244
      -835.539  
  22745183.831   119526756.73847      2990.753    22745184.489    93137751.45146
      2330.453  
 20 09 28 05 41 15.0000000  0  7G13G15G18G 5G29G30G20
  20584125.967   108170312.04548      -774.395    20584125.318    84288553.62047
      -603.425  
  20249890.030   106413894.37449      1329.488    20249890.090    82919920.54848
      1035.961  
  20741229.284   108995896.92549      1561.319    20741229.859    84931869.79748
      1216.608  
  22626254.934   118901764.97947     -2939.257    22626255.079    92650725.23846
     -2290.331  
  23172088.194   121770132.18647     -3369.851    23172089.756    94885816.46746
     -2625.863  
  24028135.200   126268709.78157     -1075.055    24028137.991    98391208.29054
      -837.707  
  22742338.391   119511803.66447      2990.473    22742338.937    93126099.70445
      2330.233  
 20 09 28 05 41 20.0000000  0  7G13G15G18G 5G29G30G20
  20584864.317   108174192.13248      -777.727    20584863.812    84291577.06647
      -606.023  
  20248626.487   106407254.56849      1326.284    20248626.517    82914746.67848
      1033.465  
  20739744.984   108988096.71848      1558.644    20739745.559    84925791.71448
      1214.523  
  22629051.888   118916462.54247     -2940.180    22629051.835    92662177.89447
     -2291.050  
  23175295.003   121786984.14147     -3371.358    23175296.431    94898947.85846
     -2627.035  
  24029159.732   126274093.10947     -1078.109    24029162.464    98395403.08744
      -840.090  
  22739493.713   119496854.77947      2989.445    22739494.400    93114451.23646
      2329.433  
 20 09 28 05 41 25.0000000  0  7G13G15G18G 5G29G30G20
  20585605.703   108178088.57848      -781.004    20585605.258    84294613.25847
      -608.577  
  20247365.990   106400630.57849      1323.229    20247366.145    82909585.13248
      1031.085  
  20738263.176   108980309.42048      1556.112    20738263.708    84919723.68548
      1212.550  
  22631849.571   118931164.87047     -2940.823    22631849.807    92673634.24846
     -2291.554  
  23178503.113   121803843.40347     -3372.628    23178504.566    94912084.94546
     -2628.027  
  24030186.929   126279491.44157     -1081.434    24030189.666    98399609.55554
      -842.679  
  22736649.828   119481909.97047      2988.612    22736650.309    93102805.93845
      2328.785  
 20 09 28 05 41 30.0000000  0  7G13G15G18G 5G29G30G20
  20586350.330   108182001.87048      -784.051    20586349.864    84297662.57647
      -610.952  
  20246108.522   106394022.88249      1320.152    20246108.704    82904436.27848
      1028.687  
  20736783.811   108972535.49648      1553.804    20736784.539    84913666.08248
      1210.753  
  22634648.392   118945872.46547     -2941.593    22634648.453    92685094.70447
     -2292.152  
  23181712.739   121820710.41547     -3373.898    23181714.452    94925228.04746
     -2629.016  
  24031217.159   126284905.14746     -1083.570    24031220.060    98403828.03744
      -844.344  
  22733806.852   119466969.75047      2987.804    22733807.473    93091164.22045
      2328.155  
 20 09 28 05 41 35.0000000  0  7G13G15G18G 5G29G30G20
  20587097.981   108185930.96248      -787.378    20587097.669    84300724.21447
      -613.546  
  20244854.089   106387430.45249      1316.944    20244854.192    82899299.32648
      1026.188  
  20735306.765   108964773.93949      1551.132    20735307.557    84907618.11648
      1208.671  
  22637447.999   118960584.24747     -2942.410    22637448.057    92696558.42747
     -2292.788  
  23184923.773   121837584.07747     -3375.179    23184925.372    94938376.35546
     -2630.011  
  24032250.061   126290333.21246     -1086.805    24032252.864    98408057.69744
      -846.863  
  22730964.630   119452033.02247      2986.832    22730965.101    93079525.21445
      2327.397  
 20 09 28 05 41 40.0000000  0  7G13G15G18G 5G29G30G20
  20587848.685   108189875.96948      -790.601    20587848.378    84303798.24047
      -616.055  
  20243602.523   106380853.39449      1313.840    20243602.612    82894174.34748
      1023.769  
  20733832.172   108957024.84048      1548.523    20733832.792    84901579.85648
      1206.636  
  22640248.382   118975300.35747     -2943.651    22640248.394    92708025.52447
     -2293.757  
  23188135.920   121854464.52547     -3376.855    23188137.540    94951529.92645
     -2631.319  
  24033285.642   126295775.75847     -1089.852    24033288.485    98412298.61044
      -849.241  
  22728122.808   119437099.86647      2986.034    22728123.233    93067888.98945
      2326.776  
 20 09 28 05 41 45.0000000  0  7G13G15G18G 5G29G30G20
  20588602.626   108193837.76548      -793.887    20588602.268    84306885.35647
      -618.616  
  20242354.012   106374292.61549      1310.602    20242354.199    82889062.05348
      1021.246  
  20732360.247   108949289.10348      1545.938    20732360.915    84895552.01648
      1204.625  
  22643049.720   118990021.61447     -2944.883    22643049.653    92719496.62047
     -2294.718  
  23191349.655   121871352.59547     -3378.359    23191351.380    94964689.46946
     -2632.491  
  24034324.258   126301233.66047     -1092.816    24034327.088    98416551.54644
      -851.547  
  22725282.130   119422171.28247      2985.668    22725282.552    93056256.31445
      2326.491  
 20 09 28 05 41 50.0000000  0  7G13G15G18G 5G29G30G20
  20589359.600   108197815.31748      -797.328    20589359.094    84309984.74647
      -621.296  
  20241108.546   106367747.05049      1307.499    20241108.475    82883961.61648
      1018.827  
  20730890.424   108941565.69349      1543.276    20730891.017    84889533.78048
      1202.550  
  22645851.796   119004746.96747     -2945.655    22645851.733    92730970.92047
     -2295.319  
  23194564.715   121888247.22547     -3379.563    23194566.462    94977854.09946
     -2633.429  
  24035365.556   126306705.83946     -1095.910    24035368.424    98420815.57945
      -853.961  
  22722441.995   119407246.15047      2984.707    22722442.375    93044626.35545
      2325.741  
 20 09 28 05 41 55.0000000  0  7G13G15G18G 5G29G30G20
  20590119.646   108201809.79348      -800.554    20590119.340    84313097.32747
      -623.813  
  20239865.923   106361217.90049      1304.285    20239865.920    82878873.96648
      1016.323  
  20729423.238   108933855.79848      1540.698    20729424.040    84883526.06648
      1200.542  
  22648654.993   119019477.71047     -2946.566    22648655.028    92742449.41246
     -2296.026  
  23197781.023   121905149.62847     -3381.101    23197782.632    94991024.81045
     -2634.628  
  24036409.876   126312193.53146     -1099.246    24036412.723    98425091.68743
      -856.559  
  22719602.635   119392325.68147      2983.641    22719603.197    93033000.02245
      2324.909  
 20 09 28 05 42  0.0000000  0  7G13G15G18G 5G29G30G20
  20590882.917   108205820.87248      -803.980    20590882.524    84316222.84247
      -626.480  
  20238626.537   106354704.84949      1300.940    20238626.552    82873798.86748
      1013.718  
  20727958.728   108926159.15249      1537.895    20727959.294    84877528.67848
      1198.354  
  22651459.133   119034213.41047     -2947.554    22651459.079    92753931.78147
     -2296.801  
  23200998.835   121922059.47347     -3382.559    23201000.555    95004201.29146
     -2635.761  
  24037457.065   126317696.38656     -1102.441    24037459.838    98429379.63354
      -859.047  
  22716764.196   119377409.61147      2982.909    22716764.728    93021377.12346
      2324.343  
 20 09 28 05 42  5.0000000  0  7G13G15G18G 5G29G30G20
  20591649.245   108209847.76648      -807.023    20591648.878    84319360.68447
      -628.852  
  20237390.189   106348207.14349      1297.831    20237390.110    82868735.72148
      1011.293  
  20726496.329   108918474.94348      1535.492    20726496.977    84871540.98348
      1196.483  
  22654264.035   119048953.33047     -2948.538    22654264.135    92765417.42147
     -2297.565  
  23204217.857   121938975.98547     -3383.996    23204219.482    95017382.97946
     -2636.883  
  24038506.898   126323213.61346     -1105.093    24038509.743    98433678.75744
      -861.113  
  22713926.544   119362497.15147      2981.901    22713927.004    93009757.02246
      2323.559  
 20 09 28 05 42 10.0000000  0  7G13G15G18G 5G29G30G20
  20592418.793   108213891.01848      -810.401    20592418.390    84322511.26947
      -631.484  
  20236156.700   106341725.33149      1294.702    20236156.602    82863684.96248
      1008.854  
  20725036.580   108910803.75249      1532.866    20725037.330    84865563.44248
      1194.438  
  22657069.690   119063697.95847     -2949.265    22657069.880    92776906.73047
     -2298.132  
  23207438.418   121955899.70947     -3385.613    23207440.131    95030570.27846
     -2638.145  
  24039559.587   126328745.81057     -1108.140    24039562.467    98437989.54854
      -863.487  
  22711089.459   119347588.85747      2981.066    22711089.984    92998140.18345
      2322.905  
 20 09 28 05 42 15.0000000  0  7G13G15G18G 5G29G30G20
  20593191.221   108217950.71348      -813.655    20593190.848    84325674.66947
      -634.020  
  20234926.247   106335259.50549      1291.363    20234926.281    82858646.65748
      1006.254  
  20723579.324   108903145.66549      1530.313    20723580.115    84859596.10848
      1192.449  
  22659876.455   119078447.42347     -2950.238    22659876.525    92788399.81446
     -2298.891  
  23210660.306   121972830.65847     -3386.874    23210661.959    95043763.21946
     -2639.125  
  24040615.127   126334292.99246     -1110.969    24040618.222    98442312.03144
      -865.691  
  22708253.323   119332684.79748      2980.354    22708253.714    92986526.63045
      2322.351  
 20 09 28 05 42 20.0000000  0  7G13G15G18G 5G29G30G20
  20593966.867   108222026.42148      -816.901    20593966.459    84328850.54147
      -636.551  
  20233698.826   106328809.21249      1288.351    20233698.871    82853620.46148
      1003.905  
  20722124.537   108895500.29849      1527.727    20722125.118    84853638.67048
      1190.433  
  22662684.024   119093201.29947     -2951.472    22662684.216    92799896.34047
     -2299.851  
  23213883.508   121989768.47947     -3388.335    23213885.023    95056961.50446
     -2640.266  
  24041673.560   126339854.78247     -1114.159    24041676.363    98446645.88044
      -868.179  
  22705417.936   119317784.52047      2979.741    22705418.403    92974916.03545
      2321.874  
 20 09 28 05 42 25.0000000  0  7G13G15G18G 5G29G30G20
  20594745.560   108226118.51048      -819.948    20594745.250    84332039.18747
      -638.925  
  20232474.288   106322374.87449      1285.438    20232474.403    82848606.68948
      1001.637  
  20720672.201   108887868.00649      1525.249    20720672.803    84847691.43448
      1188.503  
  22665492.387   119107959.90647     -2951.898    22665492.663    92811396.55547
     -2300.184  
  23217108.071   122006713.57747     -3389.558    23217109.537    95070165.47446
     -2641.218  
  24042734.841   126345431.53946     -1116.765    24042737.763    98450991.41744
      -870.211  
  22702583.366   119302888.34947      2978.836    22702583.627    92963308.63645
      2321.167  
 20 09 28 05 42 30.0000000  0  7G13G15G18G 5G29G30G20
  20595527.282   108230226.45548      -823.214    20595526.974    84335240.18347
      -641.468  
  20231252.787   106315955.97049      1282.160    20231252.851    82843604.95048
       999.082  
  20719222.148   108880248.26749      1522.711    20719222.685    84841753.97648
      1186.522  
  22668301.689   119122722.79747     -2952.875    22668302.073    92822900.09046
     -2300.945  
  23220333.969   122023665.31647     -3391.155    23220335.347    95083374.62846
     -2642.461  
  24043798.758   126351022.71146     -1119.723    24043801.719    98455348.17144
      -872.515  
  22699749.330   119287995.91848      2977.776    22699749.832    92951704.15745
      2320.344  
 20 09 28 05 42 35.0000000  0  7G13G15G18G 5G29G30G20
  20596312.055   108234350.68648      -826.418    20596311.619    84338453.86347
      -643.964  
  20230034.332   106309552.91549      1279.175    20230034.490    82838615.56048
       996.758  
  20717774.588   108872641.54049      1520.226    20717775.234    84835826.65448
      1184.590  
  22671111.962   119137490.37947     -2954.055    22671112.237    92834407.30346
     -2301.863  
  23223561.189   122040624.06747     -3392.202    23223562.556    95096589.22645
     -2643.276  
  24044865.528   126356628.77847     -1122.547    24044868.522    98459716.51844
      -874.715  
  22696916.239   119273107.64348      2977.726    22696916.450    92940102.89745
      2320.304  
 20 09 28 05 42 40.0000000  0  7G13G15G18G 5G29G30G20
  20597100.061   108238491.36848      -829.823    20597099.712    84341680.37547
      -646.620  
  20228818.913   106303165.93549      1275.718    20228819.058    82833638.69348
       994.062  
  20716329.689   108865048.01149      1517.371    20716330.236    84829909.62948
      1182.362  
  22673922.931   119152262.80947     -2954.901    22673923.328    92845918.28147
     -2302.523  
  23226789.724   122057590.03947     -3393.977    23226791.055    95109809.45346
     -2644.660  
  24045935.181   126362249.90747     -1126.081    24045938.230    98464096.63644
      -877.469  
  22694083.925   119258223.76548      2976.284    22694084.334    92928505.07446
      2319.180  
 20 09 28 05 42 45.0000000  0  7G13G15G18G 5G29G30G20
  20597891.115   108242648.76048      -833.207    20597890.722    84344919.90047
      -649.253  
  20227606.718   106296795.21749      1272.604    20227606.790    82828674.50248
       991.637  
  20714887.056   108857467.92549      1514.729    20714887.909    84824003.07448
      1180.305  
  22676735.113   119167040.33046     -2956.034    22676735.347    92857433.24746
     -2303.405  
  23230019.589   122074563.40647     -3395.289    23230021.051    95123035.43646
     -2645.684  
  24047007.884   126367886.24757     -1128.555    24047010.724    98468488.57354
      -879.394  
  22691252.533   119243344.44748      2975.293    22691252.679    92916910.79645
      2318.405  
 20 09 28 05 42 50.0000000  0  7G13G15G18G 5G29G30G20
  20598685.211   108246821.70448      -836.226    20598684.936    84348171.54247
      -651.609  
  20226397.191   106290439.64249      1269.495    20226397.457    82823722.11248
       989.215  
  20713447.104   108849900.14549      1512.324    20713447.798    84818106.09148
      1178.430  
  22679547.816   119181821.77746     -2956.789    22679548.114    92868951.24647
     -2303.995  
  23233250.773   122091543.04847     -3396.616    23233252.253    95136266.32246
     -2646.719  
  24048083.025   126373536.71646     -1131.406    24048086.047    98472891.52544
      -881.617  
  22688421.735   119228468.53948      2974.429    22688422.008    92905319.20145
      2317.733  
 20 09 28 05 42 55.0000000  0  7G13G15G18G 5G29G30G20
  20599482.537   108251011.40048      -839.796    20599482.285    84351436.24247
      -654.390  
  20225190.908   106284100.42549      1265.956    20225191.045    82818782.46548
       986.456  
  20712009.425   108842345.90549      1509.304    20712010.147    84812219.67948
      1176.078  
  22682361.677   119196608.40747     -2958.104    22682361.876    92880473.28746
     -2305.019  
  23236483.288   122108530.21947     -3398.590    23236484.875    95149503.05646
     -2648.254  
  24049161.198   126379202.55456     -1134.848    24049164.274    98477306.46754
      -884.300  
  22685591.881   119213597.27148      2973.266    22685592.065    92893731.18545
      2316.827  
 20 09 28 05 43  0.0000000  0  7G13G15G18G 5G29G30G20
  20600282.923   108255217.60948      -842.718    20600282.593    84354713.80547
      -656.667  
  20223987.671   106277777.30849      1263.062    20223987.820    82813855.36248
       984.203  
  20710574.415   108834804.96749      1507.062    20710575.170    84806343.62848
      1174.331  
  22685176.317   119211399.93847     -2958.512    22685176.673    92891999.16146
     -2305.335  
  23239717.083   122125524.58247     -3399.707    23239718.715    95162745.40346
     -2649.124  
  24050242.242   126384883.50947     -1137.457    24050245.349    98481733.19645
      -886.332  
  22682762.806   119198730.41548      2973.105    22682762.894    92882146.64146
      2316.703  
 20 09 28 05 43  5.0000000  0  7G13G15G18G 5G29G30G20
  20601086.325   108259439.51748      -846.152    20601086.058    84358003.60847
      -659.344  
  20222787.276   106271469.53449      1259.921    20222787.514    82808940.21648
       981.754  
  20709141.887   108827276.57949      1504.253    20709142.636    84800477.36048
      1172.144  
  22687991.878   119226195.59046     -2959.625    22687992.231    92903528.24447
     -2306.203  
  23242952.270   122142525.38847     -3401.145    23242953.687    95175992.79346
     -2650.245  
  24051325.965   126390578.73346     -1140.507    24051329.284    98486171.00945
      -888.710  
  22679934.465   119183867.19748      2972.191    22679934.383    92870564.92245
      2315.988  
 20 09 28 05 43 10.0000000  0  7G13G15G18G 5G29G30G20
  20601892.803   108263677.80348      -849.184    20601892.692    84361306.17147
      -661.703  
  20221589.931   106265177.78749      1256.914    20221590.142    82804037.55648
       979.409  
  20707711.830   108819761.39149      1501.816    20707712.550    84794621.36448
      1170.242  
  22690808.394   119240996.07846     -2960.534    22690808.728    92915061.07947
     -2306.913  
  23246188.797   122159533.29147     -3402.269    23246190.188    95189245.69245
     -2651.120  
  24052412.533   126396288.96747     -1143.695    24052415.831    98490620.54744
      -891.194  
  22677106.877   119169008.33648      2971.198    22677106.907    92858986.60045
      2315.219  
 20 09 28 05 43 15.0000000  0  7G13G15G18G 5G29G30G20
  20602702.327   108267931.91548      -852.176    20602702.245    84364621.06347
      -664.035  
  20220395.637   106258901.47949      1253.988    20220395.711    82799146.93348
       977.129  
  20706284.051   108812258.86149      1499.523    20706284.912    84788775.23648
      1168.457  
  22693625.471   119255800.79446     -2961.379    22693626.025    92926597.22147
     -2307.569  
  23249426.471   122176547.72747     -3403.190    23249427.971    95202503.68346
     -2651.840  
  24053501.965   126402013.56447     -1146.089    24053505.390    98495081.26844
      -893.058  
  22674280.074   119154153.23348      2970.797    22674280.136    92847411.19645
      2314.902  
 20 09 28 05 43 20.0000000  0  7G13G15G18G 5G29G30G20
  20603515.072   108272202.60748      -855.684    20603514.763    84367948.87647
      -666.769  
  20219204.382   106252641.42249      1250.362    20219204.446    82794268.96648
       974.304  
  20704858.946   108804769.75849      1496.542    20704859.716    84782939.57748
      1166.133  
  22696443.735   119270610.46546     -2962.194    22696444.219    92938137.22147
     -2308.207  
  23252665.671   122193569.43547     -3405.175    23252667.298    95215767.34146
     -2653.386  
  24054594.272   126407753.36346     -1149.601    24054597.407    98499553.83144
      -895.796  
  22671454.019   119139302.61748      2969.753    22671454.122    92835839.29745
      2314.090  
 20 09 28 05 43 25.0000000  0  7G13G15G18G 5G29G30G20
  20604330.669   108276488.81548      -858.983    20604330.448    84371288.78047
      -669.339  
  20218015.985   106246396.54549      1247.315    20218016.124    82789402.82948
       971.933  
  20703436.307   108797293.02149      1493.883    20703436.954    84777113.54448
      1164.062  
  22699262.779   119285424.04546     -2963.378    22699263.125    92949680.26547
     -2309.128  
  23255906.018   122210597.32247     -3406.425    23255907.496    95229035.81945
     -2654.359  
  24055689.190   126413507.22747     -1152.309    24055692.440    98504037.37143
      -897.906  
  22668628.731   119124455.44248      2969.116    22668628.817    92824270.08345
      2313.594  
 20 09 28 05 43 30.0000000  0  7G13G15G18G 5G29G30G20
  20605149.673   108280792.21048      -862.504    20605149.539    84374642.07147
      -672.085  
  20216830.840   106240168.50049      1244.050    20216830.974    82784549.80948
       969.386  
  20702016.162   108789830.32849      1491.199    20702016.865    84771298.45748
      1161.969  
  22702082.770   119300243.22846     -2964.281    22702082.990    92961227.67347
     -2309.832  
  23259147.864   122227633.05647     -3407.813    23259149.398    95242310.39846
     -2655.440  
  24056787.018   126419276.88357     -1155.347    24056790.390    98508533.20255
      -900.273  
  22665804.383   119109613.42548      2967.944    22665804.284    92812704.87346
      2312.680  
 20 09 28 05 43 35.0000000  0  7G13G15G18G 5G29G30G20
  20605971.543   108285111.29148      -865.358    20605971.311    84378007.59147
      -674.309  
  20215648.524   106233955.85849      1240.934    20215648.756    82779708.79148
       966.956  
  20700598.494   108782380.24349      1488.762    20700599.231    84765493.19848
      1160.070  
  22704903.534   119315066.50547     -2965.289    22704903.842    92972778.27746
     -2310.616  
  23262390.814   122244675.18747     -3409.098    23262392.275    95255589.96846
     -2656.440  
  24057887.692   126425060.80646     -1158.487    24057891.085    98513040.14544
      -902.722  
  22662980.789   119094775.09048      2967.277    22662980.684    92801142.54745
      2312.160  
 20 09 28 05 43 40.0000000  0  7G13G15G18G 5G29G30G20
  20606796.488   108289446.62748      -868.605    20606796.245    84381385.77547
      -676.839  
  20214469.450   106227759.12849      1237.702    20214469.704    82774880.17548
       964.441  
  20699183.279   108774943.30349      1486.101    20699184.020    84759698.17748
      1157.995  
  22707725.209   119329894.47946     -2966.104    22707725.430    92984332.55347
     -2311.254  
  23265635.147   122261724.20847     -3410.305    23265636.663    95268874.91345
     -2657.382  
  24058991.207   126430859.53756     -1160.785    24058994.387    98517558.63655
      -904.512  
  22660157.794   119079940.96348      2966.465    22660157.853    92789583.49546
      2311.527  
 20 09 28 05 43 45.0000000  0  7G13G15G18G 5G29G30G20
  20607624.645   108293798.58748      -872.070    20607624.380    84384776.91347
      -679.538  
  20213293.231   106221578.73849      1234.559    20213293.584    82770064.28848
       961.991  
  20697770.560   108767519.94649      1483.249    20697771.279    84753913.73948
      1155.776  
  22710547.822   119344727.50146     -2966.965    22710547.988    92995890.73747
     -2311.925  
  23268880.833   122278780.56047     -3411.948    23268882.449    95282165.58145
     -2658.663  
  24060097.554   126436673.55747     -1164.382    24060100.781    98522089.04144
      -907.315  
  22657335.936   119065111.49748      2965.276    22657335.947    92778028.07246
      2310.602  
 20 09 28 05 43 50.0000000  0  7G13G15G18G 5G29G30G20
  20608455.853   108298166.05348      -875.015    20608455.657    84388180.13547
      -681.831  
  20212120.069   106215413.57849      1231.585    20212120.402    82765260.27148
       959.675  
  20696360.503   108760109.04249      1480.987    20696361.193    84748139.01748
      1154.011  
  22713371.227   119359564.44146     -2967.820    22713371.371    93007451.98647
     -2312.589  
  23272127.831   122295843.08747     -3412.988    23272129.473    95295461.04045
     -2659.473  
  24061206.601   126442501.66947     -1166.827    24061209.595    98526630.41744
      -909.219  
  22654514.664   119050285.52048      2964.862    22654514.535    92766475.36445
      2310.280  
 20 09 28 05 43 55.0000000  0  7G13G15G18G 5G29G30G20
  20609289.919   108302549.38248      -878.449    20609289.631    84391595.71347
      -684.508  
  20210949.943   106209264.02049      1228.144    20210950.149    82760468.40748
       956.991  
  20694952.530   108752710.97449      1478.015    20694953.336    84742374.29748
      1151.699  
  22716195.401   119374405.69846     -2968.480    22716195.740    93019016.58746
     -2313.104  
  23275375.980   122312912.13447     -3414.633    23275377.567    95308761.59846
     -2660.758  
  24062318.485   126448344.28347     -1170.198    24062321.354    98531183.10344
      -911.847  
  22651694.131   119035463.45548      2963.906    22651693.864    92754925.71645
      2309.535  
 20 09 28 05 44  0.0000000  0  7G13G15G18G 5G29G30G20
  20610127.187   108306949.10048      -881.655    20610127.031    84395024.07047
      -687.007  
  20209782.674   106203130.57849      1225.101    20209783.063    82755689.10248
       954.620  
  20693547.374   108745326.26749      1475.644    20693547.905    84736619.97848
      1149.851  
  22719020.518   119389251.88146     -2969.772    22719020.994    93030585.06147
     -2314.113  
  23278625.481   122329988.21847     -3416.081    23278627.082    95322067.63146
     -2661.887  
  24063433.053   126454201.87746     -1172.858    24063435.858    98535747.43544
      -913.917  
  22648874.375   119020645.85248      2963.012    22648874.207    92743379.53846
      2308.835  
 20 09 28 05 44  5.0000000  0  7G13G15G18G 5G29G30G20
  20610967.516   108311365.61748      -884.874    20610967.359    84398465.51247
      -689.516  
  20208618.636   106197013.67449      1221.734    20208618.911    82750922.68848
       951.995  
  20692144.735   108737955.34549      1472.796    20692145.395    84730876.40548
      1147.628  
  22721846.696   119404103.23646     -2970.770    22721846.905    93042157.53646
     -2314.886  
  23281876.296   122347071.70947     -3417.171    23281878.021    95335379.43446
     -2662.733  
  24064550.667   126460074.85557     -1176.015    24064553.307    98540323.79855
      -916.379  
  22646055.731   119005833.09048      2962.190    22646055.526    92731837.13645
      2308.199  
 20 09 28 05 44 10.0000000  0  7G13G15G18G 5G29G30G20
  20611810.887   108315797.75248      -888.030    20611810.850    84401919.12147
      -691.977  
  20207457.645   106190912.15649      1218.813    20207457.931    82746168.26148
       949.723  
  20690744.545   108730597.01949      1470.453    20690745.069    84725142.64648
      1145.804  
  22724673.482   119418958.53346     -2971.188    22724673.857    93053733.08946
     -2315.214  
  23285128.415   122364161.46347     -3418.440    23285130.170    95348696.09546
     -2663.726  
  24065671.096   126465962.02847     -1178.973    24065673.696    98544911.19744
      -918.683  
  22643237.657   118991024.01348      2961.551    22643237.309    92720297.60146
      2307.699  
 20 09 28 05 44 15.0000000  0  7G13G15G18G 5G29G30G20
  20612657.487   108320246.66448      -891.422    20612657.259    84405385.80547
      -694.617  
  20206299.699   106184827.13749      1215.262    20206299.877    82741426.69348
       946.953  
  20689346.839   108723252.46249      1467.640    20689347.454    84719419.61548
      1143.612  
  22727501.302   119433819.04846     -2972.887    22727501.585    93065312.69446
     -2316.542  
  23288381.845   122381258.60047     -3420.124    23288383.512    95362018.54846
     -2665.034  
  24066794.225   126471864.58257     -1181.949    24066796.680    98549510.59554
      -921.004  
  22640420.354   118976219.76348      2960.448    22640420.064    92708761.82846
      2306.839  
 20 09 28 05 44 20.0000000  0  7G13G15G18G 5G29G30G20
  20613507.114   108324711.32748      -894.542    20613506.871    84408864.76347
      -697.050  
  20205144.617   106178757.57649      1212.300    20205145.007    82736697.16548
       944.647  
  20687951.611   108715920.67849      1465.012    20687952.285    84713706.53848
      1141.562  
  22730329.831   119448683.66346     -2973.504    22730330.290    93076895.51747
     -2317.020  
  23291636.595   122398362.05347     -3421.437    23291638.127    95375345.90446
     -2666.058  
  24067920.224   126477781.49447     -1184.792    24067922.689    98554121.16643
      -923.218  
  22637604.010   118961419.33848      2959.679    22637603.815    92697229.04145
      2306.241  
 20 09 28 05 44 25.0000000  0  7G13G15G18G 5G29G30G20
  20614359.594   108329191.92448      -897.582    20614359.646    84412356.13847
      -699.417  
  20203992.576   106172703.74849      1209.469    20203992.835    82731979.89848
       942.441  
  20686558.852   108708601.86549      1462.629    20686559.554    84708003.56948
      1139.706  
  22733159.341   119463552.61746     -2974.558    22733159.711    93088481.71346
     -2317.839  
  23294892.550   122415472.05847     -3422.370    23294894.211    95388678.36846
     -2666.784  
  24069048.838   126483712.93357     -1187.644    24069051.400    98558743.05054
      -925.440  
  22634788.240   118946622.96048      2958.953    22634788.083    92685699.40445
      2305.676  
 20 09 28 05 44 30.0000000  0  7G13G15G18G 5G29G30G20
  20615215.329   108333688.43648      -901.055    20615215.120    84415859.91547
      -702.124  
  20202843.580   106166665.61049      1205.831    20202843.824    82727274.86148
       939.605  
  20685168.764   108701296.02949      1459.746    20685169.262    84702310.71148
      1137.460  
  22735989.632   119478425.86646     -2975.078    22735990.181    93100071.26546
     -2318.245  
  23298149.619   122432588.56947     -3424.148    23298151.359    95402015.90646
     -2668.172  
  24070180.288   126489658.89947     -1190.987    24070182.777    98563376.25444
      -928.051  
  22631973.424   118931830.59848      2957.937    22631973.075    92674172.88546
      2304.882  
 20 09 28 05 44 35.0000000  0  7G13G15G18G 5G29G30G20
  20616074.103   108338201.29048      -904.253    20616073.964    84419376.42447
      -704.616  
  20201697.625   106160643.60849      1202.727    20201697.999    82722582.39648
       937.187  
  20683780.953   108694003.62449      1457.125    20683781.648    84696628.31948
      1135.418  
  22738820.855   119493303.91746     -2976.020    22738821.272    93111664.54546
     -2318.980  
  23301408.213   122449712.00147     -3425.285    23301409.918    95415358.81846
     -2669.055  
  24071314.601   126495619.81847     -1193.605    24071317.166    98568021.13745
      -930.086  
  22629159.328   118917042.67448      2957.253    22629159.023    92662649.84445
      2304.352  
 20 09 28 05 44 40.0000000  0  7G13G15G18G 5G29G30G20
  20616935.908   108342730.51048      -907.461    20616935.800    84422905.68647
      -707.117  
  20200554.733   106154637.79449      1199.632    20200555.099    82717902.54048
       934.777  
  20682395.803   108686724.67449      1454.452    20682396.487    84690956.41348
      1133.336  
  22741652.961   119508186.80146     -2977.148    22741653.318    93123261.61546
     -2319.858  
  23304667.984   122466842.36847     -3426.854    23304669.970    95428707.15246
     -2670.280  
  24072451.832   126501595.72547     -1196.601    24072454.137    98572677.68644
      -932.421  
  22626346.215   118902259.25948      2956.276    22626345.980    92651130.30746
      2303.590  
 20 09 28 05 44 45.0000000  0  7G13G15G18G 5G29G30G20
  20617800.772   108347275.21748      -910.644    20617800.789    84426447.01647
      -709.598  
  20199414.859   106148647.27749      1196.448    20199415.129    82713234.61348
       932.292  
  20681013.140   108679458.32749      1451.878    20681013.755    84685294.32348
      1131.332  
  22744485.850   119523073.54646     -2977.824    22744486.145    93134861.66046
     -2320.386  
  23307928.865   122483978.82147     -3428.125    23307930.943    95442060.22946
     -2671.270  
  24073591.663   126507585.76547     -1199.550    24073594.210    98577345.25244
      -934.719  
  22623533.657   118887479.45048      2955.695    22623533.423    92639613.57445
      2303.137  
 20 09 28 05 44 50.0000000  0  7G13G15G18G 5G29G30G20
  20618668.693   108351836.42248      -913.870    20618668.727    84430001.19947
      -712.109  
  20198278.050   106142673.11749      1193.125    20198278.322    82708579.42348
       929.703  
  20679632.951   108672205.63549      1449.109    20679633.492    84679642.87648
      1129.172  
  22747319.615   119537965.30046     -2978.855    22747319.956    93146465.61046
     -2321.187  
  23311191.274   122501122.36547     -3429.620    23311193.141    95455418.82446
     -2672.433  
  24074734.418   126513590.95057     -1202.483    24074736.855    98582024.60054
      -937.004  
  22620722.024   118872704.34248      2954.413    22620721.839    92628100.51546
      2302.137  
 20 09 28 05 44 55.0000000  0  7G13G15G18G 5G29G30G20
  20619539.863   108356414.14148      -917.320    20619539.831    84433568.25547
      -714.797  
  20197144.282   106136715.34549      1189.887    20197144.695    82703937.00648
       927.179  
  20678255.414   108664966.59949      1446.375    20678256.140    84674002.07048
      1127.043  
  22750154.169   119552861.98046     -2979.538    22750154.850    93158073.40346
     -2321.723  
  23314454.779   122518272.95247     -3430.999    23314456.733    95468782.90646
     -2673.507  
  24075880.172   126519611.24247     -1205.679    24075882.351    98586715.74544
      -939.492  
  22617911.189   118857933.90048      2953.589    22617911.233    92616591.08546
      2301.495  
 20 09 28 05 45  0.0000000  0  7G13G15G18G 5G29G30G20
  20620414.059   108361008.13148      -920.276    20620413.847    84437147.98947
      -717.101  
  20196013.564   106130773.66649      1186.831    20196014.001    82699307.12648
       924.800  
  20676880.354   108657740.98149      1443.863    20676880.998    84668371.71848
      1125.085  
  22752989.869   119567763.37446     -2980.745    22752990.395    93169684.89346
     -2322.663  
  23317719.760   122535430.29047     -3432.093    23317721.870    95482152.25346
     -2674.362  
  24077028.616   126525646.44857     -1208.476    24077030.891    98591418.48155
      -941.672  
  22615101.298   118843167.94448      2952.676    22615101.366    92605085.15046
      2300.780  
 20 09 28 05 45  5.0000000  0  7G13G15G18G 5G29G30G20
  20621291.301   108365618.09948      -923.581    20621291.278    84440740.17047
      -719.676  
  20194885.884   106124847.79449      1183.605    20194886.223    82694689.56648
       922.285  
  20675507.943   108650528.47749      1441.156    20675508.535    84662751.58648
      1122.976  
  22755826.308   119582669.14846     -2981.559    22755826.841    93181299.75746
     -2323.296  
  23320985.844   122552594.14747     -3433.441    23320987.945    95495526.65846
     -2675.414  
  24078179.907   126531696.24247     -1211.538    24078182.172    98596132.59644
      -944.059  
  22612292.392   118828406.10748      2951.819    22612292.195    92593582.43946
      2300.116  
 20 09 28 05 45 10.0000000  0  7G13G15G18G 5G29G30G20
  20622171.406   108370243.70848      -926.656    20622171.418    84444344.54147
      -722.074  
  20193761.251   106118937.43349      1180.636    20193761.626    82690084.08948
       919.972  
  20674137.818   108643328.79949      1438.702    20674138.513    84657141.45248
      1121.062  
  22758663.506   119597579.06845     -2982.324    22758664.093    93192917.89346
     -2323.890  
  23324253.150   122569764.11147     -3434.398    23324255.205    95508905.85346
     -2676.155  
  24079333.830   126537760.27356     -1214.128    24079336.090    98600857.82354
      -946.078  
  22609484.028   118813648.11948      2951.395    22609483.760    92582082.70945
      2299.785  
 20 09 28 05 45 15.0000000  0  7G13G15G18G 5G29G30G20
  20623054.754   108374885.89048      -930.093    20623054.728    84447961.82747
      -724.749  
  20192639.674   106113043.44049      1177.108    20192639.961    82685491.37348
       917.226  
  20672770.363   108636142.86449      1435.776    20672771.174    84651542.01948
      1118.784  
  22761501.596   119612494.01545     -2983.570    22761502.319    93204539.92247
     -2324.863  
  23327521.786   122586941.16047     -3436.292    23327523.942    95522290.56845
     -2677.632  
  24080490.572   126543839.49446     -1217.269    24080492.976    98605594.85845
      -948.526  
  22606676.431   118798894.90648      2950.129    22606676.283    92570586.71646
      2298.796  
 20 09 28 05 45 20.0000000  0  7G13G15G18G 5G29G30G20
  20623941.135   108379543.69648      -933.163    20623941.215    84451591.28147
      -727.145  
  20191520.933   106107164.91849      1174.163    20191521.231    82680910.70548
       914.930  
  20671405.380   108628969.73849      1433.430    20671406.060    84645952.57548
      1116.953  
  22764340.475   119627413.02045     -2984.684    22764341.476    93216165.10747
     -2325.733  
  23330791.548   122604124.31347     -3437.191    23330793.906    95535680.02546
     -2678.335  
  24081650.023   126549932.91846     -1220.098    24081652.557    98610342.99244
      -950.729  
  22603869.779   118784145.50848      2949.831    22603869.567    92559093.68546
      2298.565  
 20 09 28 05 45 25.0000000  0  7G13G15G18G 5G29G30G20
  20624830.582   108384217.74248      -936.620    20624830.642    84455233.39947
      -729.835  
  20190405.439   106101302.51849      1170.761    20190405.670    82676342.60548
       912.277  
  20670043.074   108621810.08249      1430.487    20670043.608    84640373.62348
      1114.663  
  22767180.184   119642336.66746     -2985.277    22767181.133    93227793.90346
     -2326.191  
  23334062.631   122621314.18747     -3438.680    23334064.897    95549074.71546
     -2679.492  
  24082812.508   126556041.22657     -1223.409    24082815.057    98615102.70354
      -953.308  
  22601063.897   118769400.59648      2948.601    22601063.850    92547604.14845
      2297.608  
 20 09 28 05 45 30.0000000  0  7G13G15G18G 5G29G30G20
  20625723.254   108388908.23448      -939.663    20625723.204    84458888.32547
      -732.207  
  20189293.011   106095456.45349      1167.602    20189293.285    82671787.23148
       909.816  
  20668683.251   108614664.13349      1427.987    20668683.854    84634805.34848
      1112.714  
  22770021.064   119657265.21846     -2986.097    22770022.035    93239426.54847
     -2326.831  
  23337334.924   122638510.98547     -3440.050    23337337.376    95562474.81346
     -2680.562  
  24083977.677   126562164.63647     -1226.164    24083980.521    98619874.21045
      -955.457  
  22598258.962   118754660.40248      2947.543    22598258.879    92536118.29246
      2296.784  
 20 09 28 05 45 35.0000000  0  7G13G15G18G 5G29G30G20
  20626618.581   108393613.86548      -942.722    20626618.710    84462555.05247
      -734.593  
  20188183.413   106089625.41449      1164.734    20188183.576    82667243.56548
       907.582  
  20667325.704   108607530.58449      1425.429    20667326.294    84629246.74248
      1110.722  
  22772862.513   119672197.35146     -2986.895    22772863.372    93251061.97346
     -2327.452  
  23340608.541   122655713.39747     -3441.102    23340611.032    95575879.26146
     -2681.386  
  24085145.528   126568301.82856     -1228.945    24085148.274    98624656.40054
      -957.624  
  22595454.571   118739923.60448      2946.867    22595454.600    92524635.08446
      2296.257  
 20 09 28 05 45 40.0000000  0  7G13G15G18G 5G29G30G20
  20627517.352   108398336.15748      -946.055    20627517.164    84466234.75747
      -737.188  
  20187076.867   106083810.97249      1161.257    20187077.049    82662712.83448
       904.870  
  20665970.839   108600410.96849      1422.430    20665971.401    84623698.99248
      1108.383  
  22775704.904   119687134.59246     -2988.015    22775705.972    93262701.38046
     -2328.327  
  23343883.293   122672922.95947     -3442.422    23343885.932    95589289.30546
     -2682.410  
  24086316.406   126574454.30346     -1231.901    24086319.119    98629450.53445
      -959.925  
  22592651.112   118725191.73548      2945.835    22592651.047    92513155.72046
      2295.453  
 20 09 28 05 45 45.0000000  0  7G13G15G18G 5G29G30G20
  20628418.961   108403074.17748      -949.214    20628418.759    84469926.73247
      -739.652  
  20185973.549   106078012.21649      1158.269    20185973.706    82658194.32748
       902.543  
  20664618.610   108593304.39749      1420.094    20664619.223    84618161.39548
      1106.562  
  22778548.294   119702076.02046     -2988.445    22778549.311    93274344.03646
     -2328.660  
  23347159.380   122690138.75847     -3443.922    23347161.995    95602704.20445
     -2683.577  
  24087489.977   126580621.17957     -1234.948    24087492.509    98634255.90354
      -962.300  
  22589848.434   118710463.90848      2945.141    22589848.396    92501679.49146
      2294.909  
 20 09 28 05 45 50.0000000  0  7G13G15G18G 5G29G30G20
  20629323.423   108407827.52848      -952.038    20629323.291    84473630.64047
      -741.851  
  20184872.905   106072228.73149      1155.395    20184873.046    82653687.71748
       900.305  
  20663268.681   108586210.44349      1417.703    20663269.230    84612633.64948
      1104.699  
  22781392.201   119717021.25945     -2988.933    22781393.107    93285989.68847
     -2329.042  
  23350436.606   122707360.32447     -3444.784    23350439.041    95616123.60045
     -2684.249  
  24088666.026   126586801.98247     -1237.358    24088668.903    98639072.10245
      -964.179  
  22587046.528   118695739.69648      2944.870    22587046.551    92490206.08946
      2294.703  
 20 09 28 05 45 55.0000000  0  7G13G15G18G 5G29G30G20
  20630231.111   108412597.52348      -955.652    20630231.013    84477347.51547
      -744.668  
  20183775.486   106066461.84849      1151.776    20183775.804    82649194.03848
       897.483  
  20661921.401   108579130.43849      1414.679    20661921.921    84607116.76648
      1102.344  
  22784237.051   119731971.60946     -2990.848    22784238.170    93297639.30546
     -2330.535  
  23353715.170   122724589.03947     -3446.590    23353717.614    95629548.55546
     -2685.655  
  24089845.339   126592998.09556     -1240.754    24089847.976    98643900.23654
      -966.824  
  22584245.576   118681020.44148      2943.562    22584245.471    92478736.54146
      2293.683  
 20 09 28 05 46  0.0000000  0  7G13G15G18G 5G29G30G20
  20631141.675   108417382.69648      -958.672    20631141.671    84481076.22547
      -747.019  
  20182681.106   106060710.06449      1148.761    20182681.255    82644712.13548
       895.137  
  20660576.392   108572062.96049      1412.008    20660577.062    84601609.64048
      1100.262  
  22787082.715   119746925.61246     -2991.684    22787083.670    93309291.74946
     -2331.183  
  23356994.694   122741823.33747     -3447.413    23356997.163    95642977.85445
     -2686.301  
  24091027.026   126599208.02947     -1243.512    24091029.783    98648739.13444
      -968.973  
  22581445.200   118666304.70848      2942.624    22581445.094    92467269.74846
      2292.953  
 20 09 28 05 46  5.0000000  0  7G13G15G18G 5G29G30G20
  20632055.481   108422184.87148      -962.141    20632055.501    84484818.17847
      -749.723  
  20181589.779   106054975.28849      1145.313    20181589.873    82640243.48248
       892.449  
  20659234.264   108565009.84149      1409.194    20659234.874    84596113.69748
      1098.069  
  22789929.534   119761885.02846     -2992.714    22789930.407    93320948.44247
     -2331.988  
  23360275.742   122759065.08247     -3449.112    23360278.089    95656412.97945
     -2687.624  
  24092211.609   126605433.58346     -1246.331    24092214.478    98653590.23144
      -971.171  
  22578645.971   118651594.34848      2941.702    22578645.945    92455807.14046
      2292.234  
 20 09 28 05 46 10.0000000  0  7G13G15G18G 5G29G30G20
  20632972.309   108427002.43148      -965.059    20632972.252    84488572.12047
      -751.995  
  20180501.300   106049255.95149      1142.190    20180501.428    82635786.85748
       890.016  
  20657894.591   108557969.44049      1406.656    20657895.125    84590627.68048
      1096.093  
  22792776.957   119776848.33846     -2993.433    22792777.872    93332608.17646
     -2332.551  
  23363557.738   122776312.61847     -3450.354    23363560.269    95669852.61345
     -2688.593  
  24093399.070   126611673.17457     -1249.297    24093401.848    98658452.25154
      -973.479  
  22575847.306   118636887.70048      2941.016    22575847.320    92444347.42746
      2291.699  
 20 09 28 05 46 15.0000000  0  7G13G15G18G 5G29G30G20
  20633892.225   108431836.03148      -968.434    20633891.956    84492338.55847
      -754.625  
  20179416.062   106043552.61249      1138.956    20179416.142    82631342.70248
       887.496  
  20656557.394   108550942.48349      1404.038    20656558.061    84585152.12748
      1094.054  
  22795625.262   119791816.28246     -2994.593    22795626.081    93344271.49346
     -2333.453  
  23366841.092   122793566.63347     -3451.624    23366843.716    95683297.28245
     -2689.582  
  24094589.204   126617927.46447     -1252.164    24094591.764    98663325.69345
      -975.719  
  22573049.587   118622185.49648      2939.816    22573049.655    92432891.17146
      2290.762  
 20 09 28 05 46 20.0000000  0  7G13G15G18G 5G29G30G20
  20634814.996   108436685.87948      -971.629    20634814.823    84496117.67147
      -757.117  
  20178333.859   106037865.47049      1135.733    20178334.036    82626911.15848
       884.983  
  20655222.853   108543929.14149      1401.262    20655223.431    84579687.19748
      1091.891  
  22798474.389   119806788.82646     -2994.831    22798475.287    93355938.42046
     -2333.637  
  23370125.765   122810827.30047     -3452.902    23370128.276    95696747.16145
     -2690.577  
  24095782.182   126624196.63657     -1255.363    24095784.763    98668210.76455
      -978.207  
  22570252.656   118607487.83648      2938.944    22570252.677    92421438.45546
      2290.086  
 20 09 28 05 46 25.0000000  0  7G13G15G18G 5G29G30G20
  20635740.962   108441551.45848      -974.718    20635740.833    84499909.02747
      -759.523  
  20177254.702   106032194.02549      1132.762    20177254.614    82622491.85348
       882.668  
  20653890.598   108536928.93649      1398.750    20653891.273    84574232.48348
      1089.933  
  22801324.431   119821765.61346     -2995.753    22801325.217    93367608.62647
     -2334.354  
  23373411.598   122828094.06347     -3453.949    23373413.861    95710201.76946
     -2691.390  
  24096977.990   126630480.17747     -1258.094    24096980.719    98673107.03344
      -980.336  
  22567456.645   118592794.32548      2937.964    22567456.458    92409988.96746
      2289.319  
 20 09 28 05 46 30.0000000  0  7G13G15G18G 5G29G30G20
  20636669.796   108446432.35548      -977.855    20636669.576    84503712.32247
      -761.969  
  20176178.224   106026537.90449      1129.604    20176178.367    82618084.49048
       880.207  
  20652561.024   108529941.48249      1396.223    20652561.552    84568787.71448
      1087.960  
  22804175.300   119836746.22246     -2996.515    22804175.926    93379281.83547
     -2334.948  
  23376698.378   122845366.55347     -3455.137    23376700.737    95723660.82345
     -2692.320  
  24098176.262   126636777.70357     -1260.941    24098179.059    98678014.16154
      -982.559  
  22564661.201   118578104.51248      2937.425    22564661.206    92398542.37545
      2288.897  
 20 09 28 05 46 35.0000000  0  7G13G15G18G 5G29G30G20
  20637601.666   108451329.58348      -981.101    20637601.480    84507528.34647
      -764.495  
  20175105.152   106020898.12449      1126.327    20175105.054    82613689.86048
       877.656  
  20651233.922   108522967.79449      1393.418    20651234.525    84563353.66648
      1085.777  
  22807026.903   119851731.74646     -2997.535    22807027.580    93390958.85146
     -2335.749  
  23379986.507   122862645.75547     -3456.495    23379989.060    95737125.14246
     -2693.375  
  24099377.590   126643090.16247     -1263.929    24099380.047    98682932.97645
      -984.883  
  22561866.717   118563419.43148      2936.390    22561866.699    92387099.46246
      2288.094  
 20 09 28 05 46 40.0000000  0  7G13G15G18G 5G29G30G20
  20638536.600   108456242.91648      -984.398    20638536.325    84511356.91347
      -767.066  
  20174034.923   106015274.47249      1123.082    20174034.939    82609307.79248
       875.124  
  20649909.485   108516007.64049      1390.647    20649910.167    84557930.17648
      1083.616  
  22809879.448   119866721.87746     -2998.741    22809880.238    93402639.47546
     -2336.684  
  23383276.002   122879931.41947     -3457.641    23383278.304    95750594.48245
     -2694.270  
  24100581.582   126649417.43356     -1266.890    24100584.224    98687863.31654
      -987.191  
  22559073.003   118548738.83148      2935.694    22559073.166    92375660.03746
      2287.550  
 20 09 28 05 46 45.0000000  0  7G13G15G18G 5G29G30G20
  20639474.566   108461171.92748      -987.539    20639474.346    84515197.70247
      -769.515  
  20172967.745   106009666.47649      1119.976    20172967.727    82604937.92548
       872.707  
  20648587.506   108509060.59649      1387.957    20648588.013    84552516.89448
      1081.523  
  22812732.948   119881716.02546     -2999.086    22812733.545    93414323.22746
     -2336.953  
  23386566.655   122897223.10647     -3458.887    23386568.800    95764068.51445
     -2695.237  
  24101788.231   126655758.94947     -1269.832    24101790.912    98692804.75444
      -989.484  
  22556280.211   118534062.29948      2934.991    22556280.125    92364223.78446
      2287.003  
 20 09 28 05 46 50.0000000  0  7G13G15G18G 5G29G30G20
  20640415.783   108466117.15148      -990.449    20640415.522    84519051.12647
      -771.781  
  20171903.605   106004074.72849      1116.847    20171903.706    82600580.71948
       870.269  
  20647268.195   108502127.28649      1385.413    20647268.796    84547114.32548
      1079.538  
  22815587.066   119896714.86246     -2999.991    22815587.630    93426010.63546
     -2337.660  
  23389858.435   122914521.40247     -3460.227    23389860.503    95777547.70746
     -2696.285  
  24102997.946   126662115.35446     -1272.695    24103000.589    98697757.77144
      -991.714  
  22553488.207   118519390.46748      2933.886    22553488.255    92352791.19746
      2286.140  
 20 09 28 05 46 55.0000000  0  7G13G15G18G 5G29G30G20
  20641359.842   108471078.27648      -993.690    20641359.416    84522916.93447
      -774.309  
  20170842.535   105998498.95149      1113.621    20170842.618    82596235.95848
       867.754  
  20645951.378   108495207.33549      1382.729    20645952.017    84541722.15048
      1077.449  
  22818442.297   119911718.04846     -3000.976    22818442.757    93437701.43346
     -2338.425  
  23393151.303   122931825.97647     -3461.503    23393153.434    95791031.77046
     -2697.277  
  24104210.283   126668486.32356     -1275.398    24104213.131    98702722.17955
      -993.819  
  22550696.962   118504722.94048      2933.198    22550696.922    92341361.96746
      2285.605  
 20 09 28 05 47  0.0000000  0  7G13G15G18G 5G29G30G20
  20642306.753   108476054.88948      -996.934    20642306.503    84526794.81647
      -776.836  
  20169784.498   105992938.71149      1110.276    20169784.693    82591903.30548
       865.148  
  20644637.022   108488300.38249      1379.895    20644637.661    84536340.11148
      1075.237  
  22821298.102   119926725.15146     -3001.874    22821298.578    93449395.26246
     -2339.125  
  23396445.572   122949136.35247     -3462.901    23396447.630    95804520.35945
     -2698.366  
  24105425.323   126674871.39946     -1278.539    24105428.132    98707697.56044
      -996.266  
  22547906.682   118490059.35848      2932.145    22547906.612    92329935.80446
      2284.785  
 20 09 28 05 47  5.0000000  0  7G13G15G18G 5G29G30G20
  20643257.093   108481048.11748     -1000.086    20643256.753    84530685.64947
      -779.289  
  20168729.689   105987395.12049      1107.309    20168729.712    82587583.61948
       862.835  
  20643325.326   108481407.52949      1377.464    20643326.005    84530969.06748
      1073.348  
  22824154.834   119941737.25446     -3002.308    22824155.399    93461093.03146
     -2339.465  
  23399740.961   122966453.67647     -3463.785    23399743.067    95818014.37545
     -2699.054  
  24106643.202   126681271.74057     -1281.358    24106646.006    98712684.83054
      -998.464  
  22545117.126   118475400.85848      2931.585    22545117.233    92318513.60346
      2284.347  
 20 09 28 05 47 10.0000000  0  7G13G15G18G 5G29G30G20
  20644210.278   108486057.14048     -1003.343    20644209.922    84534588.78247
      -781.828  
  20167677.747   105981867.44449      1103.940    20167677.899    82583276.33848
       860.210  
  20642016.299   108474528.04649      1374.652    20642016.799    84525608.43348
      1071.156  
  22827012.251   119956753.76846     -3003.500    22827012.885    93472794.20846
     -2340.394  
  23403037.664   122983777.15247     -3465.164    23403039.691    95831513.18446
     -2700.133  
  24107863.968   126687686.56547     -1284.386    24107866.748    98717683.38044
     -1000.824  
  22542328.568   118460746.66848      2930.551    22542328.604    92307094.75946
      2283.542  
 20 09 28 05 47 15.0000000  0  7G13G15G18G 5G29G30G20
  20645166.318   108491081.84748     -1006.706    20645166.254    84538504.14547
      -784.448  
  20166628.847   105976355.52849      1100.800    20166629.024    82578981.34048
       857.761  
  20640709.551   108467661.82149      1371.835    20640710.276    84520258.12748
      1068.960  
  22829870.576   119971774.43246     -3004.500    22829871.159    93484498.61347
     -2341.172  
  23406335.322   123001106.68147     -3466.430    23406337.257    95845016.70045
     -2701.116  
  24109087.376   126694115.74557     -1287.226    24109090.296    98722693.13554
     -1003.035  
  22539540.749   118446096.67748      2929.723    22539540.965    92295679.18846
      2282.898  
 20 09 28 05 47 20.0000000  0  7G13G15G18G 5G29G30G20
  20646125.606   108496122.56648     -1009.526    20646125.293    84542431.96647
      -786.648  
  20165582.981   105970859.71349      1097.550    20165583.076    82574698.88948
       855.230  
  20639405.646   108460809.16049      1369.254    20639406.201    84514918.37848
      1066.949  
  22832729.767   119986799.55346     -3005.409    22832730.383    93496206.46946
     -2341.887  
  23409634.303   123018442.53647     -3467.729    23409636.233    95858525.14245
     -2702.132  
  24110313.623   126700559.56146     -1290.016    24110316.394    98727714.27044
     -1005.210  
  22536753.877   118431451.19148      2928.659    22536754.032    92284267.13446
      2282.069  
 20 09 28 05 47 25.0000000  0  7G13G15G18G 5G29G30G20
  20647087.935   108501179.07848     -1012.667    20647087.722    84546372.10947
      -789.094  
  20164540.163   105965379.82949      1094.281    20164540.304    82570428.84948
       852.683  
  20638104.051   108453969.88349      1366.483    20638104.787    84509589.08448
      1064.789  
  22835589.740   120001828.93746     -3006.777    22835590.357    93507917.68046
     -2342.945  
  23412934.402   123035784.45447     -3468.836    23412936.234    95872038.31245
     -2702.992  
  24111542.580   126707017.83657     -1293.069    24111545.410    98732746.69955
     -1007.590  
  22533967.766   118416810.01648      2927.844    22533967.826    92272858.43046
      2281.434  
 20 09 28 05 47 30.0000000  0  7G13G15G18G 5G29G30G20
  20648053.334   108506252.25248     -1016.390    20648053.086    84550325.23747
      -791.995  
  20163500.605   105959916.66549      1090.952    20163500.707    82566171.84048
       850.089  
  20636805.295   108447144.84449      1363.531    20636805.857    84504270.87148
      1062.487  
  22838450.848   120016863.43946     -3007.046    22838451.266    93519632.90346
     -2343.156  
  23416235.847   123053133.32247     -3470.503    23416237.414    95885556.90445
     -2704.292  
  24112774.532   126713491.41447     -1296.313    24112777.470    98737791.02544
     -1010.117  
  22531182.582   118402174.02548      2926.727    22531182.594    92261453.77646
      2280.562  
 20 09 28 05 47 35.0000000  0  7G13G15G18G 5G29G30G20
  20649021.562   108511340.66648     -1019.355    20649021.372    84554290.23747
      -794.304  
  20162463.884   105954468.84249      1088.003    20162464.035    82561926.78248
       847.793  
  20635509.002   108440332.65749      1361.065    20635509.586    84498962.67048
      1060.566  
  22841312.598   120031901.66146     -3007.895    22841312.894    93531350.97946
     -2343.816  
  23419538.262   123070487.69447     -3471.663    23419539.886    95899079.78946
     -2705.195  
  24114008.949   126719978.91347     -1298.843    24114011.994    98742846.22845
     -1012.089  
  22528398.004   118387541.84448      2925.914    22528398.335    92250052.07646
      2279.929  
 20 09 28 05 47 40.0000000  0  7G13G15G18G 5G29G30G20
  20649992.828   108516444.36048     -1022.366    20649992.586    84558267.13647
      -796.652  
  20161430.226   105949036.49949      1084.984    20161430.295    82557693.78848
       845.438  
  20634215.193   108433533.39549      1358.453    20634215.754    84493664.55048
      1058.531  
  22844175.090   120046943.66346     -3008.738    22844175.538    93543072.02646
     -2344.473  
  23422841.810   123087847.73747     -3472.534    23422843.625    95912607.07845
     -2705.874  
  24115246.242   126726480.36456     -1301.844    24115249.106    98747912.27854
     -1014.426  
  22525614.378   118372913.50748      2925.312    22525614.596    92238653.37946
      2279.461  
 20 09 28 05 47 45.0000000  0  7G13G15G18G 5G29G30G20
  20650966.959   108521563.67548     -1025.331    20650966.753    84562256.21747
      -798.964  
  20160399.413   105943619.94749      1081.776    20160399.736    82553473.10148
       842.941  
  20632923.875   108426747.44249      1355.886    20632924.384    84488376.79448
      1056.530  
  22847038.325   120061989.84447     -3009.746    22847038.712    93554796.31046
     -2345.262  
  23426146.500   123105213.74947     -3473.870    23426148.319    95926139.03045
     -2706.914  
  24116486.219   126732996.14846     -1304.734    24116488.931    98752989.52744
     -1016.675  
  22522831.504   118358289.40848      2924.460    22522831.588    92227257.98846
      2278.797  
