     2.11           OBSERVATION DATA    M                   RINEX VERSION / TYPE
LEICA GEO OFFICE 8.4                    30-9-20 20:19       PGM / RUN BY / DATE
                                                            OBSERVER / AGENCY
UBRK                                                        MARKER NAME
UBRK                                                        MARKER NUMBER
468588              LEICA GX1220GG      5.60                REC # / TYPE / VERS
                    LEIAX1202GG                             ANT # / TYPE
 -1207301.4500  3817442.8050  4949515.1170                  APPROX POSITION XYZ
        1.5290        0.0000        0.0000                  ANTENNA: DELTA H/E/N
L1PhaOff:   0.0644  L2PhaOff:   0.0640                      COMMENT
     1     1                                                WAVELENGTH FACT L1/2
     6    C1    L1    D1    P2    L2    D2                  # / TYPES OF OBSERV
  2020     9    30     5    33   45.0000000     GPS         TIME OF FIRST OBS
  2020     9    30     7     8   30.0000000     GPS         TIME OF LAST OBS
    18                                                      LEAP SECONDS
    20                                                      # OF SATELLITES
          C1    L1    D1    P2    L2    D2                  COMMENT
   G 1     0     0     0     0     0     0                  PRN / # OF OBS
   G 2     0     0     0     0     0     0                  PRN / # OF OBS
   G 3     0     0     0     0     0     0                  PRN / # OF OBS
   G 4     0     0     0     0     0     0                  PRN / # OF OBS
   G 5   715   715   715   713   713   713                  PRN / # OF OBS
   G 6     0     0     0     0     0     0                  PRN / # OF OBS
   G 7     0     0     0     0     0     0                  PRN / # OF OBS
   G 8     0     0     0     0     0     0                  PRN / # OF OBS
   G 9     0     0     0     0     0     0                  PRN / # OF OBS
   G10   774   774   774   774   774   774                  PRN / # OF OBS
   G11     0     0     0     0     0     0                  PRN / # OF OBS
   G12     0     0     0     0     0     0                  PRN / # OF OBS
   G13  1138  1138  1138  1138  1138  1138                  PRN / # OF OBS
   G14     0     0     0     0     0     0                  PRN / # OF OBS
   G15  1138  1138  1138  1138  1138  1138                  PRN / # OF OBS
   G16     0     0     0     0     0     0                  PRN / # OF OBS
   G17     0     0     0     0     0     0                  PRN / # OF OBS
   G18  1138  1138  1138  1138  1138  1138                  PRN / # OF OBS
   G19     0     0     0     0     0     0                  PRN / # OF OBS
   G20  1137  1137  1137  1137  1137  1137                  PRN / # OF OBS
   G21     0     0     0     0     0     0                  PRN / # OF OBS
   G22     0     0     0     0     0     0                  PRN / # OF OBS
   G23     0     0     0     0     0     0                  PRN / # OF OBS
   G24   953   953   953   953   953   953                  PRN / # OF OBS
   G25     0     0     0     0     0     0                  PRN / # OF OBS
   G26     0     0     0     0     0     0                  PRN / # OF OBS
   G27   976   976   976   975   975   975                  PRN / # OF OBS
   G28     0     0     0     0     0     0                  PRN / # OF OBS
   G29   438   438   438   438   438   438                  PRN / # OF OBS
   G30   492   492   492   492   492   492                  PRN / # OF OBS
   G31     0     0     0     0     0     0                  PRN / # OF OBS
   G32     0     0     0     0     0     0                  PRN / # OF OBS
   R 1     0     0     0     0     0     0                  PRN / # OF OBS
   R 2     0     0     0     0     0     0                  PRN / # OF OBS
   R 3  1133  1133  1133  1132  1132  1132                  PRN / # OF OBS
   R 4  1138  1138  1138  1138  1138  1138                  PRN / # OF OBS
   R 5  1132  1132  1132  1130  1130  1130                  PRN / # OF OBS
   R 6     0     0     0     0     0     0                  PRN / # OF OBS
   R 7     0     0     0     0     0     0                  PRN / # OF OBS
   R 8     0     0     0     0     0     0                  PRN / # OF OBS
   R 9     0     0     0     0     0     0                  PRN / # OF OBS
   R10     0     0     0     0     0     0                  PRN / # OF OBS
   R11     0     0     0     0     0     0                  PRN / # OF OBS
   R12   861   861   861   860   860   860                  PRN / # OF OBS
   R13   912   912   912   913   913   913                  PRN / # OF OBS
   R14   510   510   510   508   508   508                  PRN / # OF OBS
   R15     0     0     0     0     0     0                  PRN / # OF OBS
   R16     0     0     0     0     0     0                  PRN / # OF OBS
   R17     0     0     0     0     0     0                  PRN / # OF OBS
   R18   542   542   542   542   542   542                  PRN / # OF OBS
   R19  1019  1019  1019  1013  1013  1013                  PRN / # OF OBS
   R20  1120  1120  1120  1120  1120  1120                  PRN / # OF OBS
   R21   270   270   270   269   269   269                  PRN / # OF OBS
   R22     0     0     0     0     0     0                  PRN / # OF OBS
   R23     0     0     0     0     0     0                  PRN / # OF OBS
   R24     0     0     0     0     0     0                  PRN / # OF OBS
                                                            END OF HEADER
 20 09 30 05 33 45.0000000  0 13G15G18G20G29G 5G30G13R 4R 3R18R12R 5
                                R19
  20257935.646   106456169.43349      1352.784    20257935.343    82952859.07548
      1054.113  
  20743151.471   109005996.21149      1538.675    20743151.267    84939736.48548
      1198.965  
  22752592.695   119565680.92748      3008.901    22752592.469    93168062.20245
      2344.598  
  23246972.538   122163664.94048     -3389.800    23246973.334    95192468.10746
     -2641.406  
  22603133.681   118780269.91148     -2940.831    22603133.903    92556054.26447
     -2291.563  
  23983255.799   126032859.15447     -1101.226    23983258.202    98207428.68345
      -858.098  
  20566904.427   108079811.65049      -760.352    20566903.747    84218032.79148
      -592.483  
  19773602.076   105886740.42109      1636.359    19773604.855    82356366.39108
      1272.719  
  19898800.482   106519835.61909     -2035.500    19898803.553    82848774.33708
     -1583.167  
  21397072.252   114219023.24808     -3953.914    21397078.179    88837043.22107
     -3075.270  
  22683013.620   121168580.78507       693.226    22683020.356    94242261.34706
       539.172  
  23546118.563   125867486.73206      3735.581    23546124.337    97896966.07706
      2905.453  
  19470787.232   104155585.86506      -549.758    19470790.588    81009910.54207
      -427.594  
 20 09 30 05 33 50.0000000  0 13G15G18G20G29G 5G30G13R 4R 3R18R12R 5
                                R19
  20256651.242   106449419.84749      1347.640    20256650.916    82947599.65648
      1050.104  
  20741689.973   108998316.07849      1534.051    20741689.770    84933751.96148
      1195.359  
  22749731.445   119550644.77148      3006.184    22749731.107    93156345.74646
      2342.480  
  23250199.592   122180623.44348     -3393.163    23250200.451    95205682.51746
     -2644.027  
  22605933.626   118794983.81948     -2944.012    22605933.865    92567519.63947
     -2294.039  
  23984306.117   126038378.58247     -1106.211    23984308.562    98211729.51045
      -861.988  
  20567630.758   108083628.57649      -765.855    20567630.085    84221007.02348
      -596.773  
  19772076.752   105878572.44009      1631.417    19772079.490    82350013.51808
      1268.879  
  19900703.988   106530025.20509     -2039.757    19900707.022    82856699.56408
     -1586.479  
  21400778.272   114238806.39108     -3958.641    21400784.168    88852430.11207
     -3078.944  
  22682368.156   121165132.05107       686.832    22682374.630    94239578.98806
       534.250  
  23542626.110   125848818.56607      3732.648    23542631.879    97882446.40706
      2903.171  
  19471304.920   104158353.61906      -556.840    19471307.990    81012063.23907
      -433.102  
 20 09 30 05 33 55.0000000  0 13G15G18G20G29G 5G30G13R 4R 3R18R12R 5
                                R19
  20255370.156   106442687.75549      1345.125    20255369.841    82942353.86948
      1048.145  
  20740231.297   108990650.74749      1532.105    20740231.122    84927778.98248
      1193.843  
  22746871.236   119535614.39648      3005.698    22746870.950    93144633.75746
      2342.102  
  23253428.341   122197590.75847     -3393.977    23253429.205    95218903.78746
     -2644.660  
  22608734.807   118809704.34348     -2944.460    22608735.111    92578990.18047
     -2294.390  
  23985359.593   126043914.66747     -1108.473    23985362.024    98216043.35545
      -863.746  
  20568360.553   108087463.61049      -768.512    20568359.853    84223995.36348
      -598.840  
  19770554.401   105870420.03909      1629.327    19770557.105    82343672.77608
      1267.254  
  19902609.999   106540227.91509     -2041.410    19902612.988    82864635.00208
     -1587.765  
  21404486.748   114258602.45308     -3960.195    21404492.597    88867827.03707
     -3080.155  
  22681726.961   121161706.40407       682.960    22681733.197    94236914.61706
       531.210  
  23539135.004   125830156.32205      3732.348    23539140.788    97867931.33105
      2902.933  
  19471827.221   104161146.35406      -560.616    19471830.027    81014235.37407
      -436.034  
 20 09 30 05 34  0.0000000  0 13G15G18G20G29G 5G30G13R 4R 3R18R12R 5
                                R19
  20254091.547   106435968.55549      1342.042    20254091.210    82937118.11948
      1045.738  
  20738774.575   108982995.65449      1529.437    20738774.400    84921813.97848
      1191.766  
  22744011.298   119520585.25448      3005.484    22744010.975    93132922.73245
      2341.933  
  23256657.911   122214562.26847     -3395.351    23256658.723    95232128.34245
     -2645.734  
  22611536.402   118824426.85448     -2945.293    22611536.672    92590462.26147
     -2295.039  
  23986415.301   126049462.82947     -1111.554    23986417.845    98220366.60945
      -866.147  
  20569092.930   108091312.15349      -771.690    20569092.224    84226994.20648
      -601.324  
  19769033.928   105862278.53909      1626.672    19769036.744    82337340.46308
      1265.180  
  19904517.383   106550438.92009     -2043.504    19904520.429    82872576.89308
     -1589.394  
  21408196.772   114278407.06107     -3962.090    21408202.672    88883230.60806
     -3081.632  
  22681089.016   121158299.24007       679.069    22681095.241    94234264.60306
       528.222  
  23535644.062   125811495.54706      3731.464    23535649.777    97853417.39506
      2902.246  
  19472353.176   104163959.26906      -565.187    19472355.871    81016423.16507
      -439.598  
 20 09 30 05 34  5.0000000  0 12G15G18G20G29G 5G30G13R 4R 3R18R12R19
  20252816.508   106429268.08649      1338.199    20252816.128    82931896.93348
      1042.746  
  20737320.938   108975356.64448      1526.184    20737320.749    84915861.45847
      1189.230  
  22741152.690   119505563.20346      3003.968    22741152.409    93121217.19543
      2340.750  
  23259889.398   122231543.53248     -3397.155    23259890.094    95245360.42145
     -2647.144  
  22614339.498   118839157.22248     -2946.812    22614339.799    92601940.44247
     -2296.223  
  23987474.448   126055028.90347     -1114.840    23987477.170    98224703.77746
      -868.711  
  20569828.955   108095179.99049      -775.480    20569828.236    84230008.08647
      -604.273  
  19767516.687   105854153.90408      1623.269    19767519.527    82331021.27507
      1262.539  
  19906427.510   106560664.06909     -2046.441    19906430.558    82880529.75508
     -1591.680  
  21411909.580   114298226.22407     -3965.104    21411915.453    88898645.44507
     -3083.980  
  22680455.821   121154916.57507       674.120    22680462.116    94231633.62506
       524.312  
  19472883.818   104166798.41005      -570.609    19472886.610    81018631.35106
      -443.813  
 20 09 30 05 34 10.0000000  0 13G15G18G20G29G 5G30G13R 4R 3R18R12R20
                                R19
  20251544.823   106422585.21449      1335.394    20251544.398    82926689.50548
      1040.563  
  20735870.131   108967732.57448      1523.934    20735869.925    84909920.63847
      1187.480  
  22738295.233   119490547.07146      3003.191    22738295.232    93109516.34244
      2340.151  
  23263122.574   122248533.82747     -3398.319    23263123.336    95258599.59945
     -2648.047  
  22617143.845   118853894.29348     -2947.296    22617144.191    92613423.86347
     -2296.597  
  23988536.874   126060611.76647     -1117.601    23988539.598    98229054.05445
      -870.862  
  20570568.444   108099066.03249      -778.387    20570567.700    84233036.16148
      -606.538  
  19766002.297   105846045.00908      1620.750    19766005.268    82324714.37807
      1260.582  
  19908340.103   106570902.36409     -2048.355    19908343.172    82888492.87408
     -1593.167  
  21415624.847   114318058.31808     -3967.359    21415630.742    88914070.41507
     -3085.726  
  22679826.961   121151557.13307       670.254    22679833.243    94229020.72506
       521.305  
  22200216.372   118714535.74214      3698.425    22200224.655    92333560.47617
      2876.554  
  19473418.942   104169662.52405      -574.499    19473422.042    81020859.02906
      -446.831  
 20 09 30 05 34 15.0000000  0 13G15G18G20G29G 5G30G13R 4R 3R18R12R20
                                R19
  20250275.595   106415915.25249      1332.128    20250275.147    82921492.13648
      1038.019  
  20734421.277   108960118.79448      1521.253    20734421.054    84903987.81647
      1185.390  
  22735438.075   119475532.26046      3002.301    22735437.880    93097816.52743
      2339.456  
  23266356.541   122265528.37747     -3399.741    23266357.251    95271842.09946
     -2649.147  
  22619948.590   118868633.38748     -2948.581    22619948.967    92624908.88947
     -2297.594  
  23989601.585   126066206.70647     -1120.690    23989604.121    98233413.75345
      -873.266  
  20571310.507   108102965.53849      -781.832    20571309.752    84236074.73748
      -609.223  
  19764489.978   105837946.92508      1618.051    19764492.986    82318415.87007
      1258.483  
  19910254.207   106581148.86709     -2050.723    19910257.335    82896462.37408
     -1595.012  
  21419341.655   114337898.95907     -3969.695    21419347.543    88929502.00507
     -3087.546  
  22679201.505   121148216.21507       665.522    22679207.758    94226422.24006
       517.676  
  22196760.375   118696049.44503      3695.887    22196767.461    92319182.28305
      2874.586  
  19473958.027   104172546.73106      -579.336    19473961.125    81023102.27406
      -450.602  
 20 09 30 05 34 20.0000000  0 13G15G18G20G29G 5G30G13R 4R 3R18R12R20
                                R19
  20249009.333   106409260.96749      1329.304    20249008.889    82916306.98848
      1035.820  
  20732974.891   108952518.01449      1518.887    20732974.674    84898065.13348
      1183.547  
  22732581.591   119460521.17948      3001.844    22732581.136    93086119.54545
      2339.089  
  23269591.771   122282529.69148     -3400.897    23269592.519    95285089.88846
     -2650.047  
  22622754.259   118883377.24848     -2949.214    22622754.602    92636397.58947
     -2298.093  
  23990669.057   126071816.49647     -1123.241    23990671.640    98237785.00345
      -875.258  
  20572055.651   108106881.26549      -784.777    20572054.907    84239125.96248
      -611.516  
  19762980.259   105829862.60409      1615.441    19762983.302    82312128.06108
      1256.449  
  19912170.335   106591406.55109     -2052.569    19912173.566    82904440.58308
     -1596.445  
  21423060.538   114357750.73107     -3971.401    21423066.443    88944942.28107
     -3088.867  
  22678580.031   121144896.66307       661.828    22678586.277    94223840.35906
       514.750  
  22193305.360   118677574.39504      3693.362    22193312.444    92304812.77307
      2872.608  
  19474501.631   104175453.99106      -583.546    19474504.606    81025363.47607
      -453.870  
 20 09 30 05 34 25.0000000  0 13G15G18G20G29G 5G30G13R 4R 3R18R12R 5
                                R19
  20247746.043   106402622.24049      1326.038    20247745.587    82911133.94848
      1033.272  
  20731530.977   108944930.19748      1516.151    20731530.760    84892152.57946
      1181.422  
  22729725.842   119445514.14948      3000.855    22729725.337    93074425.71145
      2338.319  
  23272828.330   122299537.79548     -3402.289    23272829.072    95298342.96946
     -2651.137  
  22625560.813   118898125.75548     -2950.449    22625561.155    92647889.92647
     -2299.055  
  23991739.353   126077440.94148     -1126.198    23991741.999    98242167.69446
      -877.562  
  20572803.867   108110813.10449      -788.116    20572803.093    84242189.72048
      -614.120  
  19761473.124   105821791.80508      1612.710    19761476.096    82305850.78707
      1254.332  
  19914088.545   106601675.03508     -2055.000    19914091.774    82912427.17807
     -1598.332  
  21426781.512   114377613.57607     -3973.858    21426787.452    88960391.18307
     -3090.780  
  22677962.606   121141598.27007       657.500    22677968.796    94221274.94307
       511.387  
  23518204.490   125718266.04516      3727.094    23518210.347    97780909.44216
      2898.851  
  19475049.330   104178384.18405      -587.862    19475052.388    81027642.53906
      -457.227  
 20 09 30 05 34 30.0000000  0 13G15G18G20G29G 5G30G13R 4R 3R18R12R 5
                                R19
  20246485.463   106395997.78749      1323.457    20246484.996    82905972.03948
      1031.265  
  20730089.258   108937353.97249      1514.073    20730089.000    84886249.03148
      1179.792  
  22726870.610   119430509.83148      3000.409    22726870.146    93062734.05646
      2337.979  
  23276065.884   122316551.31948     -3403.276    23276066.642    95311600.24646
     -2651.909  
  22628367.996   118912877.56948     -2951.030    22628368.340    92659384.84947
     -2299.503  
  23992812.207   126083078.85646     -1128.914    23992814.929    98246560.85044
      -879.675  
  20573554.916   108114759.79749      -790.988    20573554.162    84245265.06848
      -616.354  
  19759968.279   105813733.39909      1610.469    19759971.216    82299583.14008
      1252.585  
  19916008.555   106611953.31008     -2056.714    19916011.828    82920421.39407
     -1599.668  
  21430504.324   114397486.07407     -3975.469    21430510.252    88975847.55607
     -3092.034  
  22677348.942   121138319.81206       654.172    22677355.076    94218725.03105
       508.801  
  23514718.879   125699631.70607      3726.452    23514724.375    97766416.08606
      2898.352  
  19475601.201   104181336.07306      -592.378    19475604.159    81029938.44707
      -460.737  
 20 09 30 05 34 35.0000000  0 13G15G18G20G29G 5G30G13R 4R 3R18R12R 5
                                R19
  20245227.859   106389389.06149      1319.914    20245227.422    82900822.39148
      1028.503  
  20728650.045   108929790.89148      1511.347    20728649.782    84880355.70347
      1177.676  
  22724016.164   119415509.55348      2999.414    22724015.673    93051045.53146
      2337.202  
  23279304.787   122333571.74648     -3405.020    23279305.509    95324862.92647
     -2653.266  
  22631176.109   118927634.18148     -2951.957    22631176.433    92670883.48747
     -2300.229  
  23993887.906   126088731.56647     -1132.472    23993890.664    98250965.55345
      -882.452  
  20574309.043   108118722.70049      -794.352    20574308.257    84248353.05347
      -618.977  
  19758466.027   105805688.74908      1607.371    19758468.919    82293326.18807
      1250.175  
  19917930.690   106622242.55708     -2059.171    19917933.947    82928424.14707
     -1601.577  
  21434229.239   114417369.89207     -3978.035    21434235.170    88991312.72207
     -3094.034  
  22676739.203   121135062.69607       648.823    22676745.350    94216191.70606
       504.632  
  23511233.623   125681001.89007      3725.227    23511238.921    97751926.25806
      2897.398  
  19476157.212   104184311.04305      -597.663    19476160.289    81032252.30706
      -464.852  
 20 09 30 05 34 40.0000000  0 13G15G18G20G29G 5G30G13R 4R 3R18R12R 5
                                R19
  20243973.296   106382796.25649      1317.199    20243972.855    82895685.14748
      1026.391  
  20727213.364   108922241.11249      1509.007    20727213.109    84874472.73848
      1175.848  
  22721162.497   119400513.40447      2998.953    22721162.004    93039360.26244
      2336.852  
  23282544.972   122350599.12848     -3405.867    23282545.693    95338131.00146
     -2653.926  
  22633985.154   118942395.71748     -2952.461    22633985.501    92682385.99547
     -2300.617  
  23994966.489   126094399.34047     -1134.742    23994969.160    98255382.00546
      -884.214  
  20575066.305   108122702.07549      -797.171    20575065.476    84251453.86447
      -621.172  
  19756966.293   105797657.96508      1605.148    19756969.209    82287080.01107
      1248.445  
  19919854.936   106632543.10409     -2060.961    19919858.156    82936435.66508
     -1602.977  
  21437956.293   114437264.90608     -3979.991    21437962.179    89006786.63206
     -3095.551  
  22676133.527   121131827.15507       645.226    22676139.675    94213675.18706
       501.843  
  23507749.379   125662376.48406      3725.046    23507754.929    97737439.85106
      2897.261  
  19476717.813   104187309.16605      -601.905    19476720.745    81034584.16207
      -468.151  
 20 09 30 05 34 45.0000000  0 13G15G18G20G29G 5G30G13R 4R 3R18R12R 5
                                R19
  20242721.622   106376218.63649      1313.901    20242721.162    82890559.73847
      1023.824  
  20725779.079   108914703.95748      1506.086    20725778.842    84868599.65547
      1173.574  
  22718309.518   119385520.99344      2998.102    22718309.007    93027677.96644
      2336.198  
  23285786.402   122367632.89248     -3407.604    23285787.092    95351404.02046
     -2655.284  
  22636795.006   118957161.55748     -2953.793    22636795.318    92693891.82046
     -2301.660  
  23996047.766   126100081.43147     -1137.929    23996050.427    98259809.61245
      -886.698  
  20575826.557   108126697.16248      -800.852    20575825.704    84254566.96446
      -624.031  
  19755469.090   105789640.44608      1602.147    19755471.983    82280844.21106
      1246.121  
  19921781.078   106642854.17208     -2063.348    19921784.347    82944455.40207
     -1604.819  
  21441685.358   114457170.63008     -3982.425    21441691.150    89022268.81306
     -3097.453  
  22675531.791   121128612.57007       640.483    22675537.888    94211174.94406
       498.151  
  23504265.878   125643754.95605      3723.535    23504271.211    97722956.45504
      2896.081  
  19477282.737   104190329.97205      -606.288    19477285.463    81036933.72006
      -471.558  
 20 09 30 05 34 50.0000000  0 13G15G18G20G29G 5G30G13R 4R 3R18R12R 5
                                R19
  20241473.118   106369657.70349      1311.144    20241472.642    82885447.34847
      1021.671  
  20724347.472   108907180.77748      1503.750    20724347.225    84862737.48346
      1171.757  
  22715457.500   119370533.50246      2996.909    22715456.806    93015999.33744
      2335.250  
  23289029.330   122384674.44048     -3408.655    23289029.978    95364683.09546
     -2656.104  
  22639605.963   118971933.10948     -2954.383    22639606.267    92705402.15346
     -2302.116  
  23997132.007   126105779.27847     -1140.562    23997134.682    98264249.48445
      -888.754  
  20576590.057   108130709.41749      -803.437    20576589.155    84257693.38947
      -626.054  
  19753974.586   105781637.57008      1599.765    19753977.476    82274619.73606
      1244.257  
  19923709.485   106653177.21008     -2065.285    19923712.785    82952484.43307
     -1606.331  
  21445416.626   114477088.36108     -3984.124    21445422.354    89037760.36207
     -3098.773  
  22674934.124   121125420.22206       636.863    22674940.272    94208692.03105
       495.340  
  23500783.183   125625138.89107      3723.254    23500788.758    97708477.26305
      2895.859  
  19477852.038   104193374.69205      -610.757    19477854.608    81039301.82306
      -475.038  
 20 09 30 05 34 55.0000000  0 12G15G18G29G 5G30G13R 4R 3R18R12R 5R19
  20240227.584   106363112.31249      1307.593    20240227.070    82880347.03348
      1018.898  
  20722918.302   108899670.44149      1500.383    20722918.035    84856885.25347
      1169.121  
  23292273.498   122401722.53448     -3410.211    23292274.166    95377967.34446
     -2657.308  
  22642417.767   118986709.18048     -2955.987    22642418.042    92716915.96447
     -2303.371  
  23998219.055   126111491.72247     -1144.292    23998221.629    98268700.75746
      -891.652  
  20577356.599   108134737.68549      -807.406    20577355.674    84260832.27948
      -629.155  
  19752482.660   105773648.37308      1595.745    19752485.536    82268405.92007
      1241.137  
  19925639.973   106663511.01409     -2068.147    19925643.239    82960521.82307
     -1608.563  
  21449149.901   114497016.99007     -3987.027    21449155.623    89053260.41807
     -3101.022  
  22674340.535   121122249.09707       631.828    22674346.663    94206225.60905
       491.422  
  23497301.309   125606526.74706      3722.527    23497306.673    97694001.19004
      2895.309  
  19478425.533   104196442.22005      -616.159    19478428.028    81041687.68107
      -479.233  
 20 09 30 05 35  0.0000000  0 13G15G18G20G29G 5G30G13R 4R 3R18R12R 5
                                R19
  20238984.971   106356582.33849      1304.367    20238984.444    82875258.71848
      1016.387  
  20721491.591   108892173.02449      1498.128    20721491.319    84851043.05648
      1167.366  
  22709755.557   119340570.02958      2995.523    22709754.929    92992649.16855
      2334.175  
  23295518.861   122418777.09248     -3411.663    23295519.550    95391256.68246
     -2658.438  
  22645230.423   119001489.66348     -2956.508    22645230.699    92728433.20146
     -2303.777  
  23999308.870   126117218.70647     -1147.180    23999311.519    98273163.33045
      -893.909  
  20578126.184   108138781.91049      -810.487    20578125.275    84263983.60448
      -631.554  
  19750993.215   105765672.56009      1593.796    19750996.082    82262202.49208
      1239.617  
  19927572.404   106673855.59209     -2069.979    19927575.698    82968567.59708
     -1609.988  
  21452885.195   114516956.37007     -3988.808    21452890.975    89068768.87206
     -3102.402  
  22673750.803   121119099.10307       627.879    22673756.976    94203775.60906
       488.352  
  23493820.393   125587918.78805      3721.448    23493825.625    97679528.36405
      2894.460  
  19479003.257   104199532.43506      -620.059    19479005.712    81044091.15607
      -482.272  
 20 09 30 05 35  5.0000000  0 13G15G18G20G29G 5G30G13R 4R 3R18R12R 5
                                R19
  20237745.732   106350070.09449      1300.496    20237745.206    82870184.24648
      1013.370  
  20720067.757   108884690.72249      1494.784    20720067.501    84845212.69948
      1164.766  
  22706906.144   119325596.29148      2994.288    22706905.504    92980981.30945
      2333.206  
  23298765.910   122435840.45048     -3413.625    23298766.574    95404552.76546
     -2659.972  
  22648044.385   119016276.94148     -2958.168    22648044.626    92739955.76247
     -2305.069  
  24000401.847   126122962.49947     -1150.667    24000404.465    98277639.01145
      -896.624  
  20578899.229   108142844.32249      -814.461    20578898.343    84267149.12647
      -634.647  
  19749506.740   105757712.54909      1590.386    19749509.614    82256011.37608
      1236.965  
  19929507.322   106684213.20709     -2072.897    19929510.602    82976623.51908
     -1612.258  
  21456622.951   114536908.89107     -3991.913    21456628.738    89084287.46107
     -3104.823  
  22673165.516   121115972.54407       622.711    22673171.723    94201343.84006
       484.328  
  23490340.565   125569317.30306      3719.875    23490345.902    97665060.52006
      2893.229  
  19479585.805   104202647.80006      -625.492    19479588.135    81046514.21707
      -486.496  
 20 09 30 05 35 10.0000000  0 13G15G18G20G29G 5G30G13R 4R 3R18R12R 5
                                R19
  20236509.573   106343574.09849      1297.535    20236509.037    82865122.43748
      1011.066  
  20718646.515   108877222.08049      1492.347    20718646.291    84839392.98648
      1162.863  
  22704057.608   119310627.16548      2993.254    22704056.981    92969317.05545
      2332.402  
  23302014.325   122452911.07948     -3414.801    23302014.975    95417854.54946
     -2660.887  
  22650859.364   119031069.56948     -2959.148    22650859.567    92751482.47647
     -2305.831  
  24001497.772   126128721.59347     -1153.281    24001500.449    98282126.60345
      -898.663  
  20579675.453   108146923.43949      -817.586    20579674.595    84270327.65348
      -637.082  
  19748022.908   105749766.88709      1587.476    19748025.827    82249831.42108
      1234.702  
  19931444.352   106694582.40509     -2075.176    19931447.663    82984688.45208
     -1614.026  
  21460362.907   114556873.05807     -3994.019    21460368.671    89099815.15306
     -3106.460  
  22672584.333   121112867.93807       618.543    22672590.601    94198929.14306
       481.116  
  23486861.694   125550720.61806      3718.640    23486867.145    97650596.47305
      2892.281  
  19480172.578   104205786.82706      -629.855    19480174.973    81048955.68307
      -489.891  
 20 09 30 05 35 15.0000000  0 13G15G18G20G29G 5G30G13R 4R 3R18R12R 5
                                R19
  20235276.181   106337092.64249      1295.035    20235275.651    82860071.95648
      1009.116  
  20717227.550   108869765.39849      1490.425    20717227.347    84833582.58648
      1161.371  
  22701209.629   119295660.93548      2993.160    22701209.036    92957655.07045
      2332.331  
  23305263.808   122469987.32148     -3415.706    23305264.506    95431160.71246
     -2661.594  
  22653674.982   119045865.70948     -2959.397    22653675.172    92763011.93747
     -2306.027  
  24002596.311   126134494.29747     -1155.644    24002598.952    98286624.81845
      -900.503  
  20580454.530   108151017.54649      -820.046    20580453.685    84273517.86647
      -638.999  
  19746541.417   105741833.69309      1585.620    19746544.359    82243661.16008
      1233.257  
  19933383.198   106704961.29409     -2076.472    19933386.527    82992760.92108
     -1615.034  
  21464104.689   114576846.88508     -3995.558    21464110.464    89115350.35307
     -3107.659  
  22672006.882   121109783.54707       615.097    22672013.219    94196530.17106
       478.405  
  23483383.277   125532127.17006      3718.578    23483388.772    97636134.89706
      2892.223  
  19480763.422   104208947.78806      -634.382    19480765.926    81051414.20607
      -493.413  
 20 09 30 05 35 20.0000000  0 14G15G18G20G29G 5G30G13R 4R 3R18R12R 5
                                R20R19
  20234045.664   106330626.23249      1291.539    20234045.117    82855033.19048
      1006.391  
  20715810.960   108862321.16549      1487.378    20715810.755    84827781.88048
      1158.991  
  22698362.290   119280698.10048      2992.062    22698361.706    92945995.73045
      2331.476  
  23308514.412   122487069.55148     -3417.270    23308515.132    95444471.51046
     -2662.816  
  22656491.363   119060665.86548     -2960.663    22656491.569    92774544.51947
     -2307.016  
  24003697.497   126140281.09947     -1159.004    24003700.154    98291134.02945
      -903.120  
  20581236.566   108155127.14349      -823.699    20581235.715    84276720.15047
      -641.843  
  19745062.370   105733913.55809      1582.500    19745065.347    82237501.06608
      1230.831  
  19935323.979   106715350.53709     -2079.148    19935327.325    83000841.44508
     -1617.116  
  21467848.446   114596831.12808     -3997.979    21467854.182    89130893.63607
     -3109.543  
  22671433.334   121106719.82107       610.300    22671439.699    94194147.27906
       474.679  
  23479905.646   125513537.39607      3717.218    23479911.253    97621676.21705
      2891.175  
  22152010.194   118456748.77215      3666.648    22152016.053    92133053.67117
      2851.836  
  19481358.527   104212130.94806      -639.328    19481361.000    81053890.00407
      -497.254  
 20 09 30 05 35 25.0000000  0 14G15G18G20G29G 5G30G13R 4R 3R18R12R 5
                                R20R19
  20232818.016   106324174.96149      1288.710    20232817.460    82850006.23448
      1004.190  
  20714396.753   108854889.49149      1485.140    20714396.541    84821990.97148
      1157.253  
  22695515.633   119265738.75648      2991.609    22695515.023    92934339.10345
      2331.125  
  23311766.217   122504157.89748     -3417.992    23311766.875    95457787.13746
     -2663.371  
  22659308.532   119075470.12448     -2961.144    22659308.734    92786080.30647
     -2307.390  
  24004801.397   126146082.07247     -1161.633    24004803.939    98295654.24745
      -905.171  
  20582021.556   108159252.29049      -826.598    20582020.720    84279934.55148
      -644.101  
  19743585.783   105726006.59309      1580.121    19743588.767    82231351.19508
      1228.979  
  19937266.679   106725750.02809     -2080.987    19937270.021    83008929.93208
     -1618.550  
  21471594.136   114616825.68707     -3999.839    21471599.862    89146444.96807
     -3110.992  
  22670863.715   121103676.92507       606.469    22670870.071    94191780.58306
       471.699  
  23476428.676   125494951.40607      3716.887    23476434.407    97607220.45706
      2890.913  
  22148582.890   118438419.27705      3665.229    22148588.385    92118797.40607
      2850.734  
  19481957.853   104215336.56506      -643.503    19481960.262    81056383.25107
      -500.508  
 20 09 30 05 35 30.0000000  0 14G15G18G20G29G 5G30G13R 4R 3R18R12R 5
                                R20R19
  20231593.577   106317740.55249      1285.535    20231593.041    82844992.41248
      1001.715  
  20712985.290   108847472.13849      1482.426    20712985.075    84816211.22148
      1155.133  
  22692669.969   119250784.68748      2990.644    22692669.372    92922686.57245
      2330.367  
  23315019.521   122521254.06348     -3419.699    23315020.151    95471108.79146
     -2664.703  
  22662126.820   119090280.23348     -2962.280    22662126.995    92797620.64547
     -2308.272  
  24005908.306   126151899.00847     -1164.691    24005910.843    98300186.92845
      -907.555  
  20582809.860   108163394.79349      -829.866    20582809.005    84283162.47748
      -646.652  
  19742112.003   105718114.57009      1577.453    19742114.983    82225212.96508
      1226.905  
  19939211.660   106736161.69409     -2082.925    19939215.015    83017027.89408
     -1620.058  
  21475342.069   114636832.37407     -4002.214    21475347.778    89162005.71307
     -3112.835  
  22670298.319   121100656.58307       602.277    22670304.658    94189431.43506
       468.438  
  23472952.790   125476370.77407      3715.948    23472958.443    97592768.86406
      2890.184  
  22145157.606   118420102.59305      3662.793    22145163.111    92104551.10007
      2848.839  
  19482561.621   104218566.37706      -648.034    19482564.058    81058895.33607
      -504.026  
 20 09 30 05 35 35.0000000  0 14G15G18G20G29G 5G30G13R 4R 3R18R12R 5
                                R20R19
  20230372.141   106311321.86149      1282.112    20230371.599    82839990.84148
       999.051  
  20711576.309   108840067.92749      1479.503    20711576.092    84810441.70248
      1152.855  
  22689825.062   119235834.66548      2989.702    22689824.461    92911037.23145
      2329.644  
  23318274.095   122538356.99848     -3421.476    23318274.761    95484435.75046
     -2666.089  
  22664945.987   119105094.99548     -2963.520    22664946.096    92809164.61346
     -2309.238  
  24007018.029   126157730.64147     -1167.870    24007020.513    98304731.05945
      -910.030  
  20583601.221   108167553.42249      -833.347    20583600.365    84286402.96447
      -649.363  
  19740640.768   105710236.20509      1574.203    19740643.754    82219085.35108
      1224.378  
  19941158.683   106746584.19509     -2085.641    19941162.026    83025134.28408
     -1622.168  
  21479092.066   114656850.05307     -4004.598    21479097.757    89177575.02107
     -3114.690  
  22669736.987   121097657.73607       597.707    22669743.231    94187099.00206
       464.883  
  23469477.658   125457794.76407      3714.840    23469483.359    97578320.86905
      2889.323  
  22141734.646   118401797.20305      3659.784    22141739.860    92090313.58207
      2846.499  
  19483169.744   104221819.17706      -652.999    19483172.134    81061425.28807
      -507.894  
 20 09 30 05 35 40.0000000  0 14G15G18G20G29G 5G30G13R 4R 3R18R12R 5
                                R20R19
  20229153.816   106304919.61549      1278.773    20229153.284    82835002.07548
       996.444  
  20710169.970   108832677.59849      1476.577    20710169.759    84804683.00648
      1150.578  
  22686981.113   119220889.45448      2988.304    22686980.467    92899391.61545
      2328.551  
  23321530.056   122555467.25048     -3422.934    23321530.794    95497768.40946
     -2667.226  
  22667766.173   119119915.17148     -2964.733    22667766.250    92820712.79746
     -2310.188  
  24008130.708   126163577.74947     -1171.065    24008133.163    98309287.23845
      -912.523  
  20584395.793   108171728.92749      -836.965    20584394.946    84289656.60947
      -652.179  
  19739172.242   105702372.34409      1571.137    19739175.227    82212969.01708
      1221.995  
  19943107.872   106757018.32709     -2088.145    19943111.209    83033249.71808
     -1624.116  
  21482844.243   114676879.36707     -4007.167    21482849.927    89193153.36406
     -3116.690  
  22669179.751   121094681.02007       592.815    22669185.953    94184783.77706
       461.109  
  23466003.703   125439223.85506      3713.640    23466009.273    97563876.83705
      2888.387  
  22138313.673   118383504.13005      3657.387    22138318.973    92076085.64507
      2844.633  
  19483782.232   104225095.79306      -657.895    19483784.677    81063973.76607
      -511.698  
 20 09 30 05 35 45.0000000  0 14G15G18G20G29G 5G30G13R 4R 3R18R12R 5
                                R20R19
  20227938.487   106298533.01849      1276.328    20227937.950    82830025.51548
       994.542  
  20708766.139   108825300.41549      1474.534    20708765.936    84798934.55348
      1148.987  
  22684137.888   119205948.26848      2988.452    22684137.268    92887749.13045
      2328.663  
  23324787.238   122572584.04748     -3423.457    23324788.047    95511106.16146
     -2667.633  
  22670587.233   119134739.96948     -2964.929    22670587.278    92832264.58846
     -2310.339  
  24009246.156   126169439.56347     -1173.199    24009248.674    98313854.88245
      -914.184  
  20585193.430   108175920.50849      -839.430    20585192.585    84292922.77648
      -654.101  
  19737706.270   105694522.16209      1569.249    19737709.254    82206863.32308
      1220.526  
  19945059.081   106767463.36309     -2089.508    19945062.437    83041373.63508
     -1625.171  
  21486598.471   114696919.53207     -4008.613    21486604.132    89208740.15907
     -3117.812  
  22668626.508   121091725.63207       589.444    22668632.682    94182485.13806
       458.452  
  23462530.375   125420657.27207      3713.124    23462536.003    97549436.16305
      2887.983  
  22134894.910   118365222.40605      3655.831    22134900.236    92061866.52507
      2843.426  
  19484399.014   104228395.34806      -662.266    19484401.493    81066540.08307
      -515.097  
 20 09 30 05 35 50.0000000  0 14G15G18G20G29G 5G30G13R 4R 3R18R12R 5
                                R20R19
  20226725.726   106292159.91549      1272.863    20226725.180    82825059.45948
       991.835  
  20707364.396   108817934.17349      1471.733    20707364.202    84793194.62548
      1146.800  
  22681295.042   119191008.98248      2987.246    22681294.389    92876108.14045
      2327.723  
  23328045.273   122589705.22648     -3424.938    23328046.083    95524447.33346
     -2668.784  
  22673408.766   119149567.19548     -2966.027    22673408.766    92843818.26847
     -2311.194  
  24010364.023   126175313.89747     -1176.644    24010366.645    98318432.28845
      -916.866  
  20585993.718   108180125.98849      -842.741    20585992.860    84296199.76848
      -656.688  
  19736242.455   105686683.47209      1566.073    19736245.442    82200766.56808
      1218.058  
  19947011.910   106777917.01209     -2091.999    19947015.266    83049504.24908
     -1627.113  
  21490354.316   114716968.36207     -4010.999    21490359.989    89224333.68507
     -3119.671  
  22668076.872   121088789.38907       584.828    22668082.998    94180201.40006
       454.867  
  23459057.511   125402092.88507      3712.206    23459063.122    97534997.20405
      2887.269  
  22131477.762   118346949.78605      3653.663    22131483.234    92047654.49807
      2841.737  
  19485019.738   104231715.64806      -666.457    19485022.204    81069122.54107
      -518.355  
 20 09 30 05 35 55.0000000  0 14G15G18G20G29G 5G30G13R 4R 3R18R12R 5
                                R20R19
  20225516.234   106285803.99249      1269.425    20225515.682    82820106.79648
       989.160  
  20705965.438   108810582.56849      1468.796    20705965.246    84787466.10448
      1144.512  
  22678453.247   119176075.25048      2986.077    22678452.602    92864471.46646
      2326.813  
  23331304.805   122606834.43248     -3426.887    23331305.659    95537794.75546
     -2670.304  
  22676231.485   119164400.62048     -2967.211    22676231.442    92855376.77946
     -2312.117  
  24011484.904   126181204.38547     -1179.480    24011487.570    98323022.25645
      -919.081  
  20586797.349   108184349.06349      -846.410    20586796.477    84299490.47547
      -659.542  
  19734781.491   105678860.04309      1563.078    19734784.472    82194681.67908
      1215.723  
  19948967.083   106788383.04909     -2094.602    19948970.418    83057644.50208
     -1629.137  
  21494112.437   114737029.47007     -4013.590    21494118.119    89239936.77107
     -3121.683  
  22667531.523   121085876.11007       580.300    22667537.617    94177935.51106
       451.343  
  23455585.696   125383534.35707      3711.069    23455591.368    97520562.80006
      2886.386  
  22128062.972   118328690.21105      3650.151    22128068.611    92033452.61407
      2839.007  
  19485645.010   104235060.49106      -671.547    19485647.509    81071724.08307
      -522.312  
 20 09 30 05 36  0.0000000  0 14G15G18G20G29G 5G30G13R 4R 3R18R12R 5
                                R20R19
  20224309.862   106279464.40349      1266.546    20224309.291    82815166.85848
       986.917  
  20704569.099   108803244.79049      1466.483    20704568.929    84781748.35648
      1142.714  
  22675612.352   119161146.27648      2985.676    22675611.707    92852838.50745
      2326.500  
  23334565.738   122623970.84948     -3427.530    23334566.632    95551147.79946
     -2670.808  
  22679055.214   119179239.38948     -2968.109    22679055.127    92866939.45547
     -2312.813  
  24012608.760   126187110.26047     -1182.398    24012611.406    98327624.24045
      -921.347  
  20587604.154   108188588.85649      -849.323    20587603.298    84302794.21348
      -661.816  
  19733323.189   105671050.93409      1560.535    19733326.185    82188607.93108
      1213.749  
  19950924.352   106798860.39909     -2096.339    19950927.674    83065793.54708
     -1630.492  
  21497872.696   114757102.02007     -4015.309    21497878.405    89255548.74907
     -3123.023  
  22666990.335   121082984.89707       576.297    22666996.360    94175686.78506
       448.180  
  23452114.924   125364980.81307      3710.253    23452120.593    97506132.28506
      2885.754  
  22124650.649   118310442.86505      3648.319    22124656.213    92019260.23707
      2837.582  
  19486274.744   104238428.92406      -675.848    19486277.203    81074343.97707
      -525.659  
 20 09 30 05 36  5.0000000  0 14G15G18G20G29G 5G30G13R 4R 3R18R12R 5
                                R20R19
  20223106.003   106273138.08049      1263.472    20223105.419    82810237.26548
       984.523  
  20703174.813   108795917.70749      1463.784    20703174.640    84776038.94348
      1140.612  
  22672771.791   119146218.87248      2984.784    22672771.079    92841206.76745
      2325.804  
  23337827.454   122641111.31148     -3429.047    23337828.381    95564503.99246
     -2671.988  
  22681879.335   119194080.21348     -2968.742    22681879.250    92878503.73646
     -2313.309  
  24013734.964   126193028.31247     -1185.430    24013737.603    98332235.70445
      -923.714  
  20588413.541   108192842.21249      -852.574    20588412.700    84306108.51548
      -664.347  
  19731866.985   105663252.99309      1557.776    19731869.982    82182542.86608
      1211.605  
  19952883.184   106809346.15109     -2098.589    19952886.515    83073949.13108
     -1632.242  
  21501634.515   114777182.89307     -4017.569    21501640.258    89271167.19807
     -3124.781  
  22666452.628   121080112.56307       572.063    22666458.647    94173452.75406
       444.934  
  23448644.488   125346429.15307      3709.796    23448650.103    97491703.23205
      2885.398  
  22121240.010   118292204.39305      3646.140    22121245.520    92005074.76207
      2835.886  
  19486908.203   104241817.84606      -680.246    19486910.718    81076979.80507
      -529.085  
 20 09 30 05 36 10.0000000  0 14G15G18G20G29G 5G30G13R 4R 3R18R12R 5
                                R20R19
  20221905.399   106266828.83049      1259.835    20221904.801    82805320.96748
       981.687  
  20701783.263   108788605.12249      1460.780    20701783.102    84770340.82748
      1138.266  
  22669932.231   119131296.88148      2983.660    22669931.519    92829579.24445
      2324.926  
  23341090.694   122658259.66048     -3430.777    23341091.608    95577866.33046
     -2673.336  
  22684704.610   119208927.00748     -2970.309    22684704.499    92890072.65546
     -2314.531  
  24014864.190   126198962.37447     -1188.620    24014866.801    98336859.64145
      -926.203  
  20589226.244   108197112.96249      -856.171    20589225.389    84309436.37448
      -667.148  
  19730413.538   105655470.10309      1554.710    19730416.583    82176489.51208
      1209.218  
  19954844.282   106819844.06109     -2100.976    19954847.620    83082114.16908
     -1634.098  
  21505398.602   114797275.94207     -4020.082    21505404.392    89286795.11907
     -3126.734  
  22665919.199   121077263.01807       567.324    22665925.160    94171236.43606
       441.250  
  23445175.070   125327883.25106      3708.184    23445180.654    97477278.63605
      2884.140  
  22117831.407   118273978.93705      3643.397    22117837.276    91990899.40807
      2833.754  
  19487546.271   104245231.17306      -685.335    19487548.819    81079634.61507
      -533.043  
 20 09 30 05 36 15.0000000  0 14G15G18G20G29G 5G30G13R 4R 3R18R12R 5
                                R20R19
  20220707.873   106260535.69749      1257.586    20220707.243    82800417.23048
       979.937  
  20700394.319   108781306.17049      1458.984    20700394.171    84764653.32748
      1136.867  
  22667093.532   119116379.41748      2983.495    22667092.799    92817955.25346
      2324.801  
  23344355.224   122675414.94348     -3431.198    23344356.164    95591234.07846
     -2673.664  
  22687530.798   119223778.78648     -2970.207    22687530.670    92901645.48047
     -2314.449  
  24015996.275   126204911.58447     -1191.019    24015998.923    98341495.39846
      -928.070  
  20590042.080   108201400.17749      -858.601    20590041.234    84312777.05848
      -669.043  
  19728962.791   105647701.38609      1552.742    19728965.838    82170447.17708
      1207.687  
  19956807.519   106830353.23309     -2102.395    19956810.821    83090287.96808
     -1635.194  
  21509164.791   114817380.20807     -4021.293    21509170.612    89302431.76507
     -3127.676  
  22665389.856   121074435.33107       564.054    22665395.804    94169037.12806
       438.710  
  23441706.582   125309342.19607      3707.944    23441712.140    97462857.83005
      2883.957  
  22114425.223   118255765.38505      3642.312    22114431.208    91976733.32607
      2832.910  
  19488188.731   104248667.84006      -688.960    19488191.282    81082307.57707
      -535.862  
 20 09 30 05 36 20.0000000  0 14G15G18G20G29G 5G30G13R 4R 3R18R12R 5
                                R20R19
  20219512.936   106254256.26249      1254.168    20219512.299    82795524.16648
       977.273  
  20699007.489   108774018.36249      1456.171    20699007.349    84758974.52048
      1134.680  
  22664255.250   119101464.02248      2982.640    22664254.501    92806332.86345
      2324.137  
  23347620.596   122692574.68448     -3432.667    23347621.598    95604605.29546
     -2674.808  
  22690357.467   119238633.13048     -2971.605    22690357.339    92913220.28147
     -2315.538  
  24017130.801   126210873.40247     -1193.843    24017133.442    98346140.97045
      -930.273  
  20590860.572   108205701.38649      -861.960    20590859.735    84316128.65147
      -671.655  
  19727514.188   105639944.24609      1550.039    19727517.247    82164413.84808
      1205.586  
  19958772.330   106840871.11809     -2104.691    19958775.650    83098468.54308
     -1636.984  
  21512932.554   114837493.03207     -4023.566    21512938.450    89318075.06607
     -3129.444  
  22664864.098   121071626.92407       559.543    22664870.057    94166852.81306
       435.199  
  23438238.460   125290803.41005      3707.172    23438244.068    97448438.76806
      2883.352  
  22111020.937   118237561.38605      3639.746    22111026.936    91962574.65207
      2830.909  
  19488835.064   104252125.35006      -693.680    19488837.627    81084996.75007
      -539.531  
 20 09 30 05 36 25.0000000  0 14G15G18G20G29G 5G30G13R 4R 3R18R12R 5
                                R20R19
  20218321.410   106247994.71949      1250.663    20218320.760    82790645.04348
       974.538  
  20697623.600   108766745.94649      1453.074    20697623.455    84753307.70648
      1132.262  
  22661418.141   119086554.91448      2981.234    22661417.381    92794715.39445
      2323.039  
  23350887.621   122709743.07748     -3434.370    23350888.640    95617983.25646
     -2676.136  
  22693185.445   119253494.22348     -2972.921    22693185.336    92924800.35946
     -2316.562  
  24018268.503   126216852.06547     -1197.351    24018271.170    98350799.65345
      -933.004  
  20591682.526   108210020.84449      -865.602    20591681.708    84319494.46148
      -674.499  
  19726068.598   105632203.17909      1546.675    19726071.659    82158393.02408
      1202.968  
  19960739.582   106851401.99909     -2107.226    19960742.899    83106659.22708
     -1638.956  
  21516702.809   114857618.90707     -4026.351    21516708.726    89333728.51807
     -3131.609  
  22664342.831   121068842.25207       554.598    22664348.782    94164686.95206
       431.352  
  23434771.654   125272271.28306      3705.891    23434777.293    97434024.91405
      2882.359  
  22107619.338   118219371.22605      3636.414    22107625.273    91948426.76307
      2828.319  
  19489486.062   104255608.12306      -699.269    19489488.695    81087705.57407
      -543.878  
 20 09 30 05 36 30.0000000  0 14G15G18G20G29G 5G30G13R 4R 3R18R12R 5
                                R20R19
  20217133.097   106241750.09249      1247.281    20217132.433    82785779.10548
       971.905  
  20696242.444   108759487.95149      1450.230    20696242.304    84747652.12448
      1130.047  
  22658582.042   119071651.11148      2980.237    22658581.236    92783102.04145
      2322.262  
  23354156.136   122726919.14748     -3435.949    23354157.159    95631367.20346
     -2677.366  
  22696014.522   119268361.15148     -2973.832    22696014.409    92936384.97447
     -2317.276  
  24019409.215   126222846.60847     -1200.425    24019411.858    98355470.73545
      -935.398  
  20592507.767   108214357.54449      -868.973    20592506.954    84322873.70748
      -677.124  
  19724625.796   105624477.06909      1543.688    19724628.847    82152383.82608
      1200.644  
  19962709.044   106861944.80809     -2109.604    19962712.390    83114859.18408
     -1640.809  
  21520475.296   114877756.73107     -4028.620    21520481.255    89349391.26507
     -3133.374  
  22663825.802   121066080.22007       550.176    22663831.747    94162538.70706
       427.914  
  23431305.832   125253744.85106      3704.983    23431311.543    97419615.47605
      2881.652  
  22104220.177   118201193.88805      3634.296    22104225.990    91934288.83607
      2826.676  
  19490141.610   104259115.05106      -703.796    19490144.269    81090433.17907
      -547.401  
 20 09 30 05 36 35.0000000  0 14G15G18G20G29G 5G30G13R 4R 3R18R12R 5
                                R20R19
  20215947.492   106235519.63449      1244.491    20215946.825    82780924.20748
       969.734  
  20694863.522   108752241.63749      1447.976    20694863.377    84742005.64848
      1128.293  
  22655746.415   119056749.88648      2979.969    22655745.619    92771490.69745
      2322.054  
  23357425.574   122744100.12948     -3436.925    23357426.619    95644754.96946
     -2678.128  
  22698844.180   119283231.10748     -2974.438    22698844.089    92947971.94547
     -2317.746  
  24020552.430   126228854.24547     -1202.757    24020555.016    98360151.99445
      -937.218  
  20593335.773   108218708.71849      -871.828    20593334.955    84326264.23147
      -679.351  
  19723185.262   105616763.07709      1541.500    19723188.321    82146384.05708
      1198.945  
  19964680.267   106872496.85709     -2111.554    19964683.587    83123066.33508
     -1642.323  
  21524249.523   114897903.59307     -4030.387    21524255.455    89365061.03907
     -3134.749  
  22663312.524   121063338.03607       546.382    22663318.440    94160405.89006
       424.960  
  23427840.618   125235221.20406      3704.066    23427846.323    97405208.20905
      2880.940  
  22100822.794   118183026.55305      3632.886    22100828.623    91920158.69307
      2825.578  
  19490801.186   104262643.43006      -708.160    19490803.863    81093177.47707
      -550.797  
 20 09 30 05 36 40.0000000  0 14G15G18G20G29G 5G30G13R 4R 3R18R12R 5
                                R20R19
  20214764.981   106229305.49749      1241.280    20214764.306    82776082.02048
       967.230  
  20693487.216   108745009.10049      1445.207    20693487.079    84736369.90648
      1126.137  
  22652911.716   119041853.31648      2978.886    22652910.883    92759882.98945
      2321.210  
  23360696.317   122761288.08948     -3438.187    23360697.399    95658148.17246
     -2679.108  
  22701674.822   119298106.22948     -2975.445    22701674.753    92959562.94847
     -2318.530  
  24021698.559   126234877.09847     -1206.198    24021701.111    98364845.12345
      -939.897  
  20594166.921   108223076.45849      -875.094    20594166.100    84329667.66547
      -681.894  
  19721747.399   105609063.26009      1538.581    19721750.428    82140395.31208
      1196.675  
  19966653.588   106883060.20109     -2113.753    19966656.922    83131282.26208
     -1644.035  
  21528025.809   114918061.75807     -4032.512    21528031.779    89380739.60607
     -3136.401  
  22662803.329   121060617.88007       541.910    22662809.216    94158290.22106
       421.484  
  23424376.307   125216702.59806      3703.801    23424382.035    97390804.85106
      2880.733  
  22097427.623   118164871.45404      3630.347    22097433.536    91906038.06507
      2823.605  
  19491465.230   104266195.30906      -712.718    19491467.849    81095940.04707
      -554.339  
 20 09 30 05 36 45.0000000  0 14G15G18G20G29G 5G30G13R 4R 3R18R12R 5
                                R20R19
  20213585.591   106223107.72949      1238.378    20213584.911    82771252.59648
       964.969  
  20692113.554   108737790.46149      1442.612    20692113.409    84730744.99048
      1124.113  
  22650077.919   119026961.55048      2978.195    22650077.083    92748279.01945
      2320.671  
  23363968.429   122778483.09148     -3439.223    23363969.511    95671546.86146
     -2679.917  
  22704506.462   119312986.63048     -2976.308    22704506.420    92971158.05547
     -2319.206  
  24022847.545   126240915.25147     -1208.910    24022850.203    98369550.18145
      -942.012  
  20595001.258   108227460.89649      -878.180    20595000.416    84333084.11348
      -684.300  
  19720312.181   105601377.85609      1535.956    19720315.225    82134417.77708
      1194.633  
  19968629.027   106893634.90909     -2115.663    19968632.366    83139507.03508
     -1645.519  
  21531804.288   114938231.28407     -4034.644    21531810.232    89396427.00807
     -3138.062  
  22662298.264   121057919.82207       537.730    22662304.148    94156191.72806
       418.230  
  23420912.938   125198189.12806      3702.534    23420918.740    97376405.49706
      2879.749  
  22094034.909   118146728.71305      3627.660    22094040.707    91891927.04107
      2821.511  
  19492133.643   104269770.77406      -716.984    19492136.243    81098720.96107
      -557.660  
 20 09 30 05 36 50.0000000  0 14G15G18G20G29G 5G30G13R 4R 3R18R12R 5
                                R20R19
  20212408.877   106216924.08749      1234.921    20212408.204    82766434.17748
       962.276  
  20690742.109   108730583.46749      1439.910    20690741.949    84725129.15448
      1122.004  
  22647244.595   119012072.30248      2977.331    22647243.793    92736677.01345
      2319.999  
  23367241.463   122795682.94048     -3441.059    23367242.586    95684949.33946
     -2681.348  
  22707338.691   119327869.99948     -2977.215    22707338.676    92982755.48547
     -2319.910  
  24023999.034   126246966.42547     -1211.691    24024001.637    98374265.39545
      -944.180  
  20595838.324   108231859.71249      -881.496    20595837.467    84336511.75748
      -686.883  
  19718879.236   105593704.59609      1533.058    19718882.313    82128449.68708
      1192.378  
  19970606.209   106904218.79709     -2118.050    19970609.540    83147738.94608
     -1647.370  
  21535584.426   114958409.82407     -4037.059    21535590.390    89412121.42507
     -3139.937  
  22661796.925   121055241.60207       533.413    22661802.785    94154108.66006
       414.874  
  23417450.149   125179678.44107      3701.284    23417455.952    97362008.30906
      2878.776  
  22090644.064   118128595.99604      3625.191    22090649.776    91877823.82407
      2819.594  
  19492805.996   104273367.56106      -722.112    19492808.625    81101518.46207
      -561.645  
 20 09 30 05 36 55.0000000  0 14G15G18G20G29G 5G30G13R 4R 3R18R12R 5
                                R20R19
  20211235.335   106210757.08249      1232.022    20211234.662    82761628.71948
       960.015  
  20689373.370   108723390.66249      1437.358    20689373.204    84719524.37248
      1120.016  
  22644412.234   118997188.14548      2976.563    22644411.447    92725078.97045
      2319.397  
  23370515.856   122812890.08448     -3442.027    23370517.011    95698357.49846
     -2682.101  
  22710171.953   119342758.89248     -2977.878    22710171.977    92994357.22147
     -2320.429  
  24025153.510   126253033.20747     -1214.848    24025156.108    98378992.73045
      -946.637  
  20596678.625   108236275.45849      -884.551    20596677.757    84339952.60347
      -689.262  
  19717449.034   105586045.99109      1530.483    19717452.124    82122493.00008
      1190.374  
  19972585.570   106914814.31609     -2120.022    19972588.872    83155979.90708
     -1648.906  
  21539366.738   114978599.90607     -4039.022    21539372.700    89427824.81207
     -3141.465  
  22661299.854   121052585.74707       529.227    22661305.604    94152042.99506
       411.617  
  23413988.354   125161173.04006      3700.672    23413994.126    97347615.22006
      2878.297  
  22087255.632   118110475.96504      3623.077    22087261.249    91863730.47807
      2817.948  
  19493482.795   104276988.23206      -726.354    19493485.479    81104334.54307
      -564.940  
 20 09 30 05 37  0.0000000  0 14G15G18G20G29G 5G30G13R 4R 3R18R12R 5
                                R20R19
  20210064.831   106204606.01049      1228.648    20210064.153    82756835.68048
       957.387  
  20688007.191   108716211.31449      1434.559    20688007.020    84713930.07548
      1117.835  
  22641580.682   118982308.29648      2975.555    22641579.914    92713484.28445
      2318.608  
  23373791.545   122830103.79347     -3443.449    23373792.700    95711770.77046
     -2683.211  
  22713006.121   119357652.51348     -2979.104    22713006.181    93005962.62447
     -2321.387  
  24026310.803   126259114.79347     -1217.636    24026313.431    98383731.64945
      -948.809  
  20597522.015   108240707.43949      -888.042    20597521.135    84343406.09747
      -691.979  
  19716021.402   105578401.27709      1527.559    19716024.521    82116547.11308
      1188.101  
  19974566.967   106925420.79309     -2122.288    19974570.251    83164229.38808
     -1650.668  
  21543151.068   114998800.82507     -4041.218    21543157.035    89443536.63607
     -3143.175  
  22660806.769   121049951.58707       524.629    22660812.448    94149994.21206
       408.043  
  23410527.421   125142672.40007      3699.565    23410533.242    97333225.85506
      2877.444  
  22083869.307   118092367.85905      3620.804    22083874.957    91849646.39407
      2816.180  
  19494163.986   104280632.17506      -731.387    19494166.683    81107168.71807
      -568.858  
 20 09 30 05 37  5.0000000  0 14G15G18G20G29G 5G30G13R 4R 3R18R12R 5
                                R20R19
  20208897.151   106198469.84249      1225.894    20208896.487    82752054.25348
       955.241  
  20686643.370   108709044.41549      1432.188    20686643.213    84708345.48248
      1115.991  
  22638749.759   118967431.76048      2975.155    22638749.038    92701892.19545
      2318.305  
  23377068.276   122847323.06547     -3444.265    23377069.439    95725188.37846
     -2683.848  
  22715841.003   119372549.88648     -2979.703    22715841.103    93017570.96947
     -2321.851  
  24027470.741   126265210.18347     -1220.272    24027473.472    98388481.28845
      -950.866  
  20598368.287   108245154.56949      -890.815    20598367.373    84346871.39148
      -694.144  
  19714596.194   105570769.44309      1525.116    19714599.331    82110611.24808
      1186.202  
  19976550.205   106936037.06409     -2123.921    19976553.437    83172486.48808
     -1651.940  
  21546937.248   115019011.52407     -4043.086    21546943.215    89459256.05707
     -3144.624  
  22660317.517   121047338.05707       520.753    22660323.160    94147961.46906
       405.030  
  23407067.096   125124175.25805      3699.167    23407073.013    97318839.18406
      2877.125  
  22080484.932   118074270.64405      3617.972    22080490.703    91835570.79007
      2813.979  
  19494849.330   104284298.21206      -735.265    19494852.017    81110020.08107
      -571.874  
 20 09 30 05 37 10.0000000  0 14G15G18G20G29G 5G30G13R 4R 3R18R12R 5
                                R20R19
  20207732.516   106192349.64449      1222.086    20207731.853    82747285.27048
       952.269  
  20685282.141   108701891.01549      1429.098    20685281.974    84702771.40348
      1113.577  
  22635919.695   118952559.58148      2973.766    22635918.955    92690303.47745
      2317.214  
  23380346.256   122864548.93847     -3446.144    23380347.433    95738611.12146
     -2685.313  
  22718676.809   119387452.05648     -2981.351    22718676.928    93029183.04547
     -2323.137  
  24028633.489   126271320.40347     -1223.898    24028636.229    98393242.52445
      -953.687  
  20599217.656   108249617.93949      -894.555    20599216.716    84350349.34247
      -697.058  
  19713173.608   105563151.62209      1521.854    19713176.764    82104686.27408
      1183.664  
  19978535.473   106946664.30009     -2126.858    19978538.694    83180752.11408
     -1654.227  
  21550725.440   115039232.96107     -4045.616    21550731.416    89474983.84007
     -3146.594  
  22659832.382   121044746.27507       515.554    22659837.987    94145945.63406
       400.983  
  23403607.764   125105682.92907      3697.421    23403613.674    97304456.27906
      2875.776  
  22077102.778   118056185.43505      3615.367    22077108.679    91821504.51907
      2811.953  
  19495538.923   104287987.32006      -740.433    19495541.657    81112889.38707
      -575.897  
 20 09 30 05 37 15.0000000  0 14G15G18G20G29G 5G30G13R 4R 3R18R12R 5
                                R20R19
  20206571.023   106186246.01749      1219.660    20206570.364    82742529.19848
       950.382  
  20683923.576   108694751.77149      1427.026    20683923.429    84697208.36048
      1111.964  
  22633090.581   118937692.45648      2973.570    22633089.800    92678718.71646
      2317.065  
  23383625.595   122881782.01347     -3446.671    23383626.747    95752039.48946
     -2685.723  
  22721513.632   119402359.59948     -2981.457    22721513.770    93040799.31147
     -2323.219  
  24029799.201   126277446.13447     -1225.984    24029801.886    98398015.78645
      -955.315  
  20600070.224   108254098.15349      -897.288    20600069.273    84353840.41948
      -699.188  
  19711753.759   105555548.36209      1519.703    19711756.902    82098772.63108
      1181.991  
  19980522.918   106957303.05809     -2128.378    19980526.111    83189026.70508
     -1655.409  
  21554515.743   115059465.82207     -4047.082    21554521.748    89490720.50007
     -3147.734  
  22659351.348   121042176.80207       512.374    22659356.998    94143947.15206
       398.511  
  23400149.403   125087195.88506      3697.593    23400155.260    97290077.46706
      2875.902  
  22073723.056   118038112.88705      3613.452    22073729.046    91807448.10207
      2810.464  
  19496233.005   104291700.31506      -744.187    19496235.762    81115777.26907
      -578.816  
 20 09 30 05 37 20.0000000  0 14G15G18G20G29G 5G30G13R 4R 3R18R12R 5
                                R20R19
  20205412.569   106180158.39449      1215.848    20205411.929    82737785.60148
       947.414  
  20682567.602   108687626.07949      1423.707    20682567.447    84691655.87248
      1109.379  
  22630262.341   118922829.76448      2971.745    22630261.493    92667137.39846
      2315.641  
  23386906.205   122899021.64047     -3448.476    23386907.339    95765472.96346
     -2687.128  
  22724351.369   119417271.94648     -2983.199    22724351.516    93052419.31447
     -2324.573  
  24030967.711   126283586.69847     -1229.781    24030970.391    98402800.65244
      -958.270  
  20600925.875   108258594.59549      -900.945    20600924.895    84357344.14447
      -702.034  
  19710336.519   105547959.14009      1516.366    19710339.668    82092869.90308
      1179.398  
  19982512.362   106967952.71209     -2131.117    19982515.540    83197309.76708
     -1657.535  
  21558308.082   115079709.52607     -4049.675    21558314.105    89506465.59907
     -3149.749  
  22658874.376   121039629.12007       507.277    22658880.067    94141965.62306
       394.551  
  23396691.924   125068713.58407      3695.801    23396697.800    97275702.36906
      2874.515  
  22070345.680   118020052.41304      3610.797    22070351.640    91793401.07107
      2808.397  
  19496931.459   104295436.57306      -749.546    19496934.223    81118683.24707
      -582.980  
 20 09 30 05 37 25.0000000  0 14G15G18G20G29G 5G30G13R 4R 3R18R12R 5
                                R20R19
  20204256.768   106174084.68049      1213.270    20204256.140    82733052.83848
       945.406  
  20681213.807   108680511.83649      1421.562    20681213.622    84686112.30848
      1107.710  
  22627434.494   118907969.36148      2971.726    22627433.631    92655557.87146
      2315.632  
  23390187.645   122916265.72147     -3449.453    23390188.750    95778909.88546
     -2687.890  
  22727189.634   119432186.97248     -2983.456    22727189.782    93064041.41247
     -2324.777  
  24032138.646   126289740.03447     -1231.847    24032141.227    98407595.46645
      -959.883  
  20601784.205   108263105.15049      -903.684    20601783.224    84360858.85848
      -704.168  
  19708921.482   105540381.68009      1514.129    19708924.662    82086976.32608
      1177.655  
  19984503.454   106978611.11809     -2132.535    19984506.627    83205599.63508
     -1658.641  
  21562102.043   115099961.78907     -4051.543    21562108.050    89522217.35407
     -3151.203  
  22658401.087   121037101.02207       503.520    22658406.794    94139999.32706
       391.624  
  23393234.936   125050233.87305      3695.327    23393240.830    97261329.24706
      2874.141  
  22066970.104   118002001.81605      3609.257    22066976.096    91779361.72607
      2807.199  
  19497633.874   104299193.79706      -753.690    19497636.604    81121605.53107
      -586.206  
 20 09 30 05 37 30.0000000  0 14G15G18G20G29G 5G30G13R 4R 3R18R12R 5
                                R20R19
  20203104.065   106168027.24749      1209.828    20203103.442    82728332.76348
       942.723  
  20679862.658   108673411.47149      1418.612    20679862.467    84680579.55548
      1105.413  
  22624607.554   118893113.72148      2970.429    22624606.697    92643982.04745
      2314.620  
  23393470.375   122933516.58647     -3450.815    23393471.480    95792352.11746
     -2688.952  
  22730028.854   119447107.08148     -2984.488    22730029.020    93075667.46247
     -2325.578  
  24033312.447   126295908.52547     -1235.012    24033314.971    98412402.06445
      -962.352  
  20602645.684   108267632.22449      -907.159    20602644.683    84364386.45048
      -706.878  
  19707509.110   105532818.55809      1510.996    19707512.310    82081093.90008
      1175.218  
  19986496.617   106989280.77009     -2135.042    19986499.807    83213898.25208
     -1660.594  
  21565898.072   115120225.15707     -4053.757    21565904.068    89537977.74607
     -3152.925  
  22657931.947   121034594.92907       499.046    22657937.649    94138050.14306
       388.144  
  23389778.906   125031759.31807      3694.339    23389784.782    97246960.17806
      2873.374  
  22063596.857   117983963.67405      3605.569    22063602.880    91765332.05707
      2804.328  
  19498340.607   104302974.47106      -758.473    19498343.361    81124546.05607
      -589.921  
 20 09 30 05 37 35.0000000  0 14G15G18G20G29G 5G30G13R 4R 3R18R12R 5
                                R20R19
  20201954.667   106161987.18649      1206.301    20201954.064    82723626.22348
       939.972  
  20678514.350   108666326.03249      1415.563    20678514.146    84675058.43848
      1103.034  
  22621781.703   118878263.86548      2969.190    22621780.827    92632410.73746
      2313.656  
  23396754.623   122950775.33247     -3452.625    23396755.738    95805800.47946
     -2690.359  
  22732869.224   119462033.32348     -2986.043    22732869.443    93087298.29947
     -2326.784  
  24034489.394   126302093.23247     -1238.358    24034491.902    98417221.30645
      -964.961  
  20603510.499   108272176.88749      -910.738    20603509.490    84367927.75448
      -709.668  
  19706099.638   105525270.80209      1507.973    19706102.828    82075223.42608
      1172.866  
  19988492.094   106999962.65009     -2137.754    19988495.287    83222206.38208
     -1662.703  
  21569696.390   115140500.64807     -4056.425    21569702.363    89553747.56207
     -3155.000  
  22657467.124   121032112.05107       494.219    22657472.869    94136119.00606
       384.387  
  23386323.903   125013290.75606      3693.315    23386329.872    97232595.74906
      2872.577  
  22060226.312   117965939.13705      3603.800    22060232.218    91751312.98107
      2802.957  
  19499051.988   104306779.87706      -763.773    19499054.741    81127505.81507
      -594.050  
 20 09 30 05 37 40.0000000  0 14G15G18G20G29G 5G30G13R 4R 3R18R12R 5
                                R20R19
  20200808.020   106155961.57549      1203.577    20200807.422    82718930.94648
       937.851  
  20677168.324   108659252.59049      1413.301    20677168.107    84669546.66548
      1101.273  
  22618956.407   118863416.83848      2968.944    22618955.488    92620841.63546
      2313.464  
  23400039.822   122968039.01247     -3453.335    23400040.875    95819252.69146
     -2690.913  
  22735710.196   119476962.73248     -2986.461    22735710.444    93098931.60047
     -2327.117  
  24035668.858   126308291.20447     -1241.219    24035671.278    98422050.90344
      -967.183  
  20604378.100   108276736.16349      -913.395    20604377.082    84371480.42948
      -711.737  
  19704692.441   105517735.45309      1505.679    19704695.663    82069362.60008
      1171.085  
  19990489.300   107010653.88109     -2139.293    19990492.505    83230521.77908
     -1663.897  
  21573496.418   115160785.39607     -4057.875    21573502.409    89569524.58207
     -3156.129  
  22657006.100   121029649.31607       490.453    22657011.855    94134203.54506
       381.461  
  23382869.627   124994825.42107      3692.570    23382875.559    97218233.83106
      2871.999  
  22056857.440   117947924.89005      3601.516    22056863.479    91737301.90807
      2801.179  
  19499767.402   104310606.89106      -768.156    19499770.169    81130482.38407
      -597.457  
 20 09 30 05 37 45.0000000  0 14G15G18G20G29G 5G30G13R 4R 3R18R12R 5
                                R20R19
  20199664.618   106149952.95649      1199.746    20199664.020    82714248.90648
       934.867  
  20675825.053   108652193.71449      1410.007    20675824.871    84664046.24448
      1098.707  
  22616132.151   118848575.24148      2967.496    22616131.219    92609276.75646
      2312.335  
  23403326.420   122985310.13848     -3455.253    23403327.451    95832710.70346
     -2692.409  
  22738552.249   119491897.88548     -2987.733    22738552.522    93110569.37147
     -2328.109  
  24036851.348   126314504.94847     -1244.691    24036853.699    98426892.78345
      -969.895  
  20605248.952   108281312.58249      -917.394    20605247.969    84375046.47148
      -714.855  
  19703288.069   105510215.07509      1502.207    19703291.294    82063513.42208
      1168.382  
  19992488.731   107021356.86609     -2142.207    19992491.912    83238846.32008
     -1666.164  
  21577298.597   115181081.74507     -4060.688    21577304.605    89585310.62607
     -3158.316  
  22656549.296   121027209.27107       485.538    22656555.089    94132305.73706
       377.640  
  23379416.356   124976365.83206      3691.194    23379422.284    97203876.38306
      2870.929  
  22053491.191   117929923.76105      3598.926    22053497.179    91723301.03507
      2799.163  
  19500487.400   104314458.14506      -772.940    19500490.120    81133477.80307
      -601.180  
 20 09 30 05 37 50.0000000  0 14G15G18G20G29G 5G30G13R 4R 3R18R12R 5
                                R20R19
  20198524.305   106143960.63349      1196.890    20198523.719    82709579.56648
       932.637  
  20674484.441   108645148.71949      1407.687    20674484.254    84658556.64148
      1096.894  
  22613308.778   118833738.37648      2967.089    22613307.874    92597715.56745
      2312.019  
  23406614.302   123002588.04348     -3456.077    23406615.415    95846173.98946
     -2693.051  
  22741395.282   119506838.09348     -2988.409    22741395.573    93122211.09547
     -2328.637  
  24038036.676   126320733.82547     -1247.265    24038039.022    98431746.45144
      -971.897  
  20606122.950   108285905.47349      -920.124    20606121.960    84378625.34848
      -716.984  
  19701886.361   105502708.95609      1499.855    19701889.571    82057675.32908
      1166.554  
  19994490.233   107032071.00109     -2143.879    19994493.403    83247179.53808
     -1667.464  
  21581102.859   115201389.09107     -4062.292    21581108.876    89601105.22007
     -3159.565  
  22656096.654   121024791.37407       481.550    22656102.437    94130425.14406
       374.535  
  23375964.027   124957911.34406      3690.383    23375969.991    97189522.89506
      2870.292  
  22050127.296   117911935.19305      3596.925    22050133.233    91709309.92507
      2797.604  
  19501211.730   104318332.76106      -777.155    19501214.446    81136491.39207
      -604.456  
 20 09 30 05 37 55.0000000  0 14G15G18G20G29G 5G30G13R 4R 3R18R12R 5
                                R20R19
  20197386.956   106137983.82449      1193.448    20197386.378    82704922.31348
       929.960  
  20673146.305   108638116.76849      1404.703    20673146.118    84653077.19848
      1094.574  
  22610486.140   118818905.37548      2966.042    22610485.270    92586157.38546
      2311.203  
  23409903.301   123019871.85148     -3457.641    23409904.420    95859641.88447
     -2694.270  
  22744239.128   119521782.51148     -2989.632    22744239.406    93133856.08747
     -2329.589  
  24039224.694   126326976.96947     -1250.386    24039226.957    98436611.22045
      -974.332  
  20606999.912   108290513.97249      -923.672    20606998.929    84382216.38948
      -719.746  
  19700487.155   105495216.27509      1496.754    19700490.374    82051847.68908
      1164.141  
  19996493.636   107042795.47009     -2146.319    19996496.824    83255520.79208
     -1669.362  
  21584909.012   115221706.56307     -4064.820    21584915.037    89616907.69107
     -3161.530  
  22655647.996   121022394.65807       476.991    22655653.752    94128561.03006
       370.987  
  23372512.520   124939460.96506      3689.183    23372518.508    97175172.62006
      2869.363  
  22046765.549   117893958.26505      3594.270    22046771.451    91695327.87607
      2795.543  
  19501940.312   104322230.11806      -782.148    19501943.001    81139522.67007
      -608.340  
 20 09 30 05 38  0.0000000  0 14G15G18G20G29G 5G30G13R 4R 3R18R12R 5
                                R20R19
  20196252.742   106132023.52149      1190.875    20196252.171    82700277.92348
       927.953  
  20671810.857   108631098.91149      1402.637    20671810.657    84647608.73848
      1092.964  
  22607664.469   118804077.33448      2965.468    22607663.589    92574603.07045
      2310.750  
  23413193.653   123037162.57848     -3458.269    23413194.742    95873115.17246
     -2694.758  
  22747083.977   119536732.19848     -2990.026    22747084.251    93145505.19047
     -2329.895  
  24040415.633   126333235.42247     -1252.831    24040417.925    98441487.94345
      -976.238  
  20607880.038   108295139.12649      -926.253    20607879.058    84385820.40248
      -721.758  
  19699090.632   105487738.01709      1494.644    19699093.863    82046031.26908
      1162.495  
  19998499.145   107053531.14909     -2147.651    19998502.353    83263870.75908
     -1670.397  
  21588717.215   115242035.19607     -4066.324    21588723.273    89632718.84407
     -3162.698  
  22655203.455   121020020.25107       472.882    22655209.219    94126714.26506
       367.844  
  23369062.000   124921015.92906      3688.852    23369067.899    97160826.47806
      2869.105  
  22043406.205   117875993.99905      3592.027    22043412.030    91681355.68207
      2793.801  
  19502673.266   104326151.05206      -786.555    19502675.986    81142572.28607
      -611.769  
 20 09 30 05 38  5.0000000  0 14G15G18G20G29G 5G30G13R 4R 3R18R12R 5
                                R20R19
  20195121.286   106126077.74349      1187.566    20195120.713    82695644.85648
       925.374  
  20670477.704   108624093.17649      1399.941    20670477.510    84642149.72548
      1090.858  
  22604843.330   118789252.21348      2964.882    22604842.462    92563051.02945
      2310.297  
  23416484.939   123054458.24948     -3459.637    23416485.997    95886592.30946
     -2695.823  
  22749929.438   119551685.13448     -2991.137    22749929.700    93157156.82447
     -2330.761  
  24041609.136   126339507.16647     -1255.785    24041611.447    98446374.99944
      -978.542  
  20608762.969   108299778.92949      -929.487    20608761.968    84389435.83647
      -724.277  
  19697696.441   105480272.22109      1491.788    19697699.671    82040224.54008
      1160.281  
  20000506.413   107064276.27209     -2150.030    20000509.639    83272228.07408
     -1672.250  
  21592527.200   115262372.94107     -4068.602    21592533.224    89648537.08407
     -3164.472  
  22654762.723   121017666.09707       468.737    22654768.480    94124883.26006
       364.573  
  23365612.067   124902574.15106      3687.836    23365618.056    97146482.89306
      2868.315  
  22040048.833   117858040.46405      3590.285    22040054.622    91667391.82407
      2792.444  
  19503410.368   104330093.61406      -790.621    19503412.992    81145638.72407
      -614.925  
 20 09 30 05 38 10.0000000  0 14G15G18G20G29G 5G30G13R 4R 3R18R12R 5
                                R20R19
  20193992.862   106120147.83449      1184.293    20193992.273    82691024.14648
       922.823  
  20669147.135   108617100.92649      1396.988    20669146.930    84636701.22148
      1088.562  
  22602023.030   118774431.49748      2963.589    22602022.192    92551502.43045
      2309.288  
  23419777.403   123071760.19848     -3461.141    23419778.416    95900074.34246
     -2696.995  
  22752775.773   119566642.75948     -2992.121    22752775.994    93168812.11047
     -2331.527  
  24042805.392   126345793.56947     -1258.729    24042807.747    98451273.51945
      -980.827  
  20609648.943   108304434.78549      -932.883    20609647.941    84393063.77647
      -726.921  
  19696304.887   105472820.32709      1488.742    19696308.075    82034428.62408
      1157.909  
  20002515.675   107075032.01009     -2152.292    20002518.909    83280593.65108
     -1674.007  
  21596339.113   115282721.12907     -4070.805    21596345.116    89664363.44507
     -3166.183  
  22654326.051   121015333.59607       464.184    22654331.770    94123069.08906
       361.027  
  23362162.983   124884137.03906      3687.266    23362169.009    97132142.93406
      2867.875  
  22036693.658   117840099.08405      3587.065    22036699.487    91653437.42007
      2789.940  
  19504151.701   104334059.34406      -795.922    19504154.335    81148723.18007
      -619.051  
 20 09 30 05 38 15.0000000  0 14G15G18G20G29G 5G30G13R 4R 3R18R12R 5
                                R20R19
  20192867.516   106114234.16249      1181.265    20192866.939    82686416.09148
       920.464  
  20667819.184   108610122.52649      1394.370    20667818.969    84631263.50748
      1086.520  
  22599203.627   118759615.49948      2962.883    22599202.785    92539957.49345
      2308.734  
  23423071.122   123089068.75048     -3462.273    23423072.122    95913561.51746
     -2697.879  
  22755623.069   119581605.33848     -2992.870    22755623.270    93180471.26147
     -2332.108  
  24044004.531   126352095.02647     -1261.784    24044006.886    98456183.73345
      -983.214  
  20610538.038   108309106.98149      -936.007    20610537.038    84396704.45148
      -729.358  
  19694915.942   105465382.61809      1486.015    19694919.136    82028643.74408
      1155.788  
  20004526.998   107085798.75109     -2154.495    20004530.227    83288967.78208
     -1675.719  
  21600153.056   115303080.21307     -4072.980    21600159.057    89680198.28207
     -3167.879  
  22653893.505   121013023.07607       459.995    22653899.213    94121272.01706
       357.844  
  23358714.901   124865704.97306      3685.808    23358720.855    97117806.87406
      2866.734  
  22033340.885   117822170.08105      3585.065    22033346.659    91639492.64507
      2788.386  
  19504897.367   104338048.40106      -800.210    19504900.040    81151825.78007
      -622.391  
 20 09 30 05 38 20.0000000  0 14G15G18G20G29G 5G30G13R 4R 3R18R12R 5
                                R20R19
  20191745.255   106108336.67549      1177.902    20191744.687    82681820.65348
       917.847  
  20666493.867   108603157.90549      1391.675    20666493.646    84625836.53048
      1084.422  
  22596385.108   118744804.05048      2961.906    22596384.264    92528416.11945
      2307.979  
  23426366.071   123106383.85448     -3463.581    23426367.098    95927053.79946
     -2698.898  
  22758471.267   119596572.75148     -2993.969    22758471.450    93192134.17847
     -2332.964  
  24045206.471   126358411.38747     -1264.651    24045208.896    98461105.57545
      -985.449  
  20611430.224   108313795.47749      -939.296    20611429.229    84400357.82448
      -731.922  
  19693529.673   105457959.08809      1483.312    19693532.852    82022869.88908
      1153.687  
  20006540.329   107096576.42309     -2156.598    20006543.593    83297350.41108
     -1677.359  
  21603969.001   115323450.08007     -4074.961    21603975.040    89696041.50207
     -3169.417  
  22653465.097   121010734.50507       455.554    22653470.742    94119492.01706
       354.315  
  23355267.686   124847277.81807      3685.058    23355273.623    97103474.67806
      2866.159  
  22029990.465   117804253.63005      3582.214    22029996.148    91625557.63007
      2786.168  
  19505647.401   104342060.73606      -804.839    19505650.110    81154946.48107
      -625.988  
 20 09 30 05 38 25.0000000  0 14G15G18G20G29G 5G30G13R 4R 3R18R12R 5
                                R20R19
  20190625.817   106102453.95949      1174.917    20190625.228    82677236.72048
       915.520  
  20665170.905   108596205.69449      1388.968    20665170.670    84620419.22748
      1082.313  
  22593567.170   118729995.81048      2961.081    22593566.365    92516877.23445
      2307.335  
  23429662.034   123123704.10048     -3464.699    23429663.016    95940550.09446
     -2699.769  
  22761320.155   119611543.66648     -2994.726    22761320.282    93203799.82447
     -2333.554  
  24046410.999   126364741.31647     -1267.671    24046413.464    98466037.98445
      -987.800  
  20612325.256   108318498.87349      -942.387    20612324.263    84404022.80547
      -734.331  
  19692145.756   105450548.24209      1480.702    19692148.930    82017105.90008
      1151.655  
  20008555.489   107107363.60509     -2158.604    20008558.744    83305740.44008
     -1678.918  
  21607786.652   115343829.21007     -4076.917    21607792.744    89711891.93107
     -3170.940  
  22653040.530   121008466.44807       451.390    22653046.164    94117727.97006
       351.077  
  23351821.116   124828854.14806      3684.449    23351827.123    97089145.14806
      2865.683  
  22026641.989   117786348.01405      3580.124    22026647.685    91611631.04107
      2784.542  
  19506401.529   104346095.09406      -809.480    19506404.305    81158084.31207
      -629.602  
 20 09 30 05 38 30.0000000  0 14G15G18G20G29G 5G30G13R 4R 3R18R12R 5
                                R20R19
  20189509.297   106096586.69749      1171.965    20189508.734    82672664.83148
       913.219  
  20663850.420   108589266.56049      1386.418    20663850.174    84615012.11248
      1080.323  
  22590749.980   118715191.46848      2960.500    22590749.193    92505341.38446
      2306.882  
  23432959.106   123141030.11148     -3465.930    23432960.044    95954050.87546
     -2700.726  
  22764169.823   119626518.70648     -2995.328    22764169.923    93215468.69247
     -2334.026  
  24047618.245   126371085.43647     -1270.194    24047620.697    98470981.43245
      -989.766  
  20613223.242   108323217.85149      -945.401    20613222.263    84407699.93447
      -736.680  
  19690764.317   105443150.76209      1478.112    19690767.518    82011352.30808
      1149.644  
  20010572.528   107118160.97509     -2160.422    20010575.790    83314138.39308
     -1680.332  
  21611606.233   115364218.26807     -4078.703    21611612.330    89727750.08107
     -3172.327  
  22652619.981   121006219.57507       447.222    22652625.575    94115980.40406
       347.835  
  23348375.402   124810434.80106      3683.362    23348381.417    97074819.01506
      2864.839  
  22023295.664   117768454.21005      3577.179    22023301.433    91597713.64807
      2782.250  
  19507159.809   104350151.94006      -813.891    19507162.690    81161239.63907
      -633.031  
 20 09 30 05 38 35.0000000  0 14G15G18G20G29G 5G30G13R 4R 3R18R12R 5
                                R20R19
  20188395.915   106090735.90249      1168.331    20188395.356    82668105.76948
       910.383  
  20662532.621   108582341.51049      1383.534    20662532.365    84609615.96648
      1078.073  
  22587933.736   118700392.00948      2959.348    22587932.972    92493809.33945
      2305.984  
  23436257.426   123158362.86648     -3467.073    23436258.402    95967556.91046
     -2701.621  
  22767020.457   119641498.85648     -2996.741    22767020.555    93227141.52246
     -2335.129  
  24048828.374   126377444.73747     -1273.440    24048830.783    98475936.75344
      -992.293  
  20614124.380   108327953.36249      -948.913    20614123.408    84411389.94147
      -739.413  
  19689385.609   105435767.74709      1475.063    19689388.785    82005609.96508
      1147.270  
  20012591.677   107128969.57309     -2162.996    20012594.927    83322545.07908
     -1682.336  
  21615427.904   115384618.41907     -4081.280    21615433.973    89743616.86407
     -3174.332  
  22652203.528   121003995.02307       442.444    22652209.163    94114250.19006
       344.120  
  23344930.625   124792020.61707      3682.285    23344936.590    97060496.88306
      2864.000  
  22019951.904   117750573.21705      3574.434    22019957.606    91583806.21207
      2780.113  
  19507922.596   104354232.42906      -818.570    19507925.502    81164413.35307
      -636.668  
 20 09 30 05 38 40.0000000  0 14G15G18G20G29G 5G30G13R 4R 3R18R12R 5
                                R20R19
  20187285.924   106084902.85749      1165.242    20187285.365    82663560.53948
       907.977  
  20661217.766   108575431.87149      1380.675    20661217.513    84604231.83648
      1075.852  
  22585118.662   118685598.78748      2958.121    22585117.849    92482282.15945
      2305.030  
  23439557.270   123175703.72748     -3468.656    23439558.331    95981069.25746
     -2702.852  
  22769872.289   119656485.46148     -2997.343    22769872.403    93238819.39347
     -2335.598  
  24050041.638   126383820.54947     -1276.375    24050044.033    98480904.90345
      -994.581  
  20615028.915   108332706.73049      -952.074    20615027.952    84415093.86748
      -741.874  
  19688009.833   105428400.50309      1472.343    19688012.990    81999879.88808
      1145.155  
  20014613.144   107139790.61409     -2165.038    20014616.388    83330961.44308
     -1683.922  
  21619251.824   115405030.73207     -4083.112    21619257.900    89759493.10007
     -3175.757  
  22651791.510   121001794.03307       438.223    22651797.089    94112538.31506
       340.840  
  23341487.082   124773612.96706      3681.374    23341493.066    97046179.81906
      2863.288  
  22016610.668   117732706.19005      3572.938    22016616.397    91569909.63607
      2778.952  
  19508690.034   104358337.86406      -822.820    19508692.984    81167606.46707
      -639.977  
 20 09 30 05 38 45.0000000  0 14G15G18G20G29G 5G30G13R 4R 3R18R12R 5
                                R20R19
  20186178.656   106079084.15549      1161.901    20186178.111    82659026.48948
       905.374  
  20659905.178   108568534.20649      1377.938    20659904.939    84598857.03448
      1073.718  
  22582304.147   118670808.34748      2957.313    22582303.359    92470757.13946
      2304.397  
  23442857.961   123193049.16647     -3469.866    23442859.056    95994585.17346
     -2703.796  
  22772724.702   119671475.05648     -2998.477    22772724.819    93250499.59147
     -2336.480  
  24051257.399   126390209.44447     -1279.644    24051259.859    98485883.25545
      -997.129  
  20615936.203   108337474.52649      -955.339    20615935.232    84418809.02648
      -744.425  
  19686636.353   105421045.54809      1469.270    19686639.489    81994159.36908
      1142.765  
  20016636.325   107150620.73609     -2167.292    20016639.545    83339384.87008
     -1685.675  
  21623077.394   115425451.85607     -4085.374    21623083.485    89775376.18707
     -3177.519  
  22651383.310   120999613.13007       433.785    22651388.784    94110842.06506
       337.387  
  23338044.151   124755208.46807      3680.269    23338050.056    97031865.24006
      2862.437  
  22013271.412   117714849.90405      3569.574    22013277.152    91556021.41907
      2776.336  
  19509461.446   104362464.71106      -827.976    19509464.470    81170816.23707
      -643.980  
 20 09 30 05 38 50.0000000  0 14G15G18G20G29G 5G30G13R 4R 3R18R12R 5
                                R20R19
  20185074.543   106073282.03349      1158.984    20185074.012    82654505.35548
       903.104  
  20658595.295   108561650.75749      1375.483    20658595.055    84593493.30748
      1071.800  
  22579490.548   118656022.94048      2956.859    22579489.770    92459236.05345
      2304.046  
  23446159.985   123210401.41548     -3470.698    23446161.094    96008106.40346
     -2704.445  
  22775578.090   119686469.86848     -2999.319    22775578.161    93262183.86046
     -2337.137  
  24052476.057   126396613.59947     -1282.094    24052478.575    98490873.50645
      -999.035  
  20616846.635   108342258.94149      -958.246    20616845.684    84422537.14448
      -746.684  
  19685265.551   105413705.02909      1466.930    19685268.700    81988450.07808
      1140.945  
  20018661.604   107161462.14909     -2169.132    20018664.813    83347817.08108
     -1687.105  
  21626905.000   115445883.96807     -4087.145    21626911.115    89791267.82607
     -3178.894  
  22650979.273   120997454.55607       429.593    22650984.672    94109163.17506
       334.047  
  23334602.195   124736809.36607      3679.348    23334608.132    97017554.83106
      2861.715  
  22009934.649   117697006.57705      3567.105    22009940.341    91542143.28707
      2774.414  
  19510237.317   104366615.15606      -832.062    19510240.337    81174044.36307
      -647.160  
 20 09 30 05 38 55.0000000  0 14G15G18G20G29G 5G30G13R 4R 3R18R12R 5
                                R20R19
  20183973.280   106067494.82649      1155.526    20183972.743    82649995.84448
       900.405  
  20657287.798   108554779.87749      1372.445    20657287.555    84588139.37748
      1069.433  
  22576677.630   118641240.89448      2955.659    22576676.871    92447717.57846
      2303.113  
  23449462.983   123227758.85248     -3472.487    23449464.079    96021631.67046
     -2705.839  
  22778432.150   119701468.17848     -3000.495    22778432.182    93273870.84946
     -2338.054  
  24053697.352   126403031.36247     -1285.395    24053699.789    98495874.36145
     -1001.604  
  20617759.916   108347058.32749      -961.809    20617758.977    84426276.92747
      -749.464  
  19683897.183   105406377.44709      1463.824    19683900.311    81982750.85108
      1138.531  
  20020688.664   107172313.10009     -2171.515    20020691.876    83356256.70708
     -1688.961  
  21630734.346   115466325.40107     -4089.866    21630740.520    89807166.70907
     -3181.012  
  22650579.007   120995316.68807       425.214    22650584.482    94107500.39406
       330.722  
  23331160.933   124718413.93907      3677.948    23331166.861    97003247.29506
      2860.628  
  22006600.072   117679174.56305      3564.531    22006605.649    91528273.94307
      2772.410  
  19511017.383   104370787.64306      -837.191    19511020.354    81177289.62607
      -651.151  
 20 09 30 05 39  0.0000000  0 14G15G18G20G29G 5G30G13R 4R 3R18R12R 5
                                R20R19
  20182875.070   106061723.69349      1152.750    20182874.533    82645498.85948
       898.246  
  20655982.941   108547922.74449      1370.229    20655982.686    84582796.15648
      1067.710  
  22573865.545   118626463.41448      2955.339    22573864.819    92436202.66645
      2302.863  
  23452767.205   123245122.59448     -3473.293    23452768.279    96035161.84646
     -2706.464  
  22781287.109   119716471.24848     -3000.737    22781287.142    93285561.55747
     -2338.237  
  24054921.432   126409463.94247     -1288.245    24054923.881    98500886.75045
     -1003.832  
  20618676.262   108351873.85449      -964.542    20618675.349    84430029.28448
      -751.597  
  19682531.444   105399063.85009      1461.414    19682534.542    81977062.50108
      1136.655  
  20022717.714   107183174.70109     -2173.172    20022720.922    83364704.62108
     -1690.245  
  21634565.616   115486777.23107     -4091.215    21634571.851    89823073.68407
     -3182.058  
  22650182.903   120993200.64407       420.976    22650188.406    94105854.57606
       327.421  
  23327720.600   124700023.45107      3677.964    23327726.525    96988943.58406
      2860.640  
  22003267.671   117661354.81305      3562.324    22003273.281    91514414.13907
      2770.695  
  19511801.741   104374983.39806      -841.343    19511804.706    81180552.99207
      -654.383  
 20 09 30 05 39  5.0000000  0 14G15G18G20G29G 5G30G13R 4R 3R18R12R 5
                                R20R19
  20181779.929   106055968.65649      1149.272    20181779.379    82641014.41448
       895.535  
  20654680.689   108541079.36049      1367.214    20654680.419    84577463.65348
      1065.363  
  22571054.345   118611690.48948      2954.284    22571053.550    92424691.30045
      2302.039  
  23456072.625   123262492.63248     -3474.711    23456073.657    96048696.94046
     -2707.569  
  22784142.986   119731479.04448     -3001.940    22784142.976    93297255.94046
     -2339.180  
  24056148.343   126415911.27747     -1290.940    24056150.777    98505910.65445
     -1005.933  
  20619595.681   108356705.46249      -968.042    20619594.774    84433794.17748
      -754.324  
  19681168.312   105391764.31209      1458.358    19681171.397    81971385.08308
      1134.281  
  20024748.767   107194047.05709     -2175.667    20024751.961    83373160.89508
     -1692.188  
  21638398.904   115507239.68007     -4093.530    21638405.186    89838988.91707
     -3183.863  
  22649790.827   120991106.52807       416.359    22649796.442    94104225.81306
       323.832  
  23324281.115   124681637.81106      3676.526    23324287.106    96974643.65406
      2859.520  
  21999937.653   117643547.70705      3559.909    21999943.266    91500564.17907
      2768.819  
  19512590.410   104379202.34006      -846.183    19512593.400    81183834.39207
      -658.147  
 20 09 30 05 39 10.0000000  0 14G15G18G20G29G 5G30G13R 4R 3R18R12R 5
                                R20R19
  20180687.786   106050229.43749      1146.116    20180687.250    82636542.29848
       893.078  
  20653380.997   108534249.46949      1364.585    20653380.726    84572141.66048
      1063.313  
  22568243.971   118596921.87548      2953.582    22568243.170    92413183.29445
      2301.492  
  23459379.187   123279868.70048     -3476.090    23459380.238    96062236.71546
     -2708.644  
  22786999.700   119746491.30348     -3002.777    22786999.706    93308953.80347
     -2339.832  
  24057378.006   126422373.14147     -1293.793    24057380.440    98510945.85545
     -1008.151  
  20620518.119   108361552.90849      -971.262    20620517.219    84437571.40448
      -756.831  
  19679807.737   105384478.43209      1455.797    19679810.803    81965718.29008
      1132.285  
  20026781.790   107204929.92609     -2177.663    20026784.972    83381625.34408
     -1693.741  
  21642234.109   115527712.29207     -4095.511    21642240.408    89854912.04807
     -3185.402  
  22649402.830   120989033.98007       412.495    22649408.471    94102613.83206
       320.827  
  23320842.601   124663256.79606      3675.265    23320848.562    96960347.32706
      2858.539  
  21996609.862   117625752.73205      3557.730    21996615.515    91486723.64207
      2767.124  
  19513383.390   104383444.15506      -851.285    19513386.362    81187133.57607
      -662.113  
 20 09 30 05 39 15.0000000  0 14G15G18G20G29G 5G30G13R 4R 3R18R12R 5
                                R20R19
  20179598.855   106044507.13049      1142.695    20179598.340    82632083.36548
       890.409  
  20652084.096   108527434.20349      1361.624    20652083.817    84566831.06648
      1061.008  
  22565434.602   118582158.69848      2952.043    22565433.817    92401679.52845
      2300.293  
  23462687.087   123297251.86248     -3477.352    23462688.192    96075782.04346
     -2709.629  
  22789857.473   119761509.12848     -3004.020    22789857.470    93320655.99346
     -2340.796  
  24058610.644   126428850.63547     -1297.301    24058613.148    98515993.24645
     -1010.887  
  20621443.783   108366417.30449      -974.515    20621442.892    84441361.84948
      -759.363  
  19678449.954   105377207.56209      1452.582    19678453.019    81960063.16608
      1129.780  
  20028816.978   107215824.38109     -2180.066    20028820.147    83390098.80608
     -1695.609  
  21646071.467   115548196.18307     -4098.015    21646077.745    89870843.96007
     -3187.347  
  22649019.119   120986984.20207       407.523    22649024.739    94101019.55306
       317.012  
  23317405.054   124644881.44507      3674.300    23317411.077    96946055.40606
      2857.788  
  21993284.689   117607971.25805      3555.097    21993290.299    91472893.61407
      2765.073  
  19514180.818   104387710.07206      -855.628    19514183.837    81190451.51007
      -665.488  
 20 09 30 05 39 20.0000000  0 14G15G18G20G29G 5G30G13R 4R 3R18R12R 5
                                R20R19
  20178512.896   106038800.37949      1139.944    20178512.389    82627636.54548
       888.269  
  20650789.712   108520632.17249      1359.344    20650789.435    84561530.78648
      1059.227  
  22562626.041   118567399.54648      2951.757    22562625.235    92390178.88346
      2300.070  
  23465996.081   123314640.74048     -3478.190    23465997.151    96089331.80446
     -2710.280  
  22792716.052   119776531.12048     -3004.687    22792716.053    93332361.44446
     -2341.320  
  24059845.978   126435342.32647     -1299.226    24059848.456    98521051.72044
     -1012.382  
  20622372.403   108371297.27049      -977.242    20622371.518    84445164.41748
      -761.492  
  19677094.688   105369950.17809      1450.438    19677097.755    81954418.54108
      1128.117  
  20030854.082   107226728.91109     -2181.789    20030857.211    83398580.10508
     -1696.949  
  21649910.670   115568689.98507     -4099.519    21649916.938    89886783.57507
     -3188.520  
  22648639.433   120984955.70407       403.702    22648645.001    94099441.83606
       313.987  
  23313968.364   124626510.52806      3674.296    23313974.382    96931766.92706
      2857.785  
  21989961.632   117590201.62905      3553.483    21989967.275    91459072.79407
      2763.820  
  19514982.548   104391998.57206      -859.495    19514985.527    81193787.01107
      -668.499  
 20 09 30 05 39 25.0000000  0 14G15G18G20G29G 5G30G13R 4R 3R18R12R 5
                                R20R19
  20177429.764   106033108.51149      1136.804    20177429.280    82623201.33248
       885.820  
  20649497.713   108513842.70449      1356.577    20649497.427    84556240.29148
      1057.070  
  22559818.084   118552643.75948      2950.788    22559817.288    92378680.87345
      2299.315  
  23469306.015   123332034.65948     -3479.320    23469307.133    96102885.50146
     -2711.163  
  22795575.267   119791556.58748     -3005.472    22795575.288    93344069.59647
     -2341.930  
  24061083.932   126441847.60047     -1302.628    24061086.221    98526120.75445
     -1015.038  
  20623303.871   108376192.10349      -980.582    20623302.966    84448978.57247
      -764.094  
  19675741.808   105362705.56609      1447.601    19675744.876    81948783.84408
      1125.914  
  20032892.893   107237642.91609     -2183.820    20032896.025    83407068.77708
     -1698.526  
  21653751.524   115589192.94307     -4101.453    21653757.832    89902730.31407
     -3190.022  
  22648263.528   120982947.93607       399.469    22648269.128    94097880.24106
       310.699  
  23310532.428   124608143.38606      3672.906    23310538.453    96917481.38006
      2856.702  
  21986640.676   117572443.48605      3550.519    21986646.422    91445260.91307
      2761.515  
  19515788.333   104396309.03706      -864.527    19515791.315    81197139.59307
      -672.413  
 20 09 30 05 39 30.0000000  0 14G15G18G20G29G 5G30G13R 4R 3R18R12R 5
                                R20R19
  20176350.060   106027434.59849      1132.816    20176349.576    82618780.09548
       882.714  
  20648208.710   108507068.88349      1353.046    20648208.412    84550961.99248
      1054.320  
  22557011.371   118537894.38248      2948.909    22557010.560    92367187.85445
      2297.851  
  23472617.531   123349436.63548     -3481.378    23472618.604    96116445.48446
     -2712.765  
  22798435.766   119806588.60848     -3007.121    22798435.802    93355782.86147
     -2343.210  
  24062324.997   126448369.41047     -1305.780    24062327.213    98531202.69045
     -1017.491  
  20624238.728   108381104.87149      -984.426    20624237.842    84452806.70148
      -767.090  
  19674391.911   105355476.89809      1443.847    19674394.966    81943161.54908
      1122.992  
  20034934.025   107248569.50709     -2186.745    20034937.196    83415567.23508
     -1700.804  
  21657594.782   115609708.17007     -4104.440    21657601.032    89918686.60207
     -3192.348  
  22647892.144   120980963.91607       394.354    22647897.692    94096337.11006
       306.718  
  23307097.758   124589783.07407      3671.151    23307103.756    96903201.14506
      2855.340  
  21983322.516   117554699.79105      3547.237    21983328.284    91431460.26107
      2758.965  
  19516598.844   104400644.60306      -869.819    19516601.796    81200511.69907
      -676.530  
 20 09 30 05 39 35.0000000  0 14G15G18G20G29G 5G30G13R 4R 3R18R12R 5
                                R20R19
  20175273.128   106021775.22249      1130.707    20175272.642    82614370.19748
       881.066  
  20646922.018   108500307.30349      1351.414    20646921.712    84545693.23048
      1053.050  
  22554205.221   118523147.99648      2949.437    22554204.377    92355697.16045
      2298.261  
  23475929.914   123366843.22848     -3481.414    23475931.010    96130009.04746
     -2712.793  
  22801296.856   119821623.77148     -3006.902    22801296.874    93367498.56546
     -2343.042  
  24063568.591   126454904.47647     -1308.183    24063570.823    98536294.93845
     -1019.367  
  20625176.351   108386032.17849      -986.640    20625175.485    84456646.16148
      -768.812  
  19673044.341   105348260.66009      1442.297    19673047.369    81937548.91908
      1121.785  
  20036976.926   107259505.12909     -2187.772    20036980.038    83424072.71408
     -1701.605  
  21661439.618   115630232.07307     -4105.319    21661445.872    89934649.63207
     -3193.031  
  22647524.537   120979000.22607       390.945    22647530.085    94094809.79306
       304.066  
  23303663.667   124571426.01706      3671.531    23303669.685    96888923.44706
      2855.637  
  21980006.326   117536967.03805      3545.847    21980012.180    91417668.13007
      2757.882  
  19517413.249   104405001.68006      -873.401    19517416.297    81203900.53307
      -679.315  
 20 09 30 05 39 40.0000000  0 14G15G18G20G29G 5G30G13R 4R 3R18R12R 5
                                R20R19
  20174198.904   106016130.10149      1127.281    20174198.411    82609971.40248
       878.401  
  20645637.610   108493557.66249      1348.445    20645637.298    84540433.77048
      1050.737  
  22551399.610   118508404.37948      2947.852    22551398.772    92344208.64346
      2297.026  
  23479243.115   123384254.15747     -3482.875    23479244.257    96143575.98946
     -2713.934  
  22804158.474   119836661.76948     -3008.202    22804158.524    93379216.48147
     -2344.059  
  24064814.643   126461452.40247     -1311.414    24064816.882    98541397.21744
     -1021.887  
  20626116.684   108390973.65849      -990.069    20626115.802    84460496.66547
      -771.488  
  19671699.039   105341056.59609      1439.230    19671702.063    81931945.76708
      1119.402  
  20039021.397   107270449.52909     -2190.062    20039024.529    83432585.02608
     -1703.387  
  21665286.044   115650764.49407     -4107.444    21665292.292    89950619.28407
     -3194.684  
  22647160.687   120977056.54007       386.383    22647166.230    94093298.03806
       300.520  
  23300230.134   124553072.03107      3669.905    23300236.265    96874648.14706
      2854.375  
  21976692.301   117519245.05105      3542.852    21976698.057    91403884.36607
      2755.551  
  19518231.716   104409380.08106      -877.992    19518234.800    81207305.95707
      -682.886  
 20 09 30 05 39 45.0000000  0 14G15G18G20G29G 5G30G13R 4R 3R18R12R 5
                                R20R19
  20173128.002   106010502.47649      1123.934    20173127.518    82605586.24248
       875.793  
  20644356.077   108486823.22249      1345.703    20644355.777    84535186.15648
      1048.602  
  22548595.107   118493666.70748      2947.249    22548594.286    92332724.74545
      2296.559  
  23482557.764   123401672.63147     -3484.218    23482558.869    96157148.83446
     -2714.979  
  22807021.242   119851705.81148     -3009.156    22807021.330    93390939.10247
     -2344.801  
  24066063.753   126468016.42247     -1314.104    24066065.980    98546512.03346
     -1023.979  
  20627060.332   108395932.59649      -993.265    20627059.464    84464360.77047
      -773.977  
  19670356.607   105333867.96409      1436.394    19670359.637    81926354.61108
      1117.195  
  20041068.160   107281406.04209     -2192.234    20041071.298    83441106.76008
     -1705.074  
  21669134.645   115671308.71107     -4109.835    21669140.915    89966598.11507
     -3196.542  
  22646801.182   120975136.13007       382.199    22646806.718    94091804.38406
       297.262  
  23296797.832   124534724.31707      3669.167    23296803.902    96860377.71006
      2853.796  
  21973380.875   117501537.11805      3540.520    21973386.561    91390111.52707
      2753.734  
  19519054.760   104413783.03106      -882.366    19519057.878    81210730.47307
      -686.289  
 20 09 30 05 39 50.0000000  0 14G15G18G20G29G 5G30G13R 4R 3R18R12R 5
                                R20R19
  20172059.919   106004889.59649      1121.019    20172059.431    82601212.57348
       873.523  
  20643076.938   108480101.23949      1343.070    20643076.619    84529948.25048
      1046.542  
  22545791.232   118478932.27748      2946.414    22545790.395    92321243.37146
      2295.906  
  23485873.312   123419095.92248     -3485.167    23485874.420    96170725.42746
     -2715.718  
  22809884.683   119866753.19948     -3009.969    22809884.738    93402664.33946
     -2345.433  
  24067315.389   126474593.81547     -1317.023    24067317.680    98551637.28645
     -1026.254  
  20628006.775   108400906.21849      -996.316    20628005.913    84468236.32348
      -776.354  
  19669016.563   105326691.96209      1433.858    19669019.569    81920773.27508
      1115.223  
  20043116.651   107292371.74609     -2194.184    20043119.798    83449635.63808
     -1706.589  
  21672984.902   115691861.80407     -4111.929    21672991.206    89982583.84007
     -3198.172  
  22646445.582   120973236.26507       377.758    22646451.087    94090326.70106
       293.848  
  23293366.228   124516380.21007      3668.147    23293372.285    96846110.09306
      2853.004  
  21970071.413   117483840.34505      3538.319    21970077.192    91376347.37607
      2752.026  
  19519881.837   104418207.83906      -887.004    19519885.041    81214171.99007
      -689.895  
 20 09 30 05 39 55.0000000  0 14G15G18G20G29G 5G30G13R 4R 3R18R12R 5
                                R20R19
  20170994.670   105999291.64749      1117.910    20170994.178    82596850.53848
       871.097  
  20641800.185   108473391.89149      1340.516    20641799.865    84524720.18848
      1044.555  
  22542987.997   118464201.27348      2945.605    22542987.186    92309764.66945
      2295.276  
  23489189.830   123436524.15648     -3486.227    23489190.958    96184305.84546
     -2716.542  
  22812748.771   119881804.08648     -3010.840    22812748.834    93414392.30247
     -2346.112  
  24068569.607   126481184.74547     -1319.651    24068571.997    98556773.06645
     -1028.305  
  20628956.041   108405894.70849      -999.464    20628955.184    84472123.45948
      -778.805  
  19667678.919   105319528.78509      1431.164    19667681.882    81915201.91608
      1113.124  
  20045166.913   107303346.98809     -2196.062    20045170.073    83458171.93508
     -1708.050  
  21676836.896   115712424.00707     -4113.452    21676843.228    89998576.65907
     -3199.355  
  22646093.840   120971357.10307       373.633    22646099.357    94088865.13606
       290.598  
  23289935.269   124498039.85807      3667.479    23289941.324    96831845.38706
      2852.488  
  21966764.122   117466155.21305      3535.515    21966769.984    91362592.28007
      2749.843  
  19520713.137   104422654.69906      -892.003    19520716.319    81217630.65707
      -693.784  
 20 09 30 05 40  0.0000000  0 14G15G18G20G29G 5G30G13R 4R 3R18R12R 5
                                R20R19
  20169932.495   105993709.81749      1114.082    20169931.983    82592501.06248
       868.116  
  20640526.081   108466696.45849      1337.147    20640525.759    84519502.96748
      1041.930  
  22540185.647   118449474.97948      2943.859    22540184.874    92298289.64045
      2293.917  
  23492507.521   123453958.57948     -3488.261    23492508.588    96197891.11346
     -2718.129  
  22815613.785   119896859.71048     -3012.395    22815613.852    93426123.94947
     -2347.323  
  24069826.636   126487790.44747     -1323.241    24069829.034    98561920.36345
     -1031.101  
  20629908.377   108410899.29649     -1003.160    20629907.525    84476023.13648
      -781.688  
  19666343.839   105312379.68109      1427.699    19666346.830    81909641.50508
      1110.434  
  20047219.173   107314332.80209     -2198.784    20047222.306    83466716.45108
     -1710.172  
  21680690.818   115732996.59807     -4116.065    21680697.188    90014577.55407
     -3201.391  
  22645746.149   120969499.92807       368.605    22645751.712    94087420.66506
       286.688  
  23286505.148   124479704.42807      3665.977    23286511.268    96817584.50906
      2851.316  
  21963459.334   117448482.67905      3532.457    21963465.124    91348846.97707
      2747.464  
  19521548.712   104427124.68106      -896.796    19521551.950    81221107.30707
      -697.512  
 20 09 30 05 40  5.0000000  0 14G15G18G20G29G 5G30G13R 4R 3R18R12R 5
                                R20R19
  20168873.794   105988146.24249      1111.034    20168873.271    82588165.81048
       865.738  
  20639255.023   108460016.97349      1334.519    20639254.703    84514298.17448
      1039.887  
  22537384.604   118434755.37048      2943.262    22537383.851    92286819.82445
      2293.449  
  23495826.746   123471401.22748     -3488.980    23495827.785    96211482.79346
     -2718.690  
  22818480.055   119911922.12248     -3012.964    22818480.186    93437860.89047
     -2347.765  
  24071086.863   126494412.98347     -1326.038    24071089.255    98567080.78845
     -1033.280  
  20630864.171   108415922.05849     -1006.121    20630863.333    84479936.97948
      -783.991  
  19665011.814   105305246.80709      1425.211    19665014.803    81904093.71908
      1108.495  
  20049273.826   107325331.43109     -2200.726    20049276.929    83475270.94508
     -1711.680  
  21684547.074   115753581.58607     -4118.257    21684553.457    90030588.09607
     -3203.094  
  22645403.001   120967666.85907       364.382    22645408.566    94085994.94506
       283.461  
  23283076.517   124461376.21106      3665.379    23283082.560    96803329.23806
      2850.852  
  21960157.211   117430825.08905      3530.391    21960163.059    91335113.29707
      2745.859  
  19522388.973   104431619.92006      -901.211    19522392.287    81224603.60407
      -700.940  
 20 09 30 05 40 10.0000000  0 14G15G18G20G29G 5G30G13R 4R 3R18R12R 5
                                R20R19
  20167818.126   105982598.57449      1108.155    20167817.586    82583842.95748
       863.499  
  20637986.554   108453351.12449      1331.964    20637986.235    84509104.01048
      1037.890  
  22534584.381   118420040.19348      2942.520    22534583.645    92275353.45045
      2292.871  
  23499147.095   123488849.77947     -3490.305    23499148.147    96225079.05846
     -2719.722  
  22821347.197   119926989.02248     -3013.465    22821347.368    93449601.33247
     -2348.160  
  24072349.831   126501049.98547     -1328.477    24072352.180    98572252.47345
     -1035.180  
  20631822.977   108420960.62049     -1009.074    20631822.132    84483863.13248
      -786.292  
  19663682.375   105298127.78809      1422.555    19663685.354    81898556.70508
      1106.430  
  20051330.400   107336340.33709     -2202.570    20051333.492    83483833.42508
     -1713.109  
  21688405.222   115774176.58007     -4119.836    21688411.599    90046606.41607
     -3204.320  
  22645063.893   120965855.43607       360.382    22645069.471    94084586.06106
       280.292  
  23279648.675   124443052.71107      3664.331    23279654.768    96789077.65006
      2850.035  
  21956857.503   117413179.94105      3528.168    21956863.292    91321389.30307
      2744.129  
  19523233.593   104436138.19206      -906.004    19523236.937    81228117.81207
      -704.672  
 20 09 30 05 40 15.0000000  0 14G15G18G20G29G 5G30G13R 4R 3R18R12R 5
                                R20R19
  20166765.113   105977064.92549      1105.272    20166764.567    82579531.02248
       861.253  
  20636720.319   108446697.04149      1329.581    20636720.013    84503919.01048
      1036.039  
  22531784.670   118405327.54748      2942.086    22531783.964    92263889.06646
      2292.534  
  23502468.214   123506302.28347     -3491.055    23502469.215    96238678.40146
     -2720.304  
  22824214.836   119942058.53548     -3014.237    22824215.007    93461343.80447
     -2348.762  
  24073615.217   126507699.60447     -1331.237    24073617.566    98577433.98445
     -1037.331  
  20632784.432   108426013.06749     -1011.862    20632783.573    84487800.10348
      -788.464  
  19662355.152   105291020.62709      1420.047    19662358.135    81893028.91608
      1104.479  
  20053388.605   107347357.78909     -2204.476    20053391.659    83492402.55208
     -1714.597  
  21692264.899   115794779.76807     -4121.675    21692271.269    90062631.11407
     -3205.749  
  22644728.506   120964063.76607       356.313    22644734.036    94083192.53806
       277.129  
  23276221.468   124424732.04407      3663.729    23276227.465    96774828.24806
      2849.566  
  21953559.857   117395545.63705      3525.390    21953565.568    91307673.74307
      2741.968  
  19524082.133   104440677.36706      -909.714    19524085.496    81231648.28307
      -707.559  
 20 09 30 05 40 20.0000000  0 14G15G18G20G29G 5G30G13R 4R 3R18R12R 5
                                R20R19
  20165715.193   105971547.52549      1101.465    20165714.642    82575231.75348
       858.285  
  20635456.748   108440056.96449      1326.156    20635456.463    84498744.92448
      1033.367  
  22528985.845   118390619.68448      2940.730    22528985.148    92252428.38446
      2291.477  
  23505790.483   123523761.01547     -3492.781    23505791.540    96252282.58246
     -2721.651  
  22827083.369   119957132.77948     -3015.659    22827083.579    93473089.96947
     -2349.862  
  24074883.410   126514364.03247     -1334.612    24074885.719    98582627.04645
     -1039.961  
  20633748.953   108431081.66049     -1015.723    20633748.087    84491749.65848
      -791.477  
  19661030.588   105283927.58909      1416.808    19661033.545    81887512.11008
      1101.961  
  20055448.765   107358385.92309     -2207.003    20055451.821    83500979.98808
     -1716.563  
  21696126.456   115815393.17907     -4123.938    21696132.862    90078663.76207
     -3207.512  
  22644397.213   120962294.18507       351.379    22644402.759    94081816.19606
       273.289  
  23272795.190   124406416.50307      3662.050    23272801.139    96760582.84806
      2848.261  
  21950264.598   117377924.09005      3522.621    21950270.257    91293968.09307
      2739.812  
  19524935.022   104445239.84506      -915.487    19524938.395    81235196.87407
      -712.051  
 20 09 30 05 40 25.0000000  0 14G15G18G20G29G 5G30G13R 4R 3R18R12R 5
                                R20R19
  20164668.488   105966047.02249      1098.570    20164667.925    82570945.65348
       856.026  
  20634195.970   108433431.53449      1323.925    20634195.694    84493582.25448
      1031.625  
  22526188.057   118375917.20948      2940.660    22526187.370    92240971.91845
      2291.417  
  23509114.093   123541226.61548     -3493.729    23509115.192    96265892.16245
     -2722.387  
  22829952.939   119972212.40848     -3016.206    22829953.156    93484840.31447
     -2350.296  
  24076154.568   126521043.95247     -1337.227    24076156.858    98587832.17945
     -1041.999  
  20634716.661   108436167.06349     -1018.702    20634715.807    84495712.31148
      -793.796  
  19659708.776   105276849.47009      1414.296    19659711.764    81882006.90908
      1100.008  
  20057511.046   107369425.44209     -2208.914    20057514.119    83509566.28008
     -1718.046  
  21699990.130   115836017.60707     -4125.887    21699996.516    90094704.97007
     -3209.026  
  22644070.200   120960547.34007       347.284    22644075.762    94080457.54006
       270.108  
  23269369.925   124388106.71806      3661.308    23269375.919    96746341.92006
      2847.687  
  21946971.716   117360316.00905      3520.398    21946977.450    91280272.92307
      2738.081  
  19525792.443   104449826.34206      -919.449    19525795.792    81238764.15007
      -715.133  
 20 09 30 05 40 30.0000000  0 14G15G18G20G29G 5G30G13R 4R 3R18R12R 5
                                R20R19
  20163624.909   105960562.94949      1095.145    20163624.340    82566672.34748
       853.359  
  20632937.903   108426820.31249      1320.660    20632937.621    84488430.65648
      1029.085  
  22523391.221   118361219.74148      2938.828    22523390.513    92229519.35146
      2289.995  
  23512438.886   123558698.54947     -3495.203    23512439.931    96279506.63146
     -2723.538  
  22832823.451   119987296.95848     -3017.676    22832823.674    93496594.51146
     -2351.438  
  24077428.584   126527738.85747     -1340.762    24077430.865    98593048.99346
     -1044.750  
  20635687.484   108441268.77349     -1022.125    20635686.622    84499687.66748
      -796.465  
  19658389.657   105269785.67609      1411.137    19658392.643    81876512.84708
      1097.551  
  20059575.395   107380475.84609     -2211.448    20059578.442    83518161.03708
     -1720.020  
  21703855.714   115856652.57507     -4128.125    21703862.149    90110754.39107
     -3210.769  
  22643747.359   120958822.84207       342.602    22643752.962    94079116.26306
       266.465  
  23265945.680   124369802.19306      3660.531    23265951.676    96732105.08406
      2847.077  
  21943681.381   117342721.26305      3517.479    21943687.153    91266588.12607
      2735.816  
  19526654.237   104454436.29506      -924.406    19526657.582    81242349.66907
      -718.983  
 20 09 30 05 40 35.0000000  0 14G15G18G20G29G 5G30G13R 4R 3R18R12R 5
                                R20R19
  20162584.459   105955095.34549      1091.883    20162583.875    82562411.88148
       850.816  
  20631682.536   108420223.34549      1317.957    20631682.252    84483290.16148
      1026.977  
  22520595.330   118346527.23148      2938.063    22520594.600    92218070.64945
      2289.398  
  23515764.915   123576176.88547     -3496.112    23515765.915    96293126.10546
     -2724.245  
  22835694.907   120002386.52848     -3018.671    22835695.160    93508352.60847
     -2352.214  
  24078705.451   126534448.80847     -1343.757    24078707.745    98598277.51145
     -1047.090  
  20636661.415   108446386.84649     -1025.140    20636660.551    84503675.77447
      -798.816  
  19657073.237   105262736.33809      1408.563    19657076.231    81871030.03508
      1095.547  
  20061641.721   107391537.08209     -2213.269    20061644.795    83526764.21708
     -1721.438  
  21707723.368   115877298.06307     -4130.250    21707729.758    90126811.98407
     -3212.422  
  22643428.710   120957120.61607       338.374    22643434.271    94077792.30706
       263.175  
  23262522.414   124351503.09607      3659.065    23262528.387    96717872.46706
      2845.941  
  21940393.519   117325139.59005      3514.929    21940399.277    91252913.49407
      2733.836  
  19527520.390   104459069.72906      -929.296    19527523.738    81245953.45007
      -722.785  
 20 09 30 05 40 40.0000000  0 14G15G18G20G29G 5G30G13R 4R 3R18R12R 5
                                R20R19
  20161547.214   105949644.61949      1088.456    20161546.629    82558164.56248
       848.147  
  20630429.952   108413641.03749      1314.956    20630429.680    84478161.08848
      1024.636  
  22517800.449   118331840.16048      2936.808    22517799.753    92206626.18645
      2288.422  
  23519092.213   123593662.01847     -3497.758    23519093.188    96306750.88646
     -2725.530  
  22838567.394   120017481.45548     -3019.422    22838567.651    93520114.88847
     -2352.801  
  24079985.255   126541174.16147     -1346.679    24079987.621    98603518.04445
     -1049.362  
  20637638.525   108451521.65649     -1028.563    20637637.658    84507676.92948
      -801.476  
  19655759.598   105255701.76909      1405.429    19655762.582    81865558.70208
      1093.109  
  20063710.211   107402609.77809     -2215.690    20063713.320    83535376.31208
     -1723.320  
  21711593.008   115897954.49307     -4132.379    21711599.402    90142878.09107
     -3214.077  
  22643114.279   120955441.07407       333.648    22643119.879    94076485.99606
       259.504  
  23259100.215   124333209.82306      3658.309    23259106.230    96703644.37006
      2845.351  
  21937108.195   117307571.51805      3513.073    21937113.946    91239249.44607
      2732.390  
  19528391.062   104463727.04406      -933.565    19528394.383    81249575.81107
      -726.105  
 20 09 30 05 40 45.0000000  0 14G15G18G20G29G 5G30G13R 4R 3R18R12R 5
                                R20R19
  20160512.564   105944207.52849      1085.937    20160511.978    82553927.87148
       846.184  
  20629179.544   108407070.12749      1313.054    20629179.294    84473040.90348
      1023.160  
  22515005.980   118317155.21748      2936.569    22515005.301    92195183.37345
      2288.237  
  23522420.199   123611150.66948     -3498.023    23522421.181    96320378.40046
     -2725.738  
  22841440.290   120032578.53348     -3019.715    22841440.536    93531878.83947
     -2353.026  
  24081267.386   126547911.67847     -1348.765    24081269.705    98608768.05945
     -1050.988  
  20638618.205   108456669.94049     -1031.043    20638617.337    84511688.58147
      -803.413  
  19654448.106   105248678.78909      1403.445    19654451.076    81860096.38808
      1091.569  
  20065780.164   107413690.36609     -2216.961    20065783.304    83543994.54608
     -1724.309  
  21715464.107   115918618.43407     -4133.515    21715470.455    90158950.04707
     -3214.961  
  22642803.489   120953780.95507       329.883    22642809.079    94075194.79406
       256.570  
  23255678.504   124314918.97406      3657.602    23255684.454    96689418.16605
      2844.801  
  21933824.705   117290013.87705      3510.430    21933830.587    91225593.50607
      2730.335  
  19529265.597   104468404.90906      -937.753    19529268.866    81253214.14107
      -729.366  
 20 09 30 05 40 50.0000000  0 14G15G18G20G29G 5G30G13R 4R 3R18R12R 5
                                R20R19
  20159480.717   105938785.19549      1082.840    20159480.119    82549702.67548
       843.770  
  20627931.528   108400511.76249      1310.332    20627931.286    84467930.48748
      1021.038  
  22512212.144   118302473.54448      2936.108    22512211.464    92183743.10945
      2287.874  
  23525749.063   123628643.96848     -3499.480    23525750.088    96334009.53145
     -2726.870  
  22844313.786   120047678.82448     -3020.383    22844314.070    93543645.29447
     -2353.550  
  24082552.047   126554662.49547     -1351.559    24082554.404    98614028.43845
     -1053.163  
  20639600.664   108461832.79549     -1034.086    20639599.788    84515711.58447
      -805.784  
  19653138.976   105241668.45909      1400.706    19653141.946    81854643.91008
      1089.434  
  20067851.804   107424780.01709     -2218.925    20067854.951    83552619.82708
     -1725.836  
  21719336.781   115939291.12407     -4135.522    21719343.135    90175028.79007
     -3216.522  
  22642496.574   120952141.43507       326.047    22642502.134    94073919.60706
       253.590  
  23252257.516   124296631.70906      3656.792    23252263.453    96675194.75006
      2844.172  
  21930543.399   117272467.63405      3507.668    21930549.375    91211946.43507
      2728.187  
  19530144.122   104473104.60806      -941.808    19530147.447    81256869.46307
      -732.520  
 20 09 30 05 40 55.0000000  0 14G15G18G20G29G 5G30G13R 4R 3R18R12R 5
                                R20R19
  20158452.217   105933380.45549      1079.390    20158451.617    82545491.19148
       841.081  
  20626686.438   108393968.80249      1307.015    20626686.211    84462832.08048
      1018.453  
  22509419.472   118287798.07748      2934.515    22509418.803    92172307.69046
      2286.637  
  23529079.351   123646144.72047     -3500.887    23529080.383    96347646.46645
     -2727.968  
  22847188.450   120062785.19548     -3021.683    22847188.709    93555416.49146
     -2354.563  
  24083839.744   126561429.41747     -1355.124    24083842.113    98619301.35845
     -1055.944  
  20640586.451   108467013.11149     -1037.796    20640585.569    84519748.19248
      -808.672  
  19651832.762   105234673.61709      1397.288    19651835.717    81849203.48108
      1086.780  
  20069925.681   107435881.67509     -2221.608    20069928.847    83561254.44308
     -1727.922  
  21723211.677   115959975.52107     -4138.082    21723218.018    90191116.64807
     -3218.511  
  22642194.037   120950525.30407       320.843    22642199.569    94072662.61606
       249.632  
  23248837.656   124278350.91007      3655.479    23248843.601    96660976.39006
      2843.155  
  21927264.712   117254935.80405      3505.219    21927270.835    91198310.57007
      2726.281  
  19531027.339   104477829.00806      -947.551    19531030.617    81260543.99807
      -736.988  
 20 09 30 05 41  0.0000000  0 14G15G18G20G29G 5G30G13R 4R 3R18R12R 5
                                R20R19
  20157426.792   105927991.87349      1076.132    20157426.189    82541292.29748
       838.543  
  20625444.008   108387439.78649      1304.440    20625443.803    84457744.53648
      1016.445  
  22506627.713   118273127.28748      2933.726    22506627.046    92160875.91246
      2286.019  
  23532410.764   123663651.47447     -3501.940    23532411.743    96361288.08146
     -2728.788  
  22850063.969   120077896.17748     -3022.574    22850064.194    93567191.27747
     -2355.258  
  24085130.200   126568210.99847     -1357.730    24085132.647    98624585.69345
     -1057.977  
  20641575.266   108472209.40249     -1040.809    20641574.398    84523797.25148
      -811.023  
  19650529.162   105227692.83309      1394.679    19650532.098    81843773.98508
      1084.749  
  20072001.528   107446993.90909     -2223.523    20072004.713    83569897.29308
     -1729.410  
  21727088.395   115980669.79907     -4139.984    21727094.747    90207212.19907
     -3219.991  
  22641895.694   120948931.17407       316.710    22641901.140    94071422.72206
       246.327  
  23245418.828   124260075.22006      3654.913    23245424.749    96646761.96906
      2842.710  
  21923988.566   117237416.87005      3502.883    21923994.716    91184684.74107
      2724.464  
  19531914.816   104482576.31906      -951.671    19531918.075    81264236.34507
      -740.190  
 20 09 30 05 41  5.0000000  0 14G15G18G20G29G 5G30G13R 4R 3R18R12R 5
                                R20R19
  20156404.319   105922618.83449      1073.331    20156403.726    82537105.51548
       836.358  
  20624204.109   108380924.13749      1302.145    20624203.909    84452667.40748
      1014.652  
  22503836.734   118258460.59348      2933.500    22503836.061    92149447.32446
      2285.840  
  23535743.215   123681163.53147     -3502.636    23535744.236    96374933.83146
     -2729.332  
  22852940.291   120093011.19648     -3023.355    22852940.492    93578969.20547
     -2355.867  
  24086423.385   126575006.70146     -1360.090    24086425.881    98629881.05145
     -1059.808  
  20642567.015   108477421.04349     -1043.484    20642566.156    84527858.27048
      -813.105  
  19649228.070   105220725.54709      1392.542    19649231.014    81838354.98608
      1083.090  
  20074079.219   107458115.98109     -2224.988    20074082.410    83578547.79408
     -1730.551  
  21730966.965   116001373.70907     -4141.511    21730973.277    90223315.23207
     -3221.180  
  22641601.252   120947358.44107       312.715    22641606.696    94070199.50405
       243.223  
  23242000.723   124241803.99107      3654.058    23242006.721    96632551.03506
      2842.047  
  21920714.767   117219910.27105      3500.680    21920720.866    91171068.50707
      2722.749  
  19532806.568   104487346.27506      -956.190    19532809.768    81267946.31007
      -743.706  
 20 09 30 05 41 10.0000000  0 14G15G18G20G29G 5G30G13R 4R 3R18R12R 5
                                R20R19
  20155384.699   105917260.72649      1069.605    20155384.104    82532930.36448
       833.452  
  20622966.657   108374421.21649      1298.761    20622966.437    84447600.19948
      1012.020  
  22501046.429   118243797.37748      2932.089    22501045.752    92138021.44446
      2284.745  
  23539076.555   123698680.25947     -3504.316    23539077.491    96388583.23646
     -2730.636  
  22855817.233   120108129.56448     -3024.402    22855817.376    93590749.75446
     -2356.680  
  24087719.117   126581815.75547     -1363.598    24087721.527    98635186.81644
     -1062.543  
  20643561.556   108482647.42349     -1047.229    20643560.702    84531930.77048
      -816.026  
  19647929.362   105213771.05309      1389.203    19647932.313    81832945.94108
      1080.492  
  20076158.636   107469247.38809     -2227.727    20076161.834    83587205.54808
     -1732.680  
  21734847.147   116022086.35707     -4143.855    21734853.453    90239425.06507
     -3223.004  
  22641310.718   120945806.43307       307.534    22641316.132    94068992.37806
       239.190  
  23238583.397   124223536.58007      3652.495    23238589.420    96618343.06606
      2840.831  
  21917443.152   117202415.35005      3497.054    21917449.219    91157461.34307
      2719.929  
  19533702.360   104492138.03406      -961.043    19533705.545    81271673.23607
      -747.480  
 20 09 30 05 41 15.0000000  0 14G15G18G20G29G 5G30G13R 4R 3R18R12R 5
                                R20R19
  20154368.309   105911919.62149      1066.453    20154367.711    82528768.46848
       831.003  
  20621732.001   108367933.08849      1296.121    20621731.787    84442544.51248
      1009.961  
  22498257.166   118229139.70348      2931.031    22498256.500    92126599.89245
      2283.921  
  23542411.181   123716203.71047     -3505.409    23542412.052    96402237.86046
     -2731.491  
  22858695.212   120123253.38848     -3025.530    22858695.359    93602534.54847
     -2357.563  
  24089017.768   126588640.30747     -1366.374    24089020.161    98640504.63244
     -1064.710  
  20644559.294   108487890.57549     -1050.309    20644558.448    84536016.34347
      -818.421  
  19646633.450   105206831.50209      1386.370    19646636.393    81827548.51308
      1078.289  
  20078240.139   107480389.96209     -2229.793    20078243.360    83595871.99508
     -1734.288  
  21738729.400   116042809.96107     -4145.625    21738735.672    90255543.41407
     -3224.378  
  22641024.469   120944277.21707       303.195    22641029.860    94067802.98906
       235.952  
  23235167.257   124205275.01207      3651.655    23235173.226    96604139.63606
      2840.175  
  21914174.104   117184934.41005      3494.594    21914180.175    91143865.06707
      2718.015  
  19534602.638   104496953.75906      -965.632    19534605.801    81275418.79707
      -751.050  
 20 09 30 05 41 20.0000000  0 14G15G18G20G29G 5G30G13R 4R 3R18R12R 5
                                R20R19
  20153355.078   105906595.12249      1063.438    20153354.501    82524619.51348
       828.652  
  20620500.095   108361459.37949      1293.386    20620499.874    84437500.06748
      1007.827  
  22495468.880   118214487.22148      2929.991    22495468.187    92115182.37645
      2283.109  
  23545747.002   123733733.50647     -3506.397    23545747.874    96415897.43146
     -2732.261  
  22861574.145   120138382.24748     -3026.195    22861574.292    93614323.26647
     -2358.073  
  24090319.321   126595479.91947     -1369.430    24090321.653    98645834.20945
     -1067.089  
  20645560.149   108493150.09949     -1053.449    20645559.295    84540114.67547
      -820.875  
  19645340.248   105199906.40409      1383.620    19645343.188    81822162.32608
      1076.147  
  20080323.731   107491543.56109     -2231.616    20080326.945    83604547.01308
     -1735.706  
  21742613.579   116063544.00207     -4147.852    21742619.863    90271669.88507
     -3226.108  
  22640742.425   120942770.49207       299.074    22640747.774    94066631.08706
       232.609  
  23231752.061   124187018.98806      3650.929    23231758.056    96589940.52106
      2839.613  
  21910907.549   117167466.76605      3492.362    21910913.623    91130279.12207
      2716.281  
  19535507.282   104501793.11706      -969.937    19535510.460    81279182.74407
      -754.397  
 20 09 30 05 41 25.0000000  0 14G15G18G20G29G 5G30G13R 4R 3R18R12R 5
                                R20R19
  20152344.733   105901285.84849      1060.586    20152344.172    82520482.41548
       826.425  
  20619270.668   108354998.69649      1291.090    20619270.441    84432465.77548
      1006.043  
  22492681.299   118199838.47648      2929.723    22492680.632    92103767.77245
      2282.901  
  23549083.767   123751268.22747     -3507.305    23549084.664    96429560.84346
     -2732.969  
  22864453.786   120153514.73948     -3026.746    22864453.913    93626114.80347
     -2358.507  
  24091623.453   126602333.20946     -1371.823    24091625.938    98651174.44745
     -1068.948  
  20646563.854   108498424.60949     -1056.129    20646563.000    84544224.67747
      -822.960  
  19644049.494   105192994.44209      1381.391    19644052.437    81816786.36308
      1074.414  
  20082409.058   107502706.57808     -2233.281    20082412.284    83613229.36408
     -1736.999  
  21746499.481   116084286.99107     -4149.125    21746505.724    90287803.31907
     -3227.101  
  22640464.262   120941284.75406       295.625    22640469.642    94065475.51705
       229.930  
  23228337.643   124168766.96306      3650.441    23228343.617    96575744.51206
      2839.229  
  21907643.236   117150011.17205      3490.249    21907649.346    91116702.54907
      2714.637  
  19536416.053   104506654.55706      -974.434    19536419.278    81282963.86507
      -757.894  
 20 09 30 05 41 30.0000000  0 14G15G18G20G29G 5G30G13R 4R 3R18R12R 5
                                R20R19
  20151337.504   105895992.85249      1057.223    20151336.958    82516358.00948
       823.809  
  20618043.936   108348552.11449      1288.144    20618043.690    84427442.46448
      1003.745  
  22489894.643   118185194.56248      2928.808    22489893.990    92092356.93846
      2282.187  
  23552421.668   123768808.98848     -3508.613    23552422.573    96443228.95846
     -2733.987  
  22867334.286   120168651.90248     -3027.671    22867334.420    93637909.99946
     -2359.230  
  24092930.397   126609201.21647     -1374.886    24092932.850    98656526.09245
     -1071.347  
  20647570.612   108503715.18649     -1059.440    20647569.771    84548347.20748
      -825.542  
  19642761.333   105186096.65009      1378.320    19642764.345    81811421.41308
      1072.023  
  20084496.350   107513880.13809     -2235.539    20084499.575    83621919.90408
     -1738.758  
  21750387.279   116105040.19907     -4151.585    21750393.497    90303944.69507
     -3229.016  
  22640190.236   120939821.11007       290.784    22640195.627    94064337.11606
       226.121  
  23224924.188   124150520.24907      3649.136    23224930.184    96561552.65306
      2838.223  
  21904381.452   117132568.82105      3487.136    21904387.518    91103136.28607
      2712.219  
  19537329.199   104511539.20806      -978.789    19537332.404    81286763.03707
      -761.284  
 20 09 30 05 41 35.0000000  0 14G15G18G20G29G 5G30G13R 4R 3R18R12R 5
                                R20R19
  20150333.233   105890715.37449      1053.578    20150332.687    82512245.68848
       820.968  
  20616819.739   108342118.88649      1284.984    20616819.471    84422429.55648
      1001.280  
  22487108.772   118170554.74548      2927.102    22487108.065    92080949.29345
      2280.854  
  23555760.561   123786355.04947     -3510.039    23555761.490    96456901.20346
     -2735.097  
  22870215.546   120183792.99348     -3028.897    22870215.690    93649708.25346
     -2360.183  
  24094240.007   126616083.19947     -1378.261    24094242.502    98661888.71245
     -1073.969  
  20648580.290   108509021.01749     -1062.976    20648579.423    84552481.62547
      -828.293  
  19641475.722   105179212.32509      1375.270    19641478.747    81806066.94208
      1069.652  
  20086585.482   107525063.45809     -2237.906    20086588.692    83630618.04508
     -1740.598  
  21754276.817   116125802.59607     -4153.590    21754283.000    90320093.22007
     -3230.573  
  22639920.235   120938378.81407       286.027    22639925.637    94063215.34306
       222.465  
  23221511.579   124132277.86806      3647.617    23221517.624    96547364.14606
      2837.034  
  21901121.966   117115138.75905      3484.792    21901128.002    91089579.57207
      2710.394  
  19538246.595   104516446.43906      -984.030    19538249.750    81290579.76307
      -765.362  
 20 09 30 05 41 40.0000000  0 14G15G18G20G29G 5G30G13R 4R 3R18R12R 5
                                R20R19
  20149332.052   105885454.16249      1050.898    20149331.504    82508146.04248
       818.883  
  20615598.222   108335699.76749      1282.741    20615597.946    84417427.64748
       999.535  
  22484323.810   118155919.73148      2926.922    22484323.132    92069545.39245
      2280.718  
  23559100.634   123803907.03547     -3510.706    23559101.527    96470578.06645
     -2735.625  
  22873097.678   120198938.79148     -3029.269    22873097.820    93661510.15846
     -2360.473  
  24095552.461   126622979.87947     -1380.191    24095554.875    98667262.72245
     -1075.477  
  20649593.019   108514342.88249     -1065.784    20649592.148    84556628.53347
      -830.483  
  19640192.753   105172342.11509      1372.922    19640195.784    81800723.44508
      1067.823  
  20088676.622   107536257.33809     -2239.535    20088679.794    83639324.39108
     -1741.862  
  21758168.218   116146575.12907     -4154.983    21758174.394    90336249.62807
     -3231.660  
  22639654.382   120936958.70907       282.188    22639659.806    94062110.79006
       219.473  
  23218099.829   124114040.60607      3647.176    23218105.971    96533179.62506
      2836.690  
  21897864.945   117097722.06905      3482.245    21897870.993    91076033.26007
      2708.414  
  19539168.373   104521376.80206      -987.843    19539171.430    81294414.49307
      -768.327  
 20 09 30 05 41 45.0000000  0 14G15G18G20G29G 5G30G13R 4R 3R18R12R 5
                                R20R19
  20148333.856   105880208.61149      1047.211    20148333.302    82504058.60548
       816.007  
  20614379.278   108329294.17749      1279.464    20614379.012    84412436.28448
       996.979  
  22481539.680   118141288.96748      2925.358    22481538.974    92058144.79645
      2279.495  
  23562441.694   123821464.33048     -3512.391    23562442.549    96484259.08746
     -2736.934  
  22875980.608   120214088.66048     -3030.624    22875980.744    93673315.25046
     -2361.530  
  24096867.526   126629890.71947     -1383.848    24096869.945    98672647.77845
     -1078.328  
  20650608.672   108519680.14549     -1069.238    20650607.803    84560787.44147
      -833.172  
  19638912.320   105165485.45609      1369.765    19638915.352    81795390.49308
      1065.374  
  20090769.568   107547461.13509     -2242.070    20090772.749    83648038.45208
     -1743.836  
  21762061.355   116167357.11407     -4157.651    21762067.557    90352413.38207
     -3233.733  
  22639392.603   120935560.01807       277.191    22639398.035    94061022.91406
       215.590  
  23214689.031   124095807.97007      3645.664    23214695.204    96518998.69306
      2835.515  
  21894610.287   117080317.95005      3479.288    21894616.323    91062496.73707
      2706.112  
  19540094.218   104526329.69706      -993.273    19540097.306    81298266.74507
      -772.547  
 20 09 30 05 41 50.0000000  0 14G15G18G20G29G 5G30G13R 4R 3R18R12R 5
                                R20R19
  20147338.791   105874979.44549      1044.332    20147338.210    82499983.93248
       813.762  
  20613163.029   108322902.83549      1276.897    20613162.772    84407456.01748
       994.979  
  22478756.475   118126663.15848      2924.858    22478755.770    92046748.07245
      2279.109  
  23565783.900   123839027.64747     -3513.210    23565784.709    96497944.76846
     -2737.569  
  22878864.444   120229243.35448     -3031.379    22878864.570    93685124.09646
     -2362.117  
  24098185.422   126636816.34247     -1386.242    24098187.791    98678044.38545
     -1080.190  
  20651627.386   108525033.55249     -1072.358    20651626.537    84564958.92248
      -835.609  
  19637634.547   105158643.13409      1367.133    19637637.583    81790068.69308
      1063.323  
  20092864.530   107558675.60009     -2243.972    20092867.713    83656760.81508
     -1745.316  
  21765956.382   116188149.19007     -4159.175    21765962.613    90368584.99507
     -3234.917  
  22639134.960   120934183.54907       273.198    22639140.400    94059952.32106
       212.483  
  23211279.245   124077580.76907      3645.272    23211285.443    96504822.00906
      2835.215  
  21891358.214   117062927.12105      3477.077    21891364.137    91048970.54107
      2704.395  
  19541024.586   104531306.00706      -997.359    19541027.574    81302137.20407
      -775.727  
 20 09 30 05 41 55.0000000  0 14G15G18G20G29G 5G30G13R 4R 3R18R12R 5
                                R20R19
  20146346.727   105869766.11149      1041.569    20146346.137    82495921.59048
       811.608  
  20611949.410   108316525.16349      1274.624    20611949.149    84402486.40248
       993.211  
  22475974.112   118112041.74348      2924.269    22475973.379    92035354.77046
      2278.651  
  23569127.163   123856596.39148     -3513.887    23569127.936    96511634.68946
     -2738.097  
  22881749.071   120244402.23148     -3031.909    22881749.193    93696936.20646
     -2362.531  
  24099506.025   126643756.22047     -1389.171    24099508.195    98683452.09445
     -1082.473  
  20652649.069   108530402.47149     -1074.960    20652648.200    84569142.49448
      -837.637  
  19636359.369   105151814.54809      1364.819    19636362.370    81784757.56808
      1061.523  
  20094961.389   107569900.06309     -2245.539    20094964.537    83665490.95508
     -1746.531  
  21769853.223   116208950.82507     -4160.801    21769859.458    90384764.03607
     -3236.184  
  22638881.304   120932828.81407       268.957    22638886.829    94058898.64006
       209.386  
  23207870.344   124059358.21006      3644.558    23207876.530    96490648.91006
      2834.656  
  21888108.570   117045549.06505      3474.551    21888114.331    91035454.27707
      2702.430  
  19541959.099   104536305.05406     -1001.602    19541962.101    81306025.35307
      -779.026  
 20 09 30 05 42  0.0000000  0 14G15G18G20G29G 5G30G13R 4R 3R18R12R 5
                                R20R19
  20145357.516   105864567.71049      1037.894    20145356.908    82491870.89248
       808.749  
  20610738.198   108310160.26649      1271.413    20610737.958    84397526.74548
       990.707  
  22473192.403   118097423.82848      2922.874    22473191.676    92023964.19246
      2277.565  
  23572471.252   123874169.63747     -3515.421    23572472.007    96525328.13446
     -2739.288  
  22884634.335   120259564.39848     -3033.102    22884634.447    93708750.87246
     -2363.460  
  24100829.187   126650709.38747     -1392.043    24100831.311    98688870.12745
     -1084.711  
  20653673.533   108535786.03649     -1078.621    20653672.644    84573337.48147
      -840.483  
  19635086.528   105144998.63909      1361.659    19635089.541    81779456.31308
      1059.070  
  20097059.887   107581133.64309     -2247.866    20097063.064    83674228.18208
     -1748.344  
  21773751.656   116229761.05007     -4163.210    21773757.891    90400949.76307
     -3238.059  
  22638631.583   120931494.81907       264.801    22638637.086    94057861.08206
       205.953  
  23204462.198   124041139.62307      3643.120    23204468.388    96476478.92606
      2833.543  
  21884861.081   117028182.93805      3472.233    21884866.762    91021947.28707
      2700.624  
  19542897.678   104541325.88006     -1006.901    19542900.691    81309930.43707
      -783.147  
 20 09 30 05 42  5.0000000  0 14G15G18G20G29G 5G30G13R 4R 3R18R12R 5
                                R20R19
  20144371.517   105859386.28549      1034.770    20144370.909    82487833.42148
       806.312  
  20609529.814   108303810.22549      1268.648    20609529.595    84392578.66848
       988.559  
  22470411.775   118082811.46548      2921.913    22470411.067    92012577.93846
      2276.816  
  23575816.595   123891749.46847     -3516.367    23575817.377    96539026.67646
     -2740.030  
  22887520.606   120274731.94648     -3034.003    22887520.751    93720569.74247
     -2364.159  
  24102155.275   126657677.96547     -1394.883    24102157.474    98694300.19944
     -1086.921  
  20654701.161   108541186.25449     -1081.585    20654700.279    84577545.44648
      -842.792  
  19633816.491   105138197.70909      1358.805    19633819.501    81774166.70108
      1056.847  
  20099160.519   107592378.42709     -2249.804    20099163.699    83682974.12308
     -1749.852  
  21777652.049   116250581.98507     -4165.241    21777658.366    90417143.81507
     -3239.636  
  22638386.103   120930183.56607       260.230    22638391.550    94056841.22106
       202.402  
  23201055.148   124022926.86407      3641.839    23201061.302    96462313.45506
      2832.543  
  21881616.045   117010830.71005      3469.038    21881621.803    91008451.12307
      2698.141  
  19543840.748   104546370.57406     -1011.397    19543843.751    81313854.09007
      -786.647  
 20 09 30 05 42 10.0000000  0 14G15G18G20G29G 5G30G13R 4R 3R18R12R 5
                                R20R19
  20143388.510   105854220.48649      1031.460    20143387.890    82483808.12448
       803.733  
  20608324.012   108297473.69249      1265.699    20608323.806    84387641.10448
       986.253  
  22467631.932   118068203.32348      2921.398    22467631.253    92001194.97146
      2276.414  
  23579162.912   123909334.48347     -3517.750    23579163.763    96552729.28746
     -2741.109  
  22890407.681   120289903.62748     -3035.070    22890407.825    93732391.82847
     -2364.991  
  24103484.067   126664660.59447     -1398.237    24103486.294    98699741.18545
     -1089.539  
  20655731.712   108546601.77649     -1084.805    20655730.803    84581765.33248
      -845.304  
  19632548.968   105131410.24309      1355.969    19632551.990    81768887.56308
      1054.640  
  20101262.992   107603633.00509     -2252.132    20101266.156    83691727.68508
     -1751.660  
  21781554.252   116271412.18007     -4167.457    21781560.578    90433345.07307
     -3241.359  
  22638144.667   120928893.82907       255.637    22638150.057    94055838.09806
       198.828  
  23197648.903   124004718.59507      3641.022    23197655.051    96448151.48706
      2831.906  
  21878373.609   116993491.16705      3466.406    21878379.208    90994964.81707
      2696.094  
  19544787.981   104551437.91306     -1015.940    19544791.044    81317795.35307
      -790.180  
 20 09 30 05 42 15.0000000  0 14G15G18G20G29G 5G30G13R 4R 3R18R12R 5
                                R20R19
  20142408.488   105849070.40049      1028.511    20142407.854    82479795.07348
       801.438  
  20607120.807   108291150.77649      1263.359    20607120.596    84382714.15848
       984.438  
  22464852.921   118053599.55348      2920.288    22464852.244    91989815.42646
      2275.551  
  23582510.246   123926924.81047     -3518.440    23582511.044    96566436.02946
     -2741.648  
  22893295.520   120305079.32348     -3035.379    22893295.602    93744217.04146
     -2365.233  
  24104815.524   126671657.32647     -1400.695    24104817.768    98705193.18945
     -1091.453  
  20656765.187   108552032.72549     -1087.675    20656764.280    84585997.24548
      -847.543  
  19631284.001   105124636.40109      1353.586    19631287.024    81763619.02408
      1052.789  
  20103367.287   107614897.43109     -2253.852    20103370.445    83700488.90108
     -1753.000  
  21785458.216   116292251.77107     -4168.844    21785464.557    90449553.64007
     -3242.438  
  22637907.286   120927625.71807       251.647    22637912.658    94054851.79606
       195.726  
  23194243.560   123986515.14507      3640.476    23194249.709    96433993.26906
      2831.480  
  21875133.494   116976164.47205      3464.491    21875139.013    90981488.49707
      2694.605  
  19545739.487   104556527.89206     -1020.046    19545742.569    81321754.22407
      -793.374  
 20 09 30 05 42 20.0000000  0 14G15G18G20G29G 5G30G13R 4R 3R18R12R 5
                                R20R19
  20141431.715   105843937.45549      1024.871    20141431.080    82475795.37548
       798.601  
  20605920.460   108284842.91249      1260.148    20605920.249    84377798.93948
       981.934  
  22462075.020   118039001.52148      2919.141    22462074.294    91978440.34146
      2274.655  
  23585858.861   123944521.84247     -3520.086    23585859.681    96580147.98446
     -2742.929  
  22896184.427   120320260.57148     -3036.909    22896184.481    93756046.57947
     -2366.425  
  24106149.890   126678669.61947     -1403.897    24106152.149    98710657.32045
     -1093.945  
  20657801.859   108557480.50549     -1091.257    20657800.965    84590242.26848
      -850.336  
  19630021.860   105117877.66209      1350.367    19630024.870    81758362.23008
      1050.285  
  20105473.698   107626173.27309     -2256.206    20105476.874    83709259.00108
     -1754.831  
  21789364.224   116313102.18207     -4170.988    21789370.563    90465770.62107
     -3244.105  
  22637674.161   120926380.53207       246.964    22637679.578    94053883.31406
       192.077  
  23190839.330   123968317.74207      3638.543    23190845.513    96419839.75206
      2829.976  
  21871895.880   116958851.96405      3460.848    21871901.459    90968023.22207
      2691.769  
  19546695.506   104561641.82306     -1024.883    19546698.556    81325731.72407
      -797.137  
 20 09 30 05 42 25.0000000  0 14G15G18G20G29G 5G30G13R 4R 3R18R12R 5
                                R20R19
  20140458.080   105838820.93649      1021.469    20140457.447    82471808.48348
       795.948  
  20604722.827   108278549.37249      1257.097    20604722.621    84372894.88448
       979.551  
  22459298.050   118024408.53848      2917.757    22459297.365    91967069.18445
      2273.573  
  23589208.597   123962124.82247     -3521.414    23589209.412    96593864.60146
     -2743.960  
  22899074.225   120335446.62348     -3037.957    22899074.258    93767879.86147
     -2367.242  
  24107487.088   126685696.67347     -1406.956    24107489.442    98716132.93644
     -1096.335  
  20658841.597   108562944.36649     -1094.543    20658840.704    84594499.82447
      -852.894  
  19628762.371   105111133.22109      1347.272    19628765.408    81753116.55408
      1047.878  
  20107582.078   107637459.59609     -2258.656    20107585.261    83718037.24908
     -1756.737  
  21793272.121   116333962.55307     -4173.272    21793278.419    90481995.34507
     -3245.882  
  22637445.194   120925157.65007       242.276    22637450.673    94052932.17906
       188.433  
  23187436.096   123950125.69607      3637.894    23187442.280    96405690.39706
      2829.473  
  21868660.845   116941552.90205      3458.198    21868666.447    90954568.39907
      2689.711  
  19547655.868   104566779.17406     -1030.362    19547658.929    81329727.43807
      -801.398  
 20 09 30 05 42 30.0000000  0 14G15G18G20G29G 5G30G13R 4R 3R18R12R 5
                                R20R19
  20139487.344   105833719.62449      1018.824    20139486.700    82467833.43448
       793.886  
  20603527.703   108272268.94949      1254.910    20603527.496    84368001.04748
       977.847  
  22456521.815   118009819.35648      2917.355    22456521.110    91955701.01345
      2273.265  
  23592559.235   123979732.54547     -3522.151    23592560.005    96607584.91046
     -2744.538  
  22901964.689   120350636.21048     -3038.573    22901964.746    93779715.89447
     -2367.722  
  24108826.918   126692737.34247     -1409.223    24108829.288    98721619.16545
     -1098.097  
  20659884.166   108568423.10049     -1097.227    20659883.287    84598768.96448
      -854.983  
  19627505.333   105104401.86609      1344.952    19627508.384    81747881.05908
      1046.073  
  20109692.219   107648755.31909     -2260.003    20109695.389    83726822.80908
     -1757.784  
  21797181.623   116354831.77107     -4174.726    21797187.963    90498226.95307
     -3247.011  
  22637220.186   120923955.79207       238.262    22637225.689    94051997.39406
       185.313  
  23184033.687   123931937.86807      3637.277    23184039.852    96391544.32406
      2828.991  
  21865428.176   116924266.15005      3455.637    21865433.724    90941123.15507
      2687.718  
  19548620.332   104571938.46706     -1034.257    19548623.389    81333740.22107
      -804.422  
 20 09 30 05 42 35.0000000  0 14G15G18G20G29G 5G30G13R 4R 3R18R12R 5
                                R20R19
  20138519.509   105828633.67849      1015.397    20138518.877    82463870.36148
       791.218  
  20602335.119   108266001.78549      1251.827    20602334.901    84363117.54048
       975.445  
  22453746.333   117995234.13448      2916.242    22453745.635    91944335.90446
      2272.398  
  23595910.830   123997345.13547     -3523.063    23595911.551    96621308.99046
     -2745.245  
  22904855.868   120365829.45848     -3039.418    22904855.963    93791554.78847
     -2368.383  
  24110169.287   126699791.72347     -1412.780    24110171.618    98727116.09445
     -1100.870  
  20660929.594   108573916.83049     -1100.472    20660928.716    84603049.79348
      -857.516  
  19626250.748   105097683.71709      1342.016    19626253.831    81742655.83008
      1043.785  
  20111804.095   107660060.48009     -2262.347    20111807.309    83735615.70708
     -1759.608  
  21801092.824   116375710.02807     -4176.952    21801099.178    90514465.59407
     -3248.746  
  22636999.164   120922775.13207       233.559    22637004.676    94051079.10906
       181.652  
  23180632.048   123913754.34306      3636.198    23180638.226    96377401.58606
      2828.155  
  21862197.752   116906991.83905      3453.066    21862203.311    90927687.58007
      2685.718  
  19549588.932   104577120.14006     -1038.663    19549592.026    81337770.41007
      -807.854  
 20 09 30 05 42 40.0000000  0 14G15G18G20G29G 5G30G13R 4R 3R18R12R 5
                                R20R19
  20137554.802   105823564.07649      1012.441    20137554.172    82459920.02248
       788.909  
  20601145.228   108259748.86849      1249.237    20601145.003    84358245.13848
       973.434  
  22450971.792   117980653.85248      2915.625    22450971.078    91932974.65345
      2271.914  
  23599263.504   124014963.55847     -3524.059    23599264.204    96635037.60946
     -2746.023  
  22907747.942   120381027.37748     -3039.828    22907748.014    93803397.31546
     -2368.699  
  24111514.499   126706860.76647     -1415.163    24111516.807    98732624.41745
     -1102.729  
  20661978.045   108579426.53949     -1103.426    20661977.172    84607343.07247
      -859.816  
  19624998.812   105090979.84609      1339.464    19625001.932    81737441.71308
      1041.805  
  20113917.924   107671376.12509     -2263.996    20113921.174    83744416.76508
     -1760.890  
  21805005.834   116396598.03707     -4178.348    21805012.235    90530711.81907
     -3249.827  
  22636782.325   120921616.63307       229.730    22636787.801    94050178.04606
       178.676  
  23177231.428   123895576.11606      3635.371    23177237.574    96363262.99106
      2827.511  
  21858969.939   116889731.02105      3450.734    21858975.428    90914262.49707
      2683.905  
  19550561.858   104582324.94706     -1043.145    19550565.009    81341818.59307
      -811.340  
 20 09 30 05 42 45.0000000  0 14G15G18G20G29G 5G30G13R 4R 3R18R12R 5
                                R20R19
  20136593.184   105818510.74149      1008.840    20136592.562    82455982.36048
       786.108  
  20599958.018   108253510.10149      1246.249    20599957.806    84353383.76248
       971.102  
  22448198.167   117966078.38748      2914.359    22448197.445    91921617.14946
      2270.925  
  23602617.229   124032587.68747     -3525.601    23602617.990    96648770.70846
     -2747.223  
  22910640.882   120396229.84748     -3041.222    22910640.956    93815243.39946
     -2369.788  
  24112862.475   126713944.39847     -1418.405    24112864.770    98738144.13245
     -1105.249  
  20663029.503   108584952.08349     -1106.917    20663028.655    84611648.69148
      -862.539  
  19623749.541   105084290.02209      1336.375    19623752.655    81732238.51908
      1039.397  
  20116033.691   107682702.12109     -2266.500    20116036.996    83753225.87308
     -1762.832  
  21808920.694   116417495.79007     -4180.656    21808927.108    90546965.61607
     -3251.625  
  22636569.583   120920480.26607       225.085    22636575.064    94049294.20906
       175.062  
  23173831.794   123877403.15207      3633.776    23173837.910    96349128.47606
      2826.269  
  21855744.471   116872483.59005      3447.800    21855750.067    90900847.83907
      2681.621  
  19551539.106   104587552.88106     -1048.023    19551542.316    81345884.76307
      -815.132  
 20 09 30 05 42 50.0000000  0 14G15G18G20G29G 5G30G13R 4R 3R18R12R 5
                                R20R19
  20135634.749   105813474.10349      1006.012    20135634.138    82452057.71248
       783.905  
  20598773.604   108247285.96049      1243.762    20598773.376    84348533.78348
       969.164  
  22445425.559   117951508.23248      2914.019    22445424.881    91910263.77846
      2270.659  
  23605972.142   124050217.93747     -3526.058    23605972.979    96662508.54445
     -2747.582  
  22913534.756   120411437.32248     -3041.684    22913534.832    93827093.36646
     -2370.147  
  24114213.273   126721043.04847     -1420.741    24114215.610    98743675.56545
     -1107.070  
  20664084.072   108590493.97149     -1109.547    20664083.256    84615967.04448
      -864.586  
  19622502.996   105077614.76909      1333.934    19622506.098    81727046.65108
      1037.504  
  20118151.490   107694038.92309     -2267.987    20118154.820    83762043.38208
     -1763.995  
  21812837.479   116438403.85507     -4182.198    21812843.892    90563227.43507
     -3252.824  
  22636361.128   120919366.51607       220.672    22636366.534    94048427.97706
       171.633  
  23170433.182   123859235.81007      3633.331    23170439.307    96334998.33706
      2825.926  
  21852521.730   116855250.05105      3444.777    21852527.317    90887443.98007
      2679.269  
  19552520.871   104592804.34506     -1052.417    19552524.014    81349969.23207
      -818.546  
 20 09 30 05 42 55.0000000  0 14G15G18G20G29G 5G30G13R 4R 3R18R12R 5
                                R20R19
  20134679.099   105808452.15949      1002.750    20134678.493    82448144.50848
       781.363  
  20597591.584   108241074.40649      1240.819    20597591.333    84343693.60748
       966.866  
  22442653.580   117936941.38348      2912.710    22442652.860    91898913.00046
      2269.645  
  23609327.876   124067852.31746     -3527.284    23609328.759    96676249.62245
     -2748.534  
  22916429.202   120426647.76748     -3042.640    22916429.296    93838945.65246
     -2370.894  
  24115566.561   126728154.71547     -1423.890    24115568.928    98749217.11345
     -1109.523  
  20665141.363   108596050.13949     -1112.863    20665140.589    84620296.52048
      -867.172  
  19621258.789   105070952.03409      1331.140    19621261.880    81721864.52808
      1035.328  
  20120270.898   107705384.37809     -2270.241    20120274.268    83770867.62308
     -1765.745  
  21816755.871   116459320.09506     -4184.421    21816762.240    90579495.62805
     -3254.551  
  22636156.425   120918273.27907       216.465    22636161.907    94047577.67606
       168.331  
  23167035.265   123841072.05907      3632.179    23167041.411    96320870.98406
      2825.026  
  21849301.175   116838028.23405      3443.655    21849306.741    90874049.22907
      2678.394  
  19553506.617   104598077.30206     -1056.851    19553509.722    81354070.42107
      -822.000  
 20 09 30 05 43  0.0000000  0 14G15G18G20G29G 5G30G13R 4R 3R18R12R 5
                                R20R19
  20133726.581   105803446.67349       999.624    20133725.992    82444244.14249
       778.929  
  20596412.302   108234877.26849      1238.101    20596412.059    84338864.67848
       964.753  
  22439882.549   117922379.57948      2911.819    22439881.817    91887566.13646
      2268.949  
  23612684.679   124085492.74747     -3528.145    23612685.592    96689995.41545
     -2749.207  
  22919324.570   120441862.99848     -3043.386    22919324.654    93850801.68747
     -2371.469  
  24116922.657   126735281.17647     -1426.601    24116925.078    98754770.19346
     -1111.641  
  20666201.709   108601622.38549     -1115.906    20666200.967    84624638.52848
      -869.542  
  19620017.260   105064303.67009      1328.300    19620020.339    81716693.58508
      1033.120  
  20122392.310   107716740.46109     -2272.234    20122395.687    83779700.13008
     -1767.296  
  21820676.065   116480246.29507     -4186.348    21820682.457    90595771.55005
     -3256.050  
  22635955.927   120917202.31907       212.042    22635961.475    94046744.71206
       164.921  
  23163638.407   123822913.71907      3631.745    23163644.483    96306747.84106
      2824.690  
  21846083.132   116820820.16005      3440.440    21846088.738    90860665.17607
      2675.897  
  19554496.661   104603373.61806     -1061.585    19554499.814    81358189.78107
      -825.683  
 20 09 30 05 43  5.0000000  0 14G15G18G20G29G 5G30G13R 4R 3R18R12R 5
                                R20R19
  20132776.946   105798456.30649       996.645    20132776.351    82440355.52249
       776.602  
  20595235.524   108228693.19549      1235.550    20595235.265    84334045.90448
       962.761  
  22437112.225   117907821.55648      2911.168    22437111.533    91876222.22646
      2268.441  
  23616042.361   124103137.54947     -3529.253    23616043.328    96703744.62745
     -2750.065  
  22922220.611   120457081.73548     -3044.343    22922220.680    93862660.46246
     -2372.214  
  24118281.392   126742421.03047     -1429.483    24118283.802    98760333.69445
     -1113.887  
  20667264.867   108607209.35149     -1119.015    20667264.141    84628992.01848
      -871.961  
  19618778.174   105057668.35809      1325.921    19618781.247    81711532.77908
      1031.270  
  20124515.394   107728105.58709     -2274.047    20124518.780    83788539.66908
     -1768.707  
  21824597.881   116501180.96006     -4188.163    21824604.261    90612054.05905
     -3257.465  
  22635759.318   120916152.28507       207.441    22635764.979    94045928.00806
       161.340  
  23160242.223   123804759.67006      3630.194    23160248.332    96292628.05406
      2823.487  
  21842867.436   116803624.35905      3437.741    21842873.072    90847290.68507
      2673.800  
  19555490.795   104608691.90606     -1065.824    19555494.006    81362326.20207
      -828.977  
 20 09 30 05 43 10.0000000  0 14G15G18G20G29G 5G30G13R 4R 3R18R12R 5
                                R20R19
  20131830.677   105793483.69549       992.741    20131830.099    82436480.77648
       773.565  
  20594061.721   108222524.88049      1231.835    20594061.491    84329239.43348
       959.870  
  22434343.139   117893269.91148      2909.813    22434342.468    91864883.30646
      2267.386  
  23619401.436   124120789.57446     -3531.516    23619402.419    96717499.41744
     -2751.835  
  22925117.796   120472306.54548     -3045.913    22925117.837    93874523.90046
     -2373.449  
  24119643.143   126749576.98447     -1432.820    24119645.521    98765909.79846
     -1116.484  
  20668331.327   108612813.63849     -1122.672    20668330.616    84633358.99148
      -874.813  
  19617541.993   105051048.70009      1322.230    19617545.066    81706384.16308
      1028.401  
  20126640.721   107739482.66509     -2276.726    20126644.113    83797388.50808
     -1770.793  
  21828521.820   116522126.96407     -4190.484    21828528.179    90628345.37906
     -3259.272  
  22635567.195   120915125.93707       202.836    22635572.904    94045129.73606
       157.758  
  23156847.362   123786612.32007      3628.465    23156853.508    96278513.47106
      2822.141  
  21839654.412   116786443.56205      3434.324    21839660.199    90833927.84207
      2671.140  
  19556489.633   104614034.83106     -1071.222    19556492.805    81366481.82407
      -833.172  
 20 09 30 05 43 15.0000000  0 14G15G18G20G29G 5G30G13R 4R 3R18R12R 5
                                R20R19
  20130887.323   105788526.33349       989.867    20130886.761    82432617.90448
       771.323  
  20592890.424   108216369.70549      1229.660    20592890.201    84324443.19748
       958.175  
  22431574.781   117878722.12048      2909.124    22431574.086    91853547.36946
      2266.852  
  23622761.380   124138446.13448     -3532.207    23622762.264    96731257.73445
     -2752.374  
  22928015.667   120487534.86548     -3045.926    22928015.699    93886390.12847
     -2373.453  
  24121007.452   126756746.48147     -1435.437    24121009.764    98771496.39546
     -1118.526  
  20669400.602   108618432.71449     -1125.250    20669399.891    84637737.49248
      -876.820  
  19616308.251   105044442.09709      1319.976    19616311.314    81701245.69108
      1026.647  
  20128767.794   107750868.95609     -2278.152    20128771.160    83806244.50708
     -1771.898  
  21832447.322   116543081.56107     -4191.941    21832453.704    90644643.40007
     -3260.402  
  22635379.070   120914120.75907       198.902    22635384.807    94044347.92906
       154.703  
  23153453.222   123768469.04006      3628.640    23153459.365    96264402.03105
      2822.276  
  21836443.736   116769275.32505      3432.344    21836449.644    90820574.76707
      2669.598  
  19557492.513   104619399.75006     -1075.472    19557495.721    81370654.54307
      -836.480  
 20 09 30 05 43 20.0000000  0 13G15G18G20G29G 5G30G13R 4R 3R18R12R20
                                R19
  20129947.251   105783586.22149       986.065    20129946.695    82428768.46048
       768.363  
  20591722.057   108210229.80148      1226.434    20591721.803    84319658.86547
       955.663  
  22428807.560   117864180.34147      2907.792    22428806.798    91842216.12845
      2265.812  
  23626122.556   124156109.29947     -3533.410    23626123.431    96745021.24746
     -2753.305  
  22930914.613   120502768.74548     -3047.480    22930914.616    93898260.67946
     -2374.664  
  24122374.730   126763931.51247     -1438.769    24122377.049    98777095.10645
     -1121.124  
  20670473.066   108624068.64549     -1129.011    20670472.387    84642129.12048
      -879.754  
  19615077.356   105037850.70908      1316.582    19615080.413    81696119.06007
      1024.008  
  20130896.991   107762266.49609     -2280.905    20130900.315    83815109.25708
     -1774.042  
  21836374.859   116564046.89407     -4194.672    21836381.214    90660949.75307
     -3262.526  
  22635195.217   120913138.64607       193.925    22635200.990    94043584.05806
       150.827  
  21833235.877   116752121.55405      3429.597    21833241.795    90807232.94806
      2667.464  
  19558499.838   104624788.78706     -1080.980    19558503.142    81374846.00607
      -840.766  
 20 09 30 05 43 25.0000000  0 14G15G18G20G29G 5G30G13R 4R 3R18R12R 5
                                R20R19
  20129010.174   105778661.91049       983.875    20129009.646    82424931.33548
       766.655  
  20590556.285   108204103.62548      1224.461    20590556.032    84314885.22448
       954.124  
  22426041.166   117849642.93647      2907.507    22426040.397    91830888.27344
      2265.586  
  23629484.746   124173777.62947     -3533.487    23629485.588    96758788.78145
     -2753.371  
  22933814.304   120518006.65948     -3047.410    22933814.287    93910134.37646
     -2374.609  
  24123744.686   126771130.58647     -1440.633    24123746.942    98782704.77445
     -1122.574  
  20671548.457   108629719.89249     -1131.230    20671547.789    84646532.68348
      -881.476  
  19613849.023   105031272.88808      1314.805    19613852.032    81691002.99207
      1022.624  
  20133027.989   107773673.83209     -2281.730    20133031.301    83823981.62908
     -1774.679  
  21840304.075   116585021.38207     -4195.305    21840310.457    90677263.21207
     -3263.023  
  22635015.462   120912178.14507       190.660    22635021.143    94042836.99706
       148.293  
  23146668.420   123732208.19314      3626.758           0.000           0.0000 
         0.000  
  21830030.527   116734980.89005      3427.305    21830036.385    90793901.33306
      2665.680  
  19559511.471   104630200.34306     -1083.929    19559514.776    81379054.99706
      -843.054  
 20 09 30 05 43 30.0000000  0 13G15G18G20G29G 5G30G13R 4R 3R18R12R 5
                                R19
  20128075.799   105773751.73649       980.461    20128075.272    82421105.23248
       763.996  
  20589392.817   108197989.53248      1221.452    20589392.557    84310120.99147
       951.776  
  22423275.292   117835108.32446      2906.512    22423274.437    91819562.59842
      2264.809  
  23632847.577   124191449.45747     -3534.714    23632848.458    96772559.01645
     -2754.331  
  22936714.438   120533246.96748     -3048.538    22936714.425    93922009.92746
     -2375.488  
  24125117.009   126778342.06847     -1443.780    24125119.240    98788324.10546
     -1125.023  
  20672626.433   108635384.85249     -1134.569    20672625.789    84650946.94348
      -884.081  
  19612622.905   105024707.04908      1311.874    19612625.906    81685896.22307
      1020.344  
  20135160.495   107785089.27609     -2284.124    20135163.803    83832860.31208
     -1776.543  
  21844234.690   116606003.33207     -4197.272    21844241.114    90693582.50907
     -3264.550  
  22634839.392   120911237.61407       185.777    22634845.046    94042105.48006
       144.492  
  23143277.010   123714079.29105      3625.339           0.000           0.0000 
         0.000  
  19560526.982   104635632.76706     -1088.780    19560530.309    81383280.20907
      -846.831  
 20 09 30 05 43 35.0000000  0 11G15G18G20G 5G30G13R 4R 3R18R12R19
  20127144.786   105768859.20049       976.835    20127144.248    82417292.87648
       761.171  
  20588232.333   108191891.04949      1218.323    20588232.044    84305368.91548
       949.339  
  22420510.602   117820579.78348      2905.598    22420509.826    91808241.66746
      2264.097  
  22939615.686   120548493.12948     -3049.632    22939615.664    93933890.07746
     -2376.335  
  24126492.324   126785569.42747     -1446.648    24126494.605    98793955.83945
     -1127.258  
  20673707.717   108641067.03949     -1137.992    20673707.074    84655374.62548
      -886.746  
  19611399.686   105018156.86109      1308.534    19611402.705    81680801.63208
      1017.750  
  20137295.196   107796516.37209     -2286.425    20137298.461    83841748.06608
     -1778.331  
  21848167.324   116626996.28207     -4199.534    21848173.806    90709910.34906
     -3266.305  
  22634667.665   120910320.62007       181.257    22634673.413    94041392.26306
       140.976  
  19561547.120   104641089.85206     -1093.637    19561550.467    81387524.60307
      -850.604  
 20 09 30 05 43 40.0000000  0 14G15G18G20G29G 5G30G13R 4R 3R18R12R 5
                                R20R19
  20126216.842   105763982.78849       973.441    20126216.288    82413493.06448
       758.527  
  20587074.511   108185806.68649      1215.198    20587074.231    84300627.86348
       946.910  
  22417746.849   117806056.25548      2904.090    22417746.084    91796924.63746
      2262.925  
  23639577.211   124226815.36457     -3537.695    23639577.894    96800117.52155
     -2756.644  
  22942517.798   120563743.67248     -3050.707    22942517.764    93945773.59646
     -2377.179  
  24127870.386   126792811.19347     -1450.202    24127872.621    98799598.73945
     -1130.038  
  20674791.976   108646764.85649     -1141.331    20674791.324    84659814.47747
      -889.354  
  19610179.064   105011620.54609      1305.715    19610182.101    81675717.82608
      1015.551  
  20139431.767   107807953.54209     -2288.664    20139435.001    83850643.62608
     -1780.074  
  21852101.765   116647998.68607     -4201.648    21852108.299    90726245.57407
     -3267.948  
  22634500.119   120909425.62307       176.679    22634505.871    94040696.16906
       137.417  
  23136497.619   123677838.74716      3622.815    23136503.733    96193899.42716
      2817.733  
  21820428.420   116683636.38615      3418.870    21820434.744    90753965.72817
      2659.121  
  19562571.460   104646569.84706     -1098.480    19562574.897    81391786.83307
      -854.374  
 20 09 30 05 43 45.0000000  0 12G15G18G20G29G 5G13R 4R 3R18R 5R20R19
  20125291.905   105759122.18349       970.297    20125291.344    82409705.57449
       756.069  
  20585919.312   108179736.13649      1212.534    20585919.043    84295897.56348
       944.831  
  22414983.959   117791537.23048      2903.176    22414983.253    91785611.08546
      2262.206  
  23642942.934   124244504.57748     -3538.519    23642943.614    96813901.30146
     -2757.301  
  22945420.701   120578998.43544     -3051.351    22945420.558    93957660.36744
     -2377.691  
  20675879.145   108652478.00248     -1144.370    20675878.541    84664266.29345
      -891.719  
  19608961.015   105005098.01509      1302.977    19608964.057    81670644.75008
      1013.426  
  20141570.157   107819400.54008     -2290.504    20141573.372    83859546.86707
     -1781.504  
  21856037.970   116669010.20006     -4203.531    21856044.468    90742587.85006
     -3269.418  
  23133109.387   123659726.45606      3621.679    23133115.444    96179812.10806
      2816.862  
  21817233.037   116666548.67605      3416.176    21817239.253    90740675.27407
      2657.022  
  19563600.153   104652072.50406     -1103.155    19563603.567    81396066.67207
      -858.012  
 20 09 30 05 43 50.0000000  0 12G15G18G20G29G 5G13R 4R 3R18R 5R20R19
  20124370.370   105754279.48549       967.011    20124369.800    82405932.03749
       753.512  
  20584767.142   108173681.47749      1209.507    20584766.886    84291179.64248
       942.473  
  22412222.301   117777024.68348      2902.258    22412221.610    91774302.61946
      2261.499  
  23646310.709   124262200.97548     -3539.660    23646310.794    96827690.71846
     -2758.179  
  22948324.732   120594259.25614     -3052.562           0.000           0.0000 
         0.000  
  20676969.616   108658208.52948     -1147.332    20676969.096    84668731.65445
      -894.022  
  19607745.897   104998591.17508      1299.910    19607748.935    81665583.87208
      1011.042  
  20143710.723   107830859.34508     -2292.707    20143713.942    83868459.26907
     -1783.214  
  21859976.257   116690032.97906     -4205.020    21859982.738    90758938.84806
     -3270.577  
  23129722.406   123641621.00606      3620.831    23129728.372    96165730.03806
      2816.199  
  21814040.372   116649476.25105      3413.117    21814046.670    90727396.75707
      2654.648  
  19564633.393   104657599.79806     -1107.789    19564636.848    81400365.66607
      -861.617  
 20 09 30 05 43 55.0000000  0 12G15G18G20G29G 5G13R 4R 3R18R 5R20R19
  20123450.722   105749446.67149       965.343    20123450.151    82402166.22848
       752.214  
  20583616.461   108167634.66549      1208.305    20583616.211    84286467.85248
       941.531  
  22409460.382   117762510.64148      2902.636    22409459.635    91762992.98346
      2261.793  
  23649678.133   124279896.47147     -3539.108    23649678.630    96841479.41146
     -2757.746  
  22951228.420   120609519.02118     -3051.977           0.000           0.0000 
         0.000  
  20678061.884   108663948.43549     -1149.211    20678061.300    84673204.29648
      -895.492  
  19606532.163   104992091.86909      1298.801    19606535.232    81660528.87308
      1010.176  
  20145851.998   107842321.72309     -2293.109    20145855.194    83877374.44508
     -1783.534  
  21863915.117   116711058.75707     -4205.534    21863921.590    90775292.26207
     -3270.973  
  23126335.216   123623514.35007      3621.382    23126341.155    96151647.17506
      2816.641  
  21810849.064   116632410.98505      3411.683    21810855.388    90714123.75107
      2653.531  
  19565669.731   104663143.50606     -1110.383    19565673.212    81404677.45207
      -863.632  
 20 09 30 05 44  0.0000000  0 12G15G18G20G29G13R 4R 3R18R12R 5R20R19
  20122534.203   105744630.33249       960.934    20122533.625    82398413.24048
       748.781  
  20582468.561   108161602.38049      1204.378    20582468.295    84281767.35848
       938.472  
  22406699.446   117748001.82248      2900.448    22406698.661    91751687.44246
      2260.094  
  23653046.421   124297597.69447     -3541.516    23653047.015    96855272.57245
     -2759.624  
  20679157.204   108669704.31849     -1153.348    20679156.611    84677689.37948
      -898.714  
  19605321.134   104985606.95809      1294.940    19605324.224    81655485.03708
      1007.171  
  20147995.233   107853794.63109     -2296.242    20147998.425    83886297.79808
     -1785.968  
  21867855.769   116732094.19207     -4208.589    21867862.244    90791653.15907
     -3273.352  
  22633868.709   120906070.30717       159.394           0.000           0.0000 
         0.000  
  23122948.983   123605413.27207      3618.734    23122954.976    96137568.56506
      2814.570  
  21807660.415   116615359.56605      3408.585    21807666.685    90700861.55707
      2651.120  
  19566710.484   104668710.55206     -1116.331    19566713.917    81409007.36707
      -868.262  
 20 09 30 05 44  5.0000000  0 14G15G18G20G29G 5G30G13R 4R 3R18R12R 5
                                R20R19
  20121621.477   105739833.86249       957.780    20121620.873    82394675.73648
       746.323  
  20581324.063   108155588.00549      1201.483    20581323.814    84277080.83748
       936.219  
  22403940.156   117733501.53048      2899.815    22403939.338    91740388.50746
      2259.593  
  23656416.634   124315308.00247     -3542.312    23656417.263    96869072.80046
     -2760.245  
  22957039.114   120640053.39058     -3054.999    22957038.934    94005239.70457
     -2380.523  
  24134799.273   126829228.67557     -1464.022    24134802.019    98827994.43656
     -1140.792  
  20680256.203   108675479.56449     -1156.520    20680255.580    84682189.56648
      -901.188  
  19604113.461   104979139.95809      1291.882    19604116.566    81650455.15208
      1004.792  
  20150141.045   107865281.45509     -2298.292    20150144.261    83895231.99608
     -1787.563  
  21871798.921   116753142.97507     -4210.695    21871805.388    90808024.42607
     -3274.987  
  22633721.889   120905284.61107       155.035    22633728.048    94037465.26016
       120.582  
  23119564.543   123587321.16007      3618.155    23119570.459    96123496.93206
      2814.120  
  21804475.017   116598325.62405      3405.663    21804481.246    90687612.94107
      2648.852  
  19567756.201   104674304.43406     -1120.801    19567759.626    81413358.16007
      -871.737  
 20 09 30 05 44 10.0000000  0 14G15G18G20G29G 5G30G13R 4R 3R18R12R 5
                                R20R19
  20120711.977   105735054.37349       954.452    20120711.359    82390951.45648
       743.729  
  20580182.418   108149588.61749      1198.479    20580182.191    84272405.98848
       933.882  
  22401181.914   117719006.93448      2898.358    22401181.154    91729094.01946
      2258.456  
  23659787.924   124333024.50347     -3543.761    23659788.729    96882877.85946
     -2761.374  
  22959946.221   120655330.31048     -3055.688    22959946.267    94017143.78147
     -2381.058  
  24136194.426   126836556.69447     -1467.124    24136196.530    98833704.57045
     -1143.219  
  20681358.335   108681271.24649     -1159.776    20681357.688    84686702.57848
      -903.723  
  19602908.584   104972687.83109      1289.144    19602911.677    81645436.83308
      1002.667  
  20152288.903   107876779.10509     -2300.441    20152292.128    83904174.62208
     -1789.229  
  21875743.992   116774201.84407     -4212.477    21875750.429    90824403.53607
     -3276.374  
  22633579.797   120904521.70807       150.288    22633584.930    94036871.88906
       116.886  
  23116181.170   123569235.06007      3616.554    23116187.040    96109429.98606
      2812.875  
  21801292.274   116581306.09905      3402.531    21801298.518    90674375.54007
      2646.414  
  19568806.405   104679922.03506     -1125.858    19568809.770    81417727.40607
      -875.672  
 20 09 30 05 44 15.0000000  0 14G15G18G20G29G 5G30G13R 4R 3R18R12R 5
                                R20R19
  20119805.154   105730289.05049       951.491    20119804.534    82387238.22248
       741.421  
  20579043.099   108143601.42449      1196.089    20579042.867    84267740.64848
       932.016  
  22398424.203   117704515.15648      2898.077    22398423.493    91717801.73046
      2258.241  
  23663159.843   124350744.27247     -3544.227    23663160.638    96896685.48246
     -2761.738  
  22962853.775   120670609.57948     -3056.054    22962854.082    94029049.70046
     -2381.343  
  24137591.534   126843897.10647     -1469.464    24137593.646    98839424.37045
     -1145.043  
  20682463.054   108687076.54949     -1162.582    20682462.399    84691226.18748
      -905.910  
  19601705.936   104966247.67609      1286.741    19601709.016    81640427.82108
      1000.801  
  20154438.253   107888284.80809     -2302.121    20154441.503    83913123.49508
     -1790.543  
  21879690.428   116795268.12407     -4213.952    21879696.880    90840788.40807
     -3277.522  
  22633441.077   120903778.81607       146.402    22633445.988    94036294.08906
       113.863  
  23112798.358   123551152.14706      3616.386    23112804.236    96095365.50506
      2812.746  
  21798111.741   116564298.07605      3400.839    21798117.963    90661147.08207
      2645.097  
  19569860.362   104685560.49506     -1129.804    19569863.813    81422112.87707
      -878.738  
 20 09 30 05 44 20.0000000  0 14G15G18G20G29G 5G30G13R 4R 3R18R12R 5
                                R20R19
  20118901.372   105725539.73749       948.296    20118900.754    82383537.45748
       738.930  
  20577906.440   108137628.27549      1193.171    20577906.215    84263086.24548
       929.741  
  22395667.428   117690028.08348      2896.770    22395666.758    91706513.11146
      2257.222  
  23666532.680   124368469.27547     -3545.706    23666533.695    96910497.14746
     -2762.891  
  22965762.152   120685893.11148     -3057.223    22965762.234    94040958.93946
     -2382.254  
  24138991.081   126851251.74547     -1472.504    24138993.082    98845155.26146
     -1147.410  
  20683570.733   108692897.38249     -1165.780    20683570.035    84695761.89648
      -908.401  
  19600505.871   104959821.31909      1283.843    19600508.933    81635429.54908
       998.546  
  20156589.410   107899800.31109     -2304.137    20156592.702    83922079.99308
     -1792.109  
  21883638.575   116816343.57407     -4216.305    21883645.042    90857180.41307
     -3279.352  
  22633306.236   120903057.83107       142.003    22633311.219    94035733.31606
       110.444  
  23109416.520   123533074.31407      3614.995    23109422.371    96081304.98906
      2811.664  
  21794933.585   116547303.61105      3397.582    21794939.936    90647929.16807
      2642.563  
  19570918.694   104691221.79706     -1134.746    19570922.132    81426516.10407
      -882.586  
 20 09 30 05 44 25.0000000  0 14G15G18G20G29G 5G30G13R 4R 3R18R12R 5
                                R20R19
  20118000.900   105720807.75549       944.723    20118000.281    82379850.20348
       736.147  
  20576772.719   108131670.49949      1189.902    20576772.495    84258443.82248
       927.195  
  22392911.757   117675547.05948      2895.386    22392911.121    91695229.20846
      2256.144  
  23669906.850   124386200.68947     -3547.011    23669908.066    96924313.81945
     -2763.910  
  22968671.595   120701182.17748     -3058.594    22968671.729    94052872.49447
     -2383.323  
  24140393.521   126858621.86747     -1475.538    24140395.740    98850898.19446
     -1149.772  
  20684681.598   108698734.95649     -1169.222    20684680.875    84700310.66048
      -911.082  
  19599308.678   104953410.25009      1280.671    19599311.718    81630443.16008
       996.077  
  20158742.697   107911327.08709     -2306.542    20158746.001    83931045.26208
     -1793.980  
  21887588.661   116837429.52507     -4218.168    21887595.157    90873580.59107
     -3280.801  
  22633175.572   120902360.09807       137.289    22633180.669    94035190.63006
       106.781  
  23106035.905   123515002.89907      3613.496    23106041.704    96067249.45506
      2810.495  
  21791758.374   116530323.89205      3394.340    21791764.636    90634722.72407
      2640.042  
  19571981.522   104696907.11606     -1139.457    19571984.935    81430938.01907
      -886.246  
 20 09 30 05 44 30.0000000  0 14G15G18G20G29G 5G30G13R 4R 3R18R12R 5
                                R20R19
  20117103.611   105716092.50149       941.359    20117102.991    82376175.98048
       733.527  
  20575641.790   108125727.48849      1187.113    20575641.601    84253812.90548
       925.019  
  22390157.137   117661071.46248      2894.468    22390156.513    91683949.51746
      2255.426  
  23673282.182   124403938.02647     -3548.004    23673283.423    96938135.12246
     -2764.683  
  22971581.966   120716476.15948     -3059.344    22971582.091    94064789.87546
     -2383.906  
  24141798.889   126866006.90747     -1478.343    24141801.258    98856652.77646
     -1151.956  
  20685795.540   108704588.69549     -1172.284    20685794.797    84704872.01848
      -913.469  
  19598114.179   104947013.69609      1277.840    19598117.208    81625468.06808
       993.874  
  20160898.013   107922864.44209     -2308.422    20160901.276    83940018.76008
     -1795.437  
  21891540.630   116858525.30807     -4220.253    21891547.128    90889988.41207
     -3282.421  
  22633049.056   120901684.89607       132.719    22633054.354    94034665.48106
       103.227  
  23102656.284   123496937.25807      3612.409    23102662.125    96053198.40906
      2809.651  
  21788585.683   116513358.30405      3391.991    21788592.002    90621527.27407
      2638.215  
  19573048.747   104702615.86406     -1144.277    19573052.125    81435378.15507
      -889.996  
 20 09 30 05 44 35.0000000  0 14G15G18G20G29G 5G30G13R 4R 3R18R12R 5
                                R20R19
  20116209.018   105711391.38049       938.913    20116208.382    82372512.77048
       731.617  
  20574513.192   108119796.69749      1184.944    20574513.024    84249191.51048
       923.331  
  22387403.052   117646598.71048      2894.581    22387402.426    91672672.05446
      2255.520  
  23676658.098   124421678.58347     -3548.313    23676659.389    96951958.92346
     -2764.922  
  22974492.768   120731772.49448     -3059.582    22974492.953    94076709.08747
     -2384.093  
  24143206.644   126873404.26947     -1480.547    24143208.677    98862416.95146
     -1153.672  
  20686912.071   108710456.01049     -1174.801    20686911.302    84709443.94748
      -915.433  
  19596921.898   104940629.14909      1275.796    19596924.939    81620502.30908
       992.285  
  20163054.789   107934409.73909     -2309.785    20163058.042    83948998.43608
     -1796.503  
  21895493.919   116879628.39207     -4221.187    21895500.460    90906401.91107
     -3283.148  
  22632926.474   120901029.74407       128.940    22632931.729    94034155.91206
       100.284  
  23099277.291   123478874.82606      3612.319    23099283.178    96039149.87106
      2809.581  
  21785415.239   116496404.54705      3389.608    21785421.565    90608341.02307
      2636.362  
  19574119.780   104708345.51006     -1148.059    19574123.230    81439834.54707
      -892.937  
 20 09 30 05 44 40.0000000  0 14G15G18G20G29G 5G30G13R 4R 3R18R12R 5
                                R20R19
  20115317.171   105706704.72549       935.401    20115316.542    82368860.83348
       728.887  
  20573386.961   108113878.37849      1182.116    20573386.805    84244579.83248
       921.125  
  22384649.564   117632129.10048      2893.327    22384648.962    91661397.04846
      2254.542  
  23680034.711   124439422.67947     -3549.648    23680035.977    96965785.48446
     -2765.965  
  22977404.042   120747071.40648     -3060.272    22977404.231    94088630.31647
     -2384.632  
  24144616.828   126880814.21047     -1483.468    24144618.648    98868190.92346
     -1155.953  
  20688031.233   108716337.18749     -1178.042    20688030.453    84714026.68548
      -917.957  
  19595731.934   104934256.88609      1272.749    19595734.972    81615546.10708
       989.918  
  20165213.096   107945963.29109     -2312.000    20165216.341    83957984.52708
     -1798.227  
  21899448.591   116900739.04107     -4223.531    21899455.203    90922821.30207
     -3284.972  
  22632807.540   120900394.88607       124.417    22632812.809    94033662.14006
        96.769  
  23095899.008   123460815.90406      3611.211    23095904.869    96025104.04706
      2808.718  
  21782247.138   116479462.63305      3386.855    21782253.326    90595163.97507
      2634.218  
  19575194.842   104714096.39506     -1152.538    19575198.296    81444307.45307
      -896.421  
 20 09 30 05 44 45.0000000  0 14G15G18G20G29G 5G30G13R 4R 3R18R12R 5
                                R20R19
  20114428.603   105702035.33449       932.477    20114427.979    82365222.34748
       726.604  
  20572263.660   108107975.42149      1179.406    20572263.502    84239980.12648
       919.015  
  22381897.204   117617665.44048      2892.535    22381896.642    91650126.66246
      2253.918  
  23683412.508   124457173.12147     -3550.397    23683413.742    96979616.99246
     -2766.547  
  22980316.383   120762375.79848     -3061.398    22980316.621    94100555.81746
     -2385.503  
  24146029.762   126888239.57247     -1486.233    24146031.761    98873976.91546
     -1158.109  
  20689153.564   108722235.07549     -1180.973    20689152.783    84718622.44148
      -920.242  
  19594544.803   104927899.79009      1270.198    19594547.830    81610601.70308
       987.934  
  20167373.484   107957527.92809     -2313.762    20167376.720    83966979.24608
     -1799.598  
  21903405.221   116921859.98807     -4224.979    21903411.873    90939248.69407
     -3286.101  
  22632692.975   120899783.18107       120.281    22632698.312    94033186.37106
        93.551  
  23092521.896   123442763.21207      3610.211    23092527.701    96011063.09006
      2807.945  
  21779081.774   116462535.69605      3383.601    21779087.921    90581998.58907
      2631.690  
  19576274.455   104719871.19006     -1157.022    19576277.840    81448798.95907
      -899.909  
 20 09 30 05 44 50.0000000  0 14G15G18G20G29G 5G30G13R 4R 3R18R12R 5
                                R20R19
  20113542.811   105697380.46649       929.257    20113542.172    82361595.18148
       724.098  
  20571142.753   108102085.04449      1176.468    20571142.616    84235390.22248
       916.729  
  22379145.463   117603205.01148      2891.227    22379144.899    91638858.80146
      2252.902  
  23686790.938   124474927.17347     -3551.434    23686792.143    96993451.29245
     -2767.359  
  22983229.219   120777682.88348     -3062.117    22983229.445    94112483.40747
     -2386.070  
  24147445.224   126895677.62647     -1489.059    24147447.330    98879772.80746
     -1160.304  
  20690278.554   108728146.87549     -1184.034    20690277.768    84723229.03548
      -922.628  
  19593359.983   104921555.07009      1267.452    19593363.006    81605666.92408
       985.796  
  20169535.414   107969100.90809     -2315.647    20169538.657    83975980.45008
     -1801.063  
  21907363.259   116942988.41907     -4226.750    21907369.946    90955681.91207
     -3287.476  
  22632582.240   120899191.87507       115.941    22632587.753    94032726.46306
        90.176  
  23089145.492   123424714.24307      3608.930    23089151.239    95997025.01006
      2806.945  
  21775918.682   116445620.69105      3381.766    21775924.747    90568842.48407
      2630.261  
  19577357.979   104725667.16006     -1161.843    19577361.335    81453306.93507
      -903.660  
 20 09 30 05 44 55.0000000  0 14G15G18G20G29G 5G30G13R 4R 3R18R12R 5
                                R20R19
  20112660.410   105692743.41749       925.812    20112659.772    82357981.90148
       721.413  
  20570024.879   108096210.55049      1173.348    20570024.747    84230812.70148
       914.297  
  22376394.954   117588751.08048      2890.253    22376394.378    91627595.99946
      2252.145  
  23690170.667   124492688.08147     -3552.718    23690171.957    97007290.97446
     -2768.352  
  22986143.179   120792995.94248     -3063.284    22986143.436    94124415.65146
     -2386.979  
  24148863.682   126903131.61047     -1492.137    24148865.962    98885581.08746
     -1162.707  
  20691406.831   108734075.88549     -1187.406    20691406.039    84727849.05148
      -925.250  
  19592178.074   104915225.93709      1264.210    19592181.108    81600744.26408
       983.273  
  20171699.511   107980685.48909     -2317.965    20171702.747    83984990.68208
     -1802.862  
  21911323.364   116964127.85607     -4228.879    21911330.080    90972123.68807
     -3289.133  
  22632475.923   120898624.16807       111.207    22632481.494    94032284.92006
        86.496  
  23085770.325   123406672.00606      3607.848    23085776.063    95982992.17806
      2806.104  
  21772758.466   116428721.12405      3378.434    21772764.421    90555698.37807
      2627.671  
  19578446.133   104731487.67406     -1166.421    19578449.419    81457834.00207
      -907.223  
 20 09 30 05 45  0.0000000  0 14G15G18G20G29G 5G30G13R 4R 3R18R12R 5
                                R20R19
  20111780.853   105688121.31149       922.991    20111780.207    82354380.25848
       719.211  
  20568909.480   108090349.08649      1170.968    20568909.354    84226245.32248
       912.441  
  22373645.154   117574300.84648      2889.543    22373644.599    91616336.08546
      2251.593  
  23693551.210   124510452.98747     -3553.351    23693552.536    97021133.75446
     -2768.847  
  22989057.745   120808312.12048     -3063.565    22989057.962    94136350.33747
     -2387.199  
  24150284.629   126910598.67547     -1494.734    24150286.919    98891399.57646
     -1164.730  
  20692537.819   108740019.23749     -1190.030    20692537.027    84732480.23048
      -927.300  
  19590998.545   104908909.61309      1261.890    19591001.602    81595831.57108
       981.464  
  20173865.261   107992278.85509     -2319.582    20173868.477    83994007.74108
     -1804.124  
  21915284.966   116985275.21607     -4230.327    21915291.683    90988571.62507
     -3290.258  
  22632373.454   120898077.41807       107.327    22632379.104    94031859.67106
        83.476  
  23082395.928   123388633.92106      3607.577    23082401.636    95968962.55506
      2805.894  
  21769600.593   116411834.15505      3375.742    21769606.465    90542564.07207
      2625.577  
  19579538.252   104737329.93106     -1170.488    19579541.552    81462377.97607
      -910.383  
 20 09 30 05 45  5.0000000  0 14G15G18G20G29G 5G30G13R 4R 3R18R12R 5
                                R20R19
  20110904.336   105683515.21849       919.339    20110903.689    82350791.09448
       716.363  
  20567796.758   108084501.72649      1167.941    20567796.630    84221688.93748
       910.082  
  22370896.272   117559855.34448      2888.578    22370895.713    91605079.85446
      2250.840  
  23696932.699   124528222.92647     -3554.726    23696934.079    97034980.45046
     -2769.922  
  22991973.077   120823632.41648     -3064.530    22991973.300    94148288.22047
     -2387.948  
  24151708.193   126918079.86747     -1497.819    24151710.421    98897229.07846
     -1167.136  
  20693671.720   108745977.95849     -1193.565    20693670.949    84737123.38748
      -930.055  
  19589821.605   104902607.15709      1258.823    19589824.670    81590929.66108
       979.085  
  20176032.823   108003881.95309     -2321.866    20176036.025    84003032.37108
     -1805.902  
  21919248.310   117006431.60007     -4232.348    21919254.993    91005026.58307
     -3291.828  
  22632275.164   120897552.46907       102.483    22632280.869    94031451.37306
        79.706  
  23079022.582   123370600.89307      3605.921    23079028.185    95954936.89906
      2804.609  
  21766445.203   116394960.83305      3372.823    21766451.078    90529440.38207
      2623.309  
  19580634.688   104743194.84306     -1175.483    19580637.934    81466939.57207
      -914.270  
 20 09 30 05 45 10.0000000  0 14G15G18G20G29G 5G30G13R 4R 3R18R12R 5
                                R20R19
  20110031.222   105678926.94149       916.277    20110030.561    82347215.81348
       713.976  
  20566687.074   108078670.26349      1165.124    20566686.941    84217144.94448
       907.887  
  22368148.606   117545416.38448      2887.555    22368148.069    91593828.71446
      2250.042  
  23700315.511   124545999.65647     -3555.550    23700316.852    97048832.43345
     -2770.563  
  22994889.555   120838958.67848     -3065.438    22994889.805    94160230.75646
     -2388.655  
  24153134.784   126925576.96647     -1500.694    24153137.060    98903070.95845
     -1169.374  
  20694808.902   108751953.82749     -1196.402    20694808.127    84741779.90748
      -932.266  
  19588647.579   104896320.36209      1256.316    19588650.679    81586039.93508
       977.136  
  20178202.566   108015496.66209     -2323.632    20178205.742    84012066.03108
     -1807.270  
  21923213.696   117027598.85007     -4234.116    21923220.332    91021489.99807
     -3293.206  
  22632181.257   120897051.20907        98.425    22632187.121    94031061.50106
        76.550  
  23075650.426   123352574.91206      3604.866    23075656.053    95940916.69206
      2803.785  
  21763292.638   116378102.87105      3370.640    21763298.555    90516328.63907
      2621.608  
  19581735.651   104749084.25506     -1179.858    19581738.905    81471520.22407
      -917.671  
 20 09 30 05 45 15.0000000  0 14G15G18G20G29G 5G30G13R 4R 3R18R12R 5
                                R20R19
  20109161.072   105674354.23949       913.034    20109160.413    82343652.67248
       711.453  
  20565579.979   108072852.47049      1162.320    20565579.852    84212611.59948
       905.699  
  22365401.780   117530981.68348      2886.729    22365401.270    91582580.90646
      2249.397  
  23703699.206   124563780.96847     -3556.680    23703700.565    97062687.98645
     -2771.444  
  22997806.738   120854288.61048     -3066.199    22997806.946    94172176.15046
     -2389.249  
  24154564.042   126933087.73947     -1503.598    24154566.252    98908923.51045
     -1171.632  
  20695948.916   108757944.64049     -1199.589    20695948.149    84746448.07648
      -934.750  
  19587476.081   104890047.01309      1253.343    19587479.183    81581160.66308
       974.824  
  20180374.034   108027120.66709     -2325.569    20180377.204    84021106.92508
     -1808.777  
  21927180.635   117048774.54607     -4235.917    21927187.243    91037959.97407
     -3294.605  
  22632091.495   120896571.46507        94.094    22632097.336    94030688.37206
        73.184  
  23072279.096   123334553.50106      3603.980    23072284.728    95926900.06406
      2803.098  
  21760142.646   116361258.29105      3367.703    21760148.504    90503227.29807
      2619.320  
  19582840.794   104754995.99206     -1184.117    19582844.041    81476118.24007
      -920.983  
 20 09 30 05 45 20.0000000  0 14G15G18G20G29G 5G30G13R 4R 3R18R12R 5
                                R20R19
  20108294.065   105669798.08849       909.808    20108293.398    82340102.42248
       708.937  
  20564475.680   108067049.34349      1159.246    20564475.546    84208089.68148
       903.305  
  22362655.949   117516552.27748      2885.410    22362655.432    91571337.22046
      2248.371  
  23707083.920   124581567.79247     -3557.750    23707085.274    97076547.83545
     -2772.281  
  23000724.810   120869623.24248     -3067.273    23000725.021    94184125.21246
     -2390.081  
  24155996.131   126940613.16747     -1506.405    24155998.261    98914787.47246
     -1173.828  
  20697091.956   108763951.35949     -1202.784    20697091.188    84751128.63348
      -937.238  
  19586307.263   104883788.01009      1250.526    19586310.366    81576292.55208
       972.633  
  20182547.411   108038754.86409     -2327.891    20182550.570    84030155.74308
     -1810.586  
  21931149.360   117069959.80607     -4237.871    21931155.953    91054437.38707
     -3296.210  
  22632005.904   120896114.16007        89.526    22632011.705    94030332.69006
        69.632  
  23068908.812   123316537.77906      3602.659    23068914.478    95912887.83606
      2802.069  
  21756995.322   116344427.85305      3364.315    21757001.114    90490136.96607
      2616.691  
  19583950.249   104760930.88906     -1189.222    19583953.500    81480734.27007
      -924.953  
 20 09 30 05 45 25.0000000  0 14G15G18G20G29G 5G30G13R 4R 3R18R12R 5
                                R20R19
  20107429.919   105665256.93949       907.008    20107429.240    82336563.86848
       706.757  
  20563373.863   108061259.31849      1156.887    20563373.747    84203577.97148
       901.468  
  22359910.853   117502126.63948      2884.812    22359910.301    91560096.46246
      2247.906  
  23710469.410   124599358.56947     -3558.363    23710470.747    97090410.77945
     -2772.749  
  23003643.495   120884960.97448     -3067.641    23003643.686    94196076.68647
     -2390.374  
  24157430.697   126948151.67347     -1508.938    24157432.808    98920661.64046
     -1175.796  
  20698237.719   108769972.41449     -1205.465    20698236.965    84755820.36648
      -939.328  
  19585140.846   104877541.87309      1248.113    19585143.923    81571434.45108
       970.753  
  20184722.384   108050397.85109     -2329.309    20184725.585    84039211.40108
     -1811.684  
  21935119.577   117091152.90707     -4239.152    21935126.142    91070920.90807
     -3297.120  
  22631924.200   120895677.71207        85.383    22631929.911    94029993.23406
        66.410  
  23065539.393   123298526.01806      3602.081    23065545.002    95898878.70806
      2801.621  
  21753850.174   116327610.05405      3362.866    21753856.109    90477056.45807
      2615.563  
  19585063.676   104766887.38206     -1193.417    19585066.995    81485367.09607
      -928.218  
 20 09 30 05 45 30.0000000  0 14G15G18G20G29G 5G30G13R 4R 3R18R12R 5
                                R20R19
  20106568.911   105660732.31049       903.417    20106568.225    82333038.18748
       703.960  
  20562274.838   108055483.89949      1153.695    20562274.739    84199077.65148
       898.984  
  22357166.743   117487706.21348      2883.675    22357166.174    91548859.78146
      2247.019  
  23713855.961   124617154.76447     -3559.438    23713857.308    97104277.93345
     -2773.590  
  23006563.059   120900303.32348     -3068.675    23006563.223    94208031.76347
     -2391.175  
  24158867.986   126955704.74247     -1512.039    24158870.071    98926547.14746
     -1178.214  
  20699386.490   108776009.27549     -1208.831    20699385.749    84760524.41348
      -941.945  
  19583977.099   104871310.02609      1244.956    19583980.169    81566587.45808
       968.300  
  20186899.292   108062051.01109     -2331.667    20186902.486    84048274.96808
     -1813.519  
  21939091.501   117112355.40107     -4241.258    21939098.082    91087411.72907
     -3298.761  
  22631846.608   120895263.57407        80.444    22631852.370    94029671.13206
        62.569  
  23062170.938   123280519.97806      3600.479    23062176.590    95884874.03306
      2800.374  
  21750707.802   116310806.47105      3359.609    21750713.756    90463987.01307
      2613.030  
  19586181.547   104772867.10906     -1198.359    19586184.835    81490017.99607
      -932.058  
 20 09 30 05 45 35.0000000  0 14G15G18G20G29G 5G30G13R 4R 3R18R12R 5
                                R20R19
  20105710.847   105656223.18649       900.097    20105710.159    82329524.58548
       701.375  
  20561178.396   108049722.15449      1150.780    20561178.330    84194587.97948
       896.707  
  22354423.446   117473290.08848      2882.718    22354422.914    91537626.43546
      2246.273  
  23717243.300   124634955.41247     -3560.733    23717244.600    97118148.57545
     -2774.602  
  23009483.307   120915649.33248     -3069.690    23009483.454    94219989.68446
     -2391.973  
  24160307.870   126963271.44447     -1514.819    24160309.964    98932443.26846
     -1180.382  
  20700538.096   108782061.00949     -1212.023    20700537.341    84765240.04948
      -944.434  
  19582815.860   104865091.55009      1242.133    19582818.905    81561750.86608
       966.098  
  20189077.901   108073713.36809     -2333.574    20189081.104    84057345.68908
     -1815.007  
  21943065.038   117133566.37707     -4242.870    21943071.625    91103909.14307
     -3300.113  
  22631773.064   120894870.93407        76.246    22631778.866    94029365.74006
        59.296  
  23058803.408   123262518.53606      3599.887    23058809.013    95870872.92006
      2799.910  
  21747567.836   116294016.13005      3357.012    21747573.863    90450927.86207
      2611.008  
  19587303.588   104778868.99106     -1202.749    19587306.824    81494686.12707
      -935.477  
 20 09 30 05 45 40.0000000  0 14G15G18G20G29G 5G30G13R 4R 3R18R12R 5
                                R20R19
  20104855.896   105651730.29149       896.980    20104855.182    82326023.62848
       698.940  
  20560084.689   108043974.74449      1148.168    20560084.643    84190109.48248
       894.676  
  22351681.076   117458878.90048      2881.766    22351680.580    91526396.94246
      2245.530  
  23720631.640   124652761.16547     -3561.531    23720632.821    97132023.17946
     -2775.223  
  23012404.364   120930999.68448     -3070.425    23012404.558    94231950.99446
     -2392.543  
  24161750.437   126970852.40647     -1517.519    24161752.654    98938350.49946
     -1182.488  
  20701692.646   108788128.23849     -1214.941    20701691.904    84769967.76348
      -946.706  
  19581657.225   104858887.20609      1239.484    19581660.274    81556925.27008
       964.042  
  20191258.391   108085385.70009     -2335.315    20191261.602    84066424.17108
     -1816.358  
  21947040.223   117154786.53007     -4244.714    21947046.865    91120413.69807
     -3301.499  
  22631703.749   120894500.31907        72.105    22631709.479    94029077.48806
        56.082  
  23055436.796   123244522.35107      3598.647    23055442.436    95856875.90406
      2798.949  
  21744430.637   116277239.80705      3353.816    21744436.586    90437879.62007
      2608.523  
  19588429.749   104784893.78906     -1206.894    19588433.104    81499372.08307
      -938.694  
 20 09 30 05 45 45.0000000  0 14G15G18G20G29G 5G30G13R 4R 3R18R12R 5
                                R20R19
  20104004.173   105647254.42749       893.382    20104003.446    82322535.94348
       696.136  
  20558993.859   108038242.48749      1144.960    20558993.846    84185642.78748
       892.172  
  22348939.824   117444473.49348      2880.444    22348939.256    91515171.95846
      2244.504  
  23724021.150   124670572.84847     -3563.159    23724022.298    97145902.39945
     -2776.491  
  23015326.436   120946355.27148     -3071.746    23015326.615    94243916.38946
     -2393.574  
  24163195.922   126978448.44947     -1520.875    24163198.117    98944269.49046
     -1185.102  
  20702850.308   108794211.79649     -1218.441    20702849.551    84774708.19448
      -949.438  
  19580501.344   104852697.61209      1236.210    19580504.396    81552111.14008
       961.491  
  20193440.898   108097068.76909     -2337.667    20193444.095    84075510.99508
     -1818.190  
  21951017.330   117176016.47107     -4247.242    21951023.947    91136925.86707
     -3303.414  
  22631638.642   120894152.71907        67.168    22631644.385    94028807.13306
        52.242  
  23052071.348   123226532.31906      3597.069    23052077.016    95842883.66606
      2797.722  
  21741296.157   116260478.27005      3351.116    21741302.072    90424842.87007
      2606.426  
  19589560.390   104790942.26906     -1211.777    19589563.803    81504076.45407
      -942.496  
 20 09 30 05 45 50.0000000  0 14G15G18G20G29G 5G30G13R 4R 3R18R12R 5
                                R20R19
  20103155.488   105642794.46349       890.651    20103154.752    82319060.65148
       694.015  
  20557905.712   108032524.27249      1142.516    20557905.706    84181187.03548
       890.270  
  22346199.446   117430072.74148      2879.894    22346198.891    91503950.59246
      2244.073  
  23727411.512   124688389.29047     -3563.590    23727412.662    97159785.33845
     -2776.827  
  23018249.246   120961714.83648     -3072.402    23018249.386    94255884.86846
     -2394.082  
  24164644.070   126986058.42647     -1523.265    24164646.237    98950199.33346
     -1186.964  
  20704010.864   108800310.55749     -1221.069    20704010.106    84779460.47648
      -951.488  
  19579348.039   104846521.77609      1233.941    19579351.087    81547307.71208
       959.726  
  20195625.171   108108761.32509     -2339.249    20195628.363    84084605.20508
     -1819.421  
  21954996.009   117197255.11907     -4248.273    21955002.652    91153444.80807
     -3304.214  
  22631577.607   120893826.80407        63.051    22631583.357    94028553.63806
        49.035  
  23048706.859   123208547.41707      3596.394    23048712.581    95828895.43306
      2797.194  
  21738164.169   116243730.46905      3348.473    21738170.158    90411816.81107
      2604.366  
  19590695.310   104797013.20006     -1216.082    19590698.699    81508798.28507
      -945.844  
 20 09 30 05 45 55.0000000  0 14G15G18G20G29G 5G30G13R 4R 3R18R12R 5
                                R20R19
  20102309.531   105638348.86649       887.668    20102308.791    82315596.55048
       691.684  
  20556819.958   108026818.56149      1139.933    20556819.953    84176741.02748
       888.261  
  22343459.665   117415675.12648      2879.003    22343459.110    91492731.67946
      2243.378  
  23730802.510   124706208.95147     -3564.187    23730803.631    97173670.79245
     -2777.289  
  23021172.527   120977076.78348     -3072.640    23021172.622    94267855.21846
     -2394.270  
  24166094.557   126993680.78547     -1525.828    24166096.741    98956138.84246
     -1188.956  
  20705174.010   108806422.93249     -1223.933    20705173.252    84784223.36548
      -953.718  
  19578197.017   104840358.13609      1231.452    19578200.064    81542513.77408
       957.793  
  20197810.927   108120461.84509     -2341.011    20197814.132    84093705.60408
     -1820.788  
  21958976.094   117218501.05407     -4250.003    21958982.715    91169969.41707
     -3305.562  
  22631520.349   120893521.10107        59.034    22631526.099    94028315.87106
        45.913  
  23045343.013   123190565.88707      3596.000    23045348.728    95814909.80706
      2796.891  
  21735034.487   116226994.74705      3345.468    21735040.487    90398800.14007
      2602.030  
  19591834.212   104803105.21406     -1220.772    19591837.537    81513536.51907
      -949.495  
 20 09 30 05 46  0.0000000  0 14G15G18G20G29G 5G30G13R 4R 3R18R12R 5
                                R20R19
  20101466.822   105633920.40149       884.214    20101466.090    82312145.79948
       688.996  
  20555737.114   108021128.15049      1136.636    20555737.104    84172306.94348
       885.691  
  22340721.014   117401283.41548      2877.800    22340720.452    91481517.36146
      2242.440  
  23734194.619   124724034.57547     -3565.703    23734195.716    97187560.87245
     -2778.472  
  23024096.786   120992443.96148     -3074.086    23024096.845    94279829.63946
     -2395.394  
  24167547.942   127001318.34447     -1529.039    24167550.057    98962090.17545
     -1191.465  
  20706340.284   108812551.71349     -1227.308    20706339.505    84788999.03748
      -956.348  
  19577048.807   104834209.49309      1228.297    19577051.834    81537731.49908
       955.343  
  20199998.698   108132173.25109     -2343.300    20200001.922    84102814.47808
     -1822.569  
  21962957.971   117239756.73507     -4252.000    21962964.610    91186501.60307
     -3307.112  
  22631467.420   120893238.45407        54.296    22631473.150    94028096.03506
        42.229  
  23041980.327   123172590.65206      3594.344    23041986.106    95800929.07706
      2795.602  
  21731907.585   116210273.92105      3342.261    21731913.586    90385795.05407
      2599.534  
  19592977.522   104809220.99706     -1225.456    19592980.824    81518293.23607
      -953.137  
 20 09 30 05 46  5.0000000  0 14G15G18G20G29G 5G30G13R 4R 3R18R12R 5
                                R20R19
  20100627.112   105629507.63449       881.144    20100626.368    82308707.27948
       686.605  
  20554656.886   108015451.57149      1134.171    20554656.872    84167883.63748
       883.770  
  22337983.213   117386896.14448      2877.262    22337982.646    91470306.50646
      2242.023  
  23737587.600   124741864.71347     -3566.085    23737588.684    97201454.47945
     -2778.773  
  23027021.766   121007814.86748     -3074.519    23027021.800    94291806.96846
     -2395.729  
  24169003.893   127008969.57347     -1531.183    24169006.016    98968052.18046
     -1193.132  
  20707509.406   108818695.42549     -1229.988    20707508.608    84793786.34848
      -958.433  
  19575903.127   104828074.36509      1225.815    19575906.135    81532959.73608
       953.414  
  20202188.220   108143893.93209     -2344.918    20202191.437    84111930.56708
     -1823.828  
  21966941.503   117261021.00907     -4253.820    21966948.147    91203040.47907
     -3308.530  
  22631418.534   120892977.34707        50.094    22631424.226    94027892.95606
        38.961  
  23038618.497   123154620.37206      3593.272    23038624.405    95786952.21106
      2794.769  
  21728783.213   116193566.65405      3340.647    21728789.213    90372800.51707
      2598.281  
  19594124.851   104815358.96506     -1229.507    19594128.245    81523067.21107
      -956.289  
 20 09 30 05 46 10.0000000  0 14G15G18G20G29G 5G30G13R 4R 3R18R12R 5
                                R20R19
  20099790.488   105625111.11349       877.812    20099789.747    82305281.42248
       684.007  
  20553579.412   108009789.44149      1131.176    20553579.420    84163471.58748
       881.433  
  22335246.377   117372513.94148      2876.059    22335245.796    91459099.59346
      2241.081  
  23740981.553   124759699.93547     -3567.164    23740982.575    97215352.05245
     -2779.612  
  23029947.579   121023190.11648     -3075.452    23029947.649    94303787.67546
     -2396.460  
  24170462.596   127016635.10847     -1534.215    24170464.722    98974025.30445
     -1195.496  
  20708681.477   108824854.66849     -1233.223    20708680.673    84798585.76048
      -960.952  
  19574760.067   104821953.33309      1222.894    19574763.062    81528198.93708
       951.141  
  20204379.602   108155624.51109     -2346.992    20204382.792    84121054.34708
     -1825.441  
  21970926.699   117282294.31607     -4255.312    21970933.367    91219586.37407
     -3309.691  
  22631373.801   120892738.39207        45.780    22631379.456    94027707.10406
        35.608  
  23035257.706   123136655.36206      3592.496    23035263.705    95772979.44006
      2794.163  
  21725661.679   116176873.59705      3337.304    21725667.515    90359817.04107
      2595.680  
  19595276.516   104821519.90406     -1234.065    19595279.960    81527859.05007
      -959.831  
 20 09 30 05 46 15.0000000  0 14G15G18G20G29G 5G30G13R 4R 3R18R12R 5
                                R20R19
  20098956.840   105620730.29649       874.570    20098956.113    82301867.80248
       681.479  
  20552504.597   108004141.19049      1128.159    20552504.586    84159070.35348
       879.082  
  22332510.380   117358136.21148      2875.098    22332509.792    91447896.17746
      2240.335  
  23744376.384   124777539.70247     -3568.515    23744377.429    97229253.16445
     -2780.664  
  23032874.080   121038569.14248     -3076.241    23032874.186    94315771.32346
     -2397.074  
  24171923.914   127024314.38447     -1537.383    24171926.054    98980009.15346
     -1197.964  
  20709856.391   108831028.85149     -1236.461    20709855.566    84803396.81248
      -963.477  
  19573619.530   104815845.83809      1220.003    19573622.508    81523448.66308
       948.891  
  20206572.745   108167364.42109     -2348.858    20206575.875    84130185.38808
     -1826.894  
  21974913.543   117303576.05107     -4256.973    21974920.166    91236138.82707
     -3310.983  
  22631333.124   120892521.10107        41.187    22631338.764    94027538.10406
        32.034  
  23031897.910   123118695.26307      3591.457    23031903.862    95759010.48506
      2793.355  
  21722542.589   116160193.98205      3334.241    21722548.314    90346844.00907
      2593.296  
  19596432.484   104827703.11806     -1238.789    19596435.846    81532668.21607
      -963.508  
 20 09 30 05 46 20.0000000  0 14G15G18G20G29G 5G30G13R 4R 3R18R12R 5
                                R20R19
  20098126.344   105616365.94749       871.305    20098125.613    82298467.01148
       678.937  
  20551432.565   107998507.58949      1125.332    20551432.540    84154680.53348
       876.882  
  22329775.386   117343763.75348      2874.128    22329774.769    91436696.87046
      2239.582  
  23747772.200   124795384.71047     -3569.577    23747773.151    97243158.35645
     -2781.491  
  23035801.488   121053952.68148     -3076.992    23035801.613    94327758.48847
     -2397.659  
  24173387.973   127032008.09947     -1540.183    24173390.151    98986004.25946
     -1200.145  
  20711034.297   108837218.76049     -1239.542    20711033.458    84808220.11548
      -965.878  
  19572481.687   104809752.68109      1217.409    19572484.639    81518709.54308
       946.875  
  20208767.746   108179114.40109     -2350.914    20208770.856    84139324.26208
     -1828.487  
  21978902.012   117324867.05007     -4259.190    21978908.687    91252698.49107
     -3312.707  
  22631296.545   120892326.13907        36.554    22631302.267    94027386.46506
        28.426  
  23028539.097   123100740.70106      3590.515    23028545.063    95745045.83806
      2792.624  
  21719426.065   116143528.75105      3331.198    21719431.816    90333882.15907
      2590.933  
  19597592.828   104833909.45506     -1243.250    19597596.063    81537495.36607
      -966.976  
 20 09 30 05 46 25.0000000  0 14G15G18G20G29G 5G30G13R 4R 3R18R12R 5
                                R20R19
  20097298.707   105612016.68149       868.195    20097297.975    82295077.97248
       676.512  
  20550363.051   107992887.25649      1122.355    20550363.011    84150301.05748
       874.562  
  22327041.136   117329395.17148      2873.315    22327040.519    91425500.57346
      2238.945  
  23751168.760   124813233.56647     -3570.355    23751169.644    97257066.55245
     -2782.098  
  23038729.490   121069339.37148     -3077.961    23038729.631    94339748.10946
     -2398.414  
  24174854.540   127039714.89847     -1542.898    24174856.672    98992009.54646
     -1202.261  
  20712214.928   108843422.95649     -1242.460    20712214.054    84813054.55248
      -968.155  
  19571346.216   104803672.31509      1214.624    19571349.173    81513980.36708
       944.702  
  20210964.362   108190873.02709     -2352.766    20210967.450    84148469.85708
     -1829.934  
  21982892.046   117346165.83807     -4260.641    21982898.688    91269264.20407
     -3313.835  
  22631263.944   120892152.05607        32.746    22631269.669    94027251.06306
        25.464  
  23025181.116   123082790.55706      3589.352    23025187.098    95731084.62806
      2791.718  
  21716312.131   116126876.58105      3328.812    21716317.778    90320930.48007
      2589.077  
  19598756.927   104840137.44406     -1247.894    19598760.319    81542339.35407
      -970.589  
 20 09 30 05 46 30.0000000  0 14G15G18G20G29G 5G30G13R 4R 3R18R12R 5
                                R20R19
  20096474.141   105607683.59349       864.878    20096473.416    82291701.53948
       673.926  
  20549296.279   107987281.26749      1119.543    20549296.235    84145932.75348
       872.366  
  22324307.823   117315031.57648      2871.968    22324307.240    91414308.16046
      2237.895  
  23754566.222   124831087.31947     -3571.378    23754567.119    97270978.55245
     -2782.898  
  23041658.292   121084730.23748     -3078.839    23041658.409    94351740.99747
     -2399.102  
  24176323.803   127047435.83347     -1546.069    24176325.894    98998025.85546
     -1204.733  
  20713398.470   108849642.53949     -1245.707    20713397.594    84817900.98148
      -970.683  
  19570213.343   104797605.95909      1211.648    19570216.317    81509262.09408
       942.394  
  20213162.798   108202641.36609     -2355.003    20213165.867    84157623.00908
     -1831.671  
  21986883.736   117367473.50207     -4262.637    21986890.359    91285836.82407
     -3315.430  
  22631235.484   120892000.12007        27.949    22631241.235    94027132.89206
        21.734  
  23021824.117   123064845.53506      3588.265    23021830.105    95717127.39706
      2790.874  
  21713200.728   116110238.32405      3326.003    21713206.319    90307989.62107
      2586.890  
  19599925.435   104846388.20706     -1252.601    19599928.848    81547201.05807
      -974.249  
 20 09 30 05 46 35.0000000  0 14G15G18G20G29G 5G30G13R 4R 3R18R12R 5
                                R20R19
  20095652.578   105603366.25049       862.090    20095651.854    82288337.37948
       671.753  
  20548232.144   107981689.23549      1117.300    20548232.083    84141575.32548
       870.620  
  22321575.365   117300672.53648      2871.565    22321574.847    91403119.31146
      2237.586  
  23757964.570   124848945.57047     -3571.820    23757965.455    97284894.07745
     -2783.241  
  23044587.811   121100124.90148     -3078.984    23044587.952    94363736.83047
     -2399.210  
  24177795.680   127055170.47447     -1547.730    24177797.754    99004052.84746
     -1206.023  
  20714584.865   108855877.08649     -1248.222    20714583.980    84822759.06647
      -972.644  
  19569083.010   104791553.23009      1209.496    19569085.991    81504554.41708
       940.714  
  20215362.953   108214418.96609     -2356.117    20215366.029    84166783.36408
     -1832.538  
  21990876.949   117388789.48407     -4263.507    21990883.595    91302415.90707
     -3316.065  
  22631211.119   120891869.81107        24.140    22631216.871    94027031.54206
        18.772  
  23018468.122   123046905.56606      3587.815    23018474.042    95703174.09906
      2790.523  
  21710091.888   116093613.96005      3323.503    21710097.442    90295059.56007
      2584.948  
  19601098.061   104852661.21506     -1256.836    19601101.534    81552080.05907
      -977.542  
 20 09 30 05 46 40.0000000  0 14G15G18G20G29G 5G30G13R 4R 3R18R12R 5
                                R20R19
  20094834.139   105599065.32549       858.758    20094833.416    82284986.01248
       669.156  
  20547170.802   107976111.84549      1114.141    20547170.749    84137229.30848
       868.160  
  22318843.915   117286318.73548      2870.398    22318843.387    91391934.53046
      2236.675  
  23761363.890   124866808.96247     -3573.116    23761364.669    97298813.60245
     -2784.246  
  23047518.202   121115524.14648     -3080.078    23047518.320    94375736.22846
     -2400.065  
  24179270.267   127062919.57647     -1550.976    24179272.350    99010091.10045
     -1208.559  
  20715774.235   108862127.23949     -1251.460    20715773.346    84827629.31948
      -975.163  
  19567955.346   104785514.70309      1206.519    19567958.331    81499857.78408
       938.398  
  20217565.039   108226206.68909     -2358.269    20217568.083    84175951.59608
     -1834.214  
  21994871.922   117410114.63907     -4265.913    21994878.529    91319002.13207
     -3317.938  
  22631190.915   120891761.82007        19.699    22631196.678    94026947.55006
        15.319  
  23015113.121   123028971.19606      3586.629    23015119.014    95689225.16106
      2789.602  
  21706985.690   116077003.87905      3320.835    21706991.288    90282140.61007
      2582.871  
  19602274.939   104858957.18506     -1261.386    19602278.516    81556976.92907
      -981.078  
 20 09 30 05 46 45.0000000  0 14G15G18G20G29G 5G30G13R 4R 3R18R12R 5
                                R20R19
  20094018.801   105594780.72249       855.280    20094018.083    82281647.36048
       666.449  
  20546112.249   107970548.98449      1111.214    20546112.165    84132894.61548
       865.883  
  22316113.465   117271970.06048      2869.229    22316112.932    91380753.74446
      2235.766  
  23764764.168   124884677.38447     -3574.160    23764764.944    97312737.03645
     -2785.062  
  23050449.423   121130927.68948     -3081.261    23050449.532    94387738.98846
     -2400.988  
  24180747.562   127070682.94047     -1554.031    24180749.699    99016140.47145
     -1210.937  
  20716966.543   108868392.86249     -1254.719    20716965.631    84832511.62048
      -977.703  
  19566830.338   104779490.30609      1203.479    19566833.317    81495172.14308
       936.039  
  20219768.924   108238004.19409     -2360.578    20219771.962    84185127.42608
     -1836.007  
  21998868.493   117431448.69907     -4267.663    21998875.131    91335595.28407
     -3319.297  
  22631174.787   120891675.95207        14.671    22631180.604    94026880.76706
        11.410  
  23011759.136   123011042.32006      3585.059    23011765.042    95675280.48806
      2788.379  
  21703882.148   116060408.00005      3317.476    21703887.800    90269232.71407
      2580.257  
  19603456.142   104865276.11006     -1265.847    19603459.770    81561891.64107
      -984.551  
 20 09 30 05 46 50.0000000  0 14G15G18G20G29G 5G30G13R 4R 3R18R12R 5
                                R20R19
  20093206.666   105590512.95649       851.805    20093205.954    82278321.83048
       663.741  
  20545056.541   107965001.17249      1108.155    20545056.450    84128571.64048
       863.496  
  22313384.078   117257627.06848      2867.848    22313383.562    91369577.39846
      2234.688  
  23768165.457   124902551.34347     -3575.250    23768166.260    97326664.79445
     -2785.910  
  23053381.583   121146336.07548     -3082.191    23053381.671    94399745.51646
     -2401.710  
  24182227.651   127078461.07847     -1557.358    24182229.899    99022201.33446
     -1213.530  
  20718161.887   108874674.50049     -1257.819    20718160.987    84837406.40648
      -980.120  
  19565708.078   104773480.65409      1200.358    19565711.058    81490497.97308
       933.613  
  20221974.736   108249812.08009     -2362.636    20221977.782    84194311.33908
     -1837.608  
  22002866.853   117452792.21707     -4269.633    22002873.511    91352195.78707
     -3320.827  
  22631162.971   120891612.92407        10.417    22631168.828    94026831.74806
         8.097  
  23008406.306   122993119.45607      3583.882    23008412.202    95661340.49506
      2787.465  
  21700781.419   116043827.10105      3314.719    21700787.059    90256336.46007
      2578.108  
  19604641.788   104871618.54806     -1270.460    19604645.445    81566824.64807
      -988.140  
 20 09 30 05 46 55.0000000  0 14G15G18G20G29G 5G30G13R 4R 3R18R12R 5
                                R20R19
  20092397.480   105586260.68549       849.124    20092396.767    82275008.37648
       661.656  
  20544003.443   107959467.07049      1105.710    20544003.331    84124259.35548
       861.593  
  22310655.509   117243288.34248      2867.374    22310654.963    91358404.36946
      2234.315  
  23771567.545   124920429.43648     -3576.039    23771568.361    97340595.76645
     -2786.526  
  23056314.409   121161747.93248     -3082.633    23056314.473    94411754.75246
     -2402.054  
  24183710.318   127086252.63947     -1559.280    24183712.549    99028272.69145
     -1215.022  
  20719360.051   108880970.79849     -1260.522    20719359.141    84842312.61247
      -982.226  
  19564588.305   104767484.25809      1198.073    19564591.266    81485834.11208
       931.835  
  20224182.235   108261628.96109     -2364.023    20224185.282    84203502.24808
     -1838.684  
  22006866.721   117474143.81607     -4270.835    22006873.405    91368802.57707
     -3321.766  
  22631155.178   120891571.17007         6.554    22631161.050    94026799.27706
         5.098  
  23005054.374   122975201.14707      3583.352    23005060.214    95647404.04306
      2787.050  
  21697683.274   116027259.61605      3312.933    21697688.865    90243450.64607
      2576.727  
  19605831.547   104877982.98406     -1274.953    19605835.209    81571774.76707
      -991.632  
 20 09 30 05 47  0.0000000  0 14G15G18G20G29G 5G30G13R 4R 3R18R12R 5
                                R20R19
  20091591.370   105582024.58149       845.605    20091590.679    82271707.51548
       658.909  
  20542953.090   107953947.33549      1102.551    20542952.953    84119958.26448
       859.129  
  22307927.865   117228954.56948      2866.522    22307927.322    91347235.19646
      2233.656  
  23774970.592   124938312.29048     -3577.047    23774971.386    97354530.45745
     -2787.313  
  23059248.002   121177163.94448     -3083.534    23059248.102    94423767.22346
     -2402.758  
  24185195.693   127094058.30547     -1562.206    24185197.831    99034355.01745
     -1217.309  
  20720561.123   108887282.44249     -1263.867    20720560.199    84847230.77647
      -984.835  
  19563471.122   104761501.79509      1195.198    19563474.068    81481181.08408
       929.593  
  20226391.519   108273455.43309     -2366.184    20226394.566    84212700.61208
     -1840.367  
  22010868.213   117495504.14407     -4272.862    22010874.920    91385416.15807
     -3323.343  
  22631151.476   120891551.45807         1.730    22631157.348    94026783.95706
         1.348  
  23001703.352   122957288.26407      3582.163    23001709.198    95633471.81506
      2786.128  
  21694587.816   116010706.43905      3309.573    21694593.345    90230575.95607
      2574.112  
  19607025.605   104884370.04506     -1279.234    19607029.209    81576742.47707
      -994.965  
 20 09 30 05 47  5.0000000  0 14G15G18G20G29G 5G30G13R 4R 3R18R12R 5
                                R20R19
  20090788.675   105577806.45249       841.930    20090788.004    82268420.66548
       656.047  
  20541905.811   107948443.84749      1099.167    20541905.659    84115669.83148
       856.496  
  22305201.548   117214627.64448      2864.852    22305200.986    91336071.36946
      2232.351  
  23778374.868   124956201.81747     -3578.468    23778375.636    97368470.35745
     -2788.417  
  23062182.757   121192585.99748     -3085.141    23062182.851    94435784.40646
     -2404.007  
  24186684.094   127101879.87347     -1565.641    24186686.289    99040449.75346
     -1219.980  
  20721765.453   108893611.20949     -1267.281    20721764.516    84852162.28448
      -987.495  
  19562356.893   104755535.21209      1191.808    19562359.844    81476540.41008
       926.961  
  20228602.968   108285293.49009     -2368.601    20228606.021    84221907.98508
     -1842.249  
  22014871.670   117516875.09007     -4274.965    22014878.402    91402037.99907
     -3324.979  
  22631152.291   120891555.72107        -3.020    22631158.138    94026787.27406
        -2.348  
  22998353.618   122939382.60907      3580.688    22998359.561    95619545.20006
      2784.980  
  21691495.305   115994169.29805      3306.034    21691500.825    90217713.73807
      2571.359  
  19608224.256   104890781.67906     -1284.766    19608227.803    81581729.30107
      -999.265  
 20 09 30 05 47 10.0000000  0 15G15G18G20G29G 5G30G27G13R 4R 3R18R12
                                R 5R20R19
  20089989.083   105573604.60249       839.272    20089988.434    82265146.49848
       653.979  
  20540861.289   107942954.84549      1096.914    20540861.137    84111392.69048
       854.738  
  22302476.194   117200305.81348      2864.269    22302475.603    91324911.50446
      2231.897  
  23781780.081   124974096.20748     -3579.042    23781780.806    97382414.02145
     -2788.870  
  23065118.289   121208012.28748     -3085.265    23065118.390    94447804.88447
     -2404.105  
  24188175.176   127109715.62647     -1568.070    24188177.412    99046555.52746
     -1221.874  
  24672408.251   129654380.89117      2280.022           0.000           0.0000 
         0.000  
  20722972.719   108899955.43449     -1269.890    20722971.789    84857105.83448
      -989.523  
  19561245.304   104749582.70609      1189.559    19561248.256    81471910.68708
       925.210  
  20230816.242   108297141.32009     -2370.081    20230819.316    84231122.95808
     -1843.401  
  22018876.813   117538254.78407     -4276.258    22018883.552    91418666.63807
     -3325.980  
  22631157.184   120891582.07607        -6.894    22631163.094    94026807.76906
        -5.363  
  22995005.031   122921482.43307      3579.905    22995010.983    95605622.86406
      2784.375  
  21688405.459   115977646.47305      3303.276    21688410.989    90204862.65407
      2569.214  
  19609427.103   104897216.00306     -1288.789    19609430.662    81586733.77407
     -1002.395  
 20 09 30 05 47 15.0000000  0 15G15G18G20G29G 5G30G27G13R 4R 3R18R12
                                R 5R20R19
  20089191.788   105569414.81849       836.414    20089191.144    82261881.72948
       651.749  
  20539818.727   107937476.14949      1094.370    20539818.561    84107123.57748
       852.757  
  22299751.009   117185984.83548      2863.609    22299750.381    91313752.30346
      2231.382  
  23785185.403   124991991.26248     -3579.370    23785186.175    97396358.21845
     -2789.125  
  23068053.826   121223438.57948     -3085.605    23068053.929    94459825.36246
     -2404.371  
  24189668.109   127117561.32247     -1570.288    24189670.400    99052669.03446
     -1223.608  
  24670239.804   129642986.03146      2277.784    24670242.534   101020517.49455
      1774.894  
  20724182.122   108906310.86049     -1272.550    20724181.202    84862058.11548
      -991.601  
  19560135.531   104743639.98309      1187.164    19560138.487    81467288.57008
       923.351  
  20233030.505   108308994.56909     -2371.535    20233033.625    84240342.15208
     -1844.527  
  22022882.858   117559639.04307     -4277.633    22022889.558    91435298.83707
     -3327.050  
  22631165.452   120891626.39707       -11.183    22631171.434    94026842.23306
        -8.702  
  22991656.661   122903583.47706      3579.175    22991662.552    95591701.45006
      2783.804  
  21685317.433   115961133.59505      3301.652    21685322.991    90192019.30907
      2567.953  
  19610633.390   104903668.95006     -1292.684    19610636.988    81591752.73307
     -1005.426  
 20 09 30 05 47 20.0000000  0 15G15G18G20G29G 5G30G27G13R 4R 3R18R12
                                R 5R20R19
  20088397.692   105565241.91249       832.788    20088397.053    82258630.12048
       648.926  
  20538779.051   107932012.58149      1091.187    20538778.856    84102866.25048
       850.273  
  22297026.916   117171669.60048      2862.397    22297026.285    91302597.58346
      2230.441  
  23788591.766   125009891.79147     -3580.820    23788592.591    97410306.67345
     -2790.254  
  23070990.291   121238869.74448     -3086.620    23070990.359    94471849.64747
     -2405.163  
  24191163.898   127125421.81247     -1573.598    24191166.248    99058794.09545
     -1226.184  
  24668074.740   129631605.01447      2274.590    24668077.520   101011649.18646
      1772.406  
  20725394.565   108912682.29049     -1275.922    20725393.652    84867022.86648
      -994.230  
  19559028.528   104737711.93709      1184.043    19559031.466    81462677.86708
       920.922  
  20235246.726   108320858.14109     -2373.808    20235249.848    84249569.37608
     -1846.300  
  22026890.570   117581032.63707     -4279.867    22026897.320    91451938.29007
     -3328.789  
  22631177.977   120891693.39707       -15.848    22631184.030    94026894.34806
       -12.323  
  22988309.474   122885690.49906      3577.961    22988315.304    95577784.70106
      2782.858  
  21682232.232   115944635.79705      3298.011    21682237.791    90179187.69407
      2565.121  
  19611844.034   104910145.30106     -1297.875    19611847.679    81596789.88907
     -1009.461  
 20 09 30 05 47 25.0000000  0 15G15G18G20G29G 5G30G27G13R 4R 3R18R12
                                R 5R20R19
  20087606.569   105561084.56049       830.078    20087605.935    82255390.62448
       646.808  
  20537742.011   107926562.84049      1088.684    20537741.804    84098619.69748
       848.320  
  22294303.682   117157358.81448      2861.641    22294303.016    91291446.31446
      2229.848  
  23791998.926   125027796.41447     -3581.324    23791999.762    97424258.31345
     -2790.645  
  23073927.427   121254304.46548     -3087.176    23073927.496    94483876.70047
     -2405.594  
  24192662.271   127133295.78347     -1576.031    24192664.622    99064929.65245
     -1228.082  
  24665911.357   129620236.51746      2272.262    24665913.269   101002790.59445
      1770.589  
  20726609.803   108919068.43949     -1278.655    20726608.896    84871999.08748
      -996.359  
  19557924.021   104731797.25709      1181.706    19557926.927    81458077.56108
       919.104  
  20237464.646   108332730.77809     -2375.277    20237467.793    84258803.64408
     -1847.440  
  22030899.839   117602434.29307     -4281.183    22030906.576    91468584.01007
     -3329.812  
  22631194.531   120891781.88707       -19.785    22631200.589    94026963.17706
       -15.387  
  22984963.124   122867802.30906      3577.254    22984968.931    95563871.68706
      2782.309  
  21679149.652   115928151.66705      3295.730    21679155.183    90166366.70407
      2563.347  
  19613058.826   104916643.74406     -1301.750    19613062.509    81601844.23207
     -1012.477  
 20 09 30 05 47 30.0000000  0 15G15G18G20G29G 5G30G27G13R 4R 3R18R12
                                R 5R20R19
  20086818.549   105556943.51949       826.069    20086817.915    82252163.84548
       643.690  
  20536707.724   107921127.68549      1085.073    20536707.521    84094384.51248
       845.508  
  22291581.421   117143053.17248      2859.891    22291580.722    91280299.07046
      2228.483  
  23795407.005   125045705.95547     -3583.276    23795407.782    97438213.80146
     -2792.167  
  23076865.383   121269743.52748     -3088.972    23076865.450    94495907.13247
     -2406.996  
  24194163.328   127141183.92447     -1579.219    24194165.626    99071076.26545
     -1230.559  
  24663750.522   129608881.34346      2269.203    24663752.637   100993942.41745
      1768.206  
  20727827.980   108925470.03349     -1282.425    20727827.086    84876987.33947
      -999.293  
  19556822.144   104725896.78809      1177.996    19556825.056    81453488.30808
       916.272  
  20239684.352   108344613.10209     -2377.879    20239687.533    84268045.45208
     -1849.464  
  22034910.796   117623844.83207     -4283.520    22034917.505    91485236.64807
     -3331.628  
  22631215.249   120891892.62007       -25.133    22631221.283    94027049.31006
       -19.546  
  22981617.823   122849919.78706      3575.487    22981623.623    95549963.07106
      2780.979  
  21676069.782   115911681.93705      3291.737    21676075.278    90153556.92407
      2560.241  
  19614277.943   104923165.01106     -1306.952    19614281.591    81606916.32607
     -1016.523  
 20 09 30 05 47 35.0000000  0 15G15G18G20G29G 5G30G27G13R 4R 3R18R12
                                R 5R20R19
  20086033.666   105552818.99649       823.316    20086033.045    82248949.93348
       641.547  
  20535676.268   107915707.31449      1082.667    20535676.066    84090160.84648
       843.632  
  22288860.149   117128752.88648      2859.472    22288859.506    91269155.99046
      2228.159  
  23798816.057   125063620.52347     -3583.246    23798816.846    97452173.19345
     -2792.145  
  23079804.189   121285187.09248     -3089.098    23079804.283    94507941.06947
     -2407.093  
  24195667.151   127149086.50347     -1581.847    24195669.456    99077234.10346
     -1232.613  
  24661592.354   129597539.72246      2267.234    24661595.101   100985104.79246
      1766.671  
  20729049.108   108931887.22949     -1284.991    20729048.223    84881987.75348
     -1001.293  
  19555722.918   104720010.57809      1175.875    19555725.848    81448910.14708
       914.570  
  20241905.954   108356505.45109     -2379.336    20241909.146    84277295.05408
     -1850.598  
  22038923.435   117645264.29307     -4284.664    22038930.096    91501896.21207
     -3332.519  
  22631240.163   120892025.74007       -28.694    22631246.188    94027152.84606
       -22.319  
  22978273.554   122832042.81406      3574.897    22978279.316    95536058.77206
      2780.476  
  21672992.498   115895227.00705      3289.269    21672998.108    90140758.64307
      2558.316  
  19615501.320   104929709.22206     -1311.171    19615504.970    81612006.27107
     -1019.805  
 20 09 30 05 47 40.0000000  0 15G15G18G20G29G 5G30G27G13R 4R 3R18R12
                                R 5R20R19
  20085252.241   105548712.64149       818.789    20085251.624    82245750.17748
       638.016  
  20534647.929   107910303.38849      1078.448    20534647.734    84085949.99948
       840.351  
  22286140.242   117114459.65048      2857.456    22286139.580    91258018.40946
      2226.590  
  23802226.370   125081541.80747     -3585.539    23802227.167    97466137.82646
     -2793.929  
  23082744.177   121300636.89348     -3091.258    23082744.304    94519979.87046
     -2408.777  
  24197174.029   127157005.10747     -1585.832    24197176.318    99083404.45045
     -1235.715  
  24659436.815   129586213.25247      2263.222    24659439.494   100976279.00645
      1763.555  
  20730273.520   108938321.65349     -1289.214    20730272.653    84887001.58948
     -1004.585  
  19554626.709   104714140.39609      1171.937    19554629.640    81444344.44608
       911.508  
  20244129.701   108368409.37409     -2382.452    20244132.921    84286553.66008
     -1853.022  
  22042938.009   117666694.32907     -4287.559    22042944.670    91518564.01307
     -3334.773  
  22631269.610   120892182.88407       -34.640    22631275.585    94027275.07806
       -26.941  
  22974930.698   122814173.43006      3572.190    22974936.464    95522160.36706
      2778.367  
  21669918.313   115878788.42205      3285.269    21669924.018    90127973.08207
      2555.211  
  19616729.385   104936278.22706     -1317.180    19616732.959    81617115.48907
     -1024.476  
 20 09 30 05 47 45.0000000  0 15G15G18G20G29G 5G30G27G13R 4R 3R18R12
                                R 5R20R19
  20084474.492   105544625.63549       816.020    20084473.877    82242565.49548
       635.854  
  20533622.950   107904917.08949      1075.948    20533622.763    84081752.88148
       838.401  
  22283421.895   117100174.60748      2856.730    22283421.236    91246887.21246
      2226.023  
  23805638.196   125099470.97747     -3586.223    23805639.041    97480108.59645
     -2794.464  
  23085685.576   121316093.95748     -3091.858    23085685.709    94532024.33746
     -2409.245  
  24198684.146   127164940.91747     -1588.344    24198686.492    99089588.17346
     -1237.675  
  24657284.723   129574903.18447      2260.804    24657287.090   100967465.95945
      1761.664  
  20731501.454   108944774.55349     -1292.065    20731500.591    84892029.82248
     -1006.808  
  19553533.712   104708287.47609      1169.397    19553536.665    81439792.18008
       909.531  
  20246355.861   108380326.08509     -2384.222    20246359.077    84295822.21208
     -1854.398  
  22046954.753   117688136.29607     -4289.245    22046961.485    91535241.08807
     -3336.086  
  22631303.791   120892365.34707       -38.624    22631309.758    94027416.99806
       -30.042  
  22971589.481   122796312.61606      3571.852    22971595.250    95508268.64606
      2778.109  
  21666847.483   115862367.28405      3282.746    21666853.205    90115201.08707
      2553.241  
  19617962.197   104942873.09606     -1320.688    19617965.808    81622244.83207
     -1027.207  
 20 09 30 05 47 50.0000000  0 15G15G18G20G29G 5G30G27G13R 4R 3R18R12
                                R 5R20R19
  20083699.318   105540552.03849       813.238    20083698.690    82239391.26648
       633.690  
  20532600.190   107899542.47949      1073.604    20532599.994    84077564.87648
       836.574  
  22280703.977   117085891.82248      2856.227    22280703.282    91235757.77146
      2225.633  
  23809050.376   125117402.04247     -3586.530    23809051.207    97494080.84745
     -2794.703  
  23088627.223   121331552.35348     -3092.034    23088627.351    94544069.83646
     -2409.382  
  24200196.435   127172887.98947     -1591.011    24200198.813    99095780.68745
     -1239.753  
  24655134.361   129563603.51746      2258.788    24655136.997   100958661.00246
      1760.089  
  20732731.763   108951239.93049     -1294.468    20732730.889    84897067.78048
     -1008.679  
  19552442.774   104702445.68009      1167.081    19552445.751    81435248.56308
       907.727  
  20248583.282   108392249.58109     -2385.487    20248586.493    84305096.03808
     -1855.382  
  22050972.604   117709583.95107     -4289.992    22050979.366    91551922.58507
     -3336.664  
  22631341.606   120892567.13107       -42.285    22631347.539    94027573.93606
       -32.890  
  22968248.670   122778454.38106      3571.374    22968254.525    95494378.92606
      2777.733  
  21663778.812   115845957.81805      3280.952    21663784.569    90102438.17507
      2551.851  
  19619198.768   104949487.66706     -1325.147    19619202.332    81627389.49807
     -1030.675  
 20 09 30 05 47 55.0000000  0 15G15G18G20G29G 5G30G27G13R 4R 3R18R12
                                R 5R20R19
  20082926.790   105536492.47149       810.223    20082926.165    82236227.96648
       631.340  
  20531579.771   107894180.17349      1070.914    20531579.558    84073386.45548
       834.477  
  22277986.624   117071611.94148      2855.594    22277985.972    91224630.59346
      2225.137  
  23812463.020   125135335.57647     -3587.094    23812463.890    97508055.02845
     -2795.140  
  23091569.195   121347012.64348     -3092.441    23091569.373    94556116.80146
     -2409.698  
  24201710.924   127180846.90147     -1593.348    24201713.373    99101982.43345
     -1241.574  
  24652986.173   129552314.90446      2255.979    24652988.571   100949864.71046
      1757.906  
  20733964.565   108957718.34749     -1297.328    20733963.675    84902115.89447
     -1010.910  
  19551354.043   104696615.63909      1164.440    19551357.024    81430714.08608
       905.675  
  20250812.048   108404180.40209     -2387.128    20250815.255    84314375.56408
     -1856.659  
  22054991.681   117731037.92907     -4291.742    22054998.425    91568609.00507
     -3338.027  
  22631383.093   120892788.71307       -46.608    22631389.028    94027746.27906
       -36.249  
  22964908.490   122760599.42307      3570.301    22964914.342    95480491.74106
      2776.901  
  21660712.404   115829560.48005      3277.855    21660718.200    90089684.69607
      2549.441  
  19620439.166   104956122.77306     -1329.690    19620442.679    81632550.13207
     -1034.206  
 20 09 30 05 48  0.0000000  0 15G15G18G20G29G 5G30G27G13R 4R 3R18R12
                                R 5R20R19
  20082157.213   105532448.37749       806.866    20082156.592    82233076.72548
       628.726  
  20530561.981   107888831.64749      1068.020    20530561.760    84069218.77448
       832.218  
  22275270.097   117057336.40148      2854.089    22275269.437    91213506.80546
      2223.965  
  23815876.401   125153273.04847     -3588.355    23815877.239    97522032.27446
     -2796.125  
  23094511.829   121362476.32548     -3093.319    23094512.020    94568166.41847
     -2410.382  
  24203227.993   127188819.12247     -1595.977    24203230.424    99108194.56546
     -1243.616  
  24650840.450   129541038.80046      2253.694    24650842.433   100941078.13446
      1756.124  
  20735200.119   108964211.29349     -1300.515    20735199.234    84907175.33647
     -1013.394  
  19550267.819   104690798.92709      1161.722    19550270.788    81426189.98108
       903.563  
  20253042.505   108416120.08809     -2389.147    20253045.689    84323661.98808
     -1858.226  
  22059012.177   117752499.80007     -4293.605    22059018.946    91585301.56007
     -3339.476  
  22631428.526   120893031.66007       -51.167    22631434.524    94027935.24406
       -39.796  
  22961569.304   122742749.12206      3569.245    22961575.092    95466608.18606
      2776.082  
  21657648.504   115813176.89505      3274.902    21657654.396    90076941.91307
      2547.145  
  19621683.626   104962779.85506     -1333.781    19621687.151    81637727.86207
     -1037.391  
 20 09 30 05 48  5.0000000  0 15G15G18G20G29G 5G30G27G13R 4R 3R18R12
                                R 5R20R19
  20081391.015   105528422.00949       803.570    20081390.407    82229939.29648
       626.159  
  20529547.247   107883499.15849      1065.034    20529547.006    84065063.58648
       829.898  
  22272554.827   117043067.46748      2853.316    22272554.165    91202388.15646
      2223.362  
  23819290.957   125171216.72247     -3589.487    23819291.824    97536014.33545
     -2797.007  
  23097455.540   121377945.68948     -3093.937    23097455.772    94580220.46646
     -2410.863  
  24204748.021   127196806.91847     -1598.883    24204750.362    99114418.79945
     -1245.887  
  24648697.473   129529777.50447      2251.176    24648699.403   100932303.09845
      1754.159  
  20736438.864   108970721.03249     -1303.507    20736437.987    84912247.85247
     -1015.723  
  19549184.493   104684997.76609      1158.707    19549187.469    81421677.96408
       901.211  
  20255275.025   108428070.85209     -2391.144    20255278.169    84332957.02308
     -1859.780  
  22063034.605   117773971.66707     -4295.167    22063041.355    91602001.89007
     -3340.690  
  22631478.421   120893298.25507       -55.491    22631484.469    94028142.59406
       -43.164  
  22958231.324   122724905.83007      3568.386    22958237.155    95452730.09006
      2775.409  
  21654587.773   115796809.44805      3271.597    21654593.609    90064211.67907
      2544.573  
  19622932.612   104969461.18406     -1338.284    19622936.169    81642924.45007
     -1040.891  
 20 09 30 05 48 10.0000000  0 15G15G18G20G29G 5G30G27G13R 4R 3R18R12
                                R 5R20R19
  20080627.795   105524411.32549       800.855    20080627.199    82226814.08748
       624.039  
  20528535.159   107878180.69149      1062.565    20528534.935    84060919.32548
       827.973  
  22269840.429   117028803.14748      2852.479    22269839.749    91191273.10746
      2222.711  
  23822706.287   125189164.49547     -3589.668    23822707.201    97549999.60845
     -2797.148  
  23100399.955   121393418.69548     -3094.578    23100400.225    94592277.35346
     -2411.362  
  24206270.653   127204808.25047     -1601.188    24206272.995    99120653.60445
     -1247.684  
  24646556.956   129518529.01247      2248.769    24646559.117   100923538.04545
      1752.288  
  20737680.423   108977245.50349     -1305.984    20737679.554    84917331.86047
     -1017.647  
  19548103.686   104679210.09109      1156.495    19548106.677    81417176.44108
       899.496  
  20257509.206   108440030.78209     -2392.690    20257512.362    84342259.18908
     -1860.983  
  22067058.628   117795451.74007     -4296.223    22067065.318    91618708.60907
     -3341.512  
  22631532.372   120893586.41607       -59.488    22631538.399    94028366.72306
       -46.270  
  22954894.357   122707067.54507      3567.438    22954900.101    95438855.88406
      2774.672  
  21651529.534   115780455.89305      3269.566    21651535.414    90051492.25607
      2542.996  
  19624185.842   104976164.55806     -1342.652    19624189.301    81648138.18107
     -1044.289  
 20 09 30 05 48 15.0000000  0 15G15G18G20G29G 5G30G27G13R 4R 3R18R12
                                R 5R20R19
  20079867.261   105520414.72249       797.559    20079866.679    82223699.85148
       621.468  
  20527525.455   107872874.62949      1059.714    20527525.224    84056784.72948
       825.745  
  22267126.570   117014541.78148      2851.574    22267125.888    91180160.36146
      2222.003  
  23826122.083   125207114.78047     -3590.438    23826123.108    97563986.83645
     -2797.745  
  23103344.740   121408893.67548     -3095.285    23103345.013    94604335.76546
     -2411.913  
  24207795.538   127212821.48247     -1604.167    24207797.877    99126897.67945
     -1250.004  
  24644418.530   129507291.63647      2246.133    24644420.702   100914781.65645
      1750.233  
  20738924.477   108983783.11449     -1309.180    20738923.612    84922426.10048
     -1020.145  
  19547025.076   104673434.21809      1153.688    19547028.081    81412684.09608
       897.308  
  20259744.772   108451997.97509     -2394.448    20259747.925    84351567.00008
     -1862.351  
  22071083.672   117816938.07107     -4297.983    22071090.421    91635420.18607
     -3342.878  
  22631590.030   120893894.57207       -64.046    22631596.058    94028606.40806
       -49.813  
  22951557.970   122689232.55506      3566.328    22951563.683    95424984.22806
      2773.812  
  21648473.689   115764114.69405      3266.598    21648479.527    90038782.43407
      2540.688  
  19625442.811   104982888.46006     -1347.347    19625446.270    81653367.87807
     -1047.941  
 20 09 30 05 48 20.0000000  0 15G15G18G20G29G 5G30G27G13R 4R 3R18R12
                                R 5R20R19
  20079110.255   105516436.59849       793.734    20079109.666    82220600.01148
       618.495  
  20526518.948   107867585.36949      1056.163    20526518.712    84052663.22948
       822.980  
  22264414.126   117000287.79648      2850.133    22264413.444    91169053.35646
      2220.882  
  23829539.223   125225071.97347     -3592.121    23829540.246    97577979.44346
     -2799.059  
  23106290.740   121424375.07348     -3096.972    23106291.022    94616399.18246
     -2413.229  
  24209323.483   127220851.01247     -1607.835    24209325.859    99133154.44845
     -1252.862  
  24642283.138   129496069.88747      2242.395    24642285.262   100906037.41945
      1747.316  
  20740171.851   108990338.20349     -1312.710    20740170.981    84927533.96348
     -1022.894  
  19545949.525   104667674.68609      1150.320    19545952.529    81408204.46008
       894.691  
  20261982.582   108463977.14709     -2397.023    20261985.719    84360884.13208
     -1864.355  
  22075110.783   117838435.15707     -4300.679    22075117.547    91652140.13207
     -3344.976  
  22631652.256   120894227.10007       -68.812    22631658.317    94028865.04506
       -53.519  
  22948222.947   122671405.32007      3564.655    22948228.717    95411118.60706
      2772.511  
  21645420.953   115747790.31105      3263.547    21645426.756    90026085.69307
      2538.313  
  19626704.493   104989637.29506     -1352.156    19626707.901    81658616.97207
     -1051.680  
 20 09 30 05 48 25.0000000  0 15G15G18G20G29G 5G30G27G13R 4R 3R18R12
                                R 5R20R19
  20078356.441   105512475.34449       791.011    20078355.860    82217513.33148
       616.370  
  20525515.326   107862311.30049      1053.797    20525515.097    84048553.56548
       821.141  
  22261702.791   116986039.59948      2849.413    22261702.112    91157950.87446
      2220.323  
  23832957.345   125243034.38947     -3592.437    23832958.354    97591976.11845
     -2799.304  
  23109237.646   121439861.23248     -3097.402    23109237.941    94628466.32146
     -2413.558  
  24210854.207   127228895.17547     -1609.875    24210856.581    99139422.62145
     -1254.452  
  24640150.274   129484862.01647      2240.890    24640152.315   100897304.01445
      1746.147  
  20741422.249   108996909.14949     -1315.304    20741421.389    84932654.17648
     -1024.918  
  19544876.723   104661929.88409      1148.112    19544879.721    81403736.28308
       892.902  
  20264222.271   108475966.41109     -2398.320    20264225.421    84370209.11208
     -1865.362  
  22079139.683   117859941.41907     -4301.801    22079146.401    91668867.21907
     -3345.847  
  22631718.718   120894582.40607       -73.007    22631724.845    94029141.39306
       -56.784  
  22944889.141   122653584.18507      3564.206    22944894.872    95397257.74506
      2772.159  
  21642370.979   115731481.10705      3260.538    21642376.816    90013400.76107
      2535.977  
  19627970.507   104996409.49306     -1355.769    19627973.907    81663884.23707
     -1054.491  
 20 09 30 05 48 30.0000000  0 15G15G18G20G29G 5G30G27G13R 4R 3R18R12
                                R 5R20R19
  20077605.336   105508528.26049       787.749    20077604.747    82214437.68148
       613.832  
  20524514.088   107857049.75649      1050.680    20524513.859    84044453.66248
       818.706  
  22258992.042   116971794.45848      2848.198    22258991.344    91146850.76346
      2219.374  
  23836376.011   125260999.37947     -3593.777    23836377.003    97605974.81946
     -2800.347  
  23112184.948   121455349.47348     -3098.112    23112185.223    94640535.07246
     -2414.116  
  24212387.221   127236951.31147     -1612.789    24212389.604    99145700.12745
     -1256.723  
  24638019.622   129473665.48847      2237.719    24638021.668   100888579.46545
      1743.675  
  20742675.151   109003493.28649     -1318.483    20742674.295    84937784.67947
     -1027.395  
  19543806.156   104656197.01309      1145.078    19543809.147    81399277.38208
       890.612  
  20266463.390   108487963.20109     -2400.405    20266466.508    84379539.95008
     -1866.988  
  22083169.711   117881454.07407     -4303.343    22083176.459    91685599.27207
     -3347.051  
  22631789.022   120894957.71107       -77.331    22631795.118    94029433.29706
       -60.152  
  22941555.952   122635766.47107      3562.929    22941561.712    95383399.54006
      2771.167  
  21639323.494   115715184.36505      3257.690    21639329.229    90000725.52207
      2533.762  
  19629240.349   105003202.16906     -1360.964    19629243.726    81669167.42907
     -1058.530  
 20 09 30 05 48 35.0000000  0 15G15G18G20G29G 5G30G27G13R 4R 3R18R12
                                R 5R20R19
  20076857.587   105504598.84349       784.625    20076856.989    82211375.80048
       611.395  
  20523515.912   107851804.27449      1048.054    20523515.661    84040366.27248
       816.660  
  22256282.538   116957555.95148      2847.422    22256281.849    91135755.83746
      2218.770  
  23839795.795   125278970.43747     -3594.344    23839796.797    97619978.21246
     -2800.797  
  23115133.324   121470843.38248     -3098.824    23115133.599    94652608.24146
     -2414.672  
  24213923.227   127245022.95247     -1615.105    24213925.591    99151989.70545
     -1258.527  
  24635891.880   129462483.78746      2235.621    24635893.918   100879866.43445
      1742.039  
  20743931.251   109010094.13549     -1321.401    20743930.387    84942928.19747
     -1029.667  
  19542738.524   104650479.67509      1142.452    19542741.483    81394830.56608
       888.570  
  20268706.529   108499971.02609     -2402.160    20268709.670    84388879.36808
     -1868.351  
  22087201.610   117902976.66007     -4304.917    22087208.378    91702339.05407
     -3348.272  
  22631863.748   120895356.69307       -81.766    22631869.802    94029743.62106
       -63.594  
  22938224.137   122617955.88606      3562.160    22938229.867    95369546.86506
      2770.569  
  21636279.052   115698903.80305      3255.383    21636284.676    89988062.86807
      2531.965  
  19630514.736   105010019.09006     -1365.515    19630518.084    81674469.47507
     -1062.069  
 20 09 30 05 48 40.0000000  0 15G15G18G20G29G 5G30G27G13R 4R 3R18R12
                                R 5R20R19
  20076112.814   105500685.06649       780.671    20076112.214    82208326.10348
       608.316  
  20522520.377   107846572.73749      1044.542    20522520.148    84036289.75048
       813.930  
  22253573.899   116943321.95548      2845.940    22253573.195    91124664.41146
      2217.616  
  23843216.295   125296945.44147     -3596.180    23843217.333    97633984.70146
     -2802.223  
  23118082.369   121486340.78548     -3100.172    23118082.633    94664684.13746
     -2415.723  
  24215461.751   127253107.98347     -1618.801    24215464.120    99158289.72345
     -1261.405  
  24633766.525   129451314.84747      2231.913    24633768.676   100871163.39145
      1739.151  
  20745190.115   109016709.57349     -1325.059    20745189.263    84948083.08248
     -1032.516  
  19541673.341   104644775.66709      1138.969    19541676.300    81390394.11708
       885.859  
  20270951.344   108511987.72409     -2404.503    20270954.467    84398225.68608
     -1870.171  
  22091235.012   117924507.04307     -4307.319    22091241.764    91719084.89707
     -3350.141  
  22631942.403   120895777.10507       -86.499    22631948.482    94030070.61006
       -67.276  
  22934893.219   122600150.18907      3560.344    22934898.940    95355698.00806
      2769.156  
  21633237.092   115682637.17005      3251.543    21633242.718    89975411.04307
      2528.977  
  19631793.266   105016858.04906     -1370.515    19631796.562    81679788.66107
     -1065.960  
 20 09 30 05 48 45.0000000  0 15G15G18G20G29G 5G30G27G13R 4R 3R18R12
                                R 5R20R19
  20075371.502   105496789.41549       777.608    20075370.891    82205290.53848
       605.929  
  20521527.976   107841357.69449      1041.711    20521527.759    84032226.08348
       811.722  
  22250866.601   116929095.03748      2844.859    22250865.896    91113578.50546
      2216.772  
  23846638.024   125314926.90347     -3596.804    23846639.118    97647996.21646
     -2802.707  
  23121032.573   121501844.18048     -3100.695    23121032.775    94676764.69546
     -2416.128  
  24217003.296   127261208.88947     -1621.332    24217005.648    99164602.11845
     -1263.378  
  24631644.086   129440161.13247      2229.323    24631646.191   100862472.17245
      1737.133  
  20746452.244   109023342.10749     -1327.917    20746451.393    84953251.29447
     -1034.742  
  19540611.122   104639087.66009      1136.284    19540614.113    81385970.11508
       883.761  
  20273198.324   108524015.83109     -2406.438    20273201.410    84407580.87808
     -1871.676  
  22095270.408   117946047.85607     -4309.203    22095277.076    91735838.86007
     -3351.605  
  22632025.633   120896221.61207       -91.241    22632031.688    94030416.34006
       -70.964  
  22931563.668   122582351.83007      3559.227    22931569.393    95341854.86006
      2768.288  
  21630198.224   115666387.07105      3248.359    21630203.854    89962772.08207
      2526.496  
  19633076.300   105023721.60406     -1374.902    19633079.638    81685126.98207
     -1069.370  
 20 09 30 05 48 50.0000000  0 15G15G18G20G29G 5G30G27G13R 4R 3R18R12
                                R 5R20R19
  20074632.798   105492907.49549       775.359    20074632.163    82202265.66548
       604.171  
  20520537.886   107836154.74049      1039.727    20520537.669    84028171.83048
       810.172  
  22248159.821   116914870.74948      2844.987    22248159.112    91102494.64846
      2216.875  
  23850060.115   125332910.36147     -3596.604    23850061.307    97662009.28645
     -2802.554  
  23123983.090   121517349.19048     -3100.879    23123983.257    94688846.52046
     -2416.273  
  24218547.030   127269321.29947     -1623.073    24218549.379    99170923.46945
     -1264.737  
  24629523.626   129429018.29047      2227.632    24629525.723   100853789.45745
      1735.815  
  20747716.780   109029987.29049     -1329.882    20747715.921    84958429.35448
     -1036.276  
  19539551.071   104633411.10209      1134.480    19539554.077    81381555.00908
       882.371  
  20275446.558   108536050.83309     -2407.335    20275449.635    84416941.43508
     -1872.375  
  22099306.887   117967594.47907     -4309.382    22099313.475    91752597.33507
     -3351.745  
  22632112.503   120896685.68607       -94.348    22632118.571    94030777.28606
       -73.387  
  22928234.630   122564556.49907      3559.180    22928240.392    95328014.04206
      2768.245  
  21627161.589   115650149.10305      3246.539    21627167.266    89950142.55807
      2525.086  
  19634363.228   105030605.14706     -1378.375    19634366.451    81690480.84607
     -1072.073  
 20 09 30 05 48 55.0000000  0 15G15G18G20G29G 5G30G27G13R 4R 3R18R12
                                R 5R20R19
  20073897.208   105489041.91449       771.461    20073896.575    82199253.52448
       601.136  
  20519550.594   107830966.48349      1036.141    20519550.370    84024129.03648
       807.382  
  22245454.039   116900651.74148      2843.203    22245453.311    91091414.90746
      2215.483  
  23853483.120   125350898.50147     -3598.043    23853484.272    97676026.01045
     -2803.671  
  23126934.419   121532858.49548     -3102.539    23126934.526    94700931.69246
     -2417.566  
  24220093.429   127277447.80247     -1626.753    24220095.834    99177255.81845
     -1267.602  
  24627405.767   129417888.96147      2224.395    24627407.803   100845117.24145
      1733.289  
  20748984.213   109036647.75949     -1333.722    20748983.358    84963619.33148
     -1039.269  
  19538493.665   104627748.71209      1130.926    19538496.667    81377150.93308
       879.604  
  20277696.594   108548095.48209     -2409.996    20277699.669    84426309.49308
     -1874.445  
  22103344.952   117989149.63407     -4311.941    22103351.487    91769362.44807
     -3353.734  
  22632203.537   120897172.03607       -99.425    22632209.588    94031155.56306
       -77.335  
  22924906.708   122546766.81607      3557.191    22924912.438    95314177.63906
      2766.703  
  21624127.708   115633925.89005      3243.332    21624133.392    89937524.51007
      2522.590  
  19635654.257   105037511.40706     -1383.273    19635657.503    81695852.38007
     -1075.882  
 20 09 30 05 49  0.0000000  0 15G15G18G20G29G 5G30G27G13R 4R 3R18R12
                                R 5R20R19
  20073164.461   105485191.27149       768.512    20073163.815    82196253.02548
       598.840  
  20518565.826   107825791.52549      1033.624    20518565.616    84020096.60248
       805.418  
  22242749.011   116886436.59648      2842.581    22242748.253    91080338.17746
      2214.999  
  23856906.742   125368889.88047     -3598.910    23856907.992    97690045.25745
     -2804.348  
  23129886.280   121548370.56448     -3102.770    23129886.333    94713019.00546
     -2417.746  
  24221642.251   127285586.95147     -1628.992    24221644.590    99183597.99946
     -1269.348  
  24625290.184   129406771.71747      2221.800    24625292.280   100836454.46745
      1731.272  
  20750254.304   109043322.10049     -1336.397    20750253.444    84968820.11848
     -1041.351  
  19537438.625   104622098.95609      1128.590    19537441.630    81372756.67908
       877.788  
  20279948.205   108560148.31609     -2411.332    20279951.239    84435683.92108
     -1875.483  
  22107384.240   118010711.75207     -4312.979    22107390.826    91786132.97407
     -3354.543  
  22632298.396   120897679.13307      -103.465    22632304.489    94031549.97706
       -80.473  
  22921579.454   122528981.17007      3556.352    22921585.263    95300344.37806
      2766.050  
  21621096.313   115617716.06305      3240.473    21621102.058    89924916.86507
      2520.366  
  19636949.263   105044439.00306     -1387.855    19636952.544    81701240.51207
     -1079.445  
 20 09 30 05 49  5.0000000  0 15G15G18G20G29G 5G30G27G13R 4R 3R18R12
                                R 5R20R19
  20072435.177   105481358.82549       764.312    20072434.525    82193266.70449
       595.566  
  20517584.226   107820633.17949      1029.679    20517584.000    84016077.10948
       802.343  
  22240045.334   116872228.64548      2840.503    22240044.571    91069267.05246
      2213.378  
  23860331.626   125386887.73547     -3600.445    23860332.830    97704069.55346
     -2805.543  
  23132839.284   121563888.70848     -3104.414    23132839.345    94725111.06246
     -2419.026  
  24223194.087   127293742.06047     -1632.765    24223196.394    99189952.62345
     -1272.289  
  24623177.562   129395669.87547      2218.464    24623179.684   100827803.67745
      1728.672  
  20751527.641   109050013.59149     -1340.352    20751526.784    84974034.26448
     -1044.434  
  19536386.585   104616465.30009      1124.758    19536389.599    81368374.94608
       874.784  
  20282201.925   108572212.56009     -2414.257    20282204.926    84445067.21908
     -1877.762  
  22111425.522   118032284.39007     -4315.926    22111432.105    91802911.67907
     -3356.836  
  22632397.865   120898210.35407      -109.191    22632403.921    94031963.15506
       -84.926  
  22918253.710   122511203.28707      3554.805    22918259.543    95286517.13906
      2764.848  
  21618068.203   115601522.95805      3236.887    21618073.875    89912322.23407
      2517.577  
  19638248.879   105051391.19506     -1393.234    19638252.174    81706647.76407
     -1083.629  
 20 09 30 05 49 10.0000000  0 16G15G18G20G29G 5G30G27G24G13R 4R 3R18
                                R12R 5R20R19
  20071709.138   105477543.46749       761.914    20071708.493    82190293.69549
       593.695  
  20516605.583   107815490.31349      1027.511    20516605.353    84012069.68448
       800.660  
  22237342.795   116858026.70848      2840.417    22237342.002    91058200.61146
      2213.312  
  23863757.478   125404890.92947     -3600.675    23863758.735    97718097.99846
     -2805.726  
  23135793.256   121579411.81048     -3104.358    23135793.307    94737206.98146
     -2418.983  
  24224748.780   127301911.99347     -1634.832    24224751.074    99196318.81145
     -1273.894  
  24621067.678   129384582.29846      2216.953    24621069.840   100819164.00045
      1727.492  
  24535747.225   128936222.88556      3849.644    24535752.821   100469790.72354
      2999.723  
  20752804.047   109056721.18649     -1342.538    20752803.197    84979260.96348
     -1046.136  
  19535337.319   104610846.55909      1122.839    19535340.348    81364004.81808
       873.320  
  20284457.553   108584287.17709     -2415.417    20284460.558    84454458.58508
     -1878.663  
  22115468.551   118053866.13607     -4316.633    22115475.113    91819697.47007
     -3357.387  
  22632501.628   120898764.60307      -112.668    22632507.706    94032394.23406
       -87.629  
  22914929.180   122493431.74306      3554.371    22914935.004    95272694.84206
      2764.382  
  21615042.960   115585345.59405      3234.664    21615048.612    89899739.84307
      2515.852  
  19639552.859   105058366.79806     -1396.690    19639556.182    81712073.23207
     -1086.320  
 20 09 30 05 49 15.0000000  0 16G15G18G20G29G 5G30G27G24G13R 4R 3R18
                                R12R 5R20R19
  20070985.553   105473741.00049       758.777    20070984.916    82187330.73849
       591.254  
  20515629.083   107810358.71049      1024.922    20515628.834    84008071.03048
       798.637  
  22234640.600   116843826.60848      2839.406    22234639.798    91047135.59846
      2212.522  
  23867183.579   125422895.21347     -3601.145    23867184.892    97732127.28945
     -2806.090  
  23138747.336   121594935.60648     -3105.214    23138747.362    94749303.43746
     -2419.651  
  24226305.496   127310092.53047     -1637.574    24226307.762    99202693.24945
     -1276.035  
  24618959.665   129373504.80047      2214.159    24618961.961   100810532.21246
      1725.320  
  24532084.515   128916975.68446      3849.531    24532089.390   100454792.93145
      2999.637  
  20754082.702   109063440.56049     -1345.456    20754081.842    84984496.83448
     -1048.410  
  19534290.024   104605238.40309      1120.296    19534293.071    81359642.91808
       871.339  
  20286714.340   108596367.84309     -2417.046    20286717.336    84463854.66108
     -1879.929  
  22119512.496   118075452.76907     -4318.241    22119519.052    91836487.06407
     -3358.637  
  22632608.902   120899337.51907      -116.972    22632614.981    94032839.84006
       -90.979  
  22911605.072   122475662.38406      3553.128    22911610.865    95258874.24006
      2763.543  
  21612019.877   115569179.46905      3231.788    21612025.472    89887166.19107
      2513.612  
  19640860.385   105065361.67906     -1401.390    19640863.808    81717513.69607
     -1089.972  
 20 09 30 05 49 20.0000000  0 16G15G18G20G29G 5G30G27G24G13R 4R 3R18
                                R12R 5R20R19
  20070264.825   105469953.58049       755.895    20070264.202    82184379.50149
       589.004  
  20514655.138   107805240.56249      1022.147    20514654.890    84004082.86348
       796.480  
  22231939.189   116829630.50448      2838.761    22231938.339    91036073.70246
      2212.023  
  23870610.286   125440902.77147     -3601.894    23870611.607    97746159.14546
     -2806.675  
  23141701.986   121610462.27148     -3105.723    23141701.968    94761402.14746
     -2420.047  
  24227864.647   127318285.80047     -1640.112    24227866.804    99209077.60945
     -1278.015  
  24616854.016   129362439.60147      2211.785    24616856.371   100801909.95445
      1723.465  
  24528422.017   128897727.78446      3849.590    24528424.601   100439794.63844
      2999.687  
  20755364.004   109070173.88049     -1348.015    20755363.152    84989743.58148
     -1050.402  
  19533245.117   104599643.00709      1117.722    19533248.171    81355290.94408
       869.339  
  20288972.681   108608456.72709     -2418.652    20288975.656    84473257.12708
     -1881.179  
  22123557.760   118097046.53607     -4319.234    22123564.321    91853282.21007
     -3359.410  
  22632720.118   120899931.36407      -120.976    22632726.127    94033301.71506
       -94.097  
  22908281.799   122457897.36806      3552.757    22908287.526    95245057.02306
      2763.258  
  21608999.199   115553026.82805      3229.093    21609004.849    89874603.03407
      2511.515  
  19642172.038   105072377.95306     -1405.273    19642175.418    81722970.79307
     -1092.995  
 20 09 30 05 49 25.0000000  0 16G15G18G20G29G 5G30G27G24G13R 4R 3R18
                                R12R 5R20R19
  20069547.370   105466183.35949       752.362    20069546.768    82181441.66749
       586.253  
  20513684.171   107800138.03649      1018.979    20513683.905    84000106.87348
       794.012  
  22229238.932   116815440.55948      2837.378    22229238.100    91025016.61046
      2210.944  
  23874038.024   125458915.72147     -3603.238    23874039.410    97760195.20746
     -2807.723  
  23144657.571   121625994.00648     -3106.625    23144657.541    94773504.78646
     -2420.750  
  24229426.589   127326493.98447     -1643.270    24229428.792    99215473.59845
     -1280.472  
  24614751.119   129351388.77247      2208.843    24614753.462   100793298.95845
      1721.175  
  24524759.317   128878481.75746      3848.941    24524762.225   100424797.72944
      2999.179  
  20756648.357   109076923.32449     -1351.512    20756647.528    84995002.88748
     -1053.124  
  19532203.009   104594062.65609      1114.671    19532206.080    81350950.67408
       866.969  
  20291232.938   108620555.97009     -2421.039    20291235.918    84482667.64708
     -1883.034  
  22127604.633   118118649.58107     -4321.488    22127611.327    91870084.56907
     -3361.159  
  22632835.579   120900548.32107      -125.554    22632841.623    94033781.57406
       -97.651  
  22904959.619   122440138.87806      3550.813    22904965.405    95231244.87106
      2761.741  
  21605981.498   115536890.07505      3225.979    21605987.195    89862052.22807
      2509.097  
  19643488.003   105079417.66606     -1410.245    19643491.427    81728446.13007
     -1096.859  
 20 09 30 05 49 30.0000000  0 16G15G18G20G29G 5G30G27G24G13R 4R 3R18
                                R12R 5R20R19
  20068833.256   105462430.69649       748.937    20068832.660    82178517.51549
       583.582  
  20512716.235   107795051.46549      1015.832    20512715.948    83996143.31148
       791.555  
  22226539.898   116801257.13248      2836.078    22226539.098    91013964.58846
      2209.926  
  23877466.838   125476934.41247     -3603.987    23877468.244    97774235.74145
     -2808.305  
  23147614.213   121641531.17048     -3107.874    23147614.140    94785611.65946
     -2421.726  
  24230991.408   127334717.41347     -1645.777    24230993.675    99221881.46745
     -1282.426  
  24612651.053   129340352.75847      2205.960    24612653.267   100784699.44845
      1718.926  
  24521097.604   128859237.73046      3848.812    24521101.253   100409802.38045
      2999.078  
  20757935.848   109083689.19849     -1354.765    20757935.039    85000275.00048
     -1055.664  
  19531163.789   104588497.71009      1111.468    19531166.859    81346622.38508
       864.473  
  20293495.191   108632666.01709     -2422.964    20293498.198    84492086.56808
     -1884.531  
  22131653.444   118140262.15907     -4323.305    22131660.111    91886894.34007
     -3362.574  
  22632955.440   120901188.72107      -130.304    22632961.507    94034279.66206
      -101.352  
  22901638.814   122422387.30306      3549.672    22901644.588    95217438.11306
      2760.854  
  21602966.862   115520769.45705      3222.550    21602972.544    89849513.97407
      2506.429  
  19644808.527   105086481.32606     -1414.597    19644811.902    81733940.08207
     -1100.246  
 20 09 30 05 49 35.0000000  0 16G15G18G20G29G 5G30G27G24G13R 4R 3R18
                                R12R 5R20R19
  20068122.191   105458694.02649       746.059    20068121.603    82175605.82349
       581.340  
  20511751.029   107789979.33749      1013.117    20511750.769    83992191.00448
       789.441  
  22223841.833   116787078.70548      2835.495    22223841.013    91002916.47146
      2209.476  
  23880896.486   125494957.30747     -3604.581    23880897.883    97788279.53745
     -2808.770  
  23150571.596   121657072.16748     -3108.363    23150571.470    94797721.52646
     -2422.102  
  24232558.891   127342954.59447     -1648.460    24232561.150    99228300.04645
     -1284.519  
  24610553.486   129329329.96847      2203.511    24610555.702   100776110.26945
      1717.020  
  24517435.625   128839994.18146      3849.242    24517439.285   100394807.45245
      2999.414  
  20759226.177   109090469.95349     -1357.434    20759225.380    85005558.69948
     -1057.746  
  19530127.128   104582946.47309      1109.105    19530130.212    81342304.75808
       862.632  
  20295759.163   108644785.20309     -2424.503    20295762.179    84501512.60308
     -1885.729  
  22135703.739   118161882.78707     -4324.507    22135710.411    91903710.37207
     -3363.511  
  22633079.448   120901850.99407      -134.460    22633085.463    94034794.75906
      -104.585  
  22898319.035   122404641.12007      3548.866    22898324.759    95203635.52306
      2760.229  
  21599954.871   115504663.30305      3220.421    21599960.614    89836986.97007
      2504.773  
  19646133.229   105093567.30706     -1419.371    19646136.544    81739451.39907
     -1103.960  
 20 09 30 05 49 40.0000000  0 16G15G18G20G29G 5G30G27G24G13R 4R 3R18
                                R12R 5R20R19
  20067413.959   105454972.21349       743.054    20067413.382    82172705.71449
       579.000  
  20510788.376   107784920.49849      1010.563    20510788.112    83988249.05148
       787.452  
  22221144.491   116772904.13948      2834.581    22221143.661    90991871.36046
      2208.766  
  23884326.723   125512983.22747     -3605.214    23884328.083    97802325.69646
     -2809.262  
  23153529.487   121672615.86448     -3108.672    23153529.299    94809833.49646
     -2422.344  
  24234128.772   127351204.27847     -1650.940    24234131.043    99234728.37245
     -1286.448  
  24608458.236   129318319.29447      2201.042    24608460.396   100767530.52845
      1715.094  
  24513773.490   128820750.00146      3849.147    24513777.541   100379812.00446
      2999.335  
  20760519.129   109097264.43049     -1360.164    20760518.311    85010853.09848
     -1059.866  
  19529092.812   104577407.88309      1106.785    19529095.904    81337996.96408
       860.828  
  20298024.606   108656912.36009     -2426.132    20298027.640    84510944.83008
     -1886.991  
  22139755.288   118183510.32207     -4326.313    22139761.990    91920531.78207
     -3364.913  
  22633207.299   120902534.01507      -138.456    22633213.276    94035326.01106
      -107.687  
  22895000.069   122386899.06707      3548.258    22895005.746    95189836.16606
      2759.835  
  21596945.515   115488570.67405      3217.370    21596951.211    89824470.48007
      2502.398  
  19647461.874   105100674.47706     -1422.999    19647465.161    81744979.19707
     -1106.781  
 20 09 30 05 49 45.0000000  0 16G15G18G20G29G 5G30G27G24G13R 4R 3R18
                                R12R 5R20R19
  20066708.690   105451266.09349       739.487    20066708.130    82169817.82649
       576.222  
  20509828.390   107779875.77049      1007.387    20509828.108    83984318.09148
       784.972  
  22218448.019   116758734.20848      2833.586    22218447.183    90980829.85846
      2207.988  
  23887757.652   125531012.97747     -3606.433    23887758.986    97816374.85645
     -2810.211  
  23156488.055   121688163.08748     -3109.785    23156487.859    94821948.21046
     -2423.214  
  24235701.158   127359467.31847     -1654.266    24235703.518    99241167.08345
     -1289.042  
  24606365.463   129307321.54447      2198.266    24606367.598   100758960.87045
      1712.934  
  24510111.334   128801506.08546      3848.269    24510115.743   100364816.76945
      2998.656  
  20761814.844   109104073.49249     -1363.405    20761814.048    85016158.86048
     -1062.397  
  19528061.041   104571882.82409      1103.539    19528064.146    81333699.69708
       858.304  
  20300291.690   108669048.33609     -2428.210    20300294.758    84520383.92408
     -1888.613  
  22143808.306   118205145.54707     -4328.078    22143815.002    91937359.16807
     -3366.284  
  22633339.216   120903238.63007      -143.293    22633345.165    94035874.03806
      -111.452  
  22891681.934   122369161.95207      3546.624    22891687.626    95176040.64906
      2758.483  
  21593938.784   115472492.23605      3214.207    21593944.464    89811965.03607
      2499.938  
  19648794.613   105107803.72906     -1428.272    19648797.899    81750524.16707
     -1110.883  
 20 09 30 05 49 50.0000000  0 16G15G18G20G29G 5G30G27G24G13R 4R 3R18
                                R12R 5R20R19
  20066006.696   105447577.11849       736.176    20066006.166    82166943.30449
       573.645  
  20508871.372   107774846.63749      1004.422    20508871.090    83980399.29348
       782.668  
  22215752.752   116744570.45548      2832.145    22215751.911    90969793.17246
      2206.867  
  23891189.606   125549047.98447     -3607.367    23891190.879    97830428.10446
     -2810.938  
  23159447.582   121703715.28748     -3110.909    23159447.336    94834066.80646
     -2424.089  
  24237276.414   127367745.18647     -1657.058    24237278.771    99247617.38545
     -1291.214  
  24604275.410   129296338.23747      2195.569    24604277.560   100750402.45245
      1710.836  
  24506449.479   128782263.75246      3848.440    24506454.073   100349822.78044
      2998.788  
  20763113.629   109110898.58849     -1366.434    20763112.828    85021477.11647
     -1064.753  
  19527032.075   104566372.66809      1100.565    19527035.158    81329414.02808
       855.995  
  20302560.728   108681194.70409     -2430.147    20302563.802    84529831.10008
     -1890.121  
  22147863.022   118226789.83007     -4329.664    22147869.727    91954193.60507
     -3367.520  
  22633475.510   120903966.31107      -147.726    22633481.382    94036440.01706
      -114.897  
  22888365.072   122351431.48607      3545.335    22888370.755    95162250.29706
      2757.647  
  21590934.977   115456429.65805      3210.800    21590940.667    89799471.92507
      2497.289  
  19650131.691   105114956.38306     -1432.784    19650135.004    81756087.34107
     -1114.391  
 20 09 30 05 49 55.0000000  0 16G15G18G20G29G 5G30G27G24G13R 4R 3R18
                                R12R 5R20R19
  20065307.875   105443904.78949       733.296    20065307.337    82164081.75049
       571.398  
  20507917.242   107769832.61949      1001.746    20507916.954    83976492.26648
       780.581  
  22213058.538   116730412.32848      2831.531    22213057.719    90958760.87346
      2206.386  
  23894622.493   125567087.77047     -3607.957    23894623.709    97844485.09446
     -2811.394  
  23162407.956   121719271.97048     -3111.355    23162407.689    94846188.89646
     -2424.434  
  24238854.366   127376037.38147     -1659.558    24238856.709    99254078.84045
     -1293.163  
  24602188.036   129285368.88747      2192.965    24602190.093   100741854.90246
      1708.801  
  24502787.982   128763022.64546      3849.038    24502792.369   100334829.71544
      2999.250  
  20764415.347   109117739.19549     -1369.176    20764414.560    85026807.46148
     -1066.894  
  19526005.811   104560876.97509      1098.206    19526008.861    81325139.60008
       854.160  
  20304831.563   108693350.88109     -2431.644    20304834.683    84539285.89708
     -1891.280  
  22151919.411   118248442.83107     -4330.788    22151926.083    91971034.81707
     -3368.395  
  22633615.980   120904716.55207      -151.640    22633621.822    94037023.54206
      -117.940  
  22885049.365   122333706.97607      3544.832    22885055.008    95148464.58306
      2757.090  
  21587934.070   115440382.52105      3208.043    21587939.787    89786990.82307
      2495.145  
  19651473.140   105122132.04506     -1436.718    19651476.418    81761668.41107
     -1117.452  
 20 09 30 05 50  0.0000000  0 16G15G18G20G29G 5G30G27G24G13R 4R 3R18
                                R12R 5R20R19
  20064611.825   105440247.05249       730.086    20064611.293    82161231.56649
       568.897  
  20506965.580   107764831.63449       998.977    20506965.298    83972595.39348
       778.418  
  22210365.015   116716257.80048      2830.551    22210364.187    90947731.37247
      2205.620  
  23898055.896   125585130.23847     -3608.901    23898057.131    97858544.13246
     -2812.136  
  23165368.784   121734831.04048     -3111.945    23165368.471    94858312.83446
     -2424.895  
  24240434.633   127384341.80247     -1662.085    24240437.001    99260549.81045
     -1295.133  
  24600102.911   129274411.39147      2189.973    24600104.944   100733316.59845
      1706.472  
  24499126.459   128743780.77446      3848.500    24499130.528   100319836.08845
      2998.839  
  20765719.628   109124593.23849     -1372.180    20765718.842    85032148.27547
     -1069.233  
  19524981.837   104555393.63809      1095.398    19524984.886    81320874.78108
       851.977  
  20307103.869   108705514.67909     -2433.605    20307106.998    84548746.62808
     -1892.808  
  22155977.027   118270102.25207     -4332.718    22155983.629    91987881.02607
     -3369.894  
  22633760.264   120905487.16907      -156.073    22633766.089    94037622.90606
      -121.395  
  22881734.382   122315986.49106      3543.792    22881740.005    95134681.99706
      2756.229  
  21584935.731   115424348.45905      3205.563    21584941.353    89774519.89007
      2493.214  
  19652818.423   105129328.58906     -1441.855    19652821.720    81767265.71707
     -1121.445  
 20 09 30 05 50  5.0000000  0 16G15G18G20G29G 5G30G27G24G13R 4R 3R18
                                R12R 5R20R19
  20063918.960   105436606.02449       726.308    20063918.421    82158394.40249
       565.952  
  20506016.814   107759845.80349       995.520    20506016.534    83968710.33348
       775.727  
  22207672.610   116702109.02148      2828.905    22207671.795    90936706.35146
      2204.340  
  23901490.185   125603177.51747     -3610.234    23901491.435    97872606.93946
     -2813.172  
  23168330.472   121750394.69148     -3113.429    23168330.138    94870440.36446
     -2426.050  
  24242017.649   127392660.57347     -1665.292    24242019.995    99267031.96745
     -1297.637  
  24598020.392   129263467.86547      2186.905    24598022.445   100724789.17446
      1704.081  
  24495465.158   128724540.28445      3847.444    24495469.297   100304843.49245
      2998.004  
  20767026.860   109131462.79149     -1375.613    20767026.073    85037501.16948
     -1071.905  
  19523960.576   104549924.77109      1092.172    19523963.600    81316621.22308
       849.468  
  20309378.010   108717688.33609     -2435.933    20309381.160    84558215.02308
     -1894.616  
  22160036.219   118291770.24807     -4334.426    22160042.779    92004733.90007
     -3371.222  
  22633908.774   120906280.35607      -161.098    22633914.638    94038239.83807
      -125.297  
  22878420.519   122298272.05307      3542.214    22878426.157    95120904.11706
      2755.054  
  21581940.150   115408329.80805      3201.996    21581945.778    89762060.94307
      2490.441  
  19654168.045   105136548.06306     -1446.375    19654171.326    81772880.86807
     -1124.957  
 20 09 30 05 50 10.0000000  0 16G15G18G20G29G 5G30G27G24G13R 4R 3R18
                                R12R 5R20R19
  20063229.424   105432982.51749       723.445    20063228.891    82155570.89249
       563.722  
  20505071.076   107754875.94449       992.898    20505070.793    83964837.71448
       773.687  
  22204981.402   116687966.72348      2828.335    22204980.576    90925686.38546
      2203.897  
  23904925.520   125621230.32747     -3610.870    23904926.866    97886674.04946
     -2813.668  
  23171293.171   121765963.62048     -3113.925    23171292.796    94882571.98746
     -2426.440  
  24243603.546   127400994.45947     -1667.551    24243605.903    99273525.90145
     -1299.394  
  24595940.711   129252539.16247      2184.604    24595942.697   100716273.30145
      1702.285  
  24491804.206   128705301.82146      3847.820    24491808.434   100289852.52445
      2998.304  
  20768337.181   109138348.63649     -1378.272    20768336.429    85042866.76347
     -1073.980  
  19522942.145   104544471.24609      1089.672    19522945.170    81312379.59008
       847.522  
  20311654.098   108729872.44509     -2437.359    20311657.246    84567691.54908
     -1895.726  
  22164097.138   118313447.71007     -4335.866    22164103.719    92021594.14007
     -3372.344  
  22634061.706   120907096.98007      -165.233    22634067.564    94038874.98807
      -128.520  
  22875107.918   122280564.52607      3541.113    22875113.592    95107131.60306
      2754.199  
  21578947.489   115392327.42405      3199.418    21578953.267    89749614.64507
      2488.438  
  19655522.115   105143791.36006     -1451.047    19655525.375    81778514.54107
     -1128.594  
